~VERSION INFORMATION
VERS.                                                 2.0:   CWLS Log ASCII Standard-VERSION 2.0
WRAP.                                                  NO:   One line per depth step
~Well Information Block
STRT.M                                          1304.5928:   Top Depth
STOP.M                                          3664.0496:   Bottom Depth
STEP.M                                             .15240:   Depth Increment
NULL.                                            -999.250:   Null Value
FLD .                                             WILDCAT:   Field Name
WELL.                                              15/6-2:   NAME
WBN .                                              15/6-2:   WELLBORE
NATI.                                                 NOR:   COUNTRY
CTRY.                                                 NOR:   COUNTRY
COMP.                        ESSO EXPLORATION NORWAY INC.:   OPERATOR
PROV.                                           NORTH SEA:   PROVINCE
COUN.                                   GLOMAR GRAND ISLE:   RIG NAME
SPUD.                                          1971/09/09:   SPUD DATE
LATI.                                       58 32 47.60 N:   SURF. LATITUDE
LONG.                                        1 41 54.10 E:   SURF. LONGITUDE
PBWE.                                              15/6-2:   PB WELL ID
APIN.                                              15/6-2:   PB WELLBORE ID
PBWS.                                                 all:   PB WELL NAME SET
~PARAMETER INFORMATION (log)
LNAM.                              FDC/CNL/GR  COMPOSITED:   NAME
LTYP.                                         DEPTH MATCH:   LOG TYPE
LSRV.                                            DEN/NEUT:   LOG SERVICE
LSOU.                                             SPT/NPD:   LOG SOURCE
LVSN.                                                   1:   LOG VERSION
BHIS.                                                   R:   BRIEF HISTORY
FHIS.                                             RAW-LIS:   FULL HISTORY
LCNM.                                        SCHLUMBERGER:   LOGGING CONTRACTOR
TOOL.                             FDC/CNL/GR (COMPOSITED):   TOOL STRING
~Curve Information Block
#MNEM.UNIT                                        API CODE    No Description
#=========                                        ========    == ===========
DEPT.M                                       00 001 00 00:     1  DEPTH
CALI.IN                                                  :     2  Caliper
DRHO.G/CC                                                :     3  Bulk density correction
GR.GAPI                                                  :     4  Gamma Ray
NPHI.%                                                   :     5  Neutron porosity
RHOB.G/CC                                                :     6  Bulk density
~ASCII
# ...
 1936.7480    12.2166      .0169  -999.2500  -999.2500     2.2133
 1936.9004    12.0621      .0079  -999.2500  -999.2500     2.1759
 1937.0528    11.8961      .0062  -999.2500  -999.2500     2.2067
 1937.2052    11.8260      .0169  -999.2500  -999.2500     2.2159
 1937.3576    11.8074      .0299  -999.2500  -999.2500     2.2058
 1937.5100    11.8371      .0326  -999.2500  -999.2500     2.1885
 1937.6624    11.8721      .0273  -999.2500  -999.2500     2.1996
 1937.8148    11.8737      .0152  -999.2500  -999.2500     2.2244
 1937.9672    11.8729      .0003  -999.2500  -999.2500     2.2417
 1938.1196    11.9083      .0300  -999.2500  -999.2500     2.2609
 1938.2720    11.9168      .0456  -999.2500  -999.2500     2.1980
 1938.4244    11.8517      .0397  -999.2500  -999.2500     2.1411
 1938.5768    11.7804      .0555  -999.2500  -999.2500     2.1530
 1938.7292    11.7993      .0368  -999.2500  -999.2500     2.1279
 1938.8816    11.9390      .0248  -999.2500  -999.2500     2.1135
 1939.0340    12.0850      .0381  -999.2500  -999.2500     2.1206
 1939.1864    12.1245      .0333  -999.2500  -999.2500     2.1197
 1939.3388    12.1140      .0219  -999.2500  -999.2500     2.1122
 1939.4912    12.1035      .0310  -999.2500  -999.2500     2.1280
 1939.6436    12.1268      .0452  -999.2500  -999.2500     2.1416
 1939.7960    12.1744      .0387  -999.2500  -999.2500     2.1299
 1939.9484    12.2373      .0143  -999.2500  -999.2500     2.1145
 1940.1008    12.2879      .0256  -999.2500  -999.2500     2.1268
 1940.2532    12.2792      .0241  -999.2500  -999.2500     2.1448
 1940.4056    12.2481      .0279  -999.2500  -999.2500     2.1713
 1940.5580    12.2283      .0207  -999.2500  -999.2500     2.1967
 1940.7104    12.2328      .0015  -999.2500  -999.2500     2.2328
 1940.8628    12.2514     -.0070  -999.2500  -999.2500     2.2577
 1941.0152    12.2787      .0247  -999.2500  -999.2500     2.2469
 1941.1676    12.3133      .0203  -999.2500  -999.2500     2.1706
 1941.3200    12.3340      .0140  -999.2500  -999.2500     2.1052
 1941.4724    12.3279      .0029  -999.2500  -999.2500     2.0857
 1941.6248    12.3036      .0037  -999.2500  -999.2500     2.0837
 1941.7772    12.2741      .0257  -999.2500  -999.2500     2.1039
 1941.9296    12.2594      .0307  -999.2500  -999.2500     2.1232
 1942.0820    12.2596      .0348  -999.2500  -999.2500     2.1271
 1942.2344    12.2600      .0287  -999.2500  -999.2500     2.1280
 1942.3868    12.2604      .0191  -999.2500  -999.2500     2.1229
 1942.5392    12.2848      .0236  -999.2500  -999.2500     2.1239
 1942.6916    12.3454      .0411  -999.2500  -999.2500     2.1347
 1942.8440    12.5284      .0477  -999.2500  -999.2500     2.1459
 1942.9964    12.6219      .0341  -999.2500  -999.2500     2.1348
 1943.1488    12.4611      .0472  -999.2500  -999.2500     2.1409
 1943.3012    12.3296      .0259  -999.2500  -999.2500     2.1074
 1943.4536    12.2822      .0149  -999.2500  -999.2500     2.0936
 1943.6060    12.2485      .0068  -999.2500  -999.2500     2.0809
 1943.7584    12.2347      .0250  -999.2500  -999.2500     2.0921
 1943.9108    12.2318      .0372  -999.2500  -999.2500     2.1084
 1944.0632    12.2536      .0176  -999.2500  -999.2500     2.0959
 1944.2156    12.2953      .0186  -999.2500  -999.2500     2.0901
 1944.3680    12.3370      .0364  -999.2500  -999.2500     2.1089
 1944.5204    12.3787      .0279  -999.2500  -999.2500     2.1059
 1944.6728    12.4126      .0202  -999.2500  -999.2500     2.0878
 1944.8252    12.4258      .0179  -999.2500  -999.2500     2.0799
 1944.9776    12.4240      .0156  -999.2500  -999.2500     2.0879
 1945.1300    12.4183      .0133  -999.2500  -999.2500     2.0789
 1945.2824    12.4109      .0116  -999.2500  -999.2500     2.0814
 1945.4348    12.4076      .0103  -999.2500  -999.2500     2.0718
 1945.5872    12.4416      .0065  -999.2500  -999.2500     2.0763
 1945.7396    12.6142     -.0003  -999.2500  -999.2500     2.0736
 1945.8920    12.7806     -.0056  -999.2500  -999.2500     2.0632
 1946.0444    12.6572     -.0042  -999.2500  -999.2500     2.0482
 1946.1968    12.4131      .0017  -999.2500  -999.2500     2.0546
 1946.3492    12.3819      .0039  -999.2500  -999.2500     2.0662
 1946.5016    12.3299      .0069  -999.2500  -999.2500     2.0584
 1946.6540    12.0825      .0044  -999.2500  -999.2500     2.0493
 1946.8064    11.8724     -.0003  -999.2500  -999.2500     2.0483
 1946.9588    11.8090     -.0024  -999.2500  -999.2500     2.0475
 1947.1112    11.8776      .0034  -999.2500  -999.2500     2.0523
 1947.2636    11.9890      .0038  -999.2500  -999.2500     2.0395
 1947.4160    12.0390     -.0013  -999.2500  -999.2500     2.0381
 1947.5684    12.0152     -.0037  -999.2500  -999.2500     2.0305
 1947.7208    11.9594      .0005  -999.2500  -999.2500     2.0326
 1947.8732    11.8928      .0063  -999.2500  -999.2500     2.0405
 1948.0256    11.8479      .0095  -999.2500  -999.2500     2.0446
 1948.1780    11.8270      .0111  -999.2500  -999.2500     2.0479
 1948.3304    11.8255      .0166  -999.2500  -999.2500     2.0583
 1948.4828    11.8322      .0157  -999.2500  -999.2500     2.0662
 1948.6352    11.8375      .0170  -999.2500  -999.2500     2.0679
 1948.7876    11.8398      .0098  -999.2500  -999.2500     2.0514
 1948.9400    11.8402      .0037  -999.2500  -999.2500     2.0462
 1949.0924    11.8498      .0038  -999.2500  -999.2500     2.0492
 1949.2448    11.8808      .0072  -999.2500  -999.2500     2.0484
 1949.3972    11.9256      .0149  -999.2500  -999.2500     2.0513
 1949.5496    11.9849      .0168  -999.2500  -999.2500     2.0609
 1949.7020    12.0250      .0085  -999.2500  -999.2500     2.0575
 1949.8544    11.9958      .0080  -999.2500  -999.2500     2.0527
 1950.0068    11.9315      .0119  -999.2500  -999.2500     2.0478
 1950.1592    11.8688      .0197  -999.2500  -999.2500     2.0527
 1950.3116    11.8059      .0079  -999.2500  -999.2500     2.0383
 1950.4640    11.7427      .0044  -999.2500  -999.2500     2.0369
 1950.6164    11.6780      .0103  -999.2500  -999.2500     2.0438
 1950.7688    11.6078      .0103  -999.2500  -999.2500     2.0344
 1950.9212    11.5634      .0086  -999.2500  -999.2500     2.0361
 1951.0736    11.5562      .0081  -999.2500  -999.2500     2.0460
 1951.2260    11.5716      .0122  -999.2500  -999.2500     2.0595
 1951.3784    11.6021      .0140  -999.2500  -999.2500     2.0776
 1951.5308    11.6148      .0092  -999.2500  -999.2500     2.1204
 1951.6832    11.5962     -.0092  -999.2500  -999.2500     2.1853
 1951.8356    11.5438     -.0187  -999.2500  -999.2500     2.2481
 1951.9880    11.4709      .0150  -999.2500  -999.2500     2.2508
 1952.1404    11.4333      .0263  -999.2500  -999.2500     2.1549
 1952.2928    11.4323      .0097  -999.2500  -999.2500     2.0262
 1952.4452    11.4296      .0203  -999.2500  -999.2500     2.0296
 1952.5976    11.4031      .0152  -999.2500  -999.2500     2.0264
 1952.7500    11.3558      .0202  -999.2500  -999.2500     2.0421
 1952.9024    11.3275      .0220  -999.2500  -999.2500     2.0521
 1953.0548    11.3291      .0275  -999.2500  -999.2500     2.0672
 1953.2072    11.3228      .0383  -999.2500  -999.2500     2.0881
 1953.3596    11.2973      .0348  -999.2500  -999.2500     2.1128
 1953.5120    11.2712      .0123  -999.2500  -999.2500     2.1435
 1953.6644    11.3005     -.0210  -999.2500  -999.2500     2.1829
 1953.8168    11.4635     -.0158  -999.2500  -999.2500     2.2094
 1953.9692    11.6725      .0193  -999.2500  -999.2500     2.1691
 1954.1216    11.7447      .0091  -999.2500  -999.2500     2.0690
 1954.2740    11.7130      .0100  -999.2500  -999.2500     2.0291
 1954.4264    11.6898      .0147  -999.2500  -999.2500     2.0302
 1954.5788    11.6754      .0244  -999.2500  -999.2500     2.0361
 1954.7312    11.6756      .0267  -999.2500  -999.2500     2.0475
 1954.8836    11.7236      .0192  -999.2500  -999.2500     2.0430
 1955.0360    11.8302      .0192  -999.2500  -999.2500     2.0400
 1955.1884    11.9441      .0128  -999.2500  -999.2500     2.0318
