~VERSION INFORMATION
VERS.                                                 2.0:   CWLS Log ASCII Standard-VERSION 2.0
WRAP.                                                  NO:   One line per depth step
~Well Information Block
STRT.M                                          1304.5928:   Top Depth
STOP.M                                          3664.0496:   Bottom Depth
STEP.M                                             .15240:   Depth Increment
NULL.                                            -999.250:   Null Value
FLD .                                             WILDCAT:   Field Name
WELL.                                              15/6-2:   NAME
WBN .                                              15/6-2:   WELLBORE
NATI.                                                 NOR:   COUNTRY
CTRY.                                                 NOR:   COUNTRY
COMP.                        ESSO EXPLORATION NORWAY INC.:   OPERATOR
PROV.                                           NORTH SEA:   PROVINCE
COUN.                                   GLOMAR GRAND ISLE:   RIG NAME
SPUD.                                          1971/09/09:   SPUD DATE
LATI.                                       58 32 47.60 N:   SURF. LATITUDE
LONG.                                        1 41 54.10 E:   SURF. LONGITUDE
PBWE.                                              15/6-2:   PB WELL ID
APIN.                                              15/6-2:   PB WELLBORE ID
PBWS.                                                 all:   PB WELL NAME SET
~PARAMETER INFORMATION (log)
LNAM.                              FDC/CNL/GR  COMPOSITED:   NAME
LTYP.                                         DEPTH MATCH:   LOG TYPE
LSRV.                                            DEN/NEUT:   LOG SERVICE
LSOU.                                             SPT/NPD:   LOG SOURCE
LVSN.                                                   1:   LOG VERSION
BHIS.                                                   R:   BRIEF HISTORY
FHIS.                                             RAW-LIS:   FULL HISTORY
LCNM.                                        SCHLUMBERGER:   LOGGING CONTRACTOR
TOOL.                             FDC/CNL/GR (COMPOSITED):   TOOL STRING
~Curve Information Block
#MNEM.UNIT                                        API CODE    No Description
#=========                                        ========    == ===========
DEPT.M                                       00 001 00 00:     1  DEPTH
CALI.IN                                                  :     2  Caliper
DRHO.G/CC                                                :     3  Bulk density correction
GR.GAPI                                                  :     4  Gamma Ray
NPHI.%                                                   :     5  Neutron porosity
RHOB.G/CC                                                :     6  Bulk density
~ASCII
# ...
 3015.1304    11.4359      .0035  -999.2500  -999.2500     2.5818
 3015.2828    11.4563      .0055  -999.2500  -999.2500     2.5825
 3015.4352    11.4686     -.0009  -999.2500  -999.2500     2.5745
 3015.5876    11.5106      .0028  -999.2500  -999.2500     2.5844
 3015.7400    11.5714     -.0015  -999.2500  -999.2500     2.5806
 3015.8924    11.6160     -.0027  -999.2500  -999.2500     2.5750
 3016.0448    11.6533      .0004  -999.2500  -999.2500     2.5646
 3016.1972    11.6797      .0214  -999.2500  -999.2500     2.5740
 3016.3496    11.6889      .0435  -999.2500  -999.2500     2.5817
 3016.5020    11.6953      .0559  -999.2500  -999.2500     2.5731
 3016.6544    11.7131      .0439  -999.2500  -999.2500     2.5609
 3016.8068    11.7389      .0704  -999.2500  -999.2500     2.5943
 3016.9592    11.7605      .0587  -999.2500  -999.2500     2.6002
 3017.1116    11.7677      .0091  -999.2500  -999.2500     2.5526
 3017.2640    11.7689      .0092  -999.2500  -999.2500     2.5489
 3017.4164    11.7735      .0084  -999.2500  -999.2500     2.5570
 3017.5688    11.7798      .0253  -999.2500  -999.2500     2.5591
 3017.7212    11.7878      .0544  -999.2500  -999.2500     2.5624
 3017.8736    11.7990      .0213  -999.2500  -999.2500     2.5183
 3018.0260    11.8052      .0087  -999.2500  -999.2500     2.5362
 3018.1784    11.8200      .0187  -999.2500  -999.2500     2.5683
 3018.3308    11.8648     -.0009  -999.2500  -999.2500     2.5544
 3018.4832    11.9136      .0004  -999.2500  -999.2500     2.5353
 3018.6356    11.9310     -.0016  -999.2500  -999.2500     2.5472
 3018.7880    11.9343      .0142  -999.2500  -999.2500     2.5628
 3018.9404    11.9322      .0256  -999.2500  -999.2500     2.5831
 3019.0928    11.9123      .0161  -999.2500  -999.2500     2.5923
 3019.2452    11.8916      .0382  -999.2500  -999.2500     2.6046
 3019.3976    11.8828      .0582  -999.2500  -999.2500     2.6038
 3019.5500    11.8934      .0525  -999.2500  -999.2500     2.6017
 3019.7024    11.9001      .0366  -999.2500  -999.2500     2.5921
 3019.8548    11.8713      .0215  -999.2500  -999.2500     2.5793
 3020.0072    11.8368      .0110  -999.2500  -999.2500     2.5717
 3020.1596    11.8278      .0092  -999.2500  -999.2500     2.5749
 3020.3120    11.8343      .0081  -999.2500  -999.2500     2.5647
 3020.4644    11.8304      .0266  -999.2500  -999.2500     2.5877
 3020.6168    11.8024      .0242  -999.2500  -999.2500     2.5803
 3020.7692    11.7860      .0172  -999.2500  -999.2500     2.5729
 3020.9216    11.7707      .0110  -999.2500  -999.2500     2.5564
 3021.0740    11.7447      .0256  -999.2500  -999.2500     2.5609
 3021.2264    11.7306      .0480  -999.2500  -999.2500     2.5622
 3021.3788    11.7046      .0459  -999.2500  -999.2500     2.5807
 3021.5312    11.6619      .0330  -999.2500  -999.2500     2.5626
 3021.6836    11.6145      .0111  -999.2500  -999.2500     2.5652
 3021.8360    11.5856     -.0017  -999.2500  -999.2500     2.5520
 3021.9884    11.5880     -.0004  -999.2500  -999.2500     2.5811
 3022.1408    11.5943      .0131  -999.2500  -999.2500     2.5736
 3022.2932    11.5762      .0232  -999.2500  -999.2500     2.5708
 3022.4456    11.5373      .0472  -999.2500  -999.2500     2.5481
 3022.5980    11.4434      .0582  -999.2500  -999.2500     2.5523
 3022.7504    11.3523      .0559  -999.2500  -999.2500     2.5674
 3022.9028    11.3417      .0282  -999.2500  -999.2500     2.5623
 3023.0552    11.3318      .0107  -999.2500  -999.2500     2.5706
 3023.2076    11.2789      .0006  -999.2500  -999.2500     2.5861
 3023.3600    11.1801      .0019  -999.2500  -999.2500     2.5927
 3023.5124    11.0760      .0048  -999.2500  -999.2500     2.5945
 3023.6648    11.0074      .0025  -999.2500  -999.2500     2.5982
 3023.8172    10.9941      .0145  -999.2500  -999.2500     2.5990
 3023.9696    10.9835      .0169  -999.2500  -999.2500     2.5970
 3024.1220    10.9372      .0363  -999.2500  -999.2500     2.6145
 3024.2744    10.8973      .0089  -999.2500  -999.2500     2.6038
 3024.4268    10.8581      .0014  -999.2500  -999.2500     2.5989
 3024.5792    10.8189      .0016  -999.2500  -999.2500     2.5859
 3024.7316    10.7798      .0013  -999.2500  -999.2500     2.5705
 3024.8840    10.7408     -.0005  -999.2500  -999.2500     2.5604
 3025.0364    10.7025      .0205  -999.2500  -999.2500     2.5834
 3025.1888    10.6648      .0160  -999.2500  -999.2500     2.5999
 3025.3412    10.6272      .0059  -999.2500  -999.2500     2.5935
 3025.4936    10.5895      .0025  -999.2500  -999.2500     2.5959
 3025.6460    10.5518      .0166  -999.2500  -999.2500     2.5877
 3025.7984    10.5141      .0020  -999.2500  -999.2500     2.5631
 3025.9508    10.4765      .0058  -999.2500  -999.2500     2.5375
 3026.1032    10.4397      .0122  -999.2500  -999.2500     2.5442
 3026.2556    10.4040      .0069  -999.2500  -999.2500     2.5402
 3026.4080    10.3686      .0015  -999.2500  -999.2500     2.5459
 3026.5604    10.3333      .0007  -999.2500  -999.2500     2.5605
 3026.7128    10.2979      .0111  -999.2500  -999.2500     2.5609
 3026.8652    10.2626     -.0027  -999.2500  -999.2500     2.5630
 3027.0176    10.2272      .0048  -999.2500  -999.2500     2.5758
 3027.1700    10.1919      .0088  -999.2500  -999.2500     2.5732
 3027.3224    10.1595      .0111  -999.2500  -999.2500     2.5610
 3027.4748    10.1321      .0242  -999.2500  -999.2500     2.5524
 3027.6272    10.1091      .0377  -999.2500  -999.2500     2.5474
 3027.7796    10.0908      .0516  -999.2500  -999.2500     2.5530
 3027.9320    10.0826      .0629  -999.2500  -999.2500     2.5465
 3028.0844    10.0822      .0344  -999.2500  -999.2500     2.5156
 3028.2368    10.0907      .0290  -999.2500  -999.2500     2.4797
 3028.3892    10.1091      .0566  -999.2500  -999.2500     2.4728
 3028.5416    10.1287      .0802  -999.2500  -999.2500     2.4933
 3028.6940    10.1483      .0131  -999.2500  -999.2500     2.5131
 3028.8464    10.1656      .0343  -999.2500  -999.2500     2.5856
 3028.9988    10.1763      .0210  -999.2500  -999.2500     2.6064
 3029.1512    10.1792      .0164  -999.2500  -999.2500     2.5901
 3029.3036    10.1788      .0252  -999.2500  -999.2500     2.5835
 3029.4560    10.1833      .0100  -999.2500  -999.2500     2.5747
 3029.6084    10.1967      .0170  -999.2500  -999.2500     2.5769
 3029.7608    10.2219      .0070  -999.2500  -999.2500     2.5693
 3029.9132    10.2455     -.0028  -999.2500  -999.2500     2.5413
 3030.0656    10.2671      .0235  -999.2500  -999.2500     2.5335
 3030.2180    10.2943      .0331  -999.2500  -999.2500     2.5305
 3030.3704    10.3157      .0272  -999.2500  -999.2500     2.5520
 3030.5228    10.3265      .0608  -999.2500  -999.2500     2.6126
 3030.6752    10.3154      .0726  -999.2500  -999.2500     2.6212
 3030.8276    10.3049      .0492  -999.2500  -999.2500     2.5914
 3030.9800    10.3170      .0455  -999.2500  -999.2500     2.6102
 3031.1324    10.3411      .0663  -999.2500  -999.2500     2.5918
 3031.2848    10.3760      .0709  -999.2500  -999.2500     2.5912
 3031.4372    10.4154      .0345  -999.2500  -999.2500     2.5348
 3031.5896    10.4519      .0443  -999.2500  -999.2500     2.5453
 3031.7420    10.4703      .0765  -999.2500  -999.2500     2.5951
 3031.8944    10.4772      .0343  -999.2500  -999.2500     2.5721
 3032.0468    10.4946      .0152  -999.2500  -999.2500     2.5568
 3032.1992    10.5196      .0245  -999.2500  -999.2500     2.5566
 3032.3516    10.5438      .0034  -999.2500  -999.2500     2.5365
 3032.5040    10.5680      .0341  -999.2500  -999.2500     2.5662
 3032.6564    10.6012      .0167  -999.2500  -999.2500     2.5780
 3032.8088    10.6376      .0204      .2874    45.0000     2.5878
 3032.9612    10.6587      .0172      .2180    45.0000     2.5999
 3033.1136    10.6544      .0176      .1486    45.0000     2.5993
 3033.2660    10.6391      .0020      .0793    45.0000     2.5833
 3033.4184    10.6358     -.0054      .0120    45.0000     2.5866
 3033.5708    10.6414      .0020      .0150    45.0000     2.5853
