~VERSION INFORMATION
VERS.                                                 2.0:   CWLS Log ASCII Standard-VERSION 2.0
WRAP.                                                  NO:   One line per depth step
~Well Information Block
STRT.M                                          1304.5928:   Top Depth
STOP.M                                          3664.0496:   Bottom Depth
STEP.M                                             .15240:   Depth Increment
NULL.                                            -999.250:   Null Value
FLD .                                             WILDCAT:   Field Name
WELL.                                              15/6-2:   NAME
WBN .                                              15/6-2:   WELLBORE
NATI.                                                 NOR:   COUNTRY
CTRY.                                                 NOR:   COUNTRY
COMP.                        ESSO EXPLORATION NORWAY INC.:   OPERATOR
PROV.                                           NORTH SEA:   PROVINCE
COUN.                                   GLOMAR GRAND ISLE:   RIG NAME
SPUD.                                          1971/09/09:   SPUD DATE
LATI.                                       58 32 47.60 N:   SURF. LATITUDE
LONG.                                        1 41 54.10 E:   SURF. LONGITUDE
PBWE.                                              15/6-2:   PB WELL ID
APIN.                                              15/6-2:   PB WELLBORE ID
PBWS.                                                 all:   PB WELL NAME SET
~PARAMETER INFORMATION (log)
LNAM.                              FDC/CNL/GR  COMPOSITED:   NAME
LTYP.                                         DEPTH MATCH:   LOG TYPE
LSRV.                                            DEN/NEUT:   LOG SERVICE
LSOU.                                             SPT/NPD:   LOG SOURCE
LVSN.                                                   1:   LOG VERSION
BHIS.                                                   R:   BRIEF HISTORY
FHIS.                                             RAW-LIS:   FULL HISTORY
LCNM.                                        SCHLUMBERGER:   LOGGING CONTRACTOR
TOOL.                             FDC/CNL/GR (COMPOSITED):   TOOL STRING
~Curve Information Block
#MNEM.UNIT                                        API CODE    No Description
#=========                                        ========    == ===========
DEPT.M                                       00 001 00 00:     1  DEPTH
CALI.IN                                                  :     2  Caliper
DRHO.G/CC                                                :     3  Bulk density correction
GR.GAPI                                                  :     4  Gamma Ray
NPHI.%                                                   :     5  Neutron porosity
RHOB.G/CC                                                :     6  Bulk density
~ASCII
# ...
 2085.4904    12.2891      .0102  -999.2500  -999.2500     2.2016
 2085.6428    12.3886      .0155  -999.2500  -999.2500     2.1985
 2085.7952    12.4432      .0255  -999.2500  -999.2500     2.2013
 2085.9476    12.4087      .0293  -999.2500  -999.2500     2.1899
 2086.1000    12.3153      .0306  -999.2500  -999.2500     2.1924
 2086.2524    12.2136      .0292  -999.2500  -999.2500     2.1907
 2086.4048    12.1804      .0270  -999.2500  -999.2500     2.2081
 2086.5572    12.2221      .0151  -999.2500  -999.2500     2.2158
 2086.7096    12.3015     -.0031  -999.2500  -999.2500     2.2347
 2086.8620    12.3406      .0188  -999.2500  -999.2500     2.2572
 2087.0144    12.2922      .0254  -999.2500  -999.2500     2.2320
 2087.1668    12.2168      .0124  -999.2500  -999.2500     2.1886
 2087.3192    12.1634      .0150  -999.2500  -999.2500     2.1947
 2087.4716    12.1261      .0185  -999.2500  -999.2500     2.2058
 2087.6240    12.0913      .0330  -999.2500  -999.2500     2.2193
 2087.7764    12.0753      .0485  -999.2500  -999.2500     2.2230
 2087.9288    12.0756      .0586  -999.2500  -999.2500     2.2069
 2088.0812    12.0811      .0343  -999.2500  -999.2500     2.1872
 2088.2336    12.1198      .0541  -999.2500  -999.2500     2.2223
 2088.3860    12.1746      .0571  -999.2500  -999.2500     2.2376
 2088.5384    12.1963      .0371  -999.2500  -999.2500     2.2380
 2088.6908    12.2182      .0345  -999.2500  -999.2500     2.2358
 2088.8432    12.2789      .0201  -999.2500  -999.2500     2.2423
 2088.9956    12.3602      .0030  -999.2500  -999.2500     2.2390
 2089.1480    12.4251     -.0137  -999.2500  -999.2500     2.2361
 2089.3004    12.4572     -.0019  -999.2500  -999.2500     2.2150
 2089.4528    12.4938      .0179  -999.2500  -999.2500     2.1943
 2089.6052    12.5683      .0406  -999.2500  -999.2500     2.1948
 2089.7576    12.5615      .0478  -999.2500  -999.2500     2.2096
 2089.9100    12.4728      .0298  -999.2500  -999.2500     2.2043
 2090.0624    12.4453      .0208  -999.2500  -999.2500     2.2123
 2090.2148    12.4598      .0313  -999.2500  -999.2500     2.2350
 2090.3672    12.4679      .0262  -999.2500  -999.2500     2.2441
 2090.5196    12.4461      .0054  -999.2500  -999.2500     2.2303
 2090.6720    12.3653      .0002  -999.2500  -999.2500     2.2285
 2090.8244    12.2204      .0096  -999.2500  -999.2500     2.2475
 2090.9768    12.1152      .0189  -999.2500  -999.2500     2.2681
 2091.1292    12.2025      .0017  -999.2500  -999.2500     2.2926
 2091.2816    12.6106      .0040  -999.2500  -999.2500     2.3177
 2091.4340    12.9356      .0212  -999.2500  -999.2500     2.3326
 2091.5864    12.8865      .0422  -999.2500  -999.2500     2.3421
 2091.7388    12.7246      .0590  -999.2500  -999.2500     2.3736
 2091.8912    12.7070      .0325  -999.2500  -999.2500     2.3850
 2092.0436    13.0365      .0180  -999.2500  -999.2500     2.4191
 2092.1960    13.4051      .0179  -999.2500  -999.2500     2.4072
 2092.3484    13.4401      .0175  -999.2500  -999.2500     2.3754
 2092.5008    13.3903      .0069  -999.2500  -999.2500     2.3239
 2092.6532    13.4513      .0092  -999.2500  -999.2500     2.2760
 2092.8056    13.4500      .0319  -999.2500  -999.2500     2.2738
 2092.9580    13.3595      .0387  -999.2500  -999.2500     2.2848
 2093.1104    13.3578      .0333  -999.2500  -999.2500     2.2911
 2093.2628    13.3833      .0289  -999.2500  -999.2500     2.3004
 2093.4152    13.3032      .0187  -999.2500  -999.2500     2.3017
 2093.5676    13.2681      .0273  -999.2500  -999.2500     2.3091
 2093.7200    13.3197      .0227  -999.2500  -999.2500     2.2976
 2093.8724    13.3497      .0402  -999.2500  -999.2500     2.3142
 2094.0248    13.2065      .0183  -999.2500  -999.2500     2.3273
 2094.1772    13.0736     -.0065  -999.2500  -999.2500     2.3430
 2094.3296    13.1306      .0238  -999.2500  -999.2500     2.3654
 2094.4820    13.1511      .0138  -999.2500  -999.2500     2.3256
 2094.6344    13.1795      .0050  -999.2500  -999.2500     2.3041
 2094.7868    13.2020      .0499  -999.2500  -999.2500     2.3600
 2094.9392    13.1442      .0449  -999.2500  -999.2500     2.3752
 2095.0916    13.2194      .0247  -999.2500  -999.2500     2.3563
 2095.2440    13.3551      .0159  -999.2500  -999.2500     2.3586
 2095.3964    13.4342      .0189  -999.2500  -999.2500     2.3482
 2095.5488    13.4781      .0213  -999.2500  -999.2500     2.3175
 2095.7012    13.4997      .0141  -999.2500  -999.2500     2.3088
 2095.8536    13.5354      .0186  -999.2500  -999.2500     2.3237
 2096.0060    13.5400      .0099  -999.2500  -999.2500     2.3077
 2096.1584    13.4678      .0197  -999.2500  -999.2500     2.2773
 2096.3108    13.2715      .0387  -999.2500  -999.2500     2.2668
 2096.4632    13.0610      .0475  -999.2500  -999.2500     2.2561
 2096.6156    13.0687      .0307  -999.2500  -999.2500     2.2416
 2096.7680    13.2230      .0103  -999.2500  -999.2500     2.2477
 2096.9204    13.3201      .0161  -999.2500  -999.2500     2.2734
 2097.0728    13.2514      .0097  -999.2500  -999.2500     2.3032
 2097.2252    13.1479      .0033  -999.2500  -999.2500     2.3327
 2097.3776    13.2310      .0126  -999.2500  -999.2500     2.3462
 2097.5300    13.2934      .0278  -999.2500  -999.2500     2.3295
 2097.6824    13.1841      .0309  -999.2500  -999.2500     2.3018
 2097.8348    13.1115      .0083  -999.2500  -999.2500     2.2841
 2097.9872    13.1275      .0063  -999.2500  -999.2500     2.2963
 2098.1396    13.1943      .0115  -999.2500  -999.2500     2.3089
 2098.2920    13.2458      .0230  -999.2500  -999.2500     2.3132
 2098.4444    13.2078      .0275  -999.2500  -999.2500     2.3042
 2098.5968    13.2265      .0185  -999.2500  -999.2500     2.3295
 2098.7492    13.4167      .0170  -999.2500  -999.2500     2.3559
 2098.9016    13.5149      .0086  -999.2500  -999.2500     2.3789
 2099.0540    13.4186      .0492  -999.2500  -999.2500     2.4350
 2099.2064    13.4266      .0509  -999.2500  -999.2500     2.4250
 2099.3588    13.6909      .0755  -999.2500  -999.2500     2.4514
 2099.5112    13.9378      .0975  -999.2500  -999.2500     2.4477
 2099.6636    13.9529      .0536  -999.2500  -999.2500     2.3904
 2099.8160    13.9511      .0422  -999.2500  -999.2500     2.3710
 2099.9684    14.1293      .0470  -999.2500  -999.2500     2.3720
 2100.1208    14.3024      .0577  -999.2500  -999.2500     2.3926
 2100.2732    14.2647      .0464  -999.2500  -999.2500     2.3867
 2100.4256    14.0840      .0370  -999.2500  -999.2500     2.3779
 2100.5780    13.9862      .0396  -999.2500  -999.2500     2.3693
 2100.7304    14.0305      .0329  -999.2500  -999.2500     2.3750
 2100.8828    14.0757      .0238  -999.2500  -999.2500     2.3591
 2101.0352    14.0951      .0195  -999.2500  -999.2500     2.3451
 2101.1876    14.0641      .0354  -999.2500  -999.2500     2.3485
 2101.3400    13.9011      .0470  -999.2500  -999.2500     2.3696
 2101.4924    13.7508      .0342  -999.2500  -999.2500     2.3707
 2101.6448    13.8027      .0421  -999.2500  -999.2500     2.3913
 2101.7972    13.6985      .0404  -999.2500  -999.2500     2.4126
 2101.9496    13.4293      .0113  -999.2500  -999.2500     2.4281
 2102.1020    13.3465      .0173  -999.2500  -999.2500     2.4400
 2102.2544    13.3517      .0758  -999.2500  -999.2500     2.4447
 2102.4068    13.2679      .0448  -999.2500  -999.2500     2.3877
 2102.5592    13.0799      .0092  -999.2500  -999.2500     2.3491
 2102.7116    12.9987      .0072  -999.2500  -999.2500     2.3648
 2102.8640    13.0553      .0060  -999.2500  -999.2500     2.3514
 2103.0164    13.0916      .0017  -999.2500  -999.2500     2.3405
 2103.1688    13.0983      .0117  -999.2500  -999.2500     2.3433
 2103.3212    13.0534      .0204  -999.2500  -999.2500     2.3606
 2103.4736    12.9797      .0286  -999.2500  -999.2500     2.3662
 2103.6260    12.9123      .0302  -999.2500  -999.2500     2.3522
 2103.7784    12.8565      .0242  -999.2500  -999.2500     2.3386
 2103.9308    12.8634      .0127  -999.2500  -999.2500     2.3274
