~VERSION INFORMATION
VERS.                                                 2.0:   CWLS Log ASCII Standard-VERSION 2.0
WRAP.                                                  NO:   One line per depth step
~Well Information Block
STRT.M                                          1304.5928:   Top Depth
STOP.M                                          3664.0496:   Bottom Depth
STEP.M                                             .15240:   Depth Increment
NULL.                                            -999.250:   Null Value
FLD .                                             WILDCAT:   Field Name
WELL.                                              15/6-2:   NAME
WBN .                                              15/6-2:   WELLBORE
NATI.                                                 NOR:   COUNTRY
CTRY.                                                 NOR:   COUNTRY
COMP.                        ESSO EXPLORATION NORWAY INC.:   OPERATOR
PROV.                                           NORTH SEA:   PROVINCE
COUN.                                   GLOMAR GRAND ISLE:   RIG NAME
SPUD.                                          1971/09/09:   SPUD DATE
LATI.                                       58 32 47.60 N:   SURF. LATITUDE
LONG.                                        1 41 54.10 E:   SURF. LONGITUDE
PBWE.                                              15/6-2:   PB WELL ID
APIN.                                              15/6-2:   PB WELLBORE ID
PBWS.                                                 all:   PB WELL NAME SET
~PARAMETER INFORMATION (log)
LNAM.                              FDC/CNL/GR  COMPOSITED:   NAME
LTYP.                                         DEPTH MATCH:   LOG TYPE
LSRV.                                            DEN/NEUT:   LOG SERVICE
LSOU.                                             SPT/NPD:   LOG SOURCE
LVSN.                                                   1:   LOG VERSION
BHIS.                                                   R:   BRIEF HISTORY
FHIS.                                             RAW-LIS:   FULL HISTORY
LCNM.                                        SCHLUMBERGER:   LOGGING CONTRACTOR
TOOL.                             FDC/CNL/GR (COMPOSITED):   TOOL STRING
~Curve Information Block
#MNEM.UNIT                                        API CODE    No Description
#=========                                        ========    == ===========
DEPT.M                                       00 001 00 00:     1  DEPTH
CALI.IN                                                  :     2  Caliper
DRHO.G/CC                                                :     3  Bulk density correction
GR.GAPI                                                  :     4  Gamma Ray
NPHI.%                                                   :     5  Neutron porosity
RHOB.G/CC                                                :     6  Bulk density
~ASCII
# ...
 2866.3880    11.5947      .0231  -999.2500  -999.2500     2.5737
 2866.5404    11.5942      .0074  -999.2500  -999.2500     2.5589
 2866.6928    11.5744      .0069  -999.2500  -999.2500     2.5532
 2866.8452    11.5499      .0119  -999.2500  -999.2500     2.5593
 2866.9976    11.5402      .0019  -999.2500  -999.2500     2.5394
 2867.1500    11.5404      .0004  -999.2500  -999.2500     2.5238
 2867.3024    11.5406      .0051  -999.2500  -999.2500     2.5289
 2867.4548    11.5408      .0128  -999.2500  -999.2500     2.5426
 2867.6072    11.5410      .0107  -999.2500  -999.2500     2.5418
 2867.7596    11.5412      .0041  -999.2500  -999.2500     2.5457
 2867.9120    11.5282     -.0045  -999.2500  -999.2500     2.5447
 2868.0644    11.5085     -.0124  -999.2500  -999.2500     2.5461
 2868.2168    11.5020     -.0070  -999.2500  -999.2500     2.5539
 2868.3692    11.5022     -.0009  -999.2500  -999.2500     2.5813
 2868.5216    11.5024      .0051  -999.2500  -999.2500     2.5918
 2868.6740    11.4890      .0118  -999.2500  -999.2500     2.5991
 2868.8264    11.4237      .0038  -999.2500  -999.2500     2.6041
 2868.9788    11.3268      .0131  -999.2500  -999.2500     2.6068
 2869.1312    11.2565     -.0005  -999.2500  -999.2500     2.6029
 2869.2836    11.2279     -.0004  -999.2500  -999.2500     2.5883
 2869.4360    11.2196      .0040  -999.2500  -999.2500     2.5676
 2869.5884    11.2047     -.0074  -999.2500  -999.2500     2.5628
 2869.7408    11.1852     -.0005  -999.2500  -999.2500     2.5491
 2869.8932    11.1705     -.0020  -999.2500  -999.2500     2.5470
 2870.0456    11.1657      .0259  -999.2500  -999.2500     2.5861
 2870.1980    11.1576      .0182  -999.2500  -999.2500     2.5697
 2870.3504    11.1419     -.0015  -999.2500  -999.2500     2.5631
 2870.5028    11.1250      .0115  -999.2500  -999.2500     2.5844
 2870.6552    11.1039      .0165  -999.2500  -999.2500     2.5917
 2870.8076    11.0805      .0140  -999.2500  -999.2500     2.5946
 2870.9600    11.0716      .0161  -999.2500  -999.2500     2.6119
 2871.1124    11.0782      .0202  -999.2500  -999.2500     2.6187
 2871.2648    11.0835      .0376  -999.2500  -999.2500     2.6591
 2871.4172    11.0798      .0368  -999.2500  -999.2500     2.6530
 2871.5696    11.0714      .0072  -999.2500  -999.2500     2.6220
 2871.7220    11.0728      .0024  -999.2500  -999.2500     2.6146
 2871.8744    11.0865      .0000  -999.2500  -999.2500     2.6203
 2872.0268    11.0702      .0098  -999.2500  -999.2500     2.6322
 2872.1792    11.0347      .0126  -999.2500  -999.2500     2.6268
 2872.3316    11.0212      .0043  -999.2500  -999.2500     2.6238
 2872.4840    11.0361      .0130  -999.2500  -999.2500     2.6382
 2872.6364    11.0619      .0122  -999.2500  -999.2500     2.6504
 2872.7888    11.0615      .0157  -999.2500  -999.2500     2.6373
 2872.9412    11.0419     -.0004  -999.2500  -999.2500     2.6400
 2873.0936    11.0226     -.0128  -999.2500  -999.2500     2.6148
 2873.2460    11.0227     -.0095  -999.2500  -999.2500     2.6195
 2873.3984    11.0307     -.0028  -999.2500  -999.2500     2.6365
 2873.5508    11.0409     -.0003  -999.2500  -999.2500     2.6391
 2873.7032    11.0510      .0047  -999.2500  -999.2500     2.6296
 2873.8556    11.0512      .0120  -999.2500  -999.2500     2.6317
 2874.0080    11.0172      .0128  -999.2500  -999.2500     2.6255
 2874.1604    10.9676     -.0004  -999.2500  -999.2500     2.6201
 2874.3128    10.9580      .0180  -999.2500  -999.2500     2.6221
 2874.4652    10.9639      .0400  -999.2500  -999.2500     2.6171
 2874.6176    10.9583      .0877  -999.2500  -999.2500     2.6218
 2874.7700    10.9594      .1173  -999.2500  -999.2500     2.6584
 2874.9224    10.9696      .0526  -999.2500  -999.2500     2.5941
 2875.0748    10.9731     -.0045  -999.2500  -999.2500     2.5270
 2875.2272    11.0149     -.0205  -999.2500  -999.2500     2.4563
 2875.3796    11.1161     -.0159  -999.2500  -999.2500     2.3697
 2875.5320    11.2197     -.0227  -999.2500  -999.2500     2.3016
 2875.6844    11.2619     -.0053  -999.2500  -999.2500     2.2937
 2875.8368    11.2529      .0102  -999.2500  -999.2500     2.3248
 2875.9892    11.2408      .0635  -999.2500  -999.2500     2.4067
 2876.1416    11.2446      .0943  -999.2500  -999.2500     2.4767
 2876.2940    11.2827      .0697  -999.2500  -999.2500     2.4667
 2876.4464    11.3344      .0485  -999.2500  -999.2500     2.5217
 2876.5988    11.3696      .0409  -999.2500  -999.2500     2.5548
 2876.7512    11.3933      .0607  -999.2500  -999.2500     2.5528
 2876.9036    11.4091      .0787  -999.2500  -999.2500     2.5507
 2877.0560    11.4139      .0850  -999.2500  -999.2500     2.5474
 2877.2084    11.4213      .0739  -999.2500  -999.2500     2.5366
 2877.3608    11.4314      .0283  -999.2500  -999.2500     2.5049
 2877.5132    11.4381      .0199  -999.2500  -999.2500     2.5150
 2877.6656    11.4596      .0173  -999.2500  -999.2500     2.5235
 2877.8180    11.4794     -.0054  -999.2500  -999.2500     2.5082
 2877.9704    11.4812      .0073  -999.2500  -999.2500     2.5111
 2878.1228    11.4855      .0407  -999.2500  -999.2500     2.5126
 2878.2752    11.4989      .0246  -999.2500  -999.2500     2.4616
 2878.4276    11.5256      .0264  -999.2500  -999.2500     2.4579
 2878.5800    11.5585      .0341  -999.2500  -999.2500     2.4738
 2878.7324    11.5697      .0182  -999.2500  -999.2500     2.4546
 2878.8848    11.5614      .0066  -999.2500  -999.2500     2.4682
 2879.0372    11.5567      .0161  -999.2500  -999.2500     2.4757
 2879.1896    11.5543      .0556  -999.2500  -999.2500     2.4815
 2879.3420    11.5508      .0124  -999.2500  -999.2500     2.4546
 2879.4944    11.5628     -.0047  -999.2500  -999.2500     2.4747
 2879.6468    11.5865      .0328  -999.2500  -999.2500     2.4929
 2879.7992    11.7659      .0176  -999.2500  -999.2500     2.4693
 2879.9516    11.8370     -.0062  -999.2500  -999.2500     2.4331
 2880.1040    11.7471      .0326  -999.2500  -999.2500     2.4661
 2880.2564    11.7656      .0214  -999.2500  -999.2500     2.4388
 2880.4088    11.7856     -.0072  -999.2500  -999.2500     2.4741
 2880.5612    11.7886      .0065  -999.2500  -999.2500     2.5110
 2880.7136    11.7798      .0386  -999.2500  -999.2500     2.4973
 2880.8660    11.7712      .0355  -999.2500  -999.2500     2.4714
 2881.0184    11.7921      .0124  -999.2500  -999.2500     2.4429
 2881.1708    11.7893      .0365  -999.2500  -999.2500     2.4656
 2881.3232    11.7678     -.0014  -999.2500  -999.2500     2.4688
 2881.4756    11.7887      .0257  -999.2500  -999.2500     2.5143
 2881.6280    11.8007      .0330  -999.2500  -999.2500     2.5464
 2881.7804    11.8180      .0111  -999.2500  -999.2500     2.5303
 2881.9328    11.8238      .0148  -999.2500  -999.2500     2.5502
 2882.0852    11.8126      .0595  -999.2500  -999.2500     2.5824
 2882.2376    11.8178      .0550  -999.2500  -999.2500     2.5493
 2882.3900    11.8315      .0303  -999.2500  -999.2500     2.5008
 2882.5424    11.8327      .0138  -999.2500  -999.2500     2.4903
 2882.6948    11.8346      .0266  -999.2500  -999.2500     2.4998
 2882.8472    11.8272      .0510  -999.2500  -999.2500     2.5423
 2882.9996    11.8078      .0336  -999.2500  -999.2500     2.5465
 2883.1520    11.7963      .0053  -999.2500  -999.2500     2.5427
 2883.3044    11.7743      .0068  -999.2500  -999.2500     2.5587
 2883.4568    11.7772      .0390  -999.2500  -999.2500     2.5759
 2883.6092    11.7949      .0693  -999.2500  -999.2500     2.5477
 2883.7616    11.7921      .0514  -999.2500  -999.2500     2.4995
 2883.9140    11.7786      .0088  -999.2500  -999.2500     2.4717
 2884.0664    11.7696     -.0026  -999.2500  -999.2500     2.4755
 2884.2188    11.7644      .0167  -999.2500  -999.2500     2.4778
 2884.3712    11.7644      .0510  -999.2500  -999.2500     2.4562
 2884.5236    11.7691      .0257  -999.2500  -999.2500     2.4602
 2884.6760    11.7659      .0241  -999.2500  -999.2500     2.5265
 2884.8284    11.7609      .0026  -999.2500  -999.2500     2.5473
