~VERSION INFORMATION
VERS.                                                 2.0:   CWLS Log ASCII Standard-VERSION 2.0
WRAP.                                                  NO:   One line per depth step
~Well Information Block
STRT.M                                          1304.5928:   Top Depth
STOP.M                                          3664.0496:   Bottom Depth
STEP.M                                             .15240:   Depth Increment
NULL.                                            -999.250:   Null Value
FLD .                                             WILDCAT:   Field Name
WELL.                                              15/6-2:   NAME
WBN .                                              15/6-2:   WELLBORE
NATI.                                                 NOR:   COUNTRY
CTRY.                                                 NOR:   COUNTRY
COMP.                        ESSO EXPLORATION NORWAY INC.:   OPERATOR
PROV.                                           NORTH SEA:   PROVINCE
COUN.                                   GLOMAR GRAND ISLE:   RIG NAME
SPUD.                                          1971/09/09:   SPUD DATE
LATI.                                       58 32 47.60 N:   SURF. LATITUDE
LONG.                                        1 41 54.10 E:   SURF. LONGITUDE
PBWE.                                              15/6-2:   PB WELL ID
APIN.                                              15/6-2:   PB WELLBORE ID
PBWS.                                                 all:   PB WELL NAME SET
~PARAMETER INFORMATION (log)
LNAM.                              FDC/CNL/GR  COMPOSITED:   NAME
LTYP.                                         DEPTH MATCH:   LOG TYPE
LSRV.                                            DEN/NEUT:   LOG SERVICE
LSOU.                                             SPT/NPD:   LOG SOURCE
LVSN.                                                   1:   LOG VERSION
BHIS.                                                   R:   BRIEF HISTORY
FHIS.                                             RAW-LIS:   FULL HISTORY
LCNM.                                        SCHLUMBERGER:   LOGGING CONTRACTOR
TOOL.                             FDC/CNL/GR (COMPOSITED):   TOOL STRING
~Curve Information Block
#MNEM.UNIT                                        API CODE    No Description
#=========                                        ========    == ===========
DEPT.M                                       00 001 00 00:     1  DEPTH
CALI.IN                                                  :     2  Caliper
DRHO.G/CC                                                :     3  Bulk density correction
GR.GAPI                                                  :     4  Gamma Ray
NPHI.%                                                   :     5  Neutron porosity
RHOB.G/CC                                                :     6  Bulk density
~ASCII
# ...
 3647.2856     8.7894     -.0123    44.5219    59.2997     2.1270
 3647.4380     8.8107     -.0370    45.7509    55.3840     2.0111
 3647.5904     8.8906     -.0457    47.0853    49.1625     1.9316
 3647.7428     8.9469     -.0557    46.4352    44.7631     1.8755
 3647.8952     8.9642     -.0772    45.5949    42.6475     1.8224
 3648.0476     8.9687     -.0926    45.3072    41.4650     1.7394
 3648.2000     8.9805     -.0939    46.2079    40.9512     1.6966
 3648.3524     9.0030     -.0786    46.8558    39.2166     1.7398
 3648.5048     9.0211     -.0510    46.5957    35.9872     1.9176
 3648.6572     9.0279     -.0314    46.2955    34.4565     2.1360
 3648.8096     9.0295     -.0404    46.0711    33.9937     2.2211
 3648.9620     9.0378     -.0443    46.8735    34.1134     2.1054
 3649.1144     9.0427     -.0682    46.7642    34.2598     1.9223
 3649.2668     9.0363     -.1055    46.2206    34.1504     1.7810
 3649.4192     9.0298     -.1152    46.0379    34.5370     1.6277
 3649.5716     9.0279     -.1248    46.2785    34.6187     1.5866
 3649.7240     9.0279     -.1184    46.5188    33.5790     1.6041
 3649.8764     9.0279     -.1031    46.4317    32.4115     1.6965
 3650.0288     9.0419     -.0721    47.8799    31.4161     1.8495
 3650.1812     9.0677     -.0204    47.4675    31.0358     2.0728
 3650.3336     9.0460      .0136    46.8320    32.7973     2.3392
 3650.4860     9.0003      .0518    46.3512    33.7331     2.4807
 3650.6384     8.9897      .0451    46.0159    31.9987     2.4438
 3650.7908     9.0035      .0010    46.8070    30.0156     2.4804
 3650.9432     9.0120     -.0077    47.7899    31.1188     2.5486
 3651.0956     8.9885     -.0091    47.0737    33.5312     2.5639
 3651.2480     8.9610     -.0002    46.1708    35.4729     2.4902
 3651.4004     8.9700      .0250    45.6841    35.1146     2.4258
 3651.5528     8.9884      .0410    44.5342    34.9094     2.4918
 3651.7052     8.9721      .0015    41.9194    34.1441     2.4050
 3651.8576     9.0131      .0004    41.8711    32.0010     2.2800
 3652.0100     9.3316      .0016    43.6697    30.6097     2.1268
 3652.1624    10.1274     -.0170    43.5843    29.9686     2.0301
 3652.3148    10.9302     -.0335    43.0617    29.0504     1.9664
 3652.4672    11.2677     -.0483    44.6995    29.1436     1.9171
 3652.6196    11.7278     -.0600    46.6464    30.5160     1.8521
 3652.7720    12.4109     -.0612    46.6754    30.9072     1.8362
 3652.9244    12.7951     -.0718    47.9633    29.7087     1.8151
 3653.0768    13.1976     -.0759    47.1397    30.4962     1.7957
 3653.2292    13.5579     -.0842    45.9355    32.0751     1.7660
 3653.3816    13.6014     -.0921    44.5013    32.0950     1.7456
 3653.5340    13.5987     -.0912    42.9666    31.1653     1.7234
 3653.6864    13.6123     -.0921    42.5840    31.2767     1.7126
 3653.8388    13.6323     -.0915    40.8043    30.3774     1.7081
 3653.9912    13.6431     -.1006    36.0340    29.0101     1.6927
 3654.1436    13.6396     -.0984    28.9307    28.6880     1.6940
 3654.2960    13.6318     -.0959    18.5756    29.1388     1.6968
 3654.4484    13.6267     -.1038     3.0087    28.9107     1.6881
 3654.6008    13.6232     -.1054      .0845    28.6696     1.6884
 3654.7532    13.6198     -.1029     -.2500    28.5411     1.6968
 3654.9056    13.6164     -.1024     -.1806    29.3731     1.6968
 3655.0580    13.6129     -.1004     -.1112    29.3083     1.7025
 3655.2104    13.6093     -.0984     -.0419    28.9500     1.7032
 3655.3628    13.6054     -.0915     -.0088    28.8823     1.7087
 3655.5152    13.6012     -.0955     -.0311    29.0887     1.7028
 3655.6676    13.5971     -.0980     -.0534    27.8358     1.6955
 3655.8200    13.5930     -.1044     -.0757    27.5399     1.6909
 3655.9724    13.5945     -.1035     -.0980    27.7823     1.6897
 3656.1248    13.6040     -.0959     -.1202    24.0326     1.6921
 3656.2772    13.6160     -.0965     -.1425    18.1338     1.6967
 3656.4296    13.6258     -.0954     -.1648    11.0075     1.6977
 3656.5820    13.6295     -.0894     -.1871      .5889     1.7027
 3656.7344    13.6295     -.0886     -.2094    -3.5496     1.7076
 3656.8868    13.6295     -.0891     -.2317    -4.5172     1.6996
 3657.0392    13.6295     -.0996     -.2540    -4.5199     1.6945
 3657.1916    13.6277     -.0983     -.2762    -4.4905     1.6956
 3657.3440    13.6214     -.0923     -.2985    -4.4611     1.7054
 3657.4964    13.6125     -.0947     -.2827    -4.4317     1.7049
 3657.6488    13.6036     -.0925     -.2664    -4.4227     1.7051
 3657.8012    13.5947     -.0929     -.2501    -4.4226     1.7049
 3657.9536    13.5925     -.0956     -.2338    -4.4226     1.7016
 3658.1060    13.5978     -.0956     -.2175    -4.4225     1.6969
 3658.2584    13.6038     -.0929     -.2012    -4.4225     1.6932
 3658.4108    13.6098     -.0974     -.1849    -4.4224     1.6903
 3658.5632    13.6158     -.0905     -.1686    -4.4224     1.7039
 3658.7156    13.6217     -.0955     -.1523    -4.4223     1.6985
 3658.8680    13.6265     -.0941     -.1359    -4.4305     1.6946
 3659.0204    13.6282     -.0883     -.1196    -4.4399     1.7036
 3659.1728    13.6280     -.0827     -.1034    -4.4493     1.7094
 3659.3252    13.6279     -.0847     -.1028    -4.4587     1.7091
 3659.4776    13.6277     -.0870     -.1122    -4.4682     1.7052
 3659.6300    13.6276     -.0924     -.1215    -4.4776     1.7043
 3659.7824    13.6274     -.0982     -.1309    -4.4821     1.6970
 3659.9348    13.6273     -.0980     -.1402    -4.4821     1.6973
 3660.0872    13.6271     -.0929     -.1496    -4.4821     1.6981
 3660.2396    13.6270     -.0853     -.1589    -4.4821     1.7091
 3660.3920    13.6268     -.0907     -.1683    -4.4939     1.7089
 3660.5444    13.6267     -.1005     -.1776    -4.5265     1.6966
 3660.6968    13.6265     -.1030     -.1870    -4.6366     1.6935
 3660.8492    13.6264     -.1042     -.1963    -4.8351     1.6938
 3661.0016    13.6262     -.0983     -.1842    -5.0501     1.6998
 3661.1540    13.6254     -.0927     -.1547    -4.8808     1.7015
 3661.3064    13.6226     -.0970     -.1252    -4.1626     1.6921
 3661.4588    13.6187     -.1002     -.0957     -.0222     1.6860
 3661.6112    13.6149     -.0874     -.0663      .0598     1.6773
 3661.7636    13.6110     -.0491     -.0368      .0598     1.6697
 3661.9160    13.6072      .0873     -.0074      .0598     1.8490
 3662.0684    13.6052      .2490      .0221      .0598     1.4984
 3662.2208    11.8751      .2490     -.0246      .0598     1.4984
 3662.3732     9.0636      .2490     -.0850      .0598     1.4985
 3662.5256     7.9865      .2490     -.1454      .0519     1.4987
 3662.6780     7.9917      .2490     -.2058      .0430     1.4989
 3662.8304     7.9894      .2490     -.2663      .0340     1.4990
 3662.9828     7.9831      .2490     -.3267      .0250     1.4992
 3663.1352     7.9768      .2490     -.2531      .0161     1.4994
 3663.2876     7.9704      .2490     -.1774      .0071     1.4991
 3663.4400     7.9641      .2490     -.1015      .0000     1.4988
 3663.5924     7.9578      .2495     -.2743      .0000     1.4985
 3663.7448     7.9532  -999.2500     -.3744      .0000     1.4984
 3663.8972  -999.2500  -999.2500     -.3838      .0000     1.4984
 3664.0496  -999.2500  -999.2500  -999.2500      .0029     1.4989
