~VERSION INFORMATION
VERS.                                                 2.0:   CWLS Log ASCII Standard-VERSION 2.0
WRAP.                                                  NO:   One line per depth step
~Well Information Block
STRT.M                                          1304.5928:   Top Depth
STOP.M                                          3664.0496:   Bottom Depth
STEP.M                                             .15240:   Depth Increment
NULL.                                            -999.250:   Null Value
FLD .                                             WILDCAT:   Field Name
WELL.                                              15/6-2:   NAME
WBN .                                              15/6-2:   WELLBORE
NATI.                                                 NOR:   COUNTRY
CTRY.                                                 NOR:   COUNTRY
COMP.                        ESSO EXPLORATION NORWAY INC.:   OPERATOR
PROV.                                           NORTH SEA:   PROVINCE
COUN.                                   GLOMAR GRAND ISLE:   RIG NAME
SPUD.                                          1971/09/09:   SPUD DATE
LATI.                                       58 32 47.60 N:   SURF. LATITUDE
LONG.                                        1 41 54.10 E:   SURF. LONGITUDE
PBWE.                                              15/6-2:   PB WELL ID
APIN.                                              15/6-2:   PB WELLBORE ID
PBWS.                                                 all:   PB WELL NAME SET
~PARAMETER INFORMATION (log)
LNAM.                              FDC/CNL/GR  COMPOSITED:   NAME
LTYP.                                         DEPTH MATCH:   LOG TYPE
LSRV.                                            DEN/NEUT:   LOG SERVICE
LSOU.                                             SPT/NPD:   LOG SOURCE
LVSN.                                                   1:   LOG VERSION
BHIS.                                                   R:   BRIEF HISTORY
FHIS.                                             RAW-LIS:   FULL HISTORY
LCNM.                                        SCHLUMBERGER:   LOGGING CONTRACTOR
TOOL.                             FDC/CNL/GR (COMPOSITED):   TOOL STRING
~Curve Information Block
#MNEM.UNIT                                        API CODE    No Description
#=========                                        ========    == ===========
DEPT.M                                       00 001 00 00:     1  DEPTH
CALI.IN                                                  :     2  Caliper
DRHO.G/CC                                                :     3  Bulk density correction
GR.GAPI                                                  :     4  Gamma Ray
NPHI.%                                                   :     5  Neutron porosity
RHOB.G/CC                                                :     6  Bulk density
~ASCII
# ...
 2550.3104    11.7127      .0033  -999.2500  -999.2500     2.2731
 2550.4628    11.7151      .0188  -999.2500  -999.2500     2.2832
 2550.6152    11.7401      .0250  -999.2500  -999.2500     2.2788
 2550.7676    11.7741      .0373  -999.2500  -999.2500     2.2826
 2550.9200    11.8058      .0211  -999.2500  -999.2500     2.2772
 2551.0724    11.8139      .0003  -999.2500  -999.2500     2.2506
 2551.2248    11.8006     -.0124  -999.2500  -999.2500     2.2387
 2551.3772    11.7865     -.0029  -999.2500  -999.2500     2.2208
 2551.5296    11.7650     -.0040  -999.2500  -999.2500     2.1968
 2551.6820    11.7369     -.0025  -999.2500  -999.2500     2.1786
 2551.8344    11.7103      .0020  -999.2500  -999.2500     2.1768
 2551.9868    11.6898      .0106  -999.2500  -999.2500     2.1787
 2552.1392    11.6738      .0115  -999.2500  -999.2500     2.1887
 2552.2916    11.6911      .0229  -999.2500  -999.2500     2.1995
 2552.4440    11.7467      .0131  -999.2500  -999.2500     2.1972
 2552.5964    11.8068      .0036  -999.2500  -999.2500     2.1861
 2552.7488    11.8601     -.0036  -999.2500  -999.2500     2.1671
 2552.9012    11.8888     -.0049  -999.2500  -999.2500     2.1616
 2553.0536    11.8926      .0062  -999.2500  -999.2500     2.1614
 2553.2060    11.8800      .0043  -999.2500  -999.2500     2.1664
 2553.3584    11.8453      .0142  -999.2500  -999.2500     2.1704
 2553.5108    11.7888      .0080  -999.2500  -999.2500     2.1731
 2553.6632    11.7450      .0014  -999.2500  -999.2500     2.1747
 2553.8156    11.7291     -.0025  -999.2500  -999.2500     2.1839
 2553.9680    11.7282     -.0009  -999.2500  -999.2500     2.1814
 2554.1204    11.7413      .0071  -999.2500  -999.2500     2.1922
 2554.2728    11.7601      .0246  -999.2500  -999.2500     2.2104
 2554.4252    11.7652      .0090  -999.2500  -999.2500     2.1919
 2554.5776    11.7390      .0090  -999.2500  -999.2500     2.1830
 2554.7300    11.7000      .0122  -999.2500  -999.2500     2.1771
 2554.8824    11.6658      .0074  -999.2500  -999.2500     2.1722
 2555.0348    11.6332      .0006  -999.2500  -999.2500     2.1569
 2555.1872    11.6107     -.0107  -999.2500  -999.2500     2.1373
 2555.3396    11.6070     -.0103  -999.2500  -999.2500     2.1349
 2555.4920    11.6140     -.0128  -999.2500  -999.2500     2.1420
 2555.6444    11.6239     -.0182  -999.2500  -999.2500     2.1554
 2555.7968    11.6544     -.0207  -999.2500  -999.2500     2.1592
 2555.9492    11.7232     -.0133  -999.2500  -999.2500     2.1704
 2556.1016    11.7935     -.0049  -999.2500  -999.2500     2.1776
 2556.2540    11.8190      .0053  -999.2500  -999.2500     2.1854
 2556.4064    11.8278      .0215  -999.2500  -999.2500     2.1969
 2556.5588    11.8516      .0321  -999.2500  -999.2500     2.2163
 2556.7112    11.8814      .0225  -999.2500  -999.2500     2.2066
 2556.8636    11.9006      .0106  -999.2500  -999.2500     2.1973
 2557.0160    11.9086      .0030  -999.2500  -999.2500     2.1877
 2557.1684    11.9157     -.0013  -999.2500  -999.2500     2.1876
 2557.3208    11.9229      .0006  -999.2500  -999.2500     2.1871
 2557.4732    11.9301      .0013  -999.2500  -999.2500     2.1856
 2557.6256    11.9307      .0002  -999.2500  -999.2500     2.1883
 2557.7780    11.9164      .0054  -999.2500  -999.2500     2.1883
 2557.9304    11.8936      .0080  -999.2500  -999.2500     2.1838
 2558.0828    11.8707      .0168  -999.2500  -999.2500     2.1936
 2558.2352    11.8794      .0324  -999.2500  -999.2500     2.2216
 2558.3876    12.0163      .0480  -999.2500  -999.2500     2.2654
 2558.5400    12.2343      .0302  -999.2500  -999.2500     2.2546
 2558.6924    12.1263      .0116  -999.2500  -999.2500     2.2288
 2558.8448    11.7901     -.0051  -999.2500  -999.2500     2.2127
 2558.9972    11.6417      .0008  -999.2500  -999.2500     2.2200
 2559.1496    11.6258     -.0005  -999.2500  -999.2500     2.2338
 2559.3020    11.6279     -.0056  -999.2500  -999.2500     2.2331
 2559.4544    11.6001     -.0029  -999.2500  -999.2500     2.2434
 2559.6068    11.5629      .0072  -999.2500  -999.2500     2.2607
 2559.7592    11.6027      .0141  -999.2500  -999.2500     2.2746
 2559.9116    11.7155      .0188  -999.2500  -999.2500     2.2795
 2560.0640    11.7956      .0165  -999.2500  -999.2500     2.2690
 2560.2164    11.8032      .0053  -999.2500  -999.2500     2.2433
 2560.3688    11.7802      .0067  -999.2500  -999.2500     2.2340
 2560.5212    11.7573      .0096  -999.2500  -999.2500     2.2325
 2560.6736    11.7441      .0055  -999.2500  -999.2500     2.2245
 2560.8260    11.7469      .0033  -999.2500  -999.2500     2.1998
 2560.9784    11.7489      .0038  -999.2500  -999.2500     2.1757
 2561.1308    11.7349     -.0016  -999.2500  -999.2500     2.1706
 2561.2832    11.7123     -.0025  -999.2500  -999.2500     2.1759
 2561.4356    11.7067      .0002  -999.2500  -999.2500     2.1934
 2561.5880    11.7224      .0061  -999.2500  -999.2500     2.2025
 2561.7404    11.7423     -.0009  -999.2500  -999.2500     2.2185
 2561.8928    11.7622     -.0098  -999.2500  -999.2500     2.2174
 2562.0452    11.7701     -.0110  -999.2500  -999.2500     2.2234
 2562.1976    11.7633     -.0059  -999.2500  -999.2500     2.2475
 2562.3500    11.7409     -.0040  -999.2500  -999.2500     2.2693
 2562.5024    11.6942     -.0043  -999.2500  -999.2500     2.2423
 2562.6548    11.6421     -.0080  -999.2500  -999.2500     2.2073
 2562.8072    11.6283     -.0038  -999.2500  -999.2500     2.1817
 2562.9596    11.6467     -.0036  -999.2500  -999.2500     2.1850
 2563.1120    11.6676      .0014  -999.2500  -999.2500     2.2038
 2563.2644    11.7394      .0032  -999.2500  -999.2500     2.2196
 2563.4168    11.8291      .0141  -999.2500  -999.2500     2.2316
 2563.5692    11.8625      .0234  -999.2500  -999.2500     2.2452
 2563.7216    11.8707      .0187  -999.2500  -999.2500     2.2528
 2563.8740    11.8844      .0191  -999.2500  -999.2500     2.2630
 2564.0264    11.9033      .0118  -999.2500  -999.2500     2.2746
 2564.1788    11.9221      .0040  -999.2500  -999.2500     2.2662
 2564.3312    11.9381      .0177  -999.2500  -999.2500     2.2822
 2564.4836    11.9509      .0346  -999.2500  -999.2500     2.2953
 2564.6360    11.9634      .0039  -999.2500  -999.2500     2.2723
 2564.7884    11.9795      .0170  -999.2500  -999.2500     2.2812
 2564.9408    12.0001      .0390  -999.2500  -999.2500     2.3001
 2565.0932    11.9990      .0306  -999.2500  -999.2500     2.3078
 2565.2456    11.9748      .0178  -999.2500  -999.2500     2.2923
 2565.3980    11.9515      .0360  -999.2500  -999.2500     2.2833
 2565.5504    11.9256      .0359  -999.2500  -999.2500     2.2734
 2565.7028    11.8856      .0418  -999.2500  -999.2500     2.2729
 2565.8552    11.8365      .0607  -999.2500  -999.2500     2.2824
 2566.0076    11.8124      .0798  -999.2500  -999.2500     2.2961
 2566.1600    11.8123      .0671  -999.2500  -999.2500     2.2915
 2566.3124    11.8122      .0401  -999.2500  -999.2500     2.2837
 2566.4648    11.8121      .0096  -999.2500  -999.2500     2.2522
 2566.6172    11.8120      .0069  -999.2500  -999.2500     2.2366
 2566.7696    11.8244      .0177  -999.2500  -999.2500     2.2317
 2566.9220    11.8534      .0076  -999.2500  -999.2500     2.2368
 2567.0744    11.8878      .0148  -999.2500  -999.2500     2.2459
 2567.2268    11.9237      .0036  -999.2500  -999.2500     2.2424
 2567.3792    11.9553      .0221  -999.2500  -999.2500     2.2513
 2567.5316    11.9649      .0094  -999.2500  -999.2500     2.2347
 2567.6840    11.9568      .0135  -999.2500  -999.2500     2.2286
 2567.8364    11.9489      .0177  -999.2500  -999.2500     2.2286
 2567.9888    11.9412      .0352  -999.2500  -999.2500     2.2466
 2568.1412    11.9347      .0255  -999.2500  -999.2500     2.2528
 2568.2936    11.9480      .0449  -999.2500  -999.2500     2.2684
 2568.4460    11.9799      .0560  -999.2500  -999.2500     2.3109
 2568.5984    11.9957      .0238  -999.2500  -999.2500     2.3089
 2568.7508    11.8969      .0052  -999.2500  -999.2500     2.2947
