~VERSION INFORMATION
VERS.                                                 2.0:   CWLS Log ASCII Standard-VERSION 2.0
WRAP.                                                  NO:   One line per depth step
~Well Information Block
STRT.M                                          1304.5928:   Top Depth
STOP.M                                          3664.0496:   Bottom Depth
STEP.M                                             .15240:   Depth Increment
NULL.                                            -999.250:   Null Value
FLD .                                             WILDCAT:   Field Name
WELL.                                              15/6-2:   NAME
WBN .                                              15/6-2:   WELLBORE
NATI.                                                 NOR:   COUNTRY
CTRY.                                                 NOR:   COUNTRY
COMP.                        ESSO EXPLORATION NORWAY INC.:   OPERATOR
PROV.                                           NORTH SEA:   PROVINCE
COUN.                                   GLOMAR GRAND ISLE:   RIG NAME
SPUD.                                          1971/09/09:   SPUD DATE
LATI.                                       58 32 47.60 N:   SURF. LATITUDE
LONG.                                        1 41 54.10 E:   SURF. LONGITUDE
PBWE.                                              15/6-2:   PB WELL ID
APIN.                                              15/6-2:   PB WELLBORE ID
PBWS.                                                 all:   PB WELL NAME SET
~PARAMETER INFORMATION (log)
LNAM.                              FDC/CNL/GR  COMPOSITED:   NAME
LTYP.                                         DEPTH MATCH:   LOG TYPE
LSRV.                                            DEN/NEUT:   LOG SERVICE
LSOU.                                             SPT/NPD:   LOG SOURCE
LVSN.                                                   1:   LOG VERSION
BHIS.                                                   R:   BRIEF HISTORY
FHIS.                                             RAW-LIS:   FULL HISTORY
LCNM.                                        SCHLUMBERGER:   LOGGING CONTRACTOR
TOOL.                             FDC/CNL/GR (COMPOSITED):   TOOL STRING
~Curve Information Block
#MNEM.UNIT                                        API CODE    No Description
#=========                                        ========    == ===========
DEPT.M                                       00 001 00 00:     1  DEPTH
CALI.IN                                                  :     2  Caliper
DRHO.G/CC                                                :     3  Bulk density correction
GR.GAPI                                                  :     4  Gamma Ray
NPHI.%                                                   :     5  Neutron porosity
RHOB.G/CC                                                :     6  Bulk density
~ASCII
# ...
 3331.2080     8.6235     -.0012    32.9358     9.0027     2.5994
 3331.3604     8.6283     -.0011    32.2829     8.7994     2.6009
 3331.5128     8.6290     -.0019    30.2617     8.5187     2.5991
 3331.6652     8.6243     -.0018    26.0273     8.3381     2.5907
 3331.8176     8.6181     -.0055    22.5921     8.7949     2.5961
 3331.9700     8.6139     -.0061    22.2965     9.9085     2.6124
 3332.1224     8.6128     -.0055    23.6379    10.5930     2.6054
 3332.2748     8.6130     -.0017    25.4795    11.1047     2.6233
 3332.4272     8.6132     -.0037    27.3867    11.2064     2.6177
 3332.5796     8.6134     -.0115    29.2909    11.2065     2.5856
 3332.7320     8.6136     -.0176    30.6057    11.3771     2.5481
 3332.8844     8.6138     -.0146    29.9827    11.2869     2.5590
 3333.0368     8.6140     -.0173    30.4201    11.6332     2.5553
 3333.1892     8.6142     -.0082    31.7986    12.9166     2.5457
 3333.3416     8.6144     -.0003    33.6969    15.6516     2.5779
 3333.4940     8.6146      .0000    35.9259    18.0244     2.5981
 3333.6464     8.6148     -.0060    38.7419    17.8196     2.6065
 3333.7988     8.6150     -.0055    41.6739    14.8481     2.6157
 3333.9512     8.6152     -.0032    42.1800    12.2479     2.6442
 3334.1036     8.6154     -.0013    39.2672    10.8488     2.6548
 3334.2560     8.6156     -.0098    35.9915    11.5123     2.6537
 3334.4084     8.6158     -.0141    35.0544    11.8573     2.6332
 3334.5608     8.6160     -.0103    36.3409    11.6839     2.6292
 3334.7132     8.6191     -.0022    36.1391    12.1424     2.6393
 3334.8656     8.6262     -.0047    35.7558    12.6203     2.6352
 3335.0180     8.6331     -.0091    35.3236    12.6970     2.6223
 3335.1704     8.6341     -.0070    33.6845    11.9719     2.6366
 3335.3228     8.6307     -.0047    31.7445    11.6716     2.6212
 3335.4752     8.6272      .0021    29.6239    12.0623     2.6237
 3335.6276     8.6238     -.0001    28.5234    12.5192     2.6214
 3335.7800     8.6203     -.0034    29.3467    13.4391     2.6172
 3335.9324     8.6182     -.0087    30.1669    14.6200     2.6137
 3336.0848     8.6180     -.0136    32.2299    14.8411     2.6028
 3336.2372     8.6182     -.0094    34.2808    14.2994     2.5882
 3336.3896     8.6184     -.0095    34.1065    13.9832     2.5940
 3336.5420     8.6186     -.0117    31.8451    15.1761     2.6137
 3336.6944     8.6188     -.0082    29.6311    17.1838     2.6154
 3336.8468     8.6230     -.0001    28.2224    18.6785     2.6246
 3336.9992     8.6314      .0022    29.4059    18.8511     2.6247
 3337.1516     8.6399      .0012    32.1154    18.5269     2.5887
 3337.3040     8.6485     -.0017    33.7029    17.4563     2.5694
 3337.4564     8.6560     -.0020    36.9417    16.0659     2.5775
 3337.6088     8.6574      .0033    40.7996    15.2402     2.6127
 3337.7612     8.6536      .0049    41.3046    14.3499     2.6282
 3337.9136     8.6499      .0032    40.5813    13.1696     2.6163
 3338.0660     8.6461      .0043    38.4071    11.7422     2.6293
 3338.2184     8.6423      .0053    34.5469    10.7456     2.6559
 3338.3708     8.6398      .0018    32.6741    10.7378     2.6525
 3338.5232     8.6391      .0017    29.1398    10.4308     2.6526
 3338.6756     8.6390      .0078    29.9693    10.7795     2.6552
 3338.8280     8.6388      .0050    30.2881    12.4346     2.6136
 3338.9804     8.6387     -.0039    31.1729    14.2107     2.5845
 3339.1328     8.6385     -.0054    32.9907    16.1374     2.5904
 3339.2852     8.6384      .0099    37.4516    16.4566     2.5989
 3339.4376     8.6382      .0043    38.1652    15.5768     2.5980
 3339.5900     8.6370      .0050    33.3831    14.1270     2.5980
 3339.7424     8.6342      .0102    29.7738    12.5458     2.6020
 3339.8948     8.6311      .0051    28.5567    11.2124     2.6232
 3340.0472     8.6279      .0017    29.7184    11.1601     2.6163
 3340.1996     8.6247      .0042    28.9240    12.6417     2.6235
 3340.3520     8.6216      .0011    29.2276    13.3576     2.6078
 3340.5044     8.6186     -.0038    29.7221    12.7423     2.5865
 3340.6568     8.6170     -.0073    29.3231    12.4562     2.5757
 3340.8092     8.6169     -.0076    30.8031    12.5499     2.5818
 3340.9616     8.6168     -.0047    31.7541    12.7541     2.5973
 3341.1140     8.6166      .0024    32.1871    12.3170     2.6109
 3341.2664     8.6165      .0019    30.7479    12.0369     2.6186
 3341.4188     8.6163     -.0075    30.4644    12.5591     2.6100
 3341.5712     8.6162     -.0038    30.6840    13.6236     2.6156
 3341.7236     8.6156     -.0031    30.0386    14.8529     2.6329
 3341.8760     8.6139     -.0038    31.6696    15.5181     2.6107
 3342.0284     8.6113      .0015    33.4622    15.2383     2.6328
 3342.1808     8.6087      .0008    34.4459    15.0528     2.6457
 3342.3332     8.6061     -.0010    35.3480    14.6223     2.6368
 3342.4856     8.6034     -.0055    35.1607    13.9535     2.6264
 3342.6380     8.6008      .0005    33.3149    13.7659     2.6355
 3342.7904     8.5982     -.0008    32.1826    13.8605     2.6270
 3342.9428     8.5961     -.0073    32.0248    14.0131     2.6139
 3343.0952     8.5964     -.0096    29.4665    14.1027     2.5969
 3343.2476     8.5987      .0034    29.5108    14.1779     2.6083
 3343.4000     8.6011     -.0013    30.9071    14.1325     2.5991
 3343.5524     8.6035     -.0034    31.5001    13.5319     2.5861
 3343.7048     8.6058     -.0004    31.9440    12.7765     2.6048
 3343.8572     8.6082     -.0030    31.4445    12.7882     2.6088
 3344.0096     8.6106     -.0073    30.0433    14.8261     2.6087
 3344.1620     8.6127     -.0039    29.6987    16.8010     2.6130
 3344.3144     8.6135     -.0013    30.7493    18.7841     2.5990
 3344.4668     8.6133     -.0092    33.4441    19.1027     2.5833
 3344.6192     8.6132     -.0131    37.1241    18.3102     2.5856
 3344.7716     8.6131     -.0093    37.8163    17.3821     2.5842
 3344.9240     8.6129     -.0064    36.1782    16.2931     2.5642
 3345.0764     8.6128     -.0099    36.6815    14.1472     2.5560
 3345.2288     8.6124     -.0082    39.2947    12.4781     2.5692
 3345.3812     8.6103     -.0110    42.7534    11.1240     2.5755
 3345.5336     8.6063     -.0132    42.9336    10.0917     2.5973
 3345.6860     8.6024     -.0093    39.8716     9.1057     2.6123
 3345.8384     8.5985     -.0100    35.5505     8.7670     2.6160
 3345.9908     8.5946     -.0094    31.1212     9.3904     2.6209
 3346.1432     8.5932      .0063    27.1324    11.9989     2.6176
 3346.2956     8.5951      .0070    26.0812    13.7387     2.6296
 3346.4480     8.5977     -.0048    25.7477    13.9475     2.6505
 3346.6004     8.6003     -.0053    28.6169    13.6578     2.6399
 3346.7528     8.6029     -.0103    32.6459    13.5783     2.6336
 3346.9052     8.6055     -.0018    34.5665    13.5779     2.6123
 3347.0576     8.6080      .0045    33.3403    13.8455     2.6334
 3347.2100     8.6100      .0006    30.7007    14.2551     2.6279
 3347.3624     8.6105      .0107    28.7759    14.6654     2.6311
 3347.5148     8.6104      .0110    29.7765    14.8781     2.6422
 3347.6672     8.6102      .0077    31.5944    14.2006     2.6436
 3347.8196     8.6101      .0037    33.5184    13.4911     2.6552
 3347.9720     8.6099     -.0022    35.1645    13.2326     2.6511
 3348.1244     8.6098     -.0022    35.7460    12.2308     2.6504
 3348.2768     8.6097     -.0032    34.6318    10.0361     2.6535
 3348.4292     8.6095     -.0075    34.0429     8.8269     2.6590
 3348.5816     8.6094     -.0072    33.1688     7.9016     2.6753
 3348.7340     8.6092     -.0034    29.1483     8.7706     2.6549
 3348.8864     8.6091     -.0029    24.1285     9.4514     2.6507
 3349.0388     8.6089     -.0008    23.0094     9.6054     2.6625
 3349.1912     8.6088      .0078    23.4759     9.0747     2.6665
 3349.3436     8.6087      .0049    25.0020     8.9928     2.6715
 3349.4960     8.6111      .0047    24.4218     9.4563     2.6611
 3349.6484     8.6158      .0057    24.0239     9.9799     2.6768
