~VERSION INFORMATION
VERS.                                                 2.0:   CWLS Log ASCII Standard-VERSION 2.0
WRAP.                                                  NO:   One line per depth step
~Well Information Block
STRT.M                                          1304.5928:   Top Depth
STOP.M                                          3664.0496:   Bottom Depth
STEP.M                                             .15240:   Depth Increment
NULL.                                            -999.250:   Null Value
FLD .                                             WILDCAT:   Field Name
WELL.                                              15/6-2:   NAME
WBN .                                              15/6-2:   WELLBORE
NATI.                                                 NOR:   COUNTRY
CTRY.                                                 NOR:   COUNTRY
COMP.                        ESSO EXPLORATION NORWAY INC.:   OPERATOR
PROV.                                           NORTH SEA:   PROVINCE
COUN.                                   GLOMAR GRAND ISLE:   RIG NAME
SPUD.                                          1971/09/09:   SPUD DATE
LATI.                                       58 32 47.60 N:   SURF. LATITUDE
LONG.                                        1 41 54.10 E:   SURF. LONGITUDE
PBWE.                                              15/6-2:   PB WELL ID
APIN.                                              15/6-2:   PB WELLBORE ID
PBWS.                                                 all:   PB WELL NAME SET
~PARAMETER INFORMATION (log)
LNAM.                              FDC/CNL/GR  COMPOSITED:   NAME
LTYP.                                         DEPTH MATCH:   LOG TYPE
LSRV.                                            DEN/NEUT:   LOG SERVICE
LSOU.                                             SPT/NPD:   LOG SOURCE
LVSN.                                                   1:   LOG VERSION
BHIS.                                                   R:   BRIEF HISTORY
FHIS.                                             RAW-LIS:   FULL HISTORY
LCNM.                                        SCHLUMBERGER:   LOGGING CONTRACTOR
TOOL.                             FDC/CNL/GR (COMPOSITED):   TOOL STRING
~Curve Information Block
#MNEM.UNIT                                        API CODE    No Description
#=========                                        ========    == ===========
DEPT.M                                       00 001 00 00:     1  DEPTH
CALI.IN                                                  :     2  Caliper
DRHO.G/CC                                                :     3  Bulk density correction
GR.GAPI                                                  :     4  Gamma Ray
NPHI.%                                                   :     5  Neutron porosity
RHOB.G/CC                                                :     6  Bulk density
~ASCII
# ...
 1769.4128    11.8992      .0413  -999.2500  -999.2500     2.0807
 1769.5652    11.9323      .0320  -999.2500  -999.2500     2.0653
 1769.7176    11.8742      .0432  -999.2500  -999.2500     2.0739
 1769.8700    11.8225      .0567  -999.2500  -999.2500     2.0879
 1770.0224    11.8482      .0441  -999.2500  -999.2500     2.0672
 1770.1748    11.8926      .0286  -999.2500  -999.2500     2.0449
 1770.3272    11.9563      .0345  -999.2500  -999.2500     2.0587
 1770.4796    12.1031      .0413  -999.2500  -999.2500     2.0781
 1770.6320    12.2275      .0419  -999.2500  -999.2500     2.0884
 1770.7844    12.2510      .0523  -999.2500  -999.2500     2.0787
 1770.9368    12.2379      .0628  -999.2500  -999.2500     2.0796
 1771.0892    12.2086      .0591  -999.2500  -999.2500     2.0601
 1771.2416    12.1824      .0396  -999.2500  -999.2500     2.0351
 1771.3940    12.1794      .0298  -999.2500  -999.2500     2.0109
 1771.5464    12.1967      .0127  -999.2500  -999.2500     1.9986
 1771.6988    12.2140      .0225  -999.2500  -999.2500     1.9943
 1771.8512    12.2270      .0169  -999.2500  -999.2500     1.9855
 1772.0036    12.2252      .0043  -999.2500  -999.2500     1.9801
 1772.1560    12.1868      .0090  -999.2500  -999.2500     1.9899
 1772.3084    12.1152      .0069  -999.2500  -999.2500     2.0040
 1772.4608    12.0399      .0016  -999.2500  -999.2500     2.0290
 1772.6132    12.0288     -.0015  -999.2500  -999.2500     2.0446
 1772.7656    12.1773      .0087  -999.2500  -999.2500     2.0561
 1772.9180    12.3546      .0144  -999.2500  -999.2500     2.0485
 1773.0704    12.4261      .0076  -999.2500  -999.2500     2.0231
 1773.2228    12.4241      .0098  -999.2500  -999.2500     2.0212
 1773.3752    12.3523      .0267  -999.2500  -999.2500     2.0438
 1773.5276    12.2461      .0210  -999.2500  -999.2500     2.0393
 1773.6800    12.1437      .0176  -999.2500  -999.2500     2.0366
 1773.8324    12.0711      .0261  -999.2500  -999.2500     2.0475
 1773.9848    12.0355      .0345  -999.2500  -999.2500     2.0548
 1774.1372    12.0174      .0324  -999.2500  -999.2500     2.0643
 1774.2896    12.0264      .0302  -999.2500  -999.2500     2.0821
 1774.4420    12.0442      .0203  -999.2500  -999.2500     2.0921
 1774.5944    11.9942      .0157  -999.2500  -999.2500     2.0987
 1774.7468    11.8912      .0311  -999.2500  -999.2500     2.0976
 1774.8992    11.8416      .0116  -999.2500  -999.2500     2.0550
 1775.0516    11.9109     -.0021  -999.2500  -999.2500     2.0637
 1775.2040    12.0332     -.0022  -999.2500  -999.2500     2.0895
 1775.3564    12.1486     -.0076  -999.2500  -999.2500     2.0933
 1775.5088    12.1813     -.0032  -999.2500  -999.2500     2.0836
 1775.6612    12.1027      .0044  -999.2500  -999.2500     2.0643
 1775.8136    12.0532      .0162  -999.2500  -999.2500     2.0434
 1775.9660    12.0512      .0228  -999.2500  -999.2500     2.0169
 1776.1184    12.0412      .0126  -999.2500  -999.2500     1.9984
 1776.2708    12.0259      .0072  -999.2500  -999.2500     1.9883
 1776.4232    12.0118      .0037  -999.2500  -999.2500     1.9974
 1776.5756    12.0195      .0032  -999.2500  -999.2500     2.0123
 1776.7280    12.0758      .0042  -999.2500  -999.2500     2.0090
 1776.8804    12.1878      .0135  -999.2500  -999.2500     2.0166
 1777.0328    12.2551      .0290  -999.2500  -999.2500     2.0345
 1777.1852    12.2519      .0345  -999.2500  -999.2500     2.0413
 1777.3376    12.2757      .0413  -999.2500  -999.2500     2.0421
 1777.4900    12.3328      .0285  -999.2500  -999.2500     2.0574
 1777.6424    12.3983      .0161  -999.2500  -999.2500     2.0855
 1777.7948    12.4337      .0031  -999.2500  -999.2500     2.1170
 1777.9472    12.4059      .0121  -999.2500  -999.2500     2.1398
 1778.0996    12.3827      .0030  -999.2500  -999.2500     2.1201
 1778.2520    12.4474     -.0085  -999.2500  -999.2500     2.0903
 1778.4044    12.5564     -.0097  -999.2500  -999.2500     2.0827
 1778.5568    12.6234     -.0045  -999.2500  -999.2500     2.1000
 1778.7092    12.6318     -.0081  -999.2500  -999.2500     2.0969
 1778.8616    12.4360      .0148  -999.2500  -999.2500     2.0926
 1779.0140    12.1161      .0314  -999.2500  -999.2500     2.0756
 1779.1664    12.0289      .0454  -999.2500  -999.2500     2.0718
 1779.3188    12.1478      .0441  -999.2500  -999.2500     2.0665
 1779.4712    12.2768      .0280  -999.2500  -999.2500     2.0565
 1779.6236    12.3141      .0220  -999.2500  -999.2500     2.0428
 1779.7760    12.3180      .0121  -999.2500  -999.2500     2.0298
 1779.9284    12.4541      .0043  -999.2500  -999.2500     2.0268
 1780.0808    12.6135     -.0010  -999.2500  -999.2500     2.0224
 1780.2332    12.6408      .0041  -999.2500  -999.2500     2.0110
 1780.3856    12.5322      .0048  -999.2500  -999.2500     1.9996
 1780.5380    12.3730      .0010  -999.2500  -999.2500     1.9906
 1780.6904    12.2499      .0019  -999.2500  -999.2500     1.9866
 1780.8428    12.0596      .0096  -999.2500  -999.2500     1.9884
 1780.9952    11.9226      .0151  -999.2500  -999.2500     1.9830
 1781.1476    11.8932      .0223  -999.2500  -999.2500     1.9841
 1781.3000    11.7844      .0230  -999.2500  -999.2500     1.9895
 1781.4524    11.6353      .0154  -999.2500  -999.2500     1.9954
 1781.6048    11.5315      .0103  -999.2500  -999.2500     2.0017
 1781.7572    11.5645      .0129  -999.2500  -999.2500     2.0128
 1781.9096    11.6140      .0210  -999.2500  -999.2500     2.0283
 1782.0620    11.5761      .0293  -999.2500  -999.2500     2.0414
 1782.2144    11.5732      .0081  -999.2500  -999.2500     2.0238
 1782.3668    11.5352      .0214  -999.2500  -999.2500     2.0544
 1782.5192    11.5191      .0357  -999.2500  -999.2500     2.0422
 1782.6716    11.6664      .0264  -999.2500  -999.2500     2.0548
 1782.8240    11.8620      .0120  -999.2500  -999.2500     2.0651
 1782.9764    11.9763      .0073  -999.2500  -999.2500     2.0670
 1783.1288    11.9969      .0049  -999.2500  -999.2500     2.0688
 1783.2812    11.9938      .0065  -999.2500  -999.2500     2.0650
 1783.4336    12.0461      .0142  -999.2500  -999.2500     2.0527
 1783.5860    12.0838      .0213  -999.2500  -999.2500     2.0257
 1783.7384    12.0537      .0227  -999.2500  -999.2500     2.0020
 1783.8908    12.0119      .0082  -999.2500  -999.2500     1.9954
 1784.0432    11.9827      .0241  -999.2500  -999.2500     2.0180
 1784.1956    11.9758      .0365  -999.2500  -999.2500     2.0240
 1784.3480    12.0256      .0302  -999.2500  -999.2500     2.0242
 1784.5004    12.1360      .0335  -999.2500  -999.2500     2.0273
 1784.6528    12.1885      .0289  -999.2500  -999.2500     2.0124
 1784.8052    12.1342      .0242  -999.2500  -999.2500     2.0046
 1784.9576    12.1046      .0411  -999.2500  -999.2500     2.0219
 1785.1100    12.1426      .0550  -999.2500  -999.2500     2.0394
 1785.2624    12.1923      .0354  -999.2500  -999.2500     2.0309
 1785.4148    12.2608      .0433  -999.2500  -999.2500     2.0359
 1785.5672    12.3339      .0574  -999.2500  -999.2500     2.0500
 1785.7196    12.3297      .0343  -999.2500  -999.2500     2.0203
 1785.8720    12.2524      .0249  -999.2500  -999.2500     2.0102
 1786.0244    12.2357      .0201  -999.2500  -999.2500     1.9953
 1786.1768    12.2709      .0256  -999.2500  -999.2500     2.0088
 1786.3292    12.2115      .0426  -999.2500  -999.2500     2.0247
 1786.4816    12.0935      .0319  -999.2500  -999.2500     2.0198
 1786.6340    12.0845      .0168  -999.2500  -999.2500     2.0173
 1786.7864    12.1856      .0259  -999.2500  -999.2500     2.0495
 1786.9388    12.1945      .0398  -999.2500  -999.2500     2.0734
 1787.0912    12.0599      .0149  -999.2500  -999.2500     2.0831
 1787.2436    12.0190      .0023  -999.2500  -999.2500     2.0951
 1787.3960    12.1985      .0125  -999.2500  -999.2500     2.1114
 1787.5484    12.3570      .0354  -999.2500  -999.2500     2.1266
 1787.7008    12.3340      .0328  -999.2500  -999.2500     2.1267
 1787.8532    12.2898      .0216  -999.2500  -999.2500     2.1139
