~VERSION INFORMATION
VERS.                                                 2.0:   CWLS Log ASCII Standard-VERSION 2.0
WRAP.                                                  NO:   One line per depth step
~Well Information Block
STRT.M                                          1304.5928:   Top Depth
STOP.M                                          3664.0496:   Bottom Depth
STEP.M                                             .15240:   Depth Increment
NULL.                                            -999.250:   Null Value
FLD .                                             WILDCAT:   Field Name
WELL.                                              15/6-2:   NAME
WBN .                                              15/6-2:   WELLBORE
NATI.                                                 NOR:   COUNTRY
CTRY.                                                 NOR:   COUNTRY
COMP.                        ESSO EXPLORATION NORWAY INC.:   OPERATOR
PROV.                                           NORTH SEA:   PROVINCE
COUN.                                   GLOMAR GRAND ISLE:   RIG NAME
SPUD.                                          1971/09/09:   SPUD DATE
LATI.                                       58 32 47.60 N:   SURF. LATITUDE
LONG.                                        1 41 54.10 E:   SURF. LONGITUDE
PBWE.                                              15/6-2:   PB WELL ID
APIN.                                              15/6-2:   PB WELLBORE ID
PBWS.                                                 all:   PB WELL NAME SET
~PARAMETER INFORMATION (log)
LNAM.                              FDC/CNL/GR  COMPOSITED:   NAME
LTYP.                                         DEPTH MATCH:   LOG TYPE
LSRV.                                            DEN/NEUT:   LOG SERVICE
LSOU.                                             SPT/NPD:   LOG SOURCE
LVSN.                                                   1:   LOG VERSION
BHIS.                                                   R:   BRIEF HISTORY
FHIS.                                             RAW-LIS:   FULL HISTORY
LCNM.                                        SCHLUMBERGER:   LOGGING CONTRACTOR
TOOL.                             FDC/CNL/GR (COMPOSITED):   TOOL STRING
~Curve Information Block
#MNEM.UNIT                                        API CODE    No Description
#=========                                        ========    == ===========
DEPT.M                                       00 001 00 00:     1  DEPTH
CALI.IN                                                  :     2  Caliper
DRHO.G/CC                                                :     3  Bulk density correction
GR.GAPI                                                  :     4  Gamma Ray
NPHI.%                                                   :     5  Neutron porosity
RHOB.G/CC                                                :     6  Bulk density
~ASCII
# ...
 2401.5680    11.7257     -.0010  -999.2500  -999.2500     2.1441
 2401.7204    11.7095     -.0118  -999.2500  -999.2500     2.1343
 2401.8728    11.6971     -.0043  -999.2500  -999.2500     2.1418
 2402.0252    11.6928     -.0051  -999.2500  -999.2500     2.1319
 2402.1776    11.6929     -.0075  -999.2500  -999.2500     2.1294
 2402.3300    11.6965     -.0070  -999.2500  -999.2500     2.1354
 2402.4824    11.7073     -.0216  -999.2500  -999.2500     2.1212
 2402.6348    11.7221     -.0239  -999.2500  -999.2500     2.1389
 2402.7872    11.7368     -.0052  -999.2500  -999.2500     2.1581
 2402.9396    11.7515      .0009  -999.2500  -999.2500     2.1715
 2403.0920    11.7663      .0062  -999.2500  -999.2500     2.1715
 2403.2444    11.7810      .0112  -999.2500  -999.2500     2.1691
 2403.3968    11.7894      .0173  -999.2500  -999.2500     2.1685
 2403.5492    11.7881      .0117  -999.2500  -999.2500     2.1583
 2403.7016    11.7836      .0029  -999.2500  -999.2500     2.1507
 2403.8540    11.7791     -.0027  -999.2500  -999.2500     2.1399
 2404.0064    11.7730      .0038  -999.2500  -999.2500     2.1369
 2404.1588    11.7623      .0109  -999.2500  -999.2500     2.1424
 2404.3112    11.7486      .0011  -999.2500  -999.2500     2.1296
 2404.4636    11.7349     -.0081  -999.2500  -999.2500     2.1141
 2404.6160    11.7213     -.0115  -999.2500  -999.2500     2.1247
 2404.7684    11.7132     -.0122  -999.2500  -999.2500     2.1396
 2404.9208    11.7104     -.0107  -999.2500  -999.2500     2.1417
 2405.0732    11.7076     -.0041  -999.2500  -999.2500     2.1495
 2405.2256    11.7048     -.0016  -999.2500  -999.2500     2.1438
 2405.3780    11.7020     -.0139  -999.2500  -999.2500     2.1388
 2405.5304    11.6992     -.0006  -999.2500  -999.2500     2.1534
 2405.6828    11.6967      .0139  -999.2500  -999.2500     2.1675
 2405.8352    11.6956      .0178  -999.2500  -999.2500     2.1598
 2405.9876    11.6957      .0235  -999.2500  -999.2500     2.1607
 2406.1400    11.6959      .0097  -999.2500  -999.2500     2.1518
 2406.2924    11.6960      .0006  -999.2500  -999.2500     2.1412
 2406.4448    11.6961      .0043  -999.2500  -999.2500     2.1513
 2406.5972    11.6951     -.0047  -999.2500  -999.2500     2.1493
 2406.7496    11.6922      .0093  -999.2500  -999.2500     2.1642
 2406.9020    11.6884      .0258  -999.2500  -999.2500     2.1901
 2407.0544    11.6847      .0080  -999.2500  -999.2500     2.1813
 2407.2068    11.6809     -.0032  -999.2500  -999.2500     2.1713
 2407.3592    11.6786      .0032  -999.2500  -999.2500     2.1804
 2407.5116    11.6799      .0126  -999.2500  -999.2500     2.1870
 2407.6640    11.6832      .0110  -999.2500  -999.2500     2.1788
 2407.8164    11.6866      .0124  -999.2500  -999.2500     2.1630
 2407.9688    11.6899      .0047  -999.2500  -999.2500     2.1423
 2408.1212    11.6932      .0027  -999.2500  -999.2500     2.1358
 2408.2736    11.6964      .0051  -999.2500  -999.2500     2.1475
 2408.4260    11.6981      .0162  -999.2500  -999.2500     2.1662
 2408.5784    11.6984      .0167  -999.2500  -999.2500     2.1611
 2408.7308    11.6986      .0133  -999.2500  -999.2500     2.1710
 2408.8832    11.6989      .0202  -999.2500  -999.2500     2.1867
 2409.0356    11.6992      .0340  -999.2500  -999.2500     2.2090
 2409.1880    11.6964      .0279  -999.2500  -999.2500     2.2060
 2409.3404    11.6896      .0162  -999.2500  -999.2500     2.1979
 2409.4928    11.6820      .0266  -999.2500  -999.2500     2.2132
 2409.6452    11.6745      .0120  -999.2500  -999.2500     2.2140
 2409.7976    11.6669      .0200  -999.2500  -999.2500     2.2496
 2409.9500    11.6594      .0100  -999.2500  -999.2500     2.2880
 2410.1024    11.6518      .0169  -999.2500  -999.2500     2.3109
 2410.2548    11.6446      .0098  -999.2500  -999.2500     2.2748
 2410.4072    11.6390      .0037  -999.2500  -999.2500     2.1966
 2410.5596    11.6349     -.0012  -999.2500  -999.2500     2.1398
 2410.7120    11.6307     -.0030  -999.2500  -999.2500     2.1319
 2410.8644    11.6265     -.0080  -999.2500  -999.2500     2.1340
 2411.0168    11.6323     -.0097  -999.2500  -999.2500     2.1468
 2411.1692    11.6530     -.0057  -999.2500  -999.2500     2.1612
 2411.3216    11.6962      .0008  -999.2500  -999.2500     2.1688
 2411.4740    11.7431      .0074  -999.2500  -999.2500     2.1810
 2411.6264    11.7514      .0162  -999.2500  -999.2500     2.1861
 2411.7788    11.7346      .0142  -999.2500  -999.2500     2.1833
 2411.9312    11.7254      .0039  -999.2500  -999.2500     2.1912
 2412.0836    11.7248     -.0001  -999.2500  -999.2500     2.2041
 2412.2360    11.7293      .0034  -999.2500  -999.2500     2.2137
 2412.3884    11.7384      .0106  -999.2500  -999.2500     2.2148
 2412.5408    11.7444      .0156  -999.2500  -999.2500     2.2066
 2412.6932    11.7459      .0058  -999.2500  -999.2500     2.2115
 2412.8456    11.7461      .0007  -999.2500  -999.2500     2.2260
 2412.9980    11.7464      .0076  -999.2500  -999.2500     2.2638
 2413.1504    11.7467      .0122  -999.2500  -999.2500     2.2744
 2413.3028    11.7456      .0181  -999.2500  -999.2500     2.2767
 2413.4552    11.7421      .0285  -999.2500  -999.2500     2.2875
 2413.6076    11.7378      .0175  -999.2500  -999.2500     2.2670
 2413.7600    11.7335      .0127  -999.2500  -999.2500     2.2420
 2413.9124    11.7282      .0292  -999.2500  -999.2500     2.2210
 2414.0648    11.7198      .0164  -999.2500  -999.2500     2.1981
 2414.2172    11.7168      .0059  -999.2500  -999.2500     2.2078
 2414.3696    11.7299      .0222  -999.2500  -999.2500     2.2345
 2414.5220    11.7513      .0134  -999.2500  -999.2500     2.2381
 2414.6744    11.7643      .0283  -999.2500  -999.2500     2.2541
 2414.8268    11.7644      .0195  -999.2500  -999.2500     2.2711
 2414.9792    11.7600      .0225  -999.2500  -999.2500     2.2893
 2415.1316    11.7557      .0174  -999.2500  -999.2500     2.2678
 2415.2840    11.7469      .0272  -999.2500  -999.2500     2.2399
 2415.4364    11.7124      .0118  -999.2500  -999.2500     2.1997
 2415.5888    11.6691      .0035  -999.2500  -999.2500     2.1885
 2415.7412    11.6559      .0028  -999.2500  -999.2500     2.1832
 2415.8936    11.6599     -.0017  -999.2500  -999.2500     2.1758
 2416.0460    11.6639     -.0058  -999.2500  -999.2500     2.1599
 2416.1984    11.6680      .0027  -999.2500  -999.2500     2.1663
 2416.3508    11.6698      .0085  -999.2500  -999.2500     2.1841
 2416.5032    11.6616      .0194  -999.2500  -999.2500     2.2011
 2416.6556    11.6456      .0124  -999.2500  -999.2500     2.2129
 2416.8080    11.6295      .0110  -999.2500  -999.2500     2.2297
 2416.9604    11.6247     -.0025  -999.2500  -999.2500     2.2531
 2417.1128    11.6397     -.0104  -999.2500  -999.2500     2.2779
 2417.2652    11.6634      .0019  -999.2500  -999.2500     2.2757
 2417.4176    11.6870      .0020  -999.2500  -999.2500     2.2561
 2417.5700    11.7106      .0055  -999.2500  -999.2500     2.2374
 2417.7224    11.7343      .0025  -999.2500  -999.2500     2.2284
 2417.8748    11.7448      .0105  -999.2500  -999.2500     2.2382
 2418.0272    11.7337      .0233  -999.2500  -999.2500     2.2515
 2418.1796    11.7140      .0169  -999.2500  -999.2500     2.2505
 2418.3320    11.7128      .0090  -999.2500  -999.2500     2.2521
 2418.4844    11.7417      .0229  -999.2500  -999.2500     2.2695
 2418.6368    11.7820      .0286  -999.2500  -999.2500     2.2569
 2418.7892    11.8224      .0186  -999.2500  -999.2500     2.2371
 2418.9416    11.8421      .0239  -999.2500  -999.2500     2.2204
 2419.0940    11.8298      .0218  -999.2500  -999.2500     2.2105
 2419.2464    11.8123      .0062  -999.2500  -999.2500     2.1868
 2419.3988    11.8010      .0055  -999.2500  -999.2500     2.1840
 2419.5512    11.7899      .0109  -999.2500  -999.2500     2.1899
 2419.7036    11.7805      .0180  -999.2500  -999.2500     2.2058
 2419.8560    11.7744      .0326  -999.2500  -999.2500     2.2219
 2420.0084    11.7701      .0134  -999.2500  -999.2500     2.2024
