~VERSION INFORMATION
VERS.                                                 2.0:   CWLS Log ASCII Standard-VERSION 2.0
WRAP.                                                  NO:   One line per depth step
~Well Information Block
STRT.M                                          1304.5928:   Top Depth
STOP.M                                          3664.0496:   Bottom Depth
STEP.M                                             .15240:   Depth Increment
NULL.                                            -999.250:   Null Value
FLD .                                             WILDCAT:   Field Name
WELL.                                              15/6-2:   NAME
WBN .                                              15/6-2:   WELLBORE
NATI.                                                 NOR:   COUNTRY
CTRY.                                                 NOR:   COUNTRY
COMP.                        ESSO EXPLORATION NORWAY INC.:   OPERATOR
PROV.                                           NORTH SEA:   PROVINCE
COUN.                                   GLOMAR GRAND ISLE:   RIG NAME
SPUD.                                          1971/09/09:   SPUD DATE
LATI.                                       58 32 47.60 N:   SURF. LATITUDE
LONG.                                        1 41 54.10 E:   SURF. LONGITUDE
PBWE.                                              15/6-2:   PB WELL ID
APIN.                                              15/6-2:   PB WELLBORE ID
PBWS.                                                 all:   PB WELL NAME SET
~PARAMETER INFORMATION (log)
LNAM.                              FDC/CNL/GR  COMPOSITED:   NAME
LTYP.                                         DEPTH MATCH:   LOG TYPE
LSRV.                                            DEN/NEUT:   LOG SERVICE
LSOU.                                             SPT/NPD:   LOG SOURCE
LVSN.                                                   1:   LOG VERSION
BHIS.                                                   R:   BRIEF HISTORY
FHIS.                                             RAW-LIS:   FULL HISTORY
LCNM.                                        SCHLUMBERGER:   LOGGING CONTRACTOR
TOOL.                             FDC/CNL/GR (COMPOSITED):   TOOL STRING
~Curve Information Block
#MNEM.UNIT                                        API CODE    No Description
#=========                                        ========    == ===========
DEPT.M                                       00 001 00 00:     1  DEPTH
CALI.IN                                                  :     2  Caliper
DRHO.G/CC                                                :     3  Bulk density correction
GR.GAPI                                                  :     4  Gamma Ray
NPHI.%                                                   :     5  Neutron porosity
RHOB.G/CC                                                :     6  Bulk density
~ASCII
 1304.5928  -999.2500     -.5080  -999.2500  -999.2500  -999.2500
 1304.7452     8.0714     -.5055  -999.2500  -999.2500     2.0001
 1304.8976     8.0773     -.5043  -999.2500  -999.2500     2.0005
 1305.0500     8.0788     -.5046  -999.2500  -999.2500     2.0008
 1305.2024     8.0663     -.5031  -999.2500  -999.2500     2.0000
 1305.3548     8.0445     -.5010  -999.2500  -999.2500     1.9992
 1305.5072     8.0309     -.4984  -999.2500  -999.2500     1.9984
 1305.6596     8.0351     -.4974  -999.2500  -999.2500     1.9978
 1305.8120     8.0494     -.4986  -999.2500  -999.2500     1.9989
 1305.9644     8.0641     -.5013  -999.2500  -999.2500     2.0001
 1306.1168     8.0788     -.5047  -999.2500  -999.2500     2.0012
 1306.2692     8.0935     -.5082  -999.2500  -999.2500     2.0023
 1306.4216     8.1078     -.5103  -999.2500  -999.2500     2.0032
 1306.5740     8.1143     -.5079  -999.2500  -999.2500     2.0010
 1306.7264     8.1133     -.5053  -999.2500  -999.2500     1.9998
 1306.8788     8.1089     -.5013  -999.2500  -999.2500     1.9991
 1307.0312     8.0859     -.4993  -999.2500  -999.2500     1.9984
 1307.1836     8.0476     -.4969  -999.2500  -999.2500     1.9977
 1307.3360     8.0093     -.4978  -999.2500  -999.2500     1.9974
 1307.4884     7.9990     -.4997  -999.2500  -999.2500     1.9986
 1307.6408     8.0172     -.5020  -999.2500  -999.2500     1.9998
 1307.7932     8.0358     -.5009  -999.2500  -999.2500     2.0040
 1307.9456     8.6739     -.1348  -999.2500  -999.2500     2.5000
 1308.0980    10.9702     -.0049  -999.2500  -999.2500     2.5009
 1308.2504    12.6631     -.0035  -999.2500  -999.2500     2.5009
 1308.4028    12.6837     -.0043  -999.2500  -999.2500     2.5010
 1308.5552    12.6690     -.0048  -999.2500  -999.2500     2.5011
 1308.7076    12.6544     -.0031  -999.2500  -999.2500     2.5012
 1308.8600    12.6398     -.0006  -999.2500  -999.2500     2.5012
 1309.0124    12.6316      .0010  -999.2500  -999.2500     2.5013
 1309.1648    12.6302      .0015  -999.2500  -999.2500     2.5014
 1309.3172    12.6301      .0010  -999.2500  -999.2500     2.5015
 1309.4696    12.6408     -.0017  -999.2500  -999.2500     2.5015
 1309.6220    12.6613     -.0054  -999.2500  -999.2500     2.5016
 1309.7744    12.6817     -.0065  -999.2500  -999.2500     2.5017
 1309.9268    12.6959     -.0051  -999.2500  -999.2500     2.5018
 1310.0792    12.6934     -.0032  -999.2500  -999.2500     2.5018
 1310.2316    12.6806     -.0018  -999.2500  -999.2500     2.5019
 1310.3840    12.6677     -.0019  -999.2500  -999.2500     2.5020
 1310.5364    12.6549     -.0034  -999.2500  -999.2500     2.5020
 1310.6888    12.6467     -.0122  -999.2500  -999.2500     2.4226
 1310.8412    12.6520     -.2966  -999.2500  -999.2500     2.2203
 1310.9936    12.6664     -.2985  -999.2500  -999.2500     2.2288
 1311.1460    12.6808     -.2972  -999.2500  -999.2500     2.2437
 1311.2984    12.6952     -.2962  -999.2500  -999.2500     2.2518
 1311.4508    12.7071     -.2968  -999.2500  -999.2500     2.2426
 1311.6032    12.7041     -.2978  -999.2500  -999.2500     2.1924
 1311.7556    12.6888     -.2964  -999.2500  -999.2500     2.1400
 1311.9080    12.6734     -.2952  -999.2500  -999.2500     2.1214
 1312.0604    12.6583     -.2953  -999.2500  -999.2500     2.1168
 1312.2128    12.6582     -.2970  -999.2500  -999.2500     2.1298
 1312.3652    12.6732     -.2988  -999.2500  -999.2500     2.1526
 1312.5176    12.6862     -.2982  -999.2500  -999.2500     2.1760
 1312.6700    12.6955     -.2958  -999.2500  -999.2500     2.2397
 1312.8224    12.7014     -.2943  -999.2500  -999.2500     2.2981
 1312.9748    12.6980     -.2936  -999.2500  -999.2500     2.3235
 1313.1272    12.7020     -.2939  -999.2500  -999.2500     2.2255
 1313.2796    12.7870     -.2137  -999.2500  -999.2500     2.1323
 1313.4320    12.9215     -.0783  -999.2500  -999.2500     2.0331
 1313.5844    13.6230     -.0201  -999.2500  -999.2500     1.9335
 1313.7368    15.0630     -.0074  -999.2500  -999.2500     1.8815
 1313.8892    16.1215     -.0087  -999.2500  -999.2500     1.9059
 1314.0416    16.7072     -.0048  -999.2500  -999.2500     1.9268
 1314.1940    17.0598     -.0071  -999.2500  -999.2500     1.9359
 1314.3464    17.0893     -.0074  -999.2500  -999.2500     1.9367
 1314.4988    17.0390     -.0029  -999.2500  -999.2500     1.9398
 1314.6512    16.8695      .0062  -999.2500  -999.2500     1.9515
 1314.8036    16.8192      .0086  -999.2500  -999.2500     1.9535
 1314.9560    16.9619      .0017  -999.2500  -999.2500     1.9447
 1315.1084    17.0646     -.0080  -999.2500  -999.2500     1.9288
 1315.2608    17.0998     -.0225  -999.2500  -999.2500     1.8997
 1315.4132    17.0668     -.0294  -999.2500  -999.2500     1.8577
 1315.5656    16.8921     -.0264  -999.2500  -999.2500     1.8410
 1315.7180    16.7031     -.0182  -999.2500  -999.2500     1.8492
 1315.8704    16.7197     -.0084  -999.2500  -999.2500     1.8742
 1316.0228    16.6360     -.0105  -999.2500  -999.2500     1.8907
 1316.1752    16.4036      .0005  -999.2500  -999.2500     1.9248
 1316.3276    16.3408      .0091  -999.2500  -999.2500     1.9392
 1316.4800    16.4111      .0068  -999.2500  -999.2500     1.9407
 1316.6324    16.3421      .0115  -999.2500  -999.2500     1.9459
 1316.7848    16.2187      .0102  -999.2500  -999.2500     1.9391
 1316.9372    16.2426      .0080  -999.2500  -999.2500     1.9366
 1317.0896    16.3353      .0067  -999.2500  -999.2500     1.9405
 1317.2420    16.3555      .0078  -999.2500  -999.2500     1.9470
 1317.3944    16.3375      .0060  -999.2500  -999.2500     1.9521
 1317.5468    16.4979      .0077  -999.2500  -999.2500     1.9521
 1317.6992    16.6627     -.0028  -999.2500  -999.2500     1.9420
 1317.8516    16.5670      .0042  -999.2500  -999.2500     1.9439
 1318.0040    16.3624      .0110  -999.2500  -999.2500     1.9598
 1318.1564    16.2858      .0148  -999.2500  -999.2500     1.9800
 1318.3088    16.3655      .0114  -999.2500  -999.2500     1.9906
 1318.4612    16.6221      .0051  -999.2500  -999.2500     1.9910
 1318.6136    16.8411      .0012  -999.2500  -999.2500     1.9875
 1318.7660    16.8622     -.0025  -999.2500  -999.2500     1.9846
 1318.9184    16.8114     -.0004  -999.2500  -999.2500     1.9895
 1319.0708    16.7459      .0115  -999.2500  -999.2500     2.0144
 1319.2232    16.7266      .0190  -999.2500  -999.2500     2.0330
 1319.3756    16.7223      .0166  -999.2500  -999.2500     2.0442
 1319.5280    16.7243      .0179  -999.2500  -999.2500     2.0404
 1319.6804    16.8344      .0165  -999.2500  -999.2500     2.0299
 1319.8328    16.9564      .0140  -999.2500  -999.2500     2.0240
 1319.9852    17.0288      .0055  -999.2500  -999.2500     2.0154
 1320.1376    17.0670      .0039  -999.2500  -999.2500     2.0060
 1320.2900    17.0571      .0056  -999.2500  -999.2500     2.0017
 1320.4424    17.0322      .0086  -999.2500  -999.2500     2.0001
 1320.5948    16.9995      .0068  -999.2500  -999.2500     1.9855
 1320.7472    16.9680     -.0015  -999.2500  -999.2500     1.9663
 1320.8996    16.9670     -.0076  -999.2500  -999.2500     1.9474
 1321.0520    16.9884     -.0119  -999.2500  -999.2500     1.9423
 1321.2044    17.0108     -.0117  -999.2500  -999.2500     1.9531
 1321.3568    17.0337     -.0058  -999.2500  -999.2500     1.9785
 1321.5092    17.0518     -.0011  -999.2500  -999.2500     1.9965
 1321.6616    17.0505      .0003  -999.2500  -999.2500     2.0235
 1321.8140    17.0346      .0215  -999.2500  -999.2500     2.0530
 1321.9664    17.0186      .0255  -999.2500  -999.2500     2.0811
 1322.1188    17.0046      .0059  -999.2500  -999.2500     2.0917
 1322.2712    16.9980      .0048  -999.2500  -999.2500     2.0911
 1322.4236    16.9970      .0053  -999.2500  -999.2500     2.0722
 1322.5760    16.9995      .0121  -999.2500  -999.2500     2.0437
 1322.7284    17.0077      .0247  -999.2500  -999.2500     2.0203
 1322.8808    17.0182      .0097  -999.2500  -999.2500     2.0097
 1323.0332    17.0288     -.0012  -999.2500  -999.2500     1.9990
