~VERSION INFORMATION
VERS.                                                 2.0:   CWLS Log ASCII Standard-VERSION 2.0
WRAP.                                                  NO:   One line per depth step
~Well Information Block
STRT.M                                          1304.5928:   Top Depth
STOP.M                                          3664.0496:   Bottom Depth
STEP.M                                             .15240:   Depth Increment
NULL.                                            -999.250:   Null Value
FLD .                                             WILDCAT:   Field Name
WELL.                                              15/6-2:   NAME
WBN .                                              15/6-2:   WELLBORE
NATI.                                                 NOR:   COUNTRY
CTRY.                                                 NOR:   COUNTRY
COMP.                        ESSO EXPLORATION NORWAY INC.:   OPERATOR
PROV.                                           NORTH SEA:   PROVINCE
COUN.                                   GLOMAR GRAND ISLE:   RIG NAME
SPUD.                                          1971/09/09:   SPUD DATE
LATI.                                       58 32 47.60 N:   SURF. LATITUDE
LONG.                                        1 41 54.10 E:   SURF. LONGITUDE
PBWE.                                              15/6-2:   PB WELL ID
APIN.                                              15/6-2:   PB WELLBORE ID
PBWS.                                                 all:   PB WELL NAME SET
~PARAMETER INFORMATION (log)
LNAM.                              FDC/CNL/GR  COMPOSITED:   NAME
LTYP.                                         DEPTH MATCH:   LOG TYPE
LSRV.                                            DEN/NEUT:   LOG SERVICE
LSOU.                                             SPT/NPD:   LOG SOURCE
LVSN.                                                   1:   LOG VERSION
BHIS.                                                   R:   BRIEF HISTORY
FHIS.                                             RAW-LIS:   FULL HISTORY
LCNM.                                        SCHLUMBERGER:   LOGGING CONTRACTOR
TOOL.                             FDC/CNL/GR (COMPOSITED):   TOOL STRING
~Curve Information Block
#MNEM.UNIT                                        API CODE    No Description
#=========                                        ========    == ===========
DEPT.M                                       00 001 00 00:     1  DEPTH
CALI.IN                                                  :     2  Caliper
DRHO.G/CC                                                :     3  Bulk density correction
GR.GAPI                                                  :     4  Gamma Ray
NPHI.%                                                   :     5  Neutron porosity
RHOB.G/CC                                                :     6  Bulk density
~ASCII
# ...
 1453.3352    16.5147      .0115  -999.2500  -999.2500     2.1212
 1453.4876    16.4699      .0075  -999.2500  -999.2500     2.1189
 1453.6400    16.3882      .0075  -999.2500  -999.2500     2.0918
 1453.7924    16.3047      .0113  -999.2500  -999.2500     2.0850
 1453.9448    16.2504      .0311  -999.2500  -999.2500     2.1116
 1454.0972    16.1553      .0544  -999.2500  -999.2500     2.1230
 1454.2496    16.1130      .0722  -999.2500  -999.2500     2.1439
 1454.4020    16.1110      .0592  -999.2500  -999.2500     2.1416
 1454.5544    16.0211      .0341  -999.2500  -999.2500     2.1289
 1454.7068    15.9041      .0219  -999.2500  -999.2500     2.1056
 1454.8592    15.9090      .0237  -999.2500  -999.2500     2.1042
 1455.0116    16.0075      .0349  -999.2500  -999.2500     2.1002
 1455.1640    15.8696      .0255  -999.2500  -999.2500     2.1061
 1455.3164    15.6923      .0221  -999.2500  -999.2500     2.0981
 1455.4688    15.7314      .0263  -999.2500  -999.2500     2.0990
 1455.6212    15.6626      .0391  -999.2500  -999.2500     2.1083
 1455.7736    15.4997      .0556  -999.2500  -999.2500     2.1149
 1455.9260    15.4798      .0522  -999.2500  -999.2500     2.1077
 1456.0784    15.5304      .0265  -999.2500  -999.2500     2.0850
 1456.2308    15.5032      .0474  -999.2500  -999.2500     2.0916
 1456.3832    15.3618      .0584  -999.2500  -999.2500     2.1076
 1456.5356    15.2180      .0406  -999.2500  -999.2500     2.0989
 1456.6880    15.2185      .0237  -999.2500  -999.2500     2.0788
 1456.8404    15.3223      .0425  -999.2500  -999.2500     2.0988
 1456.9928    15.5086      .0562  -999.2500  -999.2500     2.1059
 1457.1452    15.9980      .0525  -999.2500  -999.2500     2.1014
 1457.2976    16.4218      .0382  -999.2500  -999.2500     2.0953
 1457.4500    16.2595      .0270  -999.2500  -999.2500     2.0704
 1457.6024    16.4753      .0285  -999.2500  -999.2500     2.0654
 1457.7548    16.6578      .0331  -999.2500  -999.2500     2.0734
 1457.9072    16.0048      .0397  -999.2500  -999.2500     2.0826
 1458.0596    15.4794      .0341  -999.2500  -999.2500     2.0780
 1458.2120    15.4358      .0457  -999.2500  -999.2500     2.0816
 1458.3644    15.6584      .0374  -999.2500  -999.2500     2.0886
 1458.5168    15.7442      .0285  -999.2500  -999.2500     2.0759
 1458.6692    15.7544      .0249  -999.2500  -999.2500     2.0729
 1458.8216    15.6877      .0223  -999.2500  -999.2500     2.0675
 1458.9740    15.6389      .0306  -999.2500  -999.2500     2.0771
 1459.1264    15.6860      .0426  -999.2500  -999.2500     2.0825
 1459.2788    15.5953      .0301  -999.2500  -999.2500     2.0680
 1459.4312    15.5496      .0222  -999.2500  -999.2500     2.0594
 1459.5836    15.6728      .0078  -999.2500  -999.2500     2.0374
 1459.7360    15.8868      .0109  -999.2500  -999.2500     2.0406
 1459.8884    16.0178      .0195  -999.2500  -999.2500     2.0614
 1460.0408    16.0072      .0197  -999.2500  -999.2500     2.0770
 1460.1932    15.8278      .0359  -999.2500  -999.2500     2.1046
 1460.3456    15.5466      .0530  -999.2500  -999.2500     2.1484
 1460.4980    15.6169      .0466  -999.2500  -999.2500     2.1982
 1460.6504    15.8936      .0078  -999.2500  -999.2500     2.2192
 1460.8028    15.9899     -.0034  -999.2500  -999.2500     2.2701
 1460.9552    16.0360      .0146  -999.2500  -999.2500     2.2937
 1461.1076    16.1064      .0384  -999.2500  -999.2500     2.2337
 1461.2600    16.2451      .0198  -999.2500  -999.2500     2.1236
 1461.4124    16.4332      .0196  -999.2500  -999.2500     2.0920
 1461.5648    16.5455      .0240  -999.2500  -999.2500     2.0848
 1461.7172    16.5116      .0220  -999.2500  -999.2500     2.0841
 1461.8696    16.1074      .0231  -999.2500  -999.2500     2.0751
 1462.0220    15.8723      .0320  -999.2500  -999.2500     2.0834
 1462.1744    16.1841      .0349  -999.2500  -999.2500     2.0755
 1462.3268    16.2775      .0273  -999.2500  -999.2500     2.0679
 1462.4792    16.1323      .0303  -999.2500  -999.2500     2.0569
 1462.6316    15.9953      .0178  -999.2500  -999.2500     2.0454
 1462.7840    15.9010      .0364  -999.2500  -999.2500     2.0625
 1462.9364    15.8562      .0556  -999.2500  -999.2500     2.0907
 1463.0888    15.7618      .0462  -999.2500  -999.2500     2.0935
 1463.2412    15.6386      .0481  -999.2500  -999.2500     2.0884
 1463.3936    15.6666      .0266  -999.2500  -999.2500     2.0612
 1463.5460    15.7515      .0395  -999.2500  -999.2500     2.0711
 1463.6984    15.6885      .0403  -999.2500  -999.2500     2.0771
 1463.8508    15.6118      .0343  -999.2500  -999.2500     2.0780
 1464.0032    15.4974      .0218  -999.2500  -999.2500     2.0648
 1464.1556    15.3866      .0117  -999.2500  -999.2500     2.0562
 1464.3080    15.3062      .0146  -999.2500  -999.2500     2.0494
 1464.4604    15.2450      .0233  -999.2500  -999.2500     2.0538
 1464.6128    15.2527      .0485  -999.2500  -999.2500     2.0800
 1464.7652    15.2578      .0267  -999.2500  -999.2500     2.0672
 1464.9176    15.2503      .0243  -999.2500  -999.2500     2.0600
 1465.0700    15.1891      .0237  -999.2500  -999.2500     2.0497
 1465.2224    15.2013      .0184  -999.2500  -999.2500     2.0381
 1465.3748    15.4648      .0120  -999.2500  -999.2500     2.0261
 1465.5272    15.7036      .0153  -999.2500  -999.2500     2.0192
 1465.6796    15.5396      .0153  -999.2500  -999.2500     2.0234
 1465.8320    15.2399      .0144  -999.2500  -999.2500     2.0266
 1465.9844    15.3122      .0240  -999.2500  -999.2500     2.0411
 1466.1368    15.2920      .0436  -999.2500  -999.2500     2.0673
 1466.2892    15.1092      .0365  -999.2500  -999.2500     2.0648
 1466.4416    15.2273      .0206  -999.2500  -999.2500     2.0508
 1466.5940    15.3231      .0195  -999.2500  -999.2500     2.0436
 1466.7464    15.2414      .0118  -999.2500  -999.2500     2.0372
 1466.8988    15.1772      .0132  -999.2500  -999.2500     2.0337
 1467.0512    15.1926      .0169  -999.2500  -999.2500     2.0314
 1467.2036    15.2398      .0202  -999.2500  -999.2500     2.0290
 1467.3560    15.2212      .0153  -999.2500  -999.2500     2.0212
 1467.5084    15.1451      .0373  -999.2500  -999.2500     2.0437
 1467.6608    15.1231      .0357  -999.2500  -999.2500     2.0467
 1467.8132    15.1692      .0361  -999.2500  -999.2500     2.0406
 1467.9656    15.2224      .0421  -999.2500  -999.2500     2.0433
 1468.1180    15.1901      .0569  -999.2500  -999.2500     2.0654
 1468.2704    15.2203      .0643  -999.2500  -999.2500     2.1010
 1468.4228    15.2819      .0489  -999.2500  -999.2500     2.1190
 1468.5752    15.2075      .0501  -999.2500  -999.2500     2.1620
 1468.7276    15.1407      .0149  -999.2500  -999.2500     2.1962
 1468.8800    15.0645     -.0102  -999.2500  -999.2500     2.2424
 1469.0324    15.0128      .0056  -999.2500  -999.2500     2.2518
 1469.1848    15.0681      .0610  -999.2500  -999.2500     2.1971
 1469.3372    15.2483      .0378  -999.2500  -999.2500     2.0803
 1469.4896    15.4793      .0091  -999.2500  -999.2500     2.0568
 1469.6420    15.6130      .0119  -999.2500  -999.2500     2.0644
 1469.7944    15.5655      .0168  -999.2500  -999.2500     2.0679
 1469.9468    15.4977      .0211  -999.2500  -999.2500     2.0653
 1470.0992    15.4817      .0277  -999.2500  -999.2500     2.0675
 1470.2516    15.4136      .0229  -999.2500  -999.2500     2.0695
 1470.4040    15.4532      .0278  -999.2500  -999.2500     2.0759
 1470.5564    15.4784      .0551  -999.2500  -999.2500     2.0951
 1470.7088    15.3560      .0523  -999.2500  -999.2500     2.0866
 1470.8612    15.2287      .0412  -999.2500  -999.2500     2.0733
 1471.0136    15.1940      .0291  -999.2500  -999.2500     2.0612
 1471.1660    15.2422      .0334  -999.2500  -999.2500     2.0500
 1471.3184    15.2539      .0174  -999.2500  -999.2500     2.0345
 1471.4708    15.2036      .0127  -999.2500  -999.2500     2.0179
 1471.6232    15.1719      .0249  -999.2500  -999.2500     2.0224
 1471.7756    15.1705      .0370  -999.2500  -999.2500     2.0319
