~VERSION INFORMATION
VERS.                                                 2.0:   CWLS Log ASCII Standard-VERSION 2.0
WRAP.                                                  NO:   One line per depth step
~Well Information Block
STRT.M                                          1304.5928:   Top Depth
STOP.M                                          3664.0496:   Bottom Depth
STEP.M                                             .15240:   Depth Increment
NULL.                                            -999.250:   Null Value
FLD .                                             WILDCAT:   Field Name
WELL.                                              15/6-2:   NAME
WBN .                                              15/6-2:   WELLBORE
NATI.                                                 NOR:   COUNTRY
CTRY.                                                 NOR:   COUNTRY
COMP.                        ESSO EXPLORATION NORWAY INC.:   OPERATOR
PROV.                                           NORTH SEA:   PROVINCE
COUN.                                   GLOMAR GRAND ISLE:   RIG NAME
SPUD.                                          1971/09/09:   SPUD DATE
LATI.                                       58 32 47.60 N:   SURF. LATITUDE
LONG.                                        1 41 54.10 E:   SURF. LONGITUDE
PBWE.                                              15/6-2:   PB WELL ID
APIN.                                              15/6-2:   PB WELLBORE ID
PBWS.                                                 all:   PB WELL NAME SET
~PARAMETER INFORMATION (log)
LNAM.                              FDC/CNL/GR  COMPOSITED:   NAME
LTYP.                                         DEPTH MATCH:   LOG TYPE
LSRV.                                            DEN/NEUT:   LOG SERVICE
LSOU.                                             SPT/NPD:   LOG SOURCE
LVSN.                                                   1:   LOG VERSION
BHIS.                                                   R:   BRIEF HISTORY
FHIS.                                             RAW-LIS:   FULL HISTORY
LCNM.                                        SCHLUMBERGER:   LOGGING CONTRACTOR
TOOL.                             FDC/CNL/GR (COMPOSITED):   TOOL STRING
~Curve Information Block
#MNEM.UNIT                                        API CODE    No Description
#=========                                        ========    == ===========
DEPT.M                                       00 001 00 00:     1  DEPTH
CALI.IN                                                  :     2  Caliper
DRHO.G/CC                                                :     3  Bulk density correction
GR.GAPI                                                  :     4  Gamma Ray
NPHI.%                                                   :     5  Neutron porosity
RHOB.G/CC                                                :     6  Bulk density
~ASCII
# ...
 1620.6704    13.7340      .0368  -999.2500  -999.2500     2.0907
 1620.8228    13.6864      .0447  -999.2500  -999.2500     2.0980
 1620.9752    13.6718      .0539  -999.2500  -999.2500     2.0924
 1621.1276    13.7621      .0431  -999.2500  -999.2500     2.1005
 1621.2800    13.8080      .0353  -999.2500  -999.2500     2.0878
 1621.4324    13.7422      .0449  -999.2500  -999.2500     2.0888
 1621.5848    13.6932      .0412  -999.2500  -999.2500     2.0875
 1621.7372    13.6786      .0270  -999.2500  -999.2500     2.0692
 1621.8896    13.6576      .0430  -999.2500  -999.2500     2.0799
 1622.0420    13.7121      .0378  -999.2500  -999.2500     2.0670
 1622.1944    13.7215      .0182  -999.2500  -999.2500     2.0679
 1622.3468    13.5891      .0126  -999.2500  -999.2500     2.0812
 1622.4992    13.6504      .0233  -999.2500  -999.2500     2.1086
 1622.6516    13.8001      .0156  -999.2500  -999.2500     2.1259
 1622.8040    13.8280      .0473  -999.2500  -999.2500     2.1573
 1622.9564    13.8335      .0230  -999.2500  -999.2500     2.1349
 1623.1088    13.7241      .0354  -999.2500  -999.2500     2.1055
 1623.2612    13.5743      .0421  -999.2500  -999.2500     2.0906
 1623.4136    13.5352      .0258  -999.2500  -999.2500     2.0753
 1623.5660    13.5956      .0414  -999.2500  -999.2500     2.0826
 1623.7184    13.6518      .0255  -999.2500  -999.2500     2.0674
 1623.8708    13.6629      .0395  -999.2500  -999.2500     2.0783
 1624.0232    13.6909      .0155  -999.2500  -999.2500     2.0567
 1624.1756    13.7515      .0176  -999.2500  -999.2500     2.0406
 1624.3280    13.8889      .0120  -999.2500  -999.2500     2.0409
 1624.4804    13.8999      .0028  -999.2500  -999.2500     2.0409
 1624.6328    13.7771      .0114  -999.2500  -999.2500     2.0515
 1624.7852    13.7100      .0311  -999.2500  -999.2500     2.0729
 1624.9376    13.6141      .0323  -999.2500  -999.2500     2.0887
 1625.0900    13.5359      .0316  -999.2500  -999.2500     2.0919
 1625.2424    13.5424      .0210  -999.2500  -999.2500     2.0834
 1625.3948    13.6187      .0193  -999.2500  -999.2500     2.0916
 1625.5472    13.7037      .0157  -999.2500  -999.2500     2.0889
 1625.6996    13.7389      .0126  -999.2500  -999.2500     2.0874
 1625.8520    13.7645      .0057  -999.2500  -999.2500     2.0727
 1626.0044    13.7951      .0220  -999.2500  -999.2500     2.0852
 1626.1568    13.7876      .0235  -999.2500  -999.2500     2.0825
 1626.3092    13.7904      .0492  -999.2500  -999.2500     2.0982
 1626.4616    13.8363      .0390  -999.2500  -999.2500     2.0974
 1626.6140    13.8862      .0270  -999.2500  -999.2500     2.1017
 1626.7664    13.9348      .0306  -999.2500  -999.2500     2.1190
 1626.9188    13.9557      .0268  -999.2500  -999.2500     2.1502
 1627.0712    13.9076      .0171  -999.2500  -999.2500     2.1985
 1627.2236    13.8512      .0196  -999.2500  -999.2500     2.2486
 1627.3760    13.9568      .0635  -999.2500  -999.2500     2.2628
 1627.5284    14.2705      .0532  -999.2500  -999.2500     2.1958
 1627.6808    14.4776      .0382  -999.2500  -999.2500     2.1311
 1627.8332    14.4093      .0581  -999.2500  -999.2500     2.1163
 1627.9856    14.3051      .0603  -999.2500  -999.2500     2.1130
 1628.1380    14.2836      .0484  -999.2500  -999.2500     2.1029
 1628.2904    14.2977      .0315  -999.2500  -999.2500     2.0773
 1628.4428    14.3066      .0207  -999.2500  -999.2500     2.0673
 1628.5952    14.2842      .0145  -999.2500  -999.2500     2.0712
 1628.7476    14.2778      .0198  -999.2500  -999.2500     2.0840
 1628.9000    14.3061      .0147  -999.2500  -999.2500     2.0900
 1629.0524    14.3334      .0004  -999.2500  -999.2500     2.0966
 1629.2048    14.3613     -.0028  -999.2500  -999.2500     2.1027
 1629.3572    14.3888      .0098  -999.2500  -999.2500     2.1212
 1629.5096    14.3800      .0056  -999.2500  -999.2500     2.1081
 1629.6620    14.3232      .0072  -999.2500  -999.2500     2.1064
 1629.8144    14.2313      .0146  -999.2500  -999.2500     2.1005
 1629.9668    14.1098      .0234  -999.2500  -999.2500     2.1001
 1630.1192    13.9972      .0389  -999.2500  -999.2500     2.1062
 1630.2716    13.9064      .0495  -999.2500  -999.2500     2.1066
 1630.4240    13.8329      .0298  -999.2500  -999.2500     2.0815
 1630.5764    13.7881      .0194  -999.2500  -999.2500     2.0599
 1630.7288    13.7582      .0289  -999.2500  -999.2500     2.0535
 1630.8812    13.7155      .0203  -999.2500  -999.2500     2.0500
 1631.0336    13.6576      .0121  -999.2500  -999.2500     2.0535
 1631.1860    13.5924      .0159  -999.2500  -999.2500     2.0675
 1631.3384    13.5253      .0220  -999.2500  -999.2500     2.0768
 1631.4908    13.4582      .0124  -999.2500  -999.2500     2.0622
 1631.6432    13.4522      .0106  -999.2500  -999.2500     2.0523
 1631.7956    13.5206      .0317  -999.2500  -999.2500     2.0689
 1631.9480    13.5758      .0485  -999.2500  -999.2500     2.0873
 1632.1004    13.5865      .0406  -999.2500  -999.2500     2.0865
 1632.2528    13.6089      .0240  -999.2500  -999.2500     2.0652
 1632.4052    13.6200      .0351  -999.2500  -999.2500     2.0749
 1632.5576    13.5426      .0132  -999.2500  -999.2500     2.0473
 1632.7100    13.4599      .0073  -999.2500  -999.2500     2.0479
 1632.8624    13.3751      .0108  -999.2500  -999.2500     2.0570
 1633.0148    13.3716      .0229  -999.2500  -999.2500     2.0664
 1633.1672    13.4635      .0499  -999.2500  -999.2500     2.1094
 1633.3196    13.4965      .0543  -999.2500  -999.2500     2.1328
 1633.4720    13.5387      .0403  -999.2500  -999.2500     2.1561
 1633.6244    13.5838      .0218  -999.2500  -999.2500     2.1927
 1633.7768    13.5986      .0054  -999.2500  -999.2500     2.2209
 1633.9292    13.7643      .0487  -999.2500  -999.2500     2.2323
 1634.0816    14.0840      .0358  -999.2500  -999.2500     2.1029
 1634.2340    14.0071      .0229  -999.2500  -999.2500     2.0560
 1634.3864    13.9604      .0095  -999.2500  -999.2500     2.0332
 1634.5388    14.4364      .0128  -999.2500  -999.2500     2.0285
 1634.6912    14.6387      .0296  -999.2500  -999.2500     2.0431
 1634.8436    14.4209      .0474  -999.2500  -999.2500     2.0577
 1634.9960    14.1846      .0402  -999.2500  -999.2500     2.0636
 1635.1484    13.9789      .0316  -999.2500  -999.2500     2.0524
 1635.3008    13.8090      .0285  -999.2500  -999.2500     2.0623
 1635.4532    13.7458      .0308  -999.2500  -999.2500     2.0741
 1635.6056    13.7241      .0330  -999.2500  -999.2500     2.0973
 1635.7580    13.6819      .0442  -999.2500  -999.2500     2.0959
 1635.9104    13.6703      .0420  -999.2500  -999.2500     2.1057
 1636.0628    13.8283      .0606  -999.2500  -999.2500     2.1228
 1636.2152    13.9369      .0619  -999.2500  -999.2500     2.1387
 1636.3676    13.8442      .0474  -999.2500  -999.2500     2.1429
 1636.5200    13.8437      .0259  -999.2500  -999.2500     2.1571
 1636.6724    13.9511      .0022  -999.2500  -999.2500     2.1793
 1636.8248    14.0273      .0296  -999.2500  -999.2500     2.2233
 1636.9772    14.0652      .0708  -999.2500  -999.2500     2.2522
 1637.1296    14.0474      .0591  -999.2500  -999.2500     2.2377
 1637.2820    14.0692      .0284  -999.2500  -999.2500     2.2336
 1637.4344    14.2362      .0463  -999.2500  -999.2500     2.2588
 1637.5868    14.4619      .0372  -999.2500  -999.2500     2.2224
 1637.7392    14.5500      .0339  -999.2500  -999.2500     2.1968
 1637.8916    14.4509      .0149  -999.2500  -999.2500     2.1363
 1638.0440    14.3409      .0275  -999.2500  -999.2500     2.0944
 1638.1964    14.2069      .0235  -999.2500  -999.2500     2.0820
 1638.3488    14.0456      .0232  -999.2500  -999.2500     2.0679
 1638.5012    13.9801      .0359  -999.2500  -999.2500     2.0729
 1638.6536    13.9843      .0273  -999.2500  -999.2500     2.0580
 1638.8060    13.9746      .0149  -999.2500  -999.2500     2.0450
 1638.9584    13.9337      .0141  -999.2500  -999.2500     2.0441
 1639.1108    13.8819      .0173  -999.2500  -999.2500     2.0437
