~VERSION INFORMATION
VERS.                                                 2.0:   CWLS Log ASCII Standard-VERSION 2.0
WRAP.                                                  NO:   One line per depth step
~Well Information Block
STRT.M                                          1304.5928:   Top Depth
STOP.M                                          3664.0496:   Bottom Depth
STEP.M                                             .15240:   Depth Increment
NULL.                                            -999.250:   Null Value
FLD .                                             WILDCAT:   Field Name
WELL.                                              15/6-2:   NAME
WBN .                                              15/6-2:   WELLBORE
NATI.                                                 NOR:   COUNTRY
CTRY.                                                 NOR:   COUNTRY
COMP.                        ESSO EXPLORATION NORWAY INC.:   OPERATOR
PROV.                                           NORTH SEA:   PROVINCE
COUN.                                   GLOMAR GRAND ISLE:   RIG NAME
SPUD.                                          1971/09/09:   SPUD DATE
LATI.                                       58 32 47.60 N:   SURF. LATITUDE
LONG.                                        1 41 54.10 E:   SURF. LONGITUDE
PBWE.                                              15/6-2:   PB WELL ID
APIN.                                              15/6-2:   PB WELLBORE ID
PBWS.                                                 all:   PB WELL NAME SET
~PARAMETER INFORMATION (log)
LNAM.                              FDC/CNL/GR  COMPOSITED:   NAME
LTYP.                                         DEPTH MATCH:   LOG TYPE
LSRV.                                            DEN/NEUT:   LOG SERVICE
LSOU.                                             SPT/NPD:   LOG SOURCE
LVSN.                                                   1:   LOG VERSION
BHIS.                                                   R:   BRIEF HISTORY
FHIS.                                             RAW-LIS:   FULL HISTORY
LCNM.                                        SCHLUMBERGER:   LOGGING CONTRACTOR
TOOL.                             FDC/CNL/GR (COMPOSITED):   TOOL STRING
~Curve Information Block
#MNEM.UNIT                                        API CODE    No Description
#=========                                        ========    == ===========
DEPT.M                                       00 001 00 00:     1  DEPTH
CALI.IN                                                  :     2  Caliper
DRHO.G/CC                                                :     3  Bulk density correction
GR.GAPI                                                  :     4  Gamma Ray
NPHI.%                                                   :     5  Neutron porosity
RHOB.G/CC                                                :     6  Bulk density
~ASCII
# ...
 2234.2328    12.5541     -.0076  -999.2500  -999.2500     2.2433
 2234.3852    12.5940     -.0160  -999.2500  -999.2500     2.2873
 2234.5376    12.6397     -.0116  -999.2500  -999.2500     2.2857
 2234.6900    12.6356     -.0057  -999.2500  -999.2500     2.2700
 2234.8424    12.6352      .0023  -999.2500  -999.2500     2.2636
 2234.9948    12.6539      .0106  -999.2500  -999.2500     2.2602
 2235.1472    12.6599      .0200  -999.2500  -999.2500     2.2650
 2235.2996    12.6517      .0232  -999.2500  -999.2500     2.2626
 2235.4520    12.6825      .0202  -999.2500  -999.2500     2.2547
 2235.6044    12.8311      .0035  -999.2500  -999.2500     2.2285
 2235.7568    12.7199      .0048  -999.2500  -999.2500     2.2067
 2235.9092    12.2854      .0094  -999.2500  -999.2500     2.1932
 2236.0616    12.0645      .0032  -999.2500  -999.2500     2.1686
 2236.2140    12.0564     -.0117  -999.2500  -999.2500     2.1628
 2236.3664    12.0651     -.0091  -999.2500  -999.2500     2.1970
 2236.5188    12.0755      .0110  -999.2500  -999.2500     2.2474
 2236.6712    12.0859      .0158  -999.2500  -999.2500     2.2488
 2236.8236    12.0838      .0129  -999.2500  -999.2500     2.2293
 2236.9760    12.0675      .0057  -999.2500  -999.2500     2.2257
 2237.1284    12.0281      .0150  -999.2500  -999.2500     2.2399
 2237.2808    11.9604      .0276  -999.2500  -999.2500     2.2457
 2237.4332    11.8871      .0462  -999.2500  -999.2500     2.2410
 2237.5856    11.8416      .0338  -999.2500  -999.2500     2.2337
 2237.7380    11.8482      .0172  -999.2500  -999.2500     2.2258
 2237.8904    11.8844      .0262  -999.2500  -999.2500     2.2323
 2238.0428    11.9246      .0170  -999.2500  -999.2500     2.2372
 2238.1952    11.9598      .0039  -999.2500  -999.2500     2.2577
 2238.3476    11.9678     -.0000  -999.2500  -999.2500     2.2612
 2238.5000    11.9440      .0162  -999.2500  -999.2500     2.2700
 2238.6524    11.9091      .0378  -999.2500  -999.2500     2.2923
 2238.8048    11.8734      .0385  -999.2500  -999.2500     2.2972
 2238.9572    11.8430      .0223  -999.2500  -999.2500     2.2730
 2239.1096    11.8374      .0363  -999.2500  -999.2500     2.2747
 2239.2620    11.8629      .0298  -999.2500  -999.2500     2.2553
 2239.4144    11.8815      .0017  -999.2500  -999.2500     2.2285
 2239.5668    11.8517      .0040  -999.2500  -999.2500     2.2216
 2239.7192    11.7905      .0076  -999.2500  -999.2500     2.2132
 2239.8716    11.7285     -.0037  -999.2500  -999.2500     2.2182
 2240.0240    11.7032      .0089  -999.2500  -999.2500     2.2077
 2240.1764    11.7538      .0186  -999.2500  -999.2500     2.1812
 2240.3288    11.8796      .0240  -999.2500  -999.2500     2.1465
 2240.4812    12.0359      .0321  -999.2500  -999.2500     2.1580
 2240.6336    12.1819      .0372  -999.2500  -999.2500     2.1872
 2240.7860    12.2922      .0469  -999.2500  -999.2500     2.2202
 2240.9384    12.2889      .0380  -999.2500  -999.2500     2.2505
 2241.0908    12.1898      .0168  -999.2500  -999.2500     2.2720
 2241.2432    12.0944      .0063  -999.2500  -999.2500     2.2814
 2241.3956    12.0778      .0323  -999.2500  -999.2500     2.2764
 2241.5480    12.1426      .0267  -999.2500  -999.2500     2.2569
 2241.7004    12.2237      .0056  -999.2500  -999.2500     2.2483
 2241.8528    12.2405      .0057  -999.2500  -999.2500     2.2573
 2242.0052    12.1668      .0041  -999.2500  -999.2500     2.2750
 2242.1576    12.0642     -.0010  -999.2500  -999.2500     2.2726
 2242.3100    12.0103     -.0035  -999.2500  -999.2500     2.2498
 2242.4624    12.0079     -.0064  -999.2500  -999.2500     2.2130
 2242.6148    11.9966     -.0092  -999.2500  -999.2500     2.1806
 2242.7672    11.9672     -.0027  -999.2500  -999.2500     2.1849
 2242.9196    11.9314      .0035  -999.2500  -999.2500     2.2008
 2243.0720    11.9051      .0204  -999.2500  -999.2500     2.2179
 2243.2244    11.9058      .0312  -999.2500  -999.2500     2.2129
 2243.3768    11.9216      .0247  -999.2500  -999.2500     2.2113
 2243.5292    11.9353      .0275  -999.2500  -999.2500     2.2376
 2243.6816    11.9410      .0469  -999.2500  -999.2500     2.3141
 2243.8340    11.9261      .0366  -999.2500  -999.2500     2.4072
 2243.9864    11.8986      .0308  -999.2500  -999.2500     2.4490
 2244.1388    11.8710      .0126  -999.2500  -999.2500     2.3759
 2244.2912    11.8457      .0010  -999.2500  -999.2500     2.2623
 2244.4436    11.8430      .0067  -999.2500  -999.2500     2.2450
 2244.5960    11.8605      .0314  -999.2500  -999.2500     2.2672
 2244.7484    11.8689      .0306  -999.2500  -999.2500     2.2760
 2244.9008    11.8658      .0146  -999.2500  -999.2500     2.2546
 2245.0532    11.8603      .0042  -999.2500  -999.2500     2.2548
 2245.2056    11.8558      .0012  -999.2500  -999.2500     2.2588
 2245.3580    11.8542      .0030  -999.2500  -999.2500     2.2645
 2245.5104    11.8496      .0074  -999.2500  -999.2500     2.2753
 2245.6628    11.8379      .0121  -999.2500  -999.2500     2.2635
 2245.8152    11.8240      .0091  -999.2500  -999.2500     2.2431
 2245.9676    11.8317      .0039  -999.2500  -999.2500     2.2211
 2246.1200    11.8747      .0003  -999.2500  -999.2500     2.2167
 2246.2724    11.9355     -.0077  -999.2500  -999.2500     2.2192
 2246.4248    11.9883      .0000  -999.2500  -999.2500     2.2290
 2246.5772    11.9897      .0116  -999.2500  -999.2500     2.2405
 2246.7296    11.9427      .0240  -999.2500  -999.2500     2.2501
 2246.8820    11.8869      .0224  -999.2500  -999.2500     2.2390
 2247.0344    11.8582      .0385  -999.2500  -999.2500     2.2360
 2247.1868    11.8940      .0414  -999.2500  -999.2500     2.2293
 2247.3392    11.9679      .0293  -999.2500  -999.2500     2.2308
 2247.4916    12.0113      .0193  -999.2500  -999.2500     2.2378
 2247.6440    11.9443      .0088  -999.2500  -999.2500     2.2279
 2247.7964    11.8452      .0040  -999.2500  -999.2500     2.2136
 2247.9488    11.8274     -.0038  -999.2500  -999.2500     2.1978
 2248.1012    11.8450      .0072  -999.2500  -999.2500     2.2161
 2248.2536    11.8516      .0017  -999.2500  -999.2500     2.2170
 2248.4060    11.8413     -.0055  -999.2500  -999.2500     2.2242
 2248.5584    11.8252     -.0030  -999.2500  -999.2500     2.2235
 2248.7108    11.7947      .0027  -999.2500  -999.2500     2.2238
 2248.8632    11.7596      .0265  -999.2500  -999.2500     2.2376
 2249.0156    11.7546      .0389  -999.2500  -999.2500     2.2347
 2249.1680    11.7713      .0339  -999.2500  -999.2500     2.2156
 2249.3204    11.7880      .0186  -999.2500  -999.2500     2.2035
 2249.4728    11.7994      .0144  -999.2500  -999.2500     2.2169
 2249.6252    11.8169     -.0001  -999.2500  -999.2500     2.2165
 2249.7776    11.8531     -.0003  -999.2500  -999.2500     2.2114
 2249.9300    11.8966      .0009  -999.2500  -999.2500     2.1940
 2250.0824    11.9400      .0105  -999.2500  -999.2500     2.1747
 2250.2348    11.9813      .0169  -999.2500  -999.2500     2.1536
 2250.3872    11.9901      .0138  -999.2500  -999.2500     2.1417
 2250.5396    11.9632      .0127  -999.2500  -999.2500     2.1565
 2250.6920    11.9153      .0099  -999.2500  -999.2500     2.1872
 2250.8444    11.8515      .0291  -999.2500  -999.2500     2.2138
 2250.9968    11.8124      .0148  -999.2500  -999.2500     2.2023
 2251.1492    11.8053      .0047  -999.2500  -999.2500     2.2061
 2251.3016    11.8056      .0061  -999.2500  -999.2500     2.1975
 2251.4540    11.7817      .0104  -999.2500  -999.2500     2.1776
 2251.6064    11.7278      .0212  -999.2500  -999.2500     2.1802
 2251.7588    11.6742      .0055  -999.2500  -999.2500     2.1640
 2251.9112    11.6592     -.0054  -999.2500  -999.2500     2.1625
 2252.0636    11.6681     -.0081  -999.2500  -999.2500     2.1698
 2252.2160    11.6756     -.0129  -999.2500  -999.2500     2.1832
 2252.3684    11.7033     -.0190  -999.2500  -999.2500     2.1998
 2252.5208    11.7662     -.0141  -999.2500  -999.2500     2.2159
 2252.6732    11.8543     -.0015  -999.2500  -999.2500     2.2118
