~VERSION INFORMATION
VERS.                                                 2.0:   CWLS Log ASCII Standard-VERSION 2.0
WRAP.                                                  NO:   One line per depth step
~Well Information Block
STRT.M                                          1304.5928:   Top Depth
STOP.M                                          3664.0496:   Bottom Depth
STEP.M                                             .15240:   Depth Increment
NULL.                                            -999.250:   Null Value
FLD .                                             WILDCAT:   Field Name
WELL.                                              15/6-2:   NAME
WBN .                                              15/6-2:   WELLBORE
NATI.                                                 NOR:   COUNTRY
CTRY.                                                 NOR:   COUNTRY
COMP.                        ESSO EXPLORATION NORWAY INC.:   OPERATOR
PROV.                                           NORTH SEA:   PROVINCE
COUN.                                   GLOMAR GRAND ISLE:   RIG NAME
SPUD.                                          1971/09/09:   SPUD DATE
LATI.                                       58 32 47.60 N:   SURF. LATITUDE
LONG.                                        1 41 54.10 E:   SURF. LONGITUDE
PBWE.                                              15/6-2:   PB WELL ID
APIN.                                              15/6-2:   PB WELLBORE ID
PBWS.                                                 all:   PB WELL NAME SET
~PARAMETER INFORMATION (log)
LNAM.                              FDC/CNL/GR  COMPOSITED:   NAME
LTYP.                                         DEPTH MATCH:   LOG TYPE
LSRV.                                            DEN/NEUT:   LOG SERVICE
LSOU.                                             SPT/NPD:   LOG SOURCE
LVSN.                                                   1:   LOG VERSION
BHIS.                                                   R:   BRIEF HISTORY
FHIS.                                             RAW-LIS:   FULL HISTORY
LCNM.                                        SCHLUMBERGER:   LOGGING CONTRACTOR
TOOL.                             FDC/CNL/GR (COMPOSITED):   TOOL STRING
~Curve Information Block
#MNEM.UNIT                                        API CODE    No Description
#=========                                        ========    == ===========
DEPT.M                                       00 001 00 00:     1  DEPTH
CALI.IN                                                  :     2  Caliper
DRHO.G/CC                                                :     3  Bulk density correction
GR.GAPI                                                  :     4  Gamma Ray
NPHI.%                                                   :     5  Neutron porosity
RHOB.G/CC                                                :     6  Bulk density
~ASCII
# ...
 2717.6456    11.3289      .0821  -999.2500  -999.2500     2.5174
 2717.7980    11.3754      .0296  -999.2500  -999.2500     2.4827
 2717.9504    11.3842      .0491  -999.2500  -999.2500     2.5118
 2718.1028    11.3693      .0285  -999.2500  -999.2500     2.5063
 2718.2552    11.4108      .0067  -999.2500  -999.2500     2.4904
 2718.4076    11.4521      .0040  -999.2500  -999.2500     2.5037
 2718.5600    11.4499      .0081  -999.2500  -999.2500     2.5266
 2718.7124    11.4781      .0129  -999.2500  -999.2500     2.5192
 2718.8648    11.5311      .0294  -999.2500  -999.2500     2.5292
 2719.0172    11.5492      .0117  -999.2500  -999.2500     2.5153
 2719.1696    11.5370      .0242  -999.2500  -999.2500     2.5237
 2719.3220    11.5253      .0201  -999.2500  -999.2500     2.5295
 2719.4744    11.5304      .0223  -999.2500  -999.2500     2.5138
 2719.6268    11.5355      .0231  -999.2500  -999.2500     2.5252
 2719.7792    11.5407      .0088  -999.2500  -999.2500     2.5120
 2719.9316    11.5471      .0018  -999.2500  -999.2500     2.5089
 2720.0840    11.5546      .0039  -999.2500  -999.2500     2.5069
 2720.2364    11.5626      .0112  -999.2500  -999.2500     2.4955
 2720.3888    11.5713      .0275  -999.2500  -999.2500     2.5015
 2720.5412    11.5797      .0433  -999.2500  -999.2500     2.5095
 2720.6936    11.5835      .0301  -999.2500  -999.2500     2.4909
 2720.8460    11.5688      .0293  -999.2500  -999.2500     2.4870
 2720.9984    11.5341      .0081  -999.2500  -999.2500     2.4754
 2721.1508    11.5091      .0314  -999.2500  -999.2500     2.4802
 2721.3032    11.5121      .0650  -999.2500  -999.2500     2.5054
 2721.4556    11.5821      .0351  -999.2500  -999.2500     2.5048
 2721.6080    11.5941      .0148  -999.2500  -999.2500     2.4961
 2721.7604    11.5392      .0023  -999.2500  -999.2500     2.4933
 2721.9128    11.5293      .0121  -999.2500  -999.2500     2.4935
 2722.0652    11.5246      .0264  -999.2500  -999.2500     2.4966
 2722.2176    11.5248      .0621  -999.2500  -999.2500     2.5175
 2722.3700    11.5623      .0364  -999.2500  -999.2500     2.4854
 2722.5224    11.5524      .0303  -999.2500  -999.2500     2.5042
 2722.6748    11.5051      .0052  -999.2500  -999.2500     2.5201
 2722.8272    11.5052      .0343  -999.2500  -999.2500     2.5477
 2722.9796    11.5054      .0724  -999.2500  -999.2500     2.5483
 2723.1320    11.5221      .0375  -999.2500  -999.2500     2.4965
 2723.2844    11.5353      .0208  -999.2500  -999.2500     2.4694
 2723.4368    11.5288      .0483  -999.2500  -999.2500     2.4970
 2723.5892    11.5856     -.0011  -999.2500  -999.2500     2.4963
 2723.7416    11.5798     -.0053  -999.2500  -999.2500     2.5123
 2723.8940    11.5403      .0084  -999.2500  -999.2500     2.5175
 2724.0464    11.5752     -.0050  -999.2500  -999.2500     2.5006
 2724.1988    11.5869      .0018  -999.2500  -999.2500     2.5028
 2724.3512    11.5925      .0109  -999.2500  -999.2500     2.4920
 2724.5036    11.5972      .0362  -999.2500  -999.2500     2.5118
 2724.6560    11.6019      .0209  -999.2500  -999.2500     2.5023
 2724.8084    11.6041     -.0170  -999.2500  -999.2500     2.4937
 2724.9608    11.6016     -.0148  -999.2500  -999.2500     2.5193
 2725.1132    11.5969     -.0036  -999.2500  -999.2500     2.5212
 2725.2656    11.5922     -.0051  -999.2500  -999.2500     2.5074
 2725.4180    11.5884      .0048  -999.2500  -999.2500     2.5048
 2725.5704    11.5870      .0274  -999.2500  -999.2500     2.4881
 2725.7228    11.5890      .0432  -999.2500  -999.2500     2.4775
 2725.8752    11.5960      .0297  -999.2500  -999.2500     2.4391
 2726.0276    11.6170      .0622  -999.2500  -999.2500     2.4739
 2726.1800    11.6716      .0491  -999.2500  -999.2500     2.4951
 2726.3324    11.7638      .0401  -999.2500  -999.2500     2.4815
 2726.4848    11.8727      .0782  -999.2500  -999.2500     2.4736
 2726.6372    11.9355      .1585  -999.2500  -999.2500     2.4860
 2726.7896    11.9804      .1837  -999.2500  -999.2500     2.5218
 2726.9420    12.0922      .1086  -999.2500  -999.2500     2.4631
 2727.0944    12.0650      .0277  -999.2500  -999.2500     2.4279
 2727.2468    11.9290      .0067  -999.2500  -999.2500     2.4790
 2727.3992    11.8838      .0219  -999.2500  -999.2500     2.5074
 2727.5516    11.8837      .0568  -999.2500  -999.2500     2.5135
 2727.7040    11.9182      .0977  -999.2500  -999.2500     2.5209
 2727.8564    11.9836      .0886  -999.2500  -999.2500     2.4685
 2728.0088    12.1017      .0681  -999.2500  -999.2500     2.4147
 2728.1612    12.1354      .0572  -999.2500  -999.2500     2.3570
 2728.3136    12.0405      .0213  -999.2500  -999.2500     2.2730
 2728.4660    12.0214      .0110  -999.2500  -999.2500     2.1567
 2728.6184    12.3500      .0351  -999.2500  -999.2500     2.0324
 2728.7708    12.7729      .0454  -999.2500  -999.2500     2.0288
 2728.9232    12.9071      .0576  -999.2500  -999.2500     2.0635
 2729.0756    12.9144      .0756  -999.2500  -999.2500     2.1036
 2729.2280    12.9068      .0841  -999.2500  -999.2500     2.1886
 2729.3804    12.8778      .0767  -999.2500  -999.2500     2.2372
 2729.5328    12.7940      .0948  -999.2500  -999.2500     2.3136
 2729.6852    12.6586      .0862  -999.2500  -999.2500     2.3267
 2729.8376    12.6504      .0645  -999.2500  -999.2500     2.3286
 2729.9900    13.2932      .1107  -999.2500  -999.2500     2.3553
 2730.1424    13.9423      .1184  -999.2500  -999.2500     2.3762
 2730.2948    14.2211      .0598  -999.2500  -999.2500     2.4005
 2730.4472    13.6979      .0631  -999.2500  -999.2500     2.4978
 2730.5996    12.3681      .1065  -999.2500  -999.2500     2.5509
 2730.7520    11.7679      .1026  -999.2500  -999.2500     2.5339
 2730.9044    11.7679      .0955  -999.2500  -999.2500     2.5018
 2731.0568    11.7678      .0524  -999.2500  -999.2500     2.4845
 2731.2092    11.7483      .0604  -999.2500  -999.2500     2.4963
 2731.3616    11.6504      .0794  -999.2500  -999.2500     2.5519
 2731.5140    11.5342      .0074  -999.2500  -999.2500     2.5205
 2731.6664    11.4605     -.0079  -999.2500  -999.2500     2.5337
 2731.8188    11.4068      .0388  -999.2500  -999.2500     2.5524
 2731.9712    11.3911      .0658  -999.2500  -999.2500     2.5377
 2732.1236    11.4055      .0721  -999.2500  -999.2500     2.5285
 2732.2760    11.4149      .0262  -999.2500  -999.2500     2.4999
 2732.4284    11.3263      .0133  -999.2500  -999.2500     2.5113
 2732.5808    11.2076      .0080  -999.2500  -999.2500     2.5394
 2732.7332    11.1822      .0002  -999.2500  -999.2500     2.5363
 2732.8856    11.1894     -.0023  -999.2500  -999.2500     2.5265
 2733.0380    11.1894      .0052  -999.2500  -999.2500     2.5253
 2733.1904    11.1803      .0115  -999.2500  -999.2500     2.5296
 2733.3428    11.1561      .0106  -999.2500  -999.2500     2.5151
 2733.4952    11.0978     -.0006  -999.2500  -999.2500     2.4960
 2733.6476    11.0393      .0306  -999.2500  -999.2500     2.5041
 2733.8000    11.0192      .0377  -999.2500  -999.2500     2.5151
 2733.9524    11.0191      .0420  -999.2500  -999.2500     2.5150
 2734.1048    11.0207      .0376  -999.2500  -999.2500     2.4935
 2734.2572    10.9995      .0167  -999.2500  -999.2500     2.4705
 2734.4096    10.9792      .0364  -999.2500  -999.2500     2.4975
 2734.5620    10.9821      .0013  -999.2500  -999.2500     2.4948
 2734.7144    10.9824     -.0042  -999.2500  -999.2500     2.5075
 2734.8668    10.9551      .0053  -999.2500  -999.2500     2.5285
 2735.0192    10.9004      .0166  -999.2500  -999.2500     2.5518
 2735.1716    10.8521      .0131  -999.2500  -999.2500     2.5602
 2735.3240    10.8198      .0184  -999.2500  -999.2500     2.5507
 2735.4764    10.8009      .0148  -999.2500  -999.2500     2.5351
 2735.6288    10.8042      .0683  -999.2500  -999.2500     2.5503
 2735.7812    10.8436      .0884  -999.2500  -999.2500     2.5831
 2735.9336    10.8806      .0069  -999.2500  -999.2500     2.5354
 2736.0860    10.8254     -.0021  -999.2500  -999.2500     2.5699
