~VERSION INFORMATION
VERS.                                                 2.0:   CWLS Log ASCII Standard-VERSION 2.0
WRAP.                                                  NO:   One line per depth step
~Well Information Block
STRT.M                                          1304.5928:   Top Depth
STOP.M                                          3664.0496:   Bottom Depth
STEP.M                                             .15240:   Depth Increment
NULL.                                            -999.250:   Null Value
FLD .                                             WILDCAT:   Field Name
WELL.                                              15/6-2:   NAME
WBN .                                              15/6-2:   WELLBORE
NATI.                                                 NOR:   COUNTRY
CTRY.                                                 NOR:   COUNTRY
COMP.                        ESSO EXPLORATION NORWAY INC.:   OPERATOR
PROV.                                           NORTH SEA:   PROVINCE
COUN.                                   GLOMAR GRAND ISLE:   RIG NAME
SPUD.                                          1971/09/09:   SPUD DATE
LATI.                                       58 32 47.60 N:   SURF. LATITUDE
LONG.                                        1 41 54.10 E:   SURF. LONGITUDE
PBWE.                                              15/6-2:   PB WELL ID
APIN.                                              15/6-2:   PB WELLBORE ID
PBWS.                                                 all:   PB WELL NAME SET
~PARAMETER INFORMATION (log)
LNAM.                              FDC/CNL/GR  COMPOSITED:   NAME
LTYP.                                         DEPTH MATCH:   LOG TYPE
LSRV.                                            DEN/NEUT:   LOG SERVICE
LSOU.                                             SPT/NPD:   LOG SOURCE
LVSN.                                                   1:   LOG VERSION
BHIS.                                                   R:   BRIEF HISTORY
FHIS.                                             RAW-LIS:   FULL HISTORY
LCNM.                                        SCHLUMBERGER:   LOGGING CONTRACTOR
TOOL.                             FDC/CNL/GR (COMPOSITED):   TOOL STRING
~Curve Information Block
#MNEM.UNIT                                        API CODE    No Description
#=========                                        ========    == ===========
DEPT.M                                       00 001 00 00:     1  DEPTH
CALI.IN                                                  :     2  Caliper
DRHO.G/CC                                                :     3  Bulk density correction
GR.GAPI                                                  :     4  Gamma Ray
NPHI.%                                                   :     5  Neutron porosity
RHOB.G/CC                                                :     6  Bulk density
~ASCII
# ...
 3182.4656     8.6711      .0126    45.7545    20.5639     2.5811
 3182.6180     8.6713      .0155    45.4592    20.0797     2.5649
 3182.7704     8.6715      .0197    46.3593    20.3911     2.5428
 3182.9228     8.6717      .0183    45.5924    20.3988     2.5233
 3183.0752     8.6713      .0289    45.9157    20.2192     2.5402
 3183.2276     8.6698      .0265    46.3469    20.0394     2.5502
 3183.3800     8.6676      .0116    46.2216    19.8599     2.5578
 3183.5324     8.6655      .0021    46.0962    19.9473     2.5687
 3183.6848     8.6634     -.0010    45.5653    20.2798     2.5607
 3183.8372     8.6613      .0025    44.3833    20.5716     2.5740
 3183.9896     8.6592      .0037    45.3728    21.0784     2.5888
 3184.1420     8.6571      .0094    48.2949    21.7814     2.5847
 3184.2944     8.6550      .0108    48.7473    22.4733     2.5648
 3184.4468     8.6545      .0027    48.5255    23.1275     2.5645
 3184.5992     8.6559      .0065    49.7749    22.6815     2.5607
 3184.7516     8.6577      .0046    49.5705    21.4399     2.5470
 3184.9040     8.6594      .0009    48.1131    21.1169     2.5366
 3185.0564     8.6611      .0141    47.2036    20.9255     2.5273
 3185.2088     8.6629      .0126    48.2082    21.2399     2.5242
 3185.3612     8.6646      .0086    50.0146    21.8405     2.5261
 3185.5136     8.6663      .0029    50.2382    22.2229     2.5234
 3185.6660     8.6681     -.0063    49.9880    21.8195     2.5144
 3185.8184     8.6698     -.0002    51.5507    22.0120     2.5133
 3185.9708     8.6715      .0024    52.5022    22.2130     2.5040
 3186.1232     8.6719      .0024    50.9105    22.3351     2.5161
 3186.2756     8.6697      .0033    49.5572    22.2938     2.5243
 3186.4280     8.6664      .0100    47.0522    21.8857     2.5341
 3186.5804     8.6631      .0019    43.6191    21.4623     2.5434
 3186.7328     8.6599      .0043    39.9612    21.2012     2.5599
 3186.8852     8.6566      .0024    39.2139    21.1107     2.5758
 3187.0376     8.6533      .0014    39.0052    20.9941     2.5858
 3187.1900     8.6500      .0075    39.0863    20.3567     2.6007
 3187.3424     8.6467      .0100    40.6033    19.5332     2.6240
 3187.4948     8.6435      .0004    42.1483    19.5084     2.6254
 3187.6472     8.6402     -.0039    40.5233    20.5109     2.6034
 3187.7996     8.6369      .0037    39.0063    20.8485     2.6124
 3187.9520     8.6336      .0057    39.4074    19.6537     2.6012
 3188.1044     8.6309     -.0088    40.0670    18.4646     2.5828
 3188.2568     8.6297     -.0137    40.8682    17.9505     2.5813
 3188.4092     8.6294     -.0161    41.2372    17.7612     2.5781
 3188.5616     8.6292     -.0168    40.4935    17.7439     2.5691
 3188.7140     8.6289     -.0078    39.8635    17.4835     2.5694
 3188.8664     8.6287     -.0011    41.2321    17.4090     2.5804
 3189.0188     8.6284     -.0074    43.2176    18.0280     2.5709
 3189.1712     8.6282     -.0085    41.1743    18.4934     2.5700
 3189.3236     8.6279     -.0031    38.7739    18.9389     2.5822
 3189.4760     8.6277      .0053    40.1185    19.4969     2.5994
 3189.6284     8.6274      .0032    42.4315    20.3449     2.5966
 3189.7808     8.6272      .0025    41.1087    21.4043     2.5777
 3189.9332     8.6269     -.0020    39.5996    22.1436     2.5668
 3190.0856     8.6267      .0026    38.8707    21.8954     2.5765
 3190.2380     8.6264      .0079    38.0527    21.2540     2.5829
 3190.3904     8.6262      .0205    37.4360    20.2772     2.5748
 3190.5428     8.6259      .0168    38.2383    18.9199     2.5716
 3190.6952     8.6257      .0099    37.8494    18.4554     2.5657
 3190.8476     8.6254      .0091    36.5064    17.8910     2.5786
 3191.0000     8.6252      .0030    36.4303    17.5312     2.5700
 3191.1524     8.6250      .0030    34.3477    17.7142     2.5612
 3191.3048     8.6256      .0029    33.0630    16.8957     2.5796
 3191.4572     8.6271     -.0023    32.6877    15.9379     2.5994
 3191.6096     8.6285      .0005    32.2813    16.3809     2.5890
 3191.7620     8.6300      .0070    31.9510    17.3012     2.5965
 3191.9144     8.6314      .0079    31.6448    17.4906     2.5868
 3192.0668     8.6329      .0038    30.1678    17.3548     2.5705
 3192.2192     8.6343      .0010    28.5219    16.4949     2.5784
 3192.3716     8.6358      .0028    28.8884    15.4032     2.5725
 3192.5240     8.6372     -.0061    30.2048    14.0487     2.5704
 3192.6764     8.6387     -.0075    30.5490    13.3491     2.5839
 3192.8288     8.6401     -.0060    30.2773    12.4168     2.5847
 3192.9812     8.6413     -.0015    30.9327    12.4170     2.5711
 3193.1336     8.6416     -.0059    31.0932    12.7017     2.5777
 3193.2860     8.6413     -.0120    30.6288    13.1714     2.5700
 3193.4384     8.6411     -.0089    30.9253    13.9537     2.5847
 3193.5908     8.6408     -.0083    30.7034    15.1763     2.6049
 3193.7432     8.6406     -.0070    29.9449    15.9318     2.5987
 3193.8956     8.6403     -.0020    31.0122    16.2133     2.5883
 3194.0480     8.6401     -.0045    32.6190    16.2550     2.5753
 3194.2004     8.6398     -.0011    33.5402    16.9352     2.5582
 3194.3528     8.6396     -.0048    34.2328    16.9942     2.5443
 3194.5052     8.6393     -.0041    34.5059    15.8111     2.5481
 3194.6576     8.6390     -.0037    33.3733    13.5517     2.5667
 3194.8100     8.6388     -.0061    31.2047    10.8122     2.5753
 3194.9624     8.6385     -.0241    30.0084     8.7467     2.5517
 3195.1148     8.6383     -.0217    26.8040     8.6145     2.5657
 3195.2672     8.6380     -.0133    21.3573     9.2604     2.6279
 3195.4196     8.6378     -.0110    19.9090    10.4111     2.6319
 3195.5720     8.6345     -.0123    22.7739    12.3405     2.6192
 3195.7244     8.6277     -.0103    28.0206    16.6830     2.6020
 3195.8768     8.6228     -.0077    33.6723    19.1655     2.5797
 3196.0292     8.6291     -.0058    36.2663    19.1091     2.5688
 3196.1816     8.6365     -.0032    37.2578    18.3002     2.5456
 3196.3340     8.6363      .0007    36.3484    18.1893     2.5532
 3196.4864     8.6360      .0047    36.8624    17.9590     2.5516
 3196.6388     8.6358      .0037    37.1450    17.3471     2.5668
 3196.7912     8.6355      .0038    36.3229    16.8472     2.5604
 3196.9436     8.6353      .0071    34.1891    16.7956     2.5759
 3197.0960     8.6350      .0071    32.4689    16.3483     2.6131
 3197.2484     8.6348      .0022    32.7012    15.1502     2.6457
 3197.4008     8.6345      .0034    33.7531    13.4062     2.6495
 3197.5532     8.6343      .0093    33.6969    11.9366     2.6428
 3197.7056     8.6340      .0020    32.7280    12.1694     2.6398
 3197.8580     8.6338      .0020    31.7577    13.3228     2.6183
 3198.0104     8.6335      .0032    32.0359    13.9785     2.6078
 3198.1628     8.6333      .0059    32.3254    13.8408     2.6164
 3198.3152     8.6330      .0076    34.5068    14.1953     2.6057
 3198.4676     8.6328      .0061    38.1304    15.2110     2.6090
 3198.6200     8.6325      .0050    37.8759    15.9750     2.6144
 3198.7724     8.6322      .0089    34.4924    15.7297     2.6111
 3198.9248     8.6320      .0023    31.1089    14.6058     2.6080
 3199.0772     8.6317     -.0073    29.4516    13.1870     2.5981
 3199.2296     8.6315     -.0110    29.0126    13.2690     2.5914
 3199.3820     8.6312     -.0086    30.7208    14.5171     2.5988
 3199.5344     8.6310      .0024    32.9803    15.8596     2.6142
 3199.6868     8.6308      .0040    33.9258    16.0735     2.6259
 3199.8392     8.6306     -.0016    31.5287    16.2660     2.6029
 3199.9916     8.6304      .0032    32.0051    16.1684     2.6280
 3200.1440     8.6302     -.0009    33.9781    15.9221     2.6153
 3200.2964     8.6300     -.0107    34.3706    16.2000     2.6170
 3200.4488     8.6298     -.0172    33.0683    16.0652     2.5979
 3200.6012     8.6296     -.0165    33.8953    15.6656     2.5997
 3200.7536     8.6294     -.0076    35.4326    15.5561     2.6188
 3200.9060     8.6284     -.0080    36.3283    15.7447     2.6052
