~VERSION INFORMATION
VERS.                                                 2.0:   CWLS Log ASCII Standard-VERSION 2.0
WRAP.                                                  NO:   One line per depth step
~Well Information Block
STRT.M                                          1304.5928:   Top Depth
STOP.M                                          3664.0496:   Bottom Depth
STEP.M                                             .15240:   Depth Increment
NULL.                                            -999.250:   Null Value
FLD .                                             WILDCAT:   Field Name
WELL.                                              15/6-2:   NAME
WBN .                                              15/6-2:   WELLBORE
NATI.                                                 NOR:   COUNTRY
CTRY.                                                 NOR:   COUNTRY
COMP.                        ESSO EXPLORATION NORWAY INC.:   OPERATOR
PROV.                                           NORTH SEA:   PROVINCE
COUN.                                   GLOMAR GRAND ISLE:   RIG NAME
SPUD.                                          1971/09/09:   SPUD DATE
LATI.                                       58 32 47.60 N:   SURF. LATITUDE
LONG.                                        1 41 54.10 E:   SURF. LONGITUDE
PBWE.                                              15/6-2:   PB WELL ID
APIN.                                              15/6-2:   PB WELLBORE ID
PBWS.                                                 all:   PB WELL NAME SET
~PARAMETER INFORMATION (log)
LNAM.                              FDC/CNL/GR  COMPOSITED:   NAME
LTYP.                                         DEPTH MATCH:   LOG TYPE
LSRV.                                            DEN/NEUT:   LOG SERVICE
LSOU.                                             SPT/NPD:   LOG SOURCE
LVSN.                                                   1:   LOG VERSION
BHIS.                                                   R:   BRIEF HISTORY
FHIS.                                             RAW-LIS:   FULL HISTORY
LCNM.                                        SCHLUMBERGER:   LOGGING CONTRACTOR
TOOL.                             FDC/CNL/GR (COMPOSITED):   TOOL STRING
~Curve Information Block
#MNEM.UNIT                                        API CODE    No Description
#=========                                        ========    == ===========
DEPT.M                                       00 001 00 00:     1  DEPTH
CALI.IN                                                  :     2  Caliper
DRHO.G/CC                                                :     3  Bulk density correction
GR.GAPI                                                  :     4  Gamma Ray
NPHI.%                                                   :     5  Neutron porosity
RHOB.G/CC                                                :     6  Bulk density
~ASCII
# ...
 3498.5432     9.0712      .0659   120.3332    40.6369     2.3545
 3498.6956     9.0699      .0550   120.3338    40.7777     2.3484
 3498.8480     9.0687      .0035   118.7363    39.7297     2.3511
 3499.0004     9.0682      .0002   116.6434    39.1515     2.3503
 3499.1528     9.0683      .0275   112.7358    38.0593     2.3055
 3499.3052     9.0685      .0149   109.1247    35.0179     2.2665
 3499.4576     9.0686      .0145   107.3165    29.9971     2.2715
 3499.6100     9.0687      .0169   110.2945    28.2873     2.2822
 3499.7624     9.0689      .0220   120.5881    32.0939     2.2864
 3499.9148     9.0690      .0240   121.7288    39.1070     2.3000
 3500.0672     9.0691      .0384   122.4364    39.1964     2.3445
 3500.2196     9.0693      .0273   120.0401    37.7044     2.3830
 3500.3720     9.0694      .0100   120.3113    36.7730     2.3822
 3500.5244     9.0696      .0398   121.0302    36.0429     2.4072
 3500.6768     9.0697      .0620   121.1047    35.6822     2.4398
 3500.8292     9.0698      .0437   117.7155    35.0226     2.4022
 3500.9816     9.0711      .0338   115.5065    35.5283     2.3761
 3501.1340     9.0737      .0359   113.7879    36.3516     2.3335
 3501.2864     9.0766      .0385   107.6109    37.1882     2.3178
 3501.4388     9.0794      .0343   106.8283    38.8225     2.2835
 3501.5912     9.0822      .0175   105.5939    39.9392     2.2749
 3501.7436     9.0851      .0177   105.6769    38.7011     2.3202
 3501.8960     9.0879      .0172   109.0331    37.7754     2.3648
 3502.0484     9.0907      .0352   114.5301    37.0064     2.3919
 3502.2008     9.0935      .0339   114.6415    36.4525     2.3974
 3502.3532     9.0964      .0083   114.1100    36.6504     2.3879
 3502.5056     9.0992      .0143   115.8560    38.2604     2.3607
 3502.6580     9.1020      .0282   111.9287    39.2070     2.3496
 3502.8104     9.1049      .0429   106.8552    39.2008     2.3502
 3502.9628     9.1077      .0399   105.7725    38.6017     2.3445
 3503.1152     9.1105      .0088   108.6384    38.1512     2.3123
 3503.2676     9.1106      .0097   112.1140    40.0334     2.3117
 3503.4200     9.1079      .0164   114.0632    40.8760     2.3245
 3503.5724     9.1053      .0105   113.0110    40.1476     2.3420
 3503.7248     9.1027      .0122   111.7696    38.0647     2.3523
 3503.8772     9.1000     -.0031   107.6962    34.8095     2.3682
 3504.0296     9.0974     -.0261   104.7832    29.2988     2.4805
 3504.1820     9.0948      .0110   105.8078    27.6452     2.5458
 3504.3344     9.0921      .0352   118.6245    31.6709     2.5099
 3504.4868     9.0895      .0210   126.7841    36.2066     2.4121
 3504.6392     9.0869      .0414   133.8418    38.8881     2.3808
 3504.7916     9.0842      .0296   132.3818    39.0714     2.3637
 3504.9440     9.0816      .0040   125.7468    38.4169     2.3391
 3505.0964     9.0790      .0138   125.4486    38.2057     2.3426
 3505.2488     9.0763      .0297   128.6419    38.6056     2.3734
 3505.4012     9.0749      .0268   126.6462    37.7591     2.3638
 3505.5536     9.0757      .0263   128.7002    38.2113     2.3575
 3505.7060     9.0777      .0259   132.6571    40.4312     2.3596
 3505.8584     9.0797      .0309   131.8148    41.0699     2.3527
 3506.0108     9.0817      .0238   130.3216    40.3936     2.3587
 3506.1632     9.0837      .0208   129.0481    40.7628     2.3490
 3506.3156     9.0857      .0273   125.5418    41.7841     2.3445
 3506.4680     9.0877      .0361   121.8728    42.8996     2.3448
 3506.6204     9.0897      .0179   119.1852    42.5421     2.3605
 3506.7728     9.0915      .0223   120.3818    40.4587     2.3814
 3506.9252     9.0923      .0367   121.9899    40.4596     2.3845
 3507.0776     9.0922      .0416   122.7217    41.4488     2.3813
 3507.2300     9.0920      .0337   121.7099    41.5412     2.3494
 3507.3824     9.0919      .0170   122.0998    41.7639     2.3380
 3507.5348     9.0917      .0325   126.3402    41.5646     2.3420
 3507.6872     9.0916      .0402   124.9382    41.4373     2.3479
 3507.8396     9.0915      .0330   123.3443    41.8385     2.3178
 3507.9920     9.0913      .0220   124.5439    42.9293     2.2872
 3508.1444     9.0912      .0253   128.6361    43.6839     2.3015
 3508.2968     9.0911      .0125   131.0712    43.0143     2.2962
 3508.4492     9.0909      .0212   133.5934    42.5073     2.2750
 3508.6016     9.0908      .0113   132.9237    44.5086     2.2630
 3508.7540     9.0906     -.0079   132.9315    45.0550     2.2451
 3508.9064     9.0905      .0114   133.5585    42.9381     2.2778
 3509.0588     9.0913      .0383   131.3690    42.9241     2.3100
 3509.2112     9.0938      .0136   127.8250    42.9042     2.2732
 3509.3636     9.0972      .0108   129.2375    42.8626     2.2622
 3509.5160     9.1007      .0154   131.1955    43.5235     2.2711
 3509.6684     9.1041      .0084   133.2828    43.4278     2.2496
 3509.8208     9.1075      .0107   129.8094    43.0735     2.2509
 3509.9732     9.1110      .0257   128.9778    44.1691     2.2629
 3510.1256     9.1144      .0369   128.5583    44.3773     2.2807
 3510.2780     9.1178      .0175   126.7392    41.5289     2.2956
 3510.4304     9.1213      .0019   122.2537    41.0912     2.3221
 3510.5828     9.1247      .0181   120.7126    42.8424     2.3164
 3510.7352     9.1270      .0106   119.1691    42.8479     2.2855
 3510.8876     9.1258      .0029   119.8225    41.3057     2.2743
 3511.0400     9.1222      .0105   124.8293    42.2700     2.2906
 3511.1924     9.1186      .0222   124.5486    42.4603     2.3189
 3511.3448     9.1150      .0224   125.6795    41.1361     2.3071
 3511.4972     9.1114      .0079   126.0809    40.4140     2.3190
 3511.6496     9.1078      .0088   126.9472    38.6670     2.3353
 3511.8020     9.1042      .0143   132.2852    36.0680     2.3397
 3511.9544     9.1006      .0415   133.0928    34.5297     2.3536
 3512.1068     9.0970      .0659   130.3167    34.6587     2.3546
 3512.2592     9.0934      .0500   124.9125    35.3484     2.3360
 3512.4116     9.0897      .0369   124.3367    36.6118     2.3583
 3512.5640     9.0875      .0254   127.5404    37.8762     2.3558
 3512.7164     9.0871      .0119   132.3180    37.7659     2.3204
 3512.8688     9.0869      .0101   129.9200    36.3715     2.3035
 3513.0212     9.0868      .0089   127.4908    36.4763     2.2969
 3513.1736     9.0866      .0088   126.4804    37.1083     2.2836
 3513.3260     9.0865      .0180   125.4078    39.3539     2.2569
 3513.4784     9.0864      .0140   119.5349    41.9476     2.2029
 3513.6308     9.0862      .0098   118.9810    41.7373     2.1980
 3513.7832     9.0861      .0085   119.6430    41.1465     2.2056
 3513.9356     9.0859      .0174   121.4114    41.6378     2.2179
 3514.0880     9.0858      .0328   124.6859    42.7053     2.2386
 3514.2404     9.0857      .0391   126.2678    43.5225     2.2608
 3514.3928     9.0855      .0315   127.8712    42.7285     2.2860
 3514.5452     9.0854      .0181   131.1322    41.7518     2.3078
 3514.6976     9.0853      .0053   133.5814    40.5050     2.3268
 3514.8500     9.0851      .0186   131.8848    39.5960     2.3489
 3515.0024     9.0850      .0151   127.5162    40.4556     2.3539
 3515.1548     9.0854      .0237   127.4218    41.6303     2.3791
 3515.3072     9.0868      .0585   127.1192    40.9539     2.3997
 3515.4596     9.0887      .0583   128.9981    39.9521     2.3788
 3515.6120     9.0906      .0126   128.0994    39.0051     2.3355
 3515.7644     9.0925      .0145   126.4292    38.5228     2.3274
 3515.9168     9.0943      .0430   123.7689    40.0834     2.3332
 3516.0692     9.0962      .0189   121.9593    40.7964     2.3050
 3516.2216     9.0981      .0208   119.1015    41.6832     2.2850
 3516.3740     9.1000      .0205   117.6678    42.0185     2.2867
 3516.5264     9.1019      .0308   115.2305    41.2722     2.3033
 3516.6788     9.1031      .0464   114.5747    39.7305     2.3143
 3516.8312     9.1033      .0518   112.4682    38.7211     2.3395
 3516.9836     9.1032      .0298   114.4187    37.8864     2.3295
