~VERSION INFORMATION
VERS.                                                 2.0:   CWLS Log ASCII Standard-VERSION 2.0
WRAP.                                                  NO:   One line per depth step
~Well Information Block
STRT.M                                           204.6000:   Top Depth
STOP.M                                          3156.9000:   Bottom Depth
STEP.M                                             .10000:   Depth Increment
NULL.                                            -999.250:   Null Value
FLD .                                             WILDCAT:   Field Name
WELL.                                             15/12-5:   NAME
WBN .                                             15/12-5:   WELLBORE
NATI.                                                 NOR:   COUNTRY
BHT1.DEGF                                            79.0:   BH TEMP 1
BHT2.DEGF                                            79.0:   BH TEMP 2
BHT3.DEGF                                            80.0:   BH TEMP 3
BS1 .IN                                            12.250:   BIT SIZE 1
CTRY.                                                 NOR:   COUNTRY
CBD1.M                                              217.0:   CSG 1 DRILL DEP
CBL1.M                                              217.0:   CSG 1 LOG DEP
CS1 .IN                                              30.0:   CSG 1 SIZE
COMP.                                             STATOIL:   OPERATOR
PDAT.                                                 MSL:   PERM DATUM
PROV.                                           NORTH SEA:   PROVINCE
COUN.                                           ROSS ISLE:   RIG NAME
SON .                                              N02422:   SOURCE OPERATOR NAME
SPUD.                                          1986/03/12:   SPUD DATE
LATI.                                        58 4 53.36 N:   SURF. LATITUDE
LONG.                                        1 54 53.24 E:   SURF. LONGITUDE
BTD1.                                            617.50 M:   TOTAL DEPTH 1
BTD2.                                            617.50 M:   TOTAL DEPTH 2
BTD3.                                            617.50 M:   TOTAL DEPTH 3
PBWE.                                             15/12-5:   PB WELL ID
APIN.                                             15/12-5:   PB WELLBORE ID
PBWS.                                                 all:   PB WELL NAME SET
~PARAMETER INFORMATION (log)
LNAM.                              CDL/CNL/GR  COMPOSITED:   NAME
LTYP.                                         DEPTH MATCH:   LOG TYPE
LSRV.                                             CAL/BGT:   LOG SERVICE
LSOU.                                             SPT/NPD:   LOG SOURCE
LVSN.                                                   1:   LOG VERSION
BHIS.                                                   R:   BRIEF HISTORY
FHIS.                                             RAW-LIS:   FULL HISTORY
LCNM.                                                  NL:   LOGGING CONTRACTOR
TOOL.                             CDL/CNL/GR (COMPOSITED):   TOOL STRING
~Curve Information Block
#MNEM.UNIT                                        API CODE    No Description
#=========                                        ========    == ===========
DEPT.M                                       00 001 00 00:     1  DEPTH
CAL.IN                                                   :     2  Caliper
CNC.%                                                    :     3  Neutron Porosity
CORR.G/CC                                                :     4  Density Correction
DEN.G/CC                                                 :     5  Bulk Density
GR.GAPI                                                  :     6  Gamma Ray
SPD.                                                     :     7  Cable Speed
TEN.LB                                                   :     8  Cable Tension
~ASCII
# ...
 1769.8000    13.8694    37.1517     -.0078     2.1800    62.8897     9.0891     -.2046
 1769.9000    13.8984    36.8396     -.0075     2.1827    62.5433     9.0699     2.4467
 1770.0000    13.9345    36.7820     -.0065     2.1857    61.6837     9.0535     2.8971
 1770.1000    13.9702    36.8338     -.0052     2.1880    60.3447     9.0435     1.8192
 1770.2000    14.0013    36.9209     -.0039     2.1889    58.5651     9.0368     -.5193
 1770.3000    14.0176    37.1420     -.0026     2.1879    56.5860     9.0311    -3.7365
 1770.4000    14.0199    37.7371     -.0018     2.1865    55.0954     9.0233    -6.7434
 1770.5000    14.0111    38.4687     -.0011     2.1859    54.4176     9.0150    -9.1021
 1770.6000    13.9925    39.1535      .0001     2.1884    55.1530     9.0077   -10.1294
 1770.7000    13.9699    39.2943      .0027     2.1950    56.9953     9.0059    -9.9517
 1770.8000    13.9461    39.0512      .0059     2.2052    59.2840     9.0085    -9.1198
 1770.9000    13.9227    38.6076      .0081     2.2190    61.4515     9.0148    -7.9426
 1771.0000    13.9045    38.3805      .0083     2.2358    62.7435     9.0233    -6.5572
 1771.1000    13.8942    38.4789      .0067     2.2516    63.2333     9.0306    -4.6920
 1771.2000    13.8949    38.8030      .0030     2.2631    62.9684     9.0359    -1.9518
 1771.3000    13.9114    39.2316     -.0023     2.2636    62.3841     9.0372     1.8206
 1771.4000    13.9358    39.5047     -.0072     2.2561    62.0203     9.0319     5.3449
 1771.5000    13.9653    39.5613     -.0106     2.2417    62.0211     9.0188     7.7320
 1771.6000    13.9946    39.3214     -.0106     2.2238    62.4794     8.9968     6.3848
 1771.7000    14.0213    38.7272     -.0090     2.2071    62.9178     8.9727     2.7306
 1771.8000    14.0458    37.8170     -.0067     2.1947    63.1426     8.9551    -2.2917
 1771.9000    14.0695    36.6375     -.0045     2.1899    62.7851     8.9509    -6.5574
 1772.0000    14.0924    35.5747     -.0017     2.1897    61.9722     8.9676    -8.5005
 1772.1000    14.1133    34.9893      .0011     2.1916    60.9047     8.9924    -8.2108
 1772.2000    14.1295    35.0646      .0028     2.1942    59.9221     9.0184    -5.9602
 1772.3000    14.1399    36.0079      .0035     2.1970    59.4560     9.0324    -3.6643
 1772.4000    14.1457    36.9845      .0038     2.2006    59.4903     9.0377    -2.1664
 1772.5000    14.1473    37.7530      .0039     2.2059    60.0375     9.0370    -2.1385
 1772.6000    14.1466    37.9866      .0046     2.2130    60.7559     9.0349    -3.8272
 1772.7000    14.1454    37.9817      .0059     2.2203    61.3109     9.0314    -6.4763
 1772.8000    14.1441    37.9337      .0078     2.2264    61.5549     9.0243    -9.7497
 1772.9000    14.1425    38.1234      .0092     2.2284    61.4241     9.0107   -12.7030
 1773.0000    14.1414    38.6271      .0093     2.2278    61.1730     8.9908   -14.6595
 1773.1000    14.1411    39.2961      .0077     2.2249    60.8562     8.9677   -15.2606
 1773.2000    14.1425    39.9497      .0053     2.2204    60.4824     8.9467   -13.5647
 1773.3000    14.1444    40.2887      .0049     2.2165    60.0886     8.9391   -10.7869
 1773.4000    14.1466    40.3306      .0071     2.2148    59.7328     8.9459    -7.2758
 1773.5000    14.1480    40.0588      .0131     2.2165    59.6055     8.9690    -3.3990
 1773.6000    14.1484    39.2709      .0202     2.2193    59.7085     9.0041      .1876
 1773.7000    14.1479    38.1456      .0265     2.2212    59.9161     9.0371     3.0933
 1773.8000    14.1463    36.7927      .0286     2.2194    59.9865     9.0621     4.2919
 1773.9000    14.1438    35.5724      .0245     2.2140    59.6395     9.0680     3.1665
 1774.0000    14.1406    34.6363      .0162     2.2064    58.9358     9.0646      .1328
 1774.1000    14.1367    34.0122      .0061     2.1994    57.9667     9.0568    -4.6746
 1774.2000    14.1323    33.9254     -.0004     2.1965    57.0736     9.0550    -9.8817
 1774.3000    14.1279    34.3091     -.0022     2.1976    56.3808     9.0620   -14.1245
 1774.4000    14.1233    35.0931      .0013     2.1999    55.8943     9.0763   -16.5378
 1774.5000    14.1173    36.2316      .0078     2.2021    55.4649     9.0968   -16.1413
 1774.6000    14.1092    37.4088      .0128     2.2014    54.9454     9.1169   -14.4365
 1774.7000    14.0990    38.4223      .0147     2.1972    54.3516     9.1325   -11.9384
 1774.8000    14.0872    38.9404      .0115     2.1910    54.0163     9.1374    -9.6937
 1774.9000    14.0764    38.5031      .0073     2.1850    54.1145     9.1268    -8.2814
 1775.0000    14.0678    37.4115      .0044     2.1807    54.6598     9.1056    -7.7228
 1775.1000    14.0644    35.8676      .0064     2.1796    55.6055     9.0771    -7.8564
 1775.2000    14.0656    34.4530      .0113     2.1817    56.4951     9.0505    -8.0021
 1775.3000    14.0704    33.5542      .0166     2.1853    57.1483     9.0312    -8.1402
 1775.4000    14.0785    33.3264      .0197     2.1880    57.4145     9.0222    -8.6876
 1775.5000    14.0879    34.2499      .0187     2.1906    57.4954     9.0301   -10.1238
 1775.6000    14.0971    35.6646      .0146     2.1913    57.5767     9.0443   -12.2010
 1775.7000    14.1053    37.3070      .0088     2.1916    57.7334     9.0607   -14.5370
 1775.8000    14.1105    38.7252      .0046     2.1929    57.9204     9.0706   -15.9971
 1775.9000    14.1132    39.7695      .0030     2.1958    58.0492     9.0729   -16.2081
 1776.0000    14.1135    40.5050      .0046     2.1983    58.0871     9.0692   -14.9174
 1776.1000    14.1129    40.8613      .0085     2.2018    58.1893     9.0624   -12.3601
 1776.2000    14.1125    40.8493      .0125     2.2053    58.5722     9.0595    -9.8541
 1776.3000    14.1126    40.5617      .0164     2.2090    59.3277     9.0627    -7.8217
 1776.4000    14.1123    39.9202      .0190     2.2116    60.5684     9.0732    -6.8135
 1776.5000    14.1108    39.0363      .0195     2.2126    61.8676     9.0831    -6.3044
 1776.6000    14.1077    38.1719      .0175     2.2110    63.0227     9.0865    -6.1750
 1776.7000    14.1020    37.4787      .0123     2.2048    63.6700     9.0801    -6.5293
 1776.8000    14.0955    37.1820      .0060     2.1967    63.8833     9.0614    -7.3233
 1776.9000    14.0895    37.1465     -.0001     2.1887    63.8104     9.0402    -8.4597
 1777.0000    14.0859    37.3216     -.0038     2.1837    63.5978     9.0210    -9.7651
 1777.1000    14.0851    37.5070     -.0050     2.1819    63.5591     9.0151   -10.6479
 1777.2000    14.0862    37.5151     -.0048     2.1816    63.7627     9.0205   -10.8146
 1777.3000    14.0891    37.2885     -.0037     2.1809    64.2309     9.0355    -9.9175
 1777.4000    14.0928    36.6546     -.0019     2.1803    64.7594     9.0556    -8.2019
 1777.5000    14.0961    35.8263      .0004     2.1805    65.1496     9.0703    -6.4918
 1777.6000    14.0984    35.0609      .0033     2.1826    65.2773     9.0765    -5.2445
 1777.7000    14.0992    34.8078      .0055     2.1879    65.0345     9.0716    -5.1477
 1777.8000    14.0993    35.3314      .0068     2.1951    64.6479     9.0605    -5.6978
 1777.9000    14.0990    36.4067      .0073     2.2038    64.1987     9.0490    -6.6407
 1778.0000    14.0978    37.8630      .0079     2.2131    63.7893     9.0407    -7.5705
 1778.1000    14.0955    39.1751      .0098     2.2212    63.3964     9.0357    -8.4360
 1778.2000    14.0921    40.1190      .0133     2.2270    62.9539     9.0315    -9.3796
 1778.3000    14.0867    40.5514      .0173     2.2272    62.3302     9.0263   -10.7068
 1778.4000    14.0799    40.3007      .0185     2.2220    61.5379     9.0185   -12.2427
 1778.5000    14.0723    39.6989      .0165     2.2140    60.6582     9.0117   -13.6614
 1778.6000    14.0646    38.8611      .0120     2.2036    59.8159     9.0092   -14.3262
 1778.7000    14.0576    37.8704      .0078     2.1954    59.1596     9.0202   -13.7890
 1778.8000    14.0515    36.9698      .0054     2.1906    58.6801     9.0384   -12.3555
