~VERSION INFORMATION
VERS.                                                 2.0:   CWLS Log ASCII Standard-VERSION 2.0
WRAP.                                                  NO:   One line per depth step
~Well Information Block
STRT.M                                           204.6000:   Top Depth
STOP.M                                          3156.9000:   Bottom Depth
STEP.M                                             .10000:   Depth Increment
NULL.                                            -999.250:   Null Value
FLD .                                             WILDCAT:   Field Name
WELL.                                             15/12-5:   NAME
WBN .                                             15/12-5:   WELLBORE
NATI.                                                 NOR:   COUNTRY
BHT1.DEGF                                            79.0:   BH TEMP 1
BHT2.DEGF                                            79.0:   BH TEMP 2
BHT3.DEGF                                            80.0:   BH TEMP 3
BS1 .IN                                            12.250:   BIT SIZE 1
CTRY.                                                 NOR:   COUNTRY
CBD1.M                                              217.0:   CSG 1 DRILL DEP
CBL1.M                                              217.0:   CSG 1 LOG DEP
CS1 .IN                                              30.0:   CSG 1 SIZE
COMP.                                             STATOIL:   OPERATOR
PDAT.                                                 MSL:   PERM DATUM
PROV.                                           NORTH SEA:   PROVINCE
COUN.                                           ROSS ISLE:   RIG NAME
SON .                                              N02422:   SOURCE OPERATOR NAME
SPUD.                                          1986/03/12:   SPUD DATE
LATI.                                        58 4 53.36 N:   SURF. LATITUDE
LONG.                                        1 54 53.24 E:   SURF. LONGITUDE
BTD1.                                            617.50 M:   TOTAL DEPTH 1
BTD2.                                            617.50 M:   TOTAL DEPTH 2
BTD3.                                            617.50 M:   TOTAL DEPTH 3
PBWE.                                             15/12-5:   PB WELL ID
APIN.                                             15/12-5:   PB WELLBORE ID
PBWS.                                                 all:   PB WELL NAME SET
~PARAMETER INFORMATION (log)
LNAM.                              CDL/CNL/GR  COMPOSITED:   NAME
LTYP.                                         DEPTH MATCH:   LOG TYPE
LSRV.                                             CAL/BGT:   LOG SERVICE
LSOU.                                             SPT/NPD:   LOG SOURCE
LVSN.                                                   1:   LOG VERSION
BHIS.                                                   R:   BRIEF HISTORY
FHIS.                                             RAW-LIS:   FULL HISTORY
LCNM.                                                  NL:   LOGGING CONTRACTOR
TOOL.                             CDL/CNL/GR (COMPOSITED):   TOOL STRING
~Curve Information Block
#MNEM.UNIT                                        API CODE    No Description
#=========                                        ========    == ===========
DEPT.M                                       00 001 00 00:     1  DEPTH
CAL.IN                                                   :     2  Caliper
CNC.%                                                    :     3  Neutron Porosity
CORR.G/CC                                                :     4  Density Correction
DEN.G/CC                                                 :     5  Bulk Density
GR.GAPI                                                  :     6  Gamma Ray
SPD.                                                     :     7  Cable Speed
TEN.LB                                                   :     8  Cable Tension
~ASCII
  204.6000    22.7452  -999.2500     -.3618     2.1923    25.9129  -999.2500    -7.9457
  204.7000    22.7452  -999.2500     -.3618     2.1923    25.9129  -999.2500    -7.9457
  204.8000    22.7452  -999.2500     -.3618     2.1923    25.9129  -999.2500    -7.9457
  204.9000    22.7452  -999.2500     -.3618     2.1923    25.9129  -999.2500    -7.9457
  205.0000    22.7452  -999.2500     -.3618     2.1923    25.9129  -999.2500    -7.9457
  205.1000    22.7452  -999.2500     -.3618     2.1923    25.9129  -999.2500    -7.9457
  205.2000    22.7452  -999.2500     -.3618     2.1923    25.9129  -999.2500    -7.9457
  205.3000    22.7452  -999.2500     -.3618     2.1923    25.9129  -999.2500    -7.9457
  205.4000    22.7452  -999.2500     -.3618     2.1923    25.9129  -999.2500    -7.9457
  205.5000    22.7452  -999.2500     -.3618     2.1923    25.9129  -999.2500    -7.9457
  205.6000    22.7452  -999.2500     -.3618     2.1923    25.9129  -999.2500    -7.9457
  205.7000    22.7452  -999.2500     -.3618     2.1923    25.9129  -999.2500    -7.9457
  205.8000    22.7452  -999.2500     -.3618     2.1923    25.9129  -999.2500    -7.9457
  205.9000    22.7454  -999.2500     -.3619     2.1921    25.9210  -999.2500    -8.0095
  206.0000    22.7493  -999.2500     -.3657     2.1878    26.0595  -999.2500    -9.3611
  206.1000    22.7520  -999.2500     -.3708     2.1838    26.0131  -999.2500   -10.4787
  206.2000    22.7530  -999.2500     -.3757     2.1820    25.7210  -999.2500   -11.1892
  206.3000    22.7516  -999.2500     -.3747     2.1866    25.0857  -999.2500   -11.0865
  206.4000    22.7493  -999.2500     -.3674     2.1962    24.3828  -999.2500   -10.4455
  206.5000    22.7467  -999.2500     -.3547     2.2092    23.7221  -999.2500    -9.2216
  206.6000    22.7444  -999.2500     -.3396     2.2217    23.3112  -999.2500    -7.5924
  206.7000    22.7420  -999.2500     -.3276     2.2295    23.1356  -999.2500    -6.1779
  206.8000    22.7395  -999.2500     -.3201     2.2321    23.1087  -999.2500    -5.3834
  206.9000    22.7370  -999.2500     -.3185     2.2289    23.1478  -999.2500    -5.8082
  207.0000    22.7352  -999.2500     -.3199     2.2239    23.2165  -999.2500    -7.1398
  207.1000    22.7346  -999.2500     -.3213     2.2200    23.3635  -999.2500    -8.7836
  207.2000    22.7357  -999.2500     -.3207     2.2199    23.6487  -999.2500   -10.2409
  207.3000    22.7376  -999.2500     -.3159     2.2247    24.0992  -999.2500   -11.2352
  207.4000    22.7387  -999.2500     -.3080     2.2324    24.6165  -999.2500   -11.9123
  207.5000    22.7378  -999.2500     -.2976     2.2419    25.1077  -999.2500   -12.2779
  207.6000    22.7348  -999.2500     -.2860     2.2512    25.3382  -999.2500   -12.4230
  207.7000    22.7317  -999.2500     -.2753     2.2591    25.3264  -999.2500   -12.4734
  207.8000    22.7297  -999.2500     -.2665     2.2647    25.0791  -999.2500   -12.4907
  207.9000    22.7301  -999.2500     -.2624     2.2663    24.6340  -999.2500   -12.4608
  208.0000    22.7313  -999.2500     -.2604     2.2656    24.2100  -999.2500   -12.5146
  208.1000    22.7327  -999.2500     -.2595     2.2635    23.8669  -999.2500   -12.6187
  208.2000    22.7328  -999.2500     -.2575     2.2611    23.7174  -999.2500   -12.6075
  208.3000    22.7316  -999.2500     -.2532     2.2602    23.7077  -999.2500   -12.1944
  208.4000    22.7297  -999.2500     -.2465     2.2614    23.7731  -999.2500   -11.2177
  208.5000    22.7280  -999.2500     -.2372     2.2659    23.8066  -999.2500    -9.6434
  208.6000    22.7272  -999.2500     -.2260     2.2735    23.7083  -999.2500    -8.0622
  208.7000    22.7271  -999.2500     -.2135     2.2832    23.5065  -999.2500    -6.9417
  208.8000    22.7279  -999.2500     -.1998     2.2948    23.2366  -999.2500    -6.7250
  208.9000    22.7297  -999.2500     -.1846     2.3079    23.0068  -999.2500    -7.6490
  209.0000    22.7316  -999.2500     -.1680     2.3218    22.8494  -999.2500    -9.2150
  209.1000    22.7333  -999.2500     -.1502     2.3361    22.7384  -999.2500   -11.0359
  209.2000    22.7344  -999.2500     -.1322     2.3492    22.5730  -999.2500   -12.4967
  209.3000    22.7348  -999.2500     -.1150     2.3599    22.3691  -999.2500   -13.5511
  209.4000    22.7346  -999.2500     -.0991     2.3678    22.1870  -999.2500   -14.1118
  209.5000    22.7344  -999.2500     -.0845     2.3711    22.2082  -999.2500   -14.0729
  209.6000    22.7349  -999.2500     -.0687     2.3729    22.4260  -999.2500   -13.7480
  209.7000    22.7363  -999.2500     -.0506     2.3748    22.8358  -999.2500   -13.2388
  209.8000    22.7392  -999.2500     -.0273     2.3792    23.4430  -999.2500   -12.7322
  209.9000    22.7419  -999.2500      .0001     2.3862    24.0984  -999.2500   -12.2694
  210.0000    22.7434  -999.2500      .0296     2.3943    24.7346  -999.2500   -11.9018
  210.1000    22.7429  -999.2500      .0579     2.4009    25.2430  -999.2500   -11.6110
  210.2000    22.7413  -999.2500      .0811     2.4032    25.5471  -999.2500   -11.3661
  210.3000    22.7398  -999.2500      .0989     2.4015    25.6430  -999.2500   -11.1507
  210.4000    22.7387  -999.2500      .1106     2.3956    25.4637  -999.2500   -10.8641
  210.5000    22.7385  -999.2500      .1180     2.3877    25.0053  -999.2500   -10.5003
  210.6000    22.7383  -999.2500      .1239     2.3802    24.4241  -999.2500   -10.1203
  210.7000    22.7375  -999.2500      .1298     2.3738    23.7961  -999.2500    -9.7103
  210.8000    22.7355  -999.2500      .1371     2.3693    23.2140  -999.2500    -9.4196
  210.9000    22.7333  -999.2500      .1453     2.3653    22.7631  -999.2500    -9.2832
  211.0000    22.7319  -999.2500      .1539     2.3615    22.5380  -999.2500    -9.4029
  211.1000    22.7329  -999.2500      .1621     2.3575    22.8629  -999.2500    -9.9426
  211.2000    22.7350  -999.2500      .1702     2.3533    23.4908  -999.2500   -10.5290
  211.3000    22.7376  -999.2500      .1783     2.3491    24.2761  -999.2500   -11.0976
  211.4000    22.7390  -999.2500      .1859     2.3446    24.8951  -999.2500   -11.3192
  211.5000    22.7385  -999.2500      .1928     2.3392    25.1606  -999.2500   -11.2750
  211.6000    22.7361  -999.2500      .1988     2.3328    25.1225  -999.2500   -11.0852
  211.7000    22.7316  -999.2500      .2036     2.3247    24.8743  -999.2500   -10.6980
  211.8000    22.7264  -999.2500      .2071     2.3150    24.6663  -999.2500   -10.2242
  211.9000    22.7220  -999.2500      .2092     2.3040    24.5677  -999.2500    -9.6840
  212.0000    22.7195  -999.2500      .2095     2.2916    24.5744  -999.2500    -9.1534
  212.1000    22.7197  -999.2500      .2087     2.2781    24.5548  -999.2500    -8.6105
  212.2000    22.7214  -999.2500      .2083     2.2644    24.4846  -999.2500    -7.9638
  212.3000    22.7241  -999.2500      .2090     2.2510    24.4216  -999.2500    -7.0937
  212.4000    22.7258  -999.2500      .2116     2.2390    24.5683  -999.2500    -5.8800
  212.5000    22.7264  -999.2500      .2152     2.2282    24.8825  -999.2500    -4.6105
  212.6000    22.7261  -999.2500      .2196     2.2186    25.3256  -999.2500    -3.5018
  212.7000    22.7261  -999.2500      .2237     2.2101    25.7641  -999.2500    -3.1986
  212.8000    22.7269  -999.2500      .2268     2.2013    26.0676  -999.2500    -3.7925
  212.9000    22.7287  -999.2500      .2287     2.1920    26.2149  -999.2500    -5.1044
  213.0000    22.7318  -999.2500      .2291     2.1814    26.1839  -999.2500    -6.9779
  213.1000    22.7354  -999.2500      .2285     2.1705    26.0664  -999.2500    -8.7234
  213.2000    22.7387  -999.2500      .2270     2.1586    25.8957  -999.2500   -10.1363
  213.3000    22.7405  -999.2500      .2244     2.1457    25.6596  -999.2500   -11.0078
  213.4000    22.7400  -999.2500      .2210     2.1331    25.3354  -999.2500   -11.4886
  213.5000    22.7376  -999.2500      .2177     2.1218    24.9271  -999.2500   -11.6874
  213.6000    22.7338  -999.2500      .2149     2.1134    24.4458  -999.2500   -11.6031
