~VERSION INFORMATION
VERS.                                                 2.0:   CWLS Log ASCII Standard-VERSION 2.0
WRAP.                                                  NO:   One line per depth step
~Well Information Block
STRT.M                                           204.6000:   Top Depth
STOP.M                                          3156.9000:   Bottom Depth
STEP.M                                             .10000:   Depth Increment
NULL.                                            -999.250:   Null Value
FLD .                                             WILDCAT:   Field Name
WELL.                                             15/12-5:   NAME
WBN .                                             15/12-5:   WELLBORE
NATI.                                                 NOR:   COUNTRY
BHT1.DEGF                                            79.0:   BH TEMP 1
BHT2.DEGF                                            79.0:   BH TEMP 2
BHT3.DEGF                                            80.0:   BH TEMP 3
BS1 .IN                                            12.250:   BIT SIZE 1
CTRY.                                                 NOR:   COUNTRY
CBD1.M                                              217.0:   CSG 1 DRILL DEP
CBL1.M                                              217.0:   CSG 1 LOG DEP
CS1 .IN                                              30.0:   CSG 1 SIZE
COMP.                                             STATOIL:   OPERATOR
PDAT.                                                 MSL:   PERM DATUM
PROV.                                           NORTH SEA:   PROVINCE
COUN.                                           ROSS ISLE:   RIG NAME
SON .                                              N02422:   SOURCE OPERATOR NAME
SPUD.                                          1986/03/12:   SPUD DATE
LATI.                                        58 4 53.36 N:   SURF. LATITUDE
LONG.                                        1 54 53.24 E:   SURF. LONGITUDE
BTD1.                                            617.50 M:   TOTAL DEPTH 1
BTD2.                                            617.50 M:   TOTAL DEPTH 2
BTD3.                                            617.50 M:   TOTAL DEPTH 3
PBWE.                                             15/12-5:   PB WELL ID
APIN.                                             15/12-5:   PB WELLBORE ID
PBWS.                                                 all:   PB WELL NAME SET
~PARAMETER INFORMATION (log)
LNAM.                              CDL/CNL/GR  COMPOSITED:   NAME
LTYP.                                         DEPTH MATCH:   LOG TYPE
LSRV.                                             CAL/BGT:   LOG SERVICE
LSOU.                                             SPT/NPD:   LOG SOURCE
LVSN.                                                   1:   LOG VERSION
BHIS.                                                   R:   BRIEF HISTORY
FHIS.                                             RAW-LIS:   FULL HISTORY
LCNM.                                                  NL:   LOGGING CONTRACTOR
TOOL.                             CDL/CNL/GR (COMPOSITED):   TOOL STRING
~Curve Information Block
#MNEM.UNIT                                        API CODE    No Description
#=========                                        ========    == ===========
DEPT.M                                       00 001 00 00:     1  DEPTH
CAL.IN                                                   :     2  Caliper
CNC.%                                                    :     3  Neutron Porosity
CORR.G/CC                                                :     4  Density Correction
DEN.G/CC                                                 :     5  Bulk Density
GR.GAPI                                                  :     6  Gamma Ray
SPD.                                                     :     7  Cable Speed
TEN.LB                                                   :     8  Cable Tension
~ASCII
# ...
 2943.7000     8.6125    22.0121     -.0280     2.1907    37.0220  -999.2500   -14.8288
 2943.8000     8.6129    21.7927     -.0175     2.2142    37.2148  -999.2500   -13.8168
 2943.9000     8.6143    21.8739     -.0070     2.2367    37.5090  -999.2500   -12.6468
 2944.0000     8.6170    22.1920      .0011     2.2548    37.8829  -999.2500   -11.4710
 2944.1000     8.6229    23.1494      .0021     2.2617    38.5029  -999.2500    -9.4692
 2944.2000     8.6262    23.6112     -.0012     2.2593    38.9166  -999.2500    -5.6838
 2944.3000     8.6264    23.5479     -.0063     2.2528    39.2188  -999.2500    -2.9840
 2944.4000     8.6247    23.1913     -.0108     2.2481    39.5670  -999.2500    -5.8118
 2944.5000     8.6208    22.3994     -.0141     2.2497    40.1269  -999.2500    -6.0763
 2944.6000     8.6143    21.0590     -.0175     2.2622    41.2535  -999.2500    -6.4597
 2944.7000     8.6115    20.3117     -.0192     2.2740    42.0941  -999.2500    -9.8497
 2944.8000     8.6111    19.9796     -.0201     2.2837    42.7701  -999.2500   -12.9327
 2944.9000     8.6120    19.9825     -.0209     2.2911    43.3749  -999.2500   -13.6257
 2945.0000     8.6141    20.3178     -.0213     2.2934    43.8115  -999.2500   -13.5137
 2945.1000     8.6181    21.8550     -.0207     2.2861    43.9634  -999.2500   -13.3837
 2945.2000     8.6206    23.0725     -.0199     2.2751    43.7562  -999.2500   -12.5404
 2945.3000     8.6221    24.0191     -.0191     2.2622    43.3455  -999.2500   -11.1767
 2945.4000     8.6231    24.8572     -.0183     2.2483    42.8682  -999.2500    -9.7948
 2945.5000     8.6233    25.4937     -.0176     2.2333    42.3820  -999.2500    -8.4162
 2945.6000     8.6221    26.0358     -.0172     2.2123    41.8721  -999.2500    -7.0344
 2945.7000     8.6211    26.1274     -.0173     2.2000    41.7410  -999.2500    -5.6899
 2945.8000     8.6207    26.0036     -.0184     2.1933    41.8829  -999.2500    -5.9194
 2945.9000     8.6209    25.7559     -.0204     2.1881    42.1240  -999.2500    -8.9372
 2946.0000     8.6212    25.3500     -.0240     2.1850    42.4787  -999.2500   -12.2692
 2946.1000     8.6201    24.5337     -.0297     2.1840    43.0484  -999.2500   -15.4333
 2946.2000     8.6172    23.9189     -.0323     2.1867    43.5163  -999.2500   -19.7343
 2946.3000     8.6135    23.4141     -.0331     2.1918    44.0204  -999.2500   -17.8963
 2946.4000     8.6100    22.8771     -.0330     2.1987    44.6694  -999.2500   -15.5157
 2946.5000     8.6075    22.2943     -.0324     2.2068    45.4573  -999.2500   -13.1553
 2946.6000     8.6098    21.6007     -.0320     2.2216    46.9585  -999.2500   -11.7193
 2946.7000     8.6130    21.4467     -.0316     2.2305    47.8498  -999.2500   -11.6075
 2946.8000     8.6161    21.7178     -.0299     2.2346    48.1435  -999.2500   -11.4893
 2946.9000     8.6181    22.2166     -.0266     2.2368    48.0677  -999.2500   -11.0573
 2947.0000     8.6176    22.8736     -.0195     2.2359    47.0398  -999.2500   -10.1124
 2947.1000     8.6147    23.5494     -.0071     2.2317    44.4882  -999.2500    -9.1651
 2947.2000     8.6136    23.5403     -.0007     2.2282    42.2417  -999.2500    -8.2202
 2947.3000     8.6143    23.1454      .0019     2.2257    40.2847  -999.2500    -7.3584
 2947.4000     8.6163    22.6223      .0018     2.2244    38.4904  -999.2500   -10.3362
 2947.5000     8.6187    22.1002      .0002     2.2246    36.9036  -999.2500   -15.9005
 2947.6000     8.6190    21.6190     -.0042     2.2284    35.3713  -999.2500   -17.3345
 2947.7000     8.6169    21.4701     -.0069     2.2306    34.6462  -999.2500   -14.9607
 2947.8000     8.6126    21.5576     -.0088     2.2307    34.5042  -999.2500   -12.5811
 2947.9000     8.6078    21.7112     -.0110     2.2290    34.5332  -999.2500   -10.4498
 2948.0000     8.6039    21.9543     -.0138     2.2244    34.8203  -999.2500    -9.1943
 2948.1000     8.6015    22.3624     -.0178     2.2158    35.4665  -999.2500    -8.1487
 2948.2000     8.6022    22.6741     -.0197     2.2105    35.8213  -999.2500    -7.1067
 2948.3000     8.6038    22.9434     -.0202     2.2072    35.9039  -999.2500    -6.1695
 2948.4000     8.6053    23.2169     -.0197     2.2053    35.7338  -999.2500    -7.1464
 2948.5000     8.6060    23.4883     -.0179     2.2066    35.3136  -999.2500    -9.0930
 2948.6000     8.6050    23.8932     -.0138     2.2169    34.5319  -999.2500   -11.7168
 2948.7000     8.6036    24.1345     -.0108     2.2268    34.1728  -999.2500   -14.7557
 2948.8000     8.6020    24.2522     -.0088     2.2343    34.2159  -999.2500   -16.9828
 2948.9000     8.6004    24.3332     -.0076     2.2390    34.4811  -999.2500   -15.2844
 2949.0000     8.5983    24.4143     -.0087     2.2373    34.9375  -999.2500   -13.5687
 2949.1000     8.5943    24.5958     -.0147     2.2187    35.6310  -999.2500   -11.0474
 2949.2000     8.5916    24.7828     -.0202     2.1995    35.8968  -999.2500    -8.0592
 2949.3000     8.5902    24.9375     -.0249     2.1820    35.8678  -999.2500    -5.3363
 2949.4000     8.5899    25.0039     -.0292     2.1663    35.7225  -999.2500    -5.2058
 2949.5000     8.5917    24.8931     -.0335     2.1550    35.5293  -999.2500    -5.8126
 2949.6000     8.5966    24.2220     -.0386     2.1477    35.3452  -999.2500    -6.4210
 2949.7000     8.6001    23.7130     -.0397     2.1483    35.3419  -999.2500    -7.0279
 2949.8000     8.6021    23.4053     -.0384     2.1520    35.4688  -999.2500    -7.6437
 2949.9000     8.6028    23.2498     -.0360     2.1560    35.6758  -999.2500    -8.7195
 2950.0000     8.6020    23.4222     -.0334     2.1599    35.9186  -999.2500   -10.5115
 2950.1000     8.5971    24.2181     -.0311     2.1626    36.1356  -999.2500   -11.8318
 2950.2000     8.5933    25.0294     -.0307     2.1633    36.1159  -999.2500   -11.7520
 2950.3000     8.5908    25.7424     -.0313     2.1631    35.8832  -999.2500   -11.6721
 2950.4000     8.5892    26.3104     -.0318     2.1633    35.5515  -999.2500   -11.5915
 2950.5000     8.5892    26.5083     -.0323     2.1663    35.1325  -999.2500   -11.4331
 2950.6000     8.5911    25.9497     -.0336     2.1752    34.6322  -999.2500   -10.7248
 2950.7000     8.5932    25.1017     -.0350     2.1856    34.5373  -999.2500    -9.7113
 2950.8000     8.5949    24.1915     -.0361     2.1966    34.6226  -999.2500    -8.6954
 2950.9000     8.5961    23.3413     -.0360     2.2082    34.6981  -999.2500    -7.7183
 2951.0000     8.5967    22.6030     -.0347     2.2200    34.6823  -999.2500    -8.1177
 2951.1000     8.5945    21.8984     -.0240     2.2363    33.9382  -999.2500   -10.1514
 2951.2000     8.5921    21.6199     -.0158     2.2451    33.3438  -999.2500   -12.1861
 2951.3000     8.5898    21.5831     -.0102     2.2486    32.9446  -999.2500   -14.2167
 2951.4000     8.5877    21.5911     -.0067     2.2509    32.7415  -999.2500   -15.8990
 2951.5000     8.5871    21.6525     -.0062     2.2531    32.9936  -999.2500   -17.3859
 2951.6000     8.5886    21.8077     -.0074     2.2570    33.7900  -999.2500   -18.0624
 2951.7000     8.5905    21.9795     -.0066     2.2599    34.2921  -999.2500   -16.2248
 2951.8000     8.5921    22.1504     -.0042     2.2621    34.4916  -999.2500   -13.6066
 2951.9000     8.5928    22.2960     -.0011     2.2634    34.4273  -999.2500    -9.7816
 2952.0000     8.5930    22.3873      .0016     2.2634    34.1890  -999.2500    -5.7461
 2952.1000     8.5932    22.2566      .0007     2.2597    33.8762  -999.2500    -3.6512
 2952.2000     8.5939    22.1093     -.0025     2.2552    33.8986  -999.2500    -6.3234
 2952.3000     8.5952    22.0000     -.0073     2.2497    34.2422  -999.2500    -9.9086
 2952.4000     8.5968    21.9759     -.0125     2.2433    34.7438  -999.2500   -13.1687
 2952.5000     8.5986    22.2306     -.0176     2.2353    35.3789  -999.2500   -14.9713
 2952.6000     8.6005    22.9236     -.0240     2.2229    36.2612  -999.2500   -16.1144
 2952.7000     8.6005    23.5118     -.0276     2.2159    36.7956  -999.2500   -17.1353
