~VERSION INFORMATION
VERS.                                                 2.0:   CWLS Log ASCII Standard-VERSION 2.0
WRAP.                                                  NO:   One line per depth step
~Well Information Block
STRT.M                                           204.6000:   Top Depth
STOP.M                                          3156.9000:   Bottom Depth
STEP.M                                             .10000:   Depth Increment
NULL.                                            -999.250:   Null Value
FLD .                                             WILDCAT:   Field Name
WELL.                                             15/12-5:   NAME
WBN .                                             15/12-5:   WELLBORE
NATI.                                                 NOR:   COUNTRY
BHT1.DEGF                                            79.0:   BH TEMP 1
BHT2.DEGF                                            79.0:   BH TEMP 2
BHT3.DEGF                                            80.0:   BH TEMP 3
BS1 .IN                                            12.250:   BIT SIZE 1
CTRY.                                                 NOR:   COUNTRY
CBD1.M                                              217.0:   CSG 1 DRILL DEP
CBL1.M                                              217.0:   CSG 1 LOG DEP
CS1 .IN                                              30.0:   CSG 1 SIZE
COMP.                                             STATOIL:   OPERATOR
PDAT.                                                 MSL:   PERM DATUM
PROV.                                           NORTH SEA:   PROVINCE
COUN.                                           ROSS ISLE:   RIG NAME
SON .                                              N02422:   SOURCE OPERATOR NAME
SPUD.                                          1986/03/12:   SPUD DATE
LATI.                                        58 4 53.36 N:   SURF. LATITUDE
LONG.                                        1 54 53.24 E:   SURF. LONGITUDE
BTD1.                                            617.50 M:   TOTAL DEPTH 1
BTD2.                                            617.50 M:   TOTAL DEPTH 2
BTD3.                                            617.50 M:   TOTAL DEPTH 3
PBWE.                                             15/12-5:   PB WELL ID
APIN.                                             15/12-5:   PB WELLBORE ID
PBWS.                                                 all:   PB WELL NAME SET
~PARAMETER INFORMATION (log)
LNAM.                              CDL/CNL/GR  COMPOSITED:   NAME
LTYP.                                         DEPTH MATCH:   LOG TYPE
LSRV.                                             CAL/BGT:   LOG SERVICE
LSOU.                                             SPT/NPD:   LOG SOURCE
LVSN.                                                   1:   LOG VERSION
BHIS.                                                   R:   BRIEF HISTORY
FHIS.                                             RAW-LIS:   FULL HISTORY
LCNM.                                                  NL:   LOGGING CONTRACTOR
TOOL.                             CDL/CNL/GR (COMPOSITED):   TOOL STRING
~Curve Information Block
#MNEM.UNIT                                        API CODE    No Description
#=========                                        ========    == ===========
DEPT.M                                       00 001 00 00:     1  DEPTH
CAL.IN                                                   :     2  Caliper
CNC.%                                                    :     3  Neutron Porosity
CORR.G/CC                                                :     4  Density Correction
DEN.G/CC                                                 :     5  Bulk Density
GR.GAPI                                                  :     6  Gamma Ray
SPD.                                                     :     7  Cable Speed
TEN.LB                                                   :     8  Cable Tension
~ASCII
# ...
  595.9000  -999.2500  -999.2500  -999.2500  -999.2500   105.1570  -999.2500   111.5144
  596.0000  -999.2500  -999.2500  -999.2500  -999.2500   104.3558  -999.2500   112.7892
  596.1000  -999.2500  -999.2500  -999.2500  -999.2500   103.4810  -999.2500   113.9692
  596.2000  -999.2500  -999.2500  -999.2500  -999.2500   102.7697  -999.2500   115.0846
  596.3000  -999.2500  -999.2500  -999.2500  -999.2500   102.5074  -999.2500   116.0517
  596.4000  -999.2500  -999.2500  -999.2500  -999.2500   102.6917  -999.2500   116.8608
  596.5000  -999.2500  -999.2500  -999.2500  -999.2500   103.4025  -999.2500   117.4889
  596.6000  -999.2500  -999.2500  -999.2500  -999.2500   105.2306  -999.2500   117.7565
  596.7000  -999.2500  -999.2500  -999.2500  -999.2500   109.0225  -999.2500   117.7014
  596.8000  -999.2500  -999.2500  -999.2500  -999.2500   116.1015  -999.2500   117.4308
  596.9000  -999.2500  -999.2500  -999.2500     2.1491   133.9711  -999.2500   117.4166
  597.0000  -999.2500  -999.2500  -999.2500     2.0839   163.0754  -999.2500   117.9807
  597.1000  -999.2500  -999.2500  -999.2500     2.0247   203.6411  -999.2500   119.1659
  597.2000  -999.2500  -999.2500  -999.2500     1.9740   255.4142  -999.2500   120.9857
  597.3000  -999.2500  -999.2500  -999.2500     1.9289   304.2410  -999.2500   122.8800
  597.4000  -999.2500  -999.2500  -999.2500     1.8887   341.1919  -999.2500   124.6740
  597.5000  -999.2500  -999.2500     -.0076     1.8569   350.5784  -999.2500   126.3386
  597.6000  -999.2500  -999.2500     -.0124     1.8359   329.1956  -999.2500   127.8185
  597.7000  -999.2500  -999.2500     -.0149     1.8240   288.2296  -999.2500   129.0303
  597.8000  -999.2500  -999.2500     -.0129     1.8221   234.4219  -999.2500   129.9139
  597.9000  -999.2500  -999.2500     -.0061     1.8288   183.3601  -999.2500   130.4153
  598.0000  -999.2500  -999.2500      .0036     1.8396   142.0127  -999.2500   130.8055
  598.1000  -999.2500  -999.2500      .0152     1.8525   113.2486  -999.2500   131.2885
  598.2000  -999.2500  -999.2500      .0270     1.8643    99.2529  -999.2500   131.8355
  598.3000  -999.2500  -999.2500      .0389     1.8732    91.4020  -999.2500   132.3668
  598.4000  -999.2500  -999.2500      .0513     1.8785    87.7002  -999.2500   132.9492
  598.5000  -999.2500  -999.2500      .0658     1.8790    86.7421  -999.2500   133.5356
  598.6000  -999.2500  -999.2500      .0824     1.8786    86.2602  -999.2500   134.2753
  598.7000  -999.2500  -999.2500      .1009     1.8787    85.8391  -999.2500   135.4126
  598.8000  -999.2500  -999.2500      .1196     1.8810    85.1922  -999.2500   137.3254
  598.9000  -999.2500  -999.2500      .1353     1.8834    84.4995  -999.2500   139.5249
  599.0000  -999.2500  -999.2500      .1463     1.8833    83.9173  -999.2500   141.6774
  599.1000  -999.2500  -999.2500      .1485     1.8757    83.5864  -999.2500   143.3134
  599.2000  -999.2500  -999.2500      .1415     1.8582    83.3620  -999.2500   144.3012
  599.3000  -999.2500  -999.2500      .1287     1.8337    83.0706  -999.2500   145.0475
  599.4000  -999.2500  -999.2500      .1120     1.8045    82.6249  -999.2500   145.6051
  599.5000  -999.2500  -999.2500      .0963     1.7772    82.0775  -999.2500   145.8255
  599.6000    22.9105  -999.2500      .0838     1.7550    81.5603  -999.2500   145.9810
  599.7000    22.9175  -999.2500      .0753     1.7397    81.1300  -999.2500   146.2242
  599.8000    22.9173  -999.2500      .0716     1.7328    80.7349  -999.2500   146.8254
  599.9000    22.9163  -999.2500      .0698     1.7296    55.4770  -999.2500   147.9458
  600.0000    22.9153  -999.2500      .0692     1.7285    43.5939  -999.2500   149.5769
  600.1000    22.9146  -999.2500      .0694     1.7281    44.6814  -999.2500    -9.4900
  600.2000    22.9135  -999.2500      .0696     1.7268    45.5145  -999.2500    -9.3446
  600.3000    22.9113  -999.2500      .0696     1.7247    45.9566  -999.2500    -9.1718
  600.4000    22.9076  -999.2500      .0688     1.7213    45.7816  -999.2500    -9.1124
  600.5000    22.9039  -999.2500      .0670     1.7175    45.3330  -999.2500    -9.1020
  600.6000    22.9011  -999.2500      .0647     1.7139    44.8251  -999.2500    -9.1682
  600.7000    22.9011  -999.2500      .0626     1.7116    44.3712  -999.2500    -9.3560
  600.8000    22.9029  -999.2500      .0617     1.7111    44.0510  -999.2500    -9.4465
  600.9000    22.9048  -999.2500      .0619     1.7118    43.8776  -999.2500    -9.4564
  601.0000    22.9056  -999.2500      .0640     1.7150    43.9322  -999.2500    -9.4404
  601.1000    22.9049  -999.2500      .0692     1.7215    44.3734  -999.2500    -9.2534
  601.2000    22.9037  -999.2500      .0761     1.7301    45.0663  -999.2500    -8.9337
  601.3000    22.9025  -999.2500      .0839     1.7401    45.8936  -999.2500    -8.4906
  601.4000    22.9009  -999.2500      .0902     1.7505    46.5169  -999.2500    -7.6837
  601.5000    22.8981  -999.2500      .0950     1.7605    46.8342  -999.2500    -6.7950
  601.6000    22.8936  -999.2500      .0983     1.7700    46.8232  -999.2500    -6.0257
  601.7000    22.8875  -999.2500      .1001     1.7794    46.5779  -999.2500    -5.6741
  601.8000    22.8829  -999.2500      .1021     1.7897    46.4388  -999.2500    -5.9229
  601.9000    22.8813  -999.2500      .1056     1.8014    46.4666  -999.2500    -6.8532
  602.0000    22.8858  -999.2500      .1118     1.8153    46.6065  -999.2500    -8.2875
  602.1000    22.8941  -999.2500      .1195     1.8296    46.6329  -999.2500    -9.4342
  602.2000    22.9036  -999.2500      .1272     1.8425    46.4768  -999.2500   -10.0944
  602.3000    22.9121  -999.2500      .1332     1.8517    46.1322  -999.2500    -9.8702
  602.4000    22.9178  -999.2500      .1356     1.8549    45.8715  -999.2500    -8.7792
  602.5000    22.9212  -999.2500      .1344     1.8541    45.8481  -999.2500    -7.3243
  602.6000    22.9220  -999.2500      .1290     1.8477    46.1573  -999.2500    -5.7968
  602.7000    22.9203  -999.2500      .1218     1.8383    46.7028  -999.2500    -4.6455
  602.8000    22.9173  -999.2500      .1163     1.8298    47.2174  -999.2500    -4.0093
  602.9000    22.9134  -999.2500      .1138     1.8245    47.5601  -999.2500    -3.8328
  603.0000    22.9102  -999.2500      .1148     1.8240    47.4881  -999.2500    -3.8180
  603.1000    22.9083  -999.2500      .1161     1.8239    47.1859  -999.2500    -3.8321
  603.2000    22.9076  -999.2500      .1162     1.8223    46.7602  -999.2500    -3.9107
  603.3000    22.9074  -999.2500      .1117     1.8140    46.4941  -999.2500    -4.1399
  603.4000    22.9062  -999.2500      .1040     1.8009    46.5286  -999.2500    -4.4585
  603.5000    22.9036  -999.2500      .0944     1.7847    46.8741  -999.2500    -4.8174
  603.6000    22.8998  -999.2500      .0855     1.7682    47.4600  -999.2500    -5.0608
  603.7000    22.8969  -999.2500      .0795     1.7544    47.9932  -999.2500    -5.0798
  603.8000    22.8957  -999.2500      .0760     1.7436    48.3531  -999.2500    -4.9227
  603.9000    22.8961  -999.2500      .0745     1.7363    48.4768  -999.2500    -4.6753
  604.0000    22.8965  -999.2500      .0734     1.7317    48.6559  -999.2500    -4.5538
  604.1000    22.8962  -999.2500      .0721     1.7290    49.1075  -999.2500    -4.6134
  604.2000    22.8946  -999.2500      .0709     1.7286    49.9687  -999.2500    -4.8260
  604.3000    22.8928  -999.2500      .0718     1.7334    51.0352  -999.2500    -4.8096
  604.4000    22.8914  -999.2500      .0756     1.7426    51.9005  -999.2500    -4.4357
  604.5000    22.8907  -999.2500      .0825     1.7563    52.3335  -999.2500    -3.6813
  604.6000    22.8905  -999.2500      .0930     1.7743    51.9090  -999.2500    -2.4980
  604.7000    22.8897  -999.2500      .1043     1.7931    51.0112  -999.2500    -1.3351
  604.8000    22.8882  -999.2500      .1155     1.8117    49.8200  -999.2500     -.4835
  604.9000    22.8865  -999.2500      .1241     1.8277    48.8068  -999.2500     -.3836
