~VERSION INFORMATION
VERS.                                                 2.0:   CWLS Log ASCII Standard-VERSION 2.0
WRAP.                                                  NO:   One line per depth step
~Well Information Block
STRT.M                                           204.6000:   Top Depth
STOP.M                                          3156.9000:   Bottom Depth
STEP.M                                             .10000:   Depth Increment
NULL.                                            -999.250:   Null Value
FLD .                                             WILDCAT:   Field Name
WELL.                                             15/12-5:   NAME
WBN .                                             15/12-5:   WELLBORE
NATI.                                                 NOR:   COUNTRY
BHT1.DEGF                                            79.0:   BH TEMP 1
BHT2.DEGF                                            79.0:   BH TEMP 2
BHT3.DEGF                                            80.0:   BH TEMP 3
BS1 .IN                                            12.250:   BIT SIZE 1
CTRY.                                                 NOR:   COUNTRY
CBD1.M                                              217.0:   CSG 1 DRILL DEP
CBL1.M                                              217.0:   CSG 1 LOG DEP
CS1 .IN                                              30.0:   CSG 1 SIZE
COMP.                                             STATOIL:   OPERATOR
PDAT.                                                 MSL:   PERM DATUM
PROV.                                           NORTH SEA:   PROVINCE
COUN.                                           ROSS ISLE:   RIG NAME
SON .                                              N02422:   SOURCE OPERATOR NAME
SPUD.                                          1986/03/12:   SPUD DATE
LATI.                                        58 4 53.36 N:   SURF. LATITUDE
LONG.                                        1 54 53.24 E:   SURF. LONGITUDE
BTD1.                                            617.50 M:   TOTAL DEPTH 1
BTD2.                                            617.50 M:   TOTAL DEPTH 2
BTD3.                                            617.50 M:   TOTAL DEPTH 3
PBWE.                                             15/12-5:   PB WELL ID
APIN.                                             15/12-5:   PB WELLBORE ID
PBWS.                                                 all:   PB WELL NAME SET
~PARAMETER INFORMATION (log)
LNAM.                              CDL/CNL/GR  COMPOSITED:   NAME
LTYP.                                         DEPTH MATCH:   LOG TYPE
LSRV.                                             CAL/BGT:   LOG SERVICE
LSOU.                                             SPT/NPD:   LOG SOURCE
LVSN.                                                   1:   LOG VERSION
BHIS.                                                   R:   BRIEF HISTORY
FHIS.                                             RAW-LIS:   FULL HISTORY
LCNM.                                                  NL:   LOGGING CONTRACTOR
TOOL.                             CDL/CNL/GR (COMPOSITED):   TOOL STRING
~Curve Information Block
#MNEM.UNIT                                        API CODE    No Description
#=========                                        ========    == ===========
DEPT.M                                       00 001 00 00:     1  DEPTH
CAL.IN                                                   :     2  Caliper
CNC.%                                                    :     3  Neutron Porosity
CORR.G/CC                                                :     4  Density Correction
DEN.G/CC                                                 :     5  Bulk Density
GR.GAPI                                                  :     6  Gamma Ray
SPD.                                                     :     7  Cable Speed
TEN.LB                                                   :     8  Cable Tension
~ASCII
# ...
 2161.1000    13.7674    36.5003     -.0078     2.1815    48.7670     9.6844    -4.0721
 2161.2000    13.7730    35.6745     -.0050     2.1818    48.7699     9.6935    -7.7507
 2161.3000    13.7579    35.7172     -.0034     2.1824    48.8837     9.7101   -10.2676
 2161.4000    13.7288    36.5164     -.0024     2.1841    49.1440     9.7307   -11.4492
 2161.5000    13.6892    37.9318     -.0018     2.1877    49.5303     9.7547   -10.8903
 2161.6000    13.6489    39.4738     -.0014     2.1946    49.7951     9.7792    -8.8120
 2161.7000    13.6135    40.4134     -.0016     2.2027    49.8086     9.7977    -6.3874
 2161.8000    13.5845    40.6031     -.0039     2.2117    49.4612     9.8085    -4.2146
 2161.9000    13.5623    39.8792     -.0115     2.2206    48.5725     9.8083    -3.5435
 2162.0000    13.5421    38.8517     -.0220     2.2293    47.4531     9.7994    -4.1377
 2162.1000    13.5236    38.0089     -.0336     2.2376    46.2771     9.7856    -5.9161
 2162.2000    13.5106    37.6512     -.0404     2.2454    45.5592     9.7676    -8.6065
 2162.3000    13.5050    37.6968     -.0410     2.2533    45.3386     9.7474   -11.0416
 2162.4000    13.5083    37.6703     -.0358     2.2618    45.5353     9.7293   -12.8182
 2162.5000    13.5263    37.2883     -.0252     2.2719    45.9880     9.7170   -13.3987
 2162.6000    13.5549    36.3377     -.0145     2.2820    46.3853     9.7213   -13.2979
 2162.7000    13.5886    35.3136     -.0064     2.2898    46.6694     9.7383   -12.8818
 2162.8000    13.6221    34.4403     -.0033     2.2909    46.8549     9.7651   -12.2681
 2162.9000    13.6474    34.2426     -.0034     2.2823    47.1365     9.7899   -11.3817
 2163.0000    13.6649    34.5581     -.0047     2.2667    47.6339     9.8037   -10.1342
 2163.1000    13.6746    35.2363     -.0066     2.2456    48.4001     9.8062    -8.4238
 2163.2000    13.6800    35.8064     -.0088     2.2238    49.2498     9.8004    -6.5835
 2163.3000    13.6853    35.9576     -.0111     2.2050    49.9579     9.7977    -5.1820
 2163.4000    13.6916    35.8675     -.0130     2.1907    50.4250     9.8011    -4.6641
 2163.5000    13.7002    35.9341     -.0129     2.1828    50.6081     9.8108    -5.7278
 2163.6000    13.7100    36.4514     -.0120     2.1777    50.7027     9.8208    -7.6422
 2163.7000    13.7211    37.1735     -.0108     2.1745    50.7292     9.8289   -10.2006
 2163.8000    13.7338    37.7653     -.0114     2.1716    50.6365     9.8340   -13.3221
 2163.9000    13.7461    37.7219     -.0142     2.1683    50.4543     9.8357   -16.5928
 2164.0000    13.7557    37.2412     -.0185     2.1648    50.2086     9.8357   -19.8657
 2164.1000    13.7537    36.5123     -.0225     2.1629    49.9446     9.8348   -22.6384
 2164.2000    13.7356    36.0625     -.0235     2.1633    49.7809     9.8330   -24.4447
 2164.3000    13.7017    36.0564     -.0211     2.1659    49.7597     9.8307   -25.1502
 2164.4000    13.6501    36.4674     -.0156     2.1715    49.9170     9.8277   -24.2516
 2164.5000    13.5900    37.0549     -.0096     2.1772    50.1094     9.8221   -22.0565
 2164.6000    13.5311    37.5110     -.0054     2.1810    50.1883     9.8139   -19.3225
 2164.7000    13.4819    37.7994     -.0046     2.1808    50.0707     9.8043   -16.5137
 2164.8000    13.4512    37.7937     -.0069     2.1775    49.8061     9.7957   -14.1389
 2164.9000    13.4337    37.5603     -.0096     2.1730    49.5347     9.7935   -12.1302
 2165.0000    13.4276    37.1972     -.0115     2.1682    49.3317     9.7994   -10.3757
 2165.1000    13.4326    36.7993     -.0112     2.1645    49.2885     9.8149    -8.7342
 2165.2000    13.4431    36.5734     -.0097     2.1624    49.2852     9.8323    -7.4344
 2165.3000    13.4582    36.6192     -.0074     2.1628    49.2649     9.8468    -6.7937
 2165.4000    13.4747    37.0012     -.0054     2.1662    49.2057     9.8559    -7.9294
 2165.5000    13.4865    37.6621     -.0039     2.1703    49.2197     9.8635   -10.3169
 2165.6000    13.4906    38.4012     -.0028     2.1739    49.3644     9.8753   -13.4710
 2165.7000    13.4803    39.0872     -.0014     2.1751    49.7192     9.8935   -16.2754
 2165.8000    13.4599    39.4804      .0004     2.1734    50.1261     9.9122   -17.5778
 2165.9000    13.4350    39.6845      .0022     2.1692    50.4674     9.9220   -17.1771
 2166.0000    13.4118    39.7337      .0031     2.1632    50.6601     9.9192   -14.6273
 2166.1000    13.3974    39.5729      .0025     2.1577    50.6903     9.8970   -10.8502
 2166.2000    13.3906    39.3384      .0008     2.1536    50.5843     9.8701    -7.0577
 2166.3000    13.3904    39.0941     -.0015     2.1520    50.3529     9.8447    -4.1126
 2166.4000    13.3927    38.7945     -.0027     2.1548    50.0443     9.8301    -3.0783
 2166.5000    13.3943    38.3645     -.0020     2.1613    49.6483     9.8222    -3.4236
 2166.6000    13.3945    37.8049      .0012     2.1723    49.0980     9.8140    -4.8903
 2166.7000    13.3946    37.1110      .0062     2.1873    48.1990     9.7955    -6.6307
 2166.8000    13.3977    36.3476      .0104     2.2029    47.0416     9.7626    -7.9098
 2166.9000    13.4060    35.5934      .0129     2.2183    45.6641     9.7240    -8.6753
 2167.0000    13.4256    34.8749      .0114     2.2339    44.0686     9.6882    -9.3071
 2167.1000    13.4535    34.2050      .0081     2.2510    42.4415     9.6677   -10.5165
 2167.2000    13.4876    33.4888      .0047     2.2689    40.8312     9.6599   -12.4143
 2167.3000    13.5272    32.6330      .0052     2.2883    39.2638     9.6613   -14.7699
 2167.4000    13.5674    31.5046      .0111     2.3063    37.7497     9.6614   -16.3256
 2167.5000    13.6049    30.2219      .0207     2.3207    36.3123     9.6553   -16.5284
 2167.6000    13.6335    28.9527      .0316     2.3272    35.1487     9.6427   -14.6139
 2167.7000    13.6514    28.2932      .0396     2.3241    34.5400     9.6277   -11.1618
 2167.8000    13.6646    28.3592      .0441     2.3148    34.4386     9.6184    -7.2776
 2167.9000    13.6782    29.2003      .0441     2.3003    34.8988     9.6172    -3.7889
 2168.0000    13.7021    30.9495      .0398     2.2846    35.7863     9.6267    -1.7965
 2168.1000    13.7362    33.0390      .0339     2.2692    36.7818     9.6392    -1.1041
 2168.2000    13.7791    35.0865      .0279     2.2559    37.7864     9.6501    -1.7062
 2168.3000    13.8235    36.4107      .0234     2.2478    38.7389     9.6549    -3.4130
 2168.4000    13.8591    36.8166      .0204     2.2443    39.6049     9.6539    -5.1809
 2168.5000    13.8824    36.6107      .0189     2.2451    40.3618     9.6502    -6.7337
 2168.6000    13.8877    35.8094      .0189     2.2495    40.9011     9.6467    -7.7733
 2168.7000    13.8872    34.4110      .0188     2.2535    41.2957     9.6526    -8.6217
 2168.8000    13.8856    32.7794      .0178     2.2561    41.5635     9.6676    -9.4398
 2168.9000    13.8881    31.2160      .0152     2.2566    41.6715     9.6899   -10.3872
 2169.0000    13.8968    30.0868      .0126     2.2570    41.6221     9.7145   -11.3020
 2169.1000    13.9099    29.4458      .0115     2.2581    41.3890     9.7342   -11.9491
 2169.2000    13.9248    29.4121      .0129     2.2591    40.8653     9.7451   -11.9370
 2169.3000    13.9343    30.4525      .0152     2.2586    40.1049     9.7372   -11.1627
 2169.4000    13.9359    32.1615      .0164     2.2554    39.3061     9.7175    -9.9924
 2169.5000    13.9277    34.4273      .0143     2.2473    38.6525     9.6891    -8.7305
 2169.6000    13.9180    36.6284      .0070     2.2340    38.3814     9.6566    -8.0395
 2169.7000    13.9184    38.0017     -.0025     2.2198    38.3595     9.6307    -8.0179
 2169.8000    13.9354    38.4664     -.0124     2.2078    38.5473     9.6140    -8.7931
 2169.9000    13.9772    37.8300     -.0174     2.2038    38.9119     9.6118   -10.8887
 2170.0000    14.0242    36.6848     -.0178     2.2058    39.3243     9.6205   -13.7710
 2170.1000    14.0658    35.5667     -.0142     2.2107    39.7294     9.6317   -17.2162
