~VERSION INFORMATION
VERS.                                                 2.0:   CWLS Log ASCII Standard-VERSION 2.0
WRAP.                                                  NO:   One line per depth step
~Well Information Block
STRT.M                                           204.6000:   Top Depth
STOP.M                                          3156.9000:   Bottom Depth
STEP.M                                             .10000:   Depth Increment
NULL.                                            -999.250:   Null Value
FLD .                                             WILDCAT:   Field Name
WELL.                                             15/12-5:   NAME
WBN .                                             15/12-5:   WELLBORE
NATI.                                                 NOR:   COUNTRY
BHT1.DEGF                                            79.0:   BH TEMP 1
BHT2.DEGF                                            79.0:   BH TEMP 2
BHT3.DEGF                                            80.0:   BH TEMP 3
BS1 .IN                                            12.250:   BIT SIZE 1
CTRY.                                                 NOR:   COUNTRY
CBD1.M                                              217.0:   CSG 1 DRILL DEP
CBL1.M                                              217.0:   CSG 1 LOG DEP
CS1 .IN                                              30.0:   CSG 1 SIZE
COMP.                                             STATOIL:   OPERATOR
PDAT.                                                 MSL:   PERM DATUM
PROV.                                           NORTH SEA:   PROVINCE
COUN.                                           ROSS ISLE:   RIG NAME
SON .                                              N02422:   SOURCE OPERATOR NAME
SPUD.                                          1986/03/12:   SPUD DATE
LATI.                                        58 4 53.36 N:   SURF. LATITUDE
LONG.                                        1 54 53.24 E:   SURF. LONGITUDE
BTD1.                                            617.50 M:   TOTAL DEPTH 1
BTD2.                                            617.50 M:   TOTAL DEPTH 2
BTD3.                                            617.50 M:   TOTAL DEPTH 3
PBWE.                                             15/12-5:   PB WELL ID
APIN.                                             15/12-5:   PB WELLBORE ID
PBWS.                                                 all:   PB WELL NAME SET
~PARAMETER INFORMATION (log)
LNAM.                              CDL/CNL/GR  COMPOSITED:   NAME
LTYP.                                         DEPTH MATCH:   LOG TYPE
LSRV.                                             CAL/BGT:   LOG SERVICE
LSOU.                                             SPT/NPD:   LOG SOURCE
LVSN.                                                   1:   LOG VERSION
BHIS.                                                   R:   BRIEF HISTORY
FHIS.                                             RAW-LIS:   FULL HISTORY
LCNM.                                                  NL:   LOGGING CONTRACTOR
TOOL.                             CDL/CNL/GR (COMPOSITED):   TOOL STRING
~Curve Information Block
#MNEM.UNIT                                        API CODE    No Description
#=========                                        ========    == ===========
DEPT.M                                       00 001 00 00:     1  DEPTH
CAL.IN                                                   :     2  Caliper
CNC.%                                                    :     3  Neutron Porosity
CORR.G/CC                                                :     4  Density Correction
DEN.G/CC                                                 :     5  Bulk Density
GR.GAPI                                                  :     6  Gamma Ray
SPD.                                                     :     7  Cable Speed
TEN.LB                                                   :     8  Cable Tension
~ASCII
# ...
 3143.9000     8.5065    19.5133     -.0218     2.4141    58.2441  -999.2500   123.9230
 3144.0000     8.5072    19.6304     -.0197     2.4116    58.0658  -999.2500   119.4997
 3144.1000     8.5079    19.9616     -.0186     2.4058    57.4103  -999.2500   119.2846
 3144.2000     8.5090    20.5584     -.0201     2.3964    57.0013  -999.2500   123.1765
 3144.3000     8.5090    20.8498     -.0225     2.3912    56.8578  -999.2500   129.3656
 3144.4000     8.5076    20.9645     -.0251     2.3888    56.9158  -999.2500   138.1313
 3144.5000     8.5052    20.9811     -.0269     2.3878    57.2710  -999.2500   145.6274
 3144.6000     8.5008    20.9263     -.0260     2.3902    57.9682  -999.2500   150.9538
 3144.7000     8.4940    20.8573     -.0216     2.3972    58.4204  -999.2500   155.8326
 3144.8000     8.4912    20.9056     -.0163     2.4056    58.7720  -999.2500   159.7253
 3144.9000     8.4892    21.0395     -.0109     2.4158    59.1318  -999.2500   159.0271
 3145.0000     8.4879    21.2439     -.0058     2.4294    59.5196  -999.2500   156.7052
 3145.1000     8.4870    21.5362     -.0004     2.4537    60.0002  -999.2500   154.2830
 3145.2000     8.4862    21.8989      .0071     2.4967    60.1927  -999.2500   151.8698
 3145.3000     8.4856    22.0031      .0141     2.5265    60.1914  -999.2500   149.9825
 3145.4000     8.4859    21.9414      .0220     2.5446    60.1482  -999.2500   151.1266
 3145.5000     8.4870    21.8346      .0292     2.5522    60.1494  -999.2500   153.3802
 3145.6000     8.4911    21.7747      .0321     2.5316    60.2915  -999.2500   155.6404
 3145.7000     8.4985    21.8138      .0298     2.4808    60.4803  -999.2500   159.8458
 3145.8000     8.5027    21.9191      .0240     2.4411    60.6257  -999.2500   166.3820
 3145.9000     8.5059    21.9783      .0172     2.4038    60.6741  -999.2500   173.2068
 3146.0000     8.5074    21.9260      .0095     2.3720    60.6335  -999.2500   179.8091
 3146.1000     8.5063    21.6851      .0003     2.3425    60.3578  -999.2500   180.9414
 3146.2000     8.5023    21.2498     -.0092     2.3164    60.1105  -999.2500   180.9348
 3146.3000     8.4992    20.9863     -.0132     2.3056    59.7821  -999.2500   180.9107
 3146.4000     8.4968    20.8300     -.0156     2.2996    59.3298  -999.2500   180.8866
 3146.5000     8.4950    20.7131     -.0185     2.2944    58.7329  -999.2500   180.8624
 3146.6000     8.4941    20.5995     -.0234     2.2888    58.0220  -999.2500   180.8382
 3146.7000     8.4938    20.4794     -.0301     2.2834    64.0831  -999.2500   181.3019
 3146.8000     8.4946    20.5015     -.0329     2.2830   172.0862  -999.2500   184.6909
 3146.9000     8.4962    20.5828     -.0346     2.2844   602.4161  -999.2500   189.2088
 3147.0000     8.4991    20.7590     -.0355     2.2872  1723.1689  -999.2500   193.9352
 3147.1000     8.5044    21.1227     -.0373     2.2926  4813.9980  -999.2500   198.7913
 3147.2000     8.5109    21.6161     -.0414     2.2999  6935.3691  -999.2500   205.3499
 3147.3000     8.5119    21.8864     -.0461     2.3045  7986.0137  -999.2500   213.0694
 3147.4000     8.5077    21.9686     -.0516     2.3091  8220.7344  -999.2500   217.7086
 3147.5000     8.4990    21.9515     -.0565     2.3139  7136.7744  -999.2500   219.9639
 3147.6000     8.4775    21.7444     -.0586     2.3201  4124.6387  -999.2500   222.0707
 3147.7000     8.4459    21.4375     -.0563     2.3262  2121.0679  -999.2500   223.5358
 3147.8000     8.4269    21.3619     -.0507     2.3271   931.9836  -999.2500   221.8983
 3147.9000     8.4113    21.3772     -.0441     2.3260   266.4059  -999.2500   219.2565
 3148.0000     8.3999    21.5359     -.0380     2.3244    88.2377  -999.2500   217.7061
 3148.1000     8.3912    21.8831     -.0327     2.3249    60.0360  -999.2500   220.3965
 3148.2000     8.3857    22.2971     -.0290     2.3294    60.0360  -999.2500   225.0916
 3148.3000     8.3849    22.4598     -.0289     2.3378    60.0360  -999.2500   229.5447
 3148.4000     8.3842    21.6783     -.0284     2.3493    60.0360  -999.2500   233.3785
 3148.5000     8.3827    15.1637     -.0268     2.3622    60.0360  -999.2500   237.1822
 3148.6000     8.3791     8.0154     -.0232     2.3767    60.0360  -999.2500   240.9860
 3148.7000     8.3743     4.8863     -.0195     2.3866    60.0360  -999.2500   244.7895
 3148.8000     8.3711     4.6980     -.0191     2.3845    60.0360  -999.2500   248.6098
 3148.9000     8.3678     4.6011     -.0203     2.3772    60.0360  -999.2500   252.5715
 3149.0000     8.3637     4.5730     -.0220     2.3666    60.0360  -999.2500   258.3137
 3149.1000     8.3545     4.6074     -.0244     2.3460    60.0360  -999.2500   264.1865
 3149.2000     8.3426     4.7302     -.0264     2.3217    60.0360  -999.2500   270.0227
 3149.3000     8.3345     4.9729     -.0261     2.3086    60.0360  -999.2500   275.8126
 3149.4000     8.3271     5.7545     -.0251     2.2972    60.0360  -999.2500   277.6669
 3149.5000     8.3215     7.9655     -.0235     2.2887    60.0360  -999.2500   280.1917
 3149.6000     8.3177    13.6448     -.0212     2.2815    60.0360  -999.2500   284.0806
 3149.7000     8.3154    19.1370     -.0193     2.2763    60.0360  -999.2500   287.6695
 3149.8000     8.3135    19.2736     -.0188     2.2738    60.0360  -999.2500   291.2657
 3149.9000     8.3077    19.2792     -.0191     2.2712    60.0360  -999.2500   296.4283
 3150.0000     8.2978    19.2910     -.0194     2.2682    60.0360  -999.2500   302.1924
 3150.1000     8.2700    19.3204     -.0193     2.2628    60.0360  -999.2500   308.0224
 3150.2000     8.2369    19.3569     -.0187     2.2572    60.0360  -999.2500   313.1312
 3150.3000     8.2162    19.3798     -.0178     2.2546    60.0360  -999.2500   310.8583
 3150.4000     8.1982    19.3988     -.0174     2.2523    60.0360  -999.2500   301.9290
 3150.5000     8.1862    19.4126     -.0182     2.2495    60.0360  -999.2500   289.9511
 3150.6000     8.1782    19.4212     -.0216     2.2436    60.0360  -999.2500   277.6893
 3150.7000     8.1754    19.4245     -.0260     2.2373    60.0360  -999.2500   265.4338
 3150.8000     8.1764    19.4232     -.0290     2.2334    60.0360  -999.2500   253.1489
 3150.9000     8.1779    19.4215     -.0309     2.2311    60.0360  -999.2500   240.4305
 3151.0000     8.1790    19.4203     -.0323     2.2298    60.0360  -999.2500   226.2139
 3151.1000     8.1803    19.4189     -.0337     2.2302    60.0360  -999.2500   211.3138
 3151.2000     8.1820    19.4170     -.0345     2.2311    60.0360  -999.2500   196.4763
 3151.3000     8.1847    19.4141     -.0344     2.2319    60.0360  -999.2500   181.6241
 3151.4000     8.1885    19.4099     -.0342     2.2324    60.0360  -999.2500   167.0684
 3151.5000     8.1935    19.4046     -.0343     2.2324    60.0360  -999.2500   152.6733
 3151.6000     8.2004    19.3969     -.0345     2.2318    60.0360  -999.2500   138.2137
 3151.7000     8.2052    19.3916     -.0344     2.2315    60.0360  -999.2500   123.7954
 3151.8000     8.2058    19.3910     -.0336     2.2322    60.0360  -999.2500   109.3950
 3151.9000     8.2041    19.3929     -.0318     2.2344    60.0360  -999.2500    95.5247
 3152.0000     8.2018    19.3954     -.0291     2.2373    60.0360  -999.2500    82.4666
 3152.1000     8.1993    19.3982     -.0239     2.2414    60.0360  -999.2500    69.7200
 3152.2000     8.1977    19.3998     -.0203     2.2440    60.0360  -999.2500    59.8283
 3152.3000     8.1974    19.4002     -.0209     2.2438    60.0360  -999.2500    52.6139
 3152.4000     8.1969    19.4008     -.0230     2.2431    60.0360  -999.2500    46.2156
 3152.5000     8.1950    19.4028     -.0260     2.2404    60.0360  -999.2500    44.4919
 3152.6000     8.1908    19.4074     -.0292     2.2362    60.0360  -999.2500    45.1018
 3152.7000     8.1872    19.4113     -.0311     2.2329    60.0360  -999.2500    45.7107
 3152.8000     8.1859    19.4128     -.0315     2.2313    60.0360  -999.2500    46.3214
 3152.9000     8.1862    19.4124     -.0320     2.2296    60.0360  -999.2500    46.9313
