~VERSION INFORMATION
VERS.                                                 2.0:   CWLS Log ASCII Standard-VERSION 2.0
WRAP.                                                  NO:   One line per depth step
~Well Information Block
STRT.M                                           204.6000:   Top Depth
STOP.M                                          3156.9000:   Bottom Depth
STEP.M                                             .10000:   Depth Increment
NULL.                                            -999.250:   Null Value
FLD .                                             WILDCAT:   Field Name
WELL.                                             15/12-5:   NAME
WBN .                                             15/12-5:   WELLBORE
NATI.                                                 NOR:   COUNTRY
BHT1.DEGF                                            79.0:   BH TEMP 1
BHT2.DEGF                                            79.0:   BH TEMP 2
BHT3.DEGF                                            80.0:   BH TEMP 3
BS1 .IN                                            12.250:   BIT SIZE 1
CTRY.                                                 NOR:   COUNTRY
CBD1.M                                              217.0:   CSG 1 DRILL DEP
CBL1.M                                              217.0:   CSG 1 LOG DEP
CS1 .IN                                              30.0:   CSG 1 SIZE
COMP.                                             STATOIL:   OPERATOR
PDAT.                                                 MSL:   PERM DATUM
PROV.                                           NORTH SEA:   PROVINCE
COUN.                                           ROSS ISLE:   RIG NAME
SON .                                              N02422:   SOURCE OPERATOR NAME
SPUD.                                          1986/03/12:   SPUD DATE
LATI.                                        58 4 53.36 N:   SURF. LATITUDE
LONG.                                        1 54 53.24 E:   SURF. LONGITUDE
BTD1.                                            617.50 M:   TOTAL DEPTH 1
BTD2.                                            617.50 M:   TOTAL DEPTH 2
BTD3.                                            617.50 M:   TOTAL DEPTH 3
PBWE.                                             15/12-5:   PB WELL ID
APIN.                                             15/12-5:   PB WELLBORE ID
PBWS.                                                 all:   PB WELL NAME SET
~PARAMETER INFORMATION (log)
LNAM.                              CDL/CNL/GR  COMPOSITED:   NAME
LTYP.                                         DEPTH MATCH:   LOG TYPE
LSRV.                                             CAL/BGT:   LOG SERVICE
LSOU.                                             SPT/NPD:   LOG SOURCE
LVSN.                                                   1:   LOG VERSION
BHIS.                                                   R:   BRIEF HISTORY
FHIS.                                             RAW-LIS:   FULL HISTORY
LCNM.                                                  NL:   LOGGING CONTRACTOR
TOOL.                             CDL/CNL/GR (COMPOSITED):   TOOL STRING
~Curve Information Block
#MNEM.UNIT                                        API CODE    No Description
#=========                                        ========    == ===========
DEPT.M                                       00 001 00 00:     1  DEPTH
CAL.IN                                                   :     2  Caliper
CNC.%                                                    :     3  Neutron Porosity
CORR.G/CC                                                :     4  Density Correction
DEN.G/CC                                                 :     5  Bulk Density
GR.GAPI                                                  :     6  Gamma Ray
SPD.                                                     :     7  Cable Speed
TEN.LB                                                   :     8  Cable Tension
~ASCII
# ...
 1970.0000    12.8060    42.2186     -.0176     2.1236    74.2401     8.7566    -2.0174
 1970.1000    12.8192    42.5683     -.0250     2.1179    74.9248     8.7568      .5622
 1970.2000    12.8407    42.6828     -.0334     2.1124    75.1060     8.7523     2.0808
 1970.3000    12.8702    42.5266     -.0417     2.1079    74.7601     8.7442     2.6356
 1970.4000    12.9079    41.9957     -.0466     2.1077    73.8242     8.7339     2.0682
 1970.5000    12.9467    41.0518     -.0461     2.1114    72.7569     8.7267      .7752
 1970.6000    12.9826    40.0452     -.0403     2.1198    71.8120     8.7242     -.9586
 1970.7000    13.0108    39.2055     -.0286     2.1328    71.2677     8.7265    -2.8125
 1970.8000    13.0302    39.0118     -.0149     2.1468    71.1135     8.7308    -4.2138
 1970.9000    13.0436    39.2666     -.0018     2.1593    71.1303     8.7325    -4.9725
 1971.0000    13.0518    39.9357      .0092     2.1685    71.1494     8.7310    -4.8354
 1971.1000    13.0569    40.9276      .0175     2.1736    70.8579     8.7263    -3.7710
 1971.2000    13.0609    41.7321      .0236     2.1765    70.1734     8.7206    -2.2456
 1971.3000    13.0648    42.1082      .0270     2.1781    69.0000     8.7136     -.4863
 1971.4000    13.0705    41.6004      .0263     2.1804    67.3765     8.7034      .8685
 1971.5000    13.0775    40.3878      .0231     2.1849    65.7209     8.6888     1.5813
 1971.6000    13.0853    38.8466      .0182     2.1917    64.1708     8.6709     1.6167
 1971.7000    13.0923    37.3178      .0122     2.1994    63.1734     8.6516      .8056
 1971.8000    13.0979    36.5017      .0053     2.2032    62.6689     8.6380     -.5111
 1971.9000    13.1021    36.5601     -.0031     2.2006    62.5695     8.6333    -2.2955
 1972.0000    13.1047    37.6369     -.0156     2.1854    62.8554     8.6405    -4.5391
 1972.1000    13.1067    39.4674     -.0295     2.1624    63.4314     8.6603    -6.7925
 1972.2000    13.1081    41.1987     -.0414     2.1370    64.2841     8.6825    -8.7891
 1972.3000    13.1085    42.6342     -.0456     2.1166    65.4949     8.7038   -10.1304
 1972.4000    13.1077    43.3190     -.0403     2.1050    66.9232     8.7199   -10.5857
 1972.5000    13.1062    43.6841     -.0301     2.1013    68.3279     8.7329   -10.2988
 1972.6000    13.1049    43.9285     -.0193     2.1053    69.5152     8.7427    -9.2275
 1972.7000    13.1054    44.1083     -.0159     2.1126    70.3328     8.7478    -7.7207
 1972.8000    13.1079    44.2012     -.0198     2.1229    70.8682     8.7512    -6.2882
 1972.9000    13.1124    44.2606     -.0302     2.1303    71.1288     8.7569    -5.1241
 1973.0000    13.1191    44.4207     -.0414     2.1325    71.1974     8.7728    -4.3993
 1973.1000    13.1264    44.7947     -.0478     2.1317    71.2666     8.8030    -3.8494
 1973.2000    13.1344    45.1445     -.0485     2.1299    71.3834     8.8424    -3.3860
 1973.3000    13.1435    45.0838     -.0415     2.1295    71.6836     8.8846    -2.8078
 1973.4000    13.1538    44.2689     -.0321     2.1313    72.0796     8.9147    -2.0653
 1973.5000    13.1652    43.1290     -.0224     2.1354    72.4973     8.9283    -1.1457
 1973.6000    13.1774    41.9808     -.0149     2.1419    72.8198     8.9230      .2649
 1973.7000    13.1887    41.4493     -.0104     2.1492    73.0822     8.9039     2.4026
 1973.8000    13.1985    41.1961     -.0082     2.1563    73.3680     8.8883     5.2235
 1973.9000    13.2057    41.0768     -.0083     2.1627    73.8205     8.8811     8.6254
 1974.0000    13.2110    40.8400     -.0093     2.1685    74.4625     8.8877    11.6141
 1974.1000    13.2175    40.4890     -.0102     2.1741    75.1138     8.8973    13.4851
 1974.2000    13.2304    40.0609     -.0100     2.1795    75.5418     8.9056    13.3987
 1974.3000    13.2601    39.5712     -.0086     2.1849    75.4156     8.9050    10.8980
 1974.4000    13.3054    38.9695     -.0076     2.1904    74.8956     8.8966     7.2982
 1974.5000    13.3669    38.2361     -.0080     2.1955    74.1317     8.8838     3.2461
 1974.6000    13.4418    37.4301     -.0101     2.1976    73.5620     8.8711      .0362
 1974.7000    13.5160    36.6996     -.0125     2.1972    73.2470     8.8619    -2.1815
 1974.8000    13.5843    36.1114     -.0146     2.1946    73.0956     8.8545    -3.3860
 1974.9000    13.6345    35.7788     -.0161     2.1905    72.7834     8.8489    -3.2396
 1975.0000    13.6717    35.8136     -.0184     2.1864    72.1956     8.8474    -2.4362
 1975.1000    13.6987    36.0949     -.0223     2.1829    71.3865     8.8501    -1.2775
 1975.2000    13.7173    36.6239     -.0276     2.1810    70.5275     8.8566     -.3010
 1975.3000    13.7326    37.6173     -.0319     2.1811    69.9805     8.8640      .0023
 1975.4000    13.7468    38.9128     -.0343     2.1832    69.8396     8.8679     -.3687
 1975.5000    13.7615    40.3637     -.0338     2.1872    70.1746     8.8666    -1.3932
 1975.6000    13.7783    41.3982     -.0309     2.1938    70.6294     8.8577    -2.4363
 1975.7000    13.7963    41.7175     -.0265     2.2021    70.9277     8.8475    -3.0734
 1975.8000    13.8139    41.2852     -.0211     2.2110    70.9108     8.8398    -2.9991
 1975.9000    13.8270    40.5330     -.0162     2.2169    70.6209     8.8426    -2.3140
 1976.0000    13.8346    39.9361     -.0136     2.2173    70.3336     8.8545    -1.6982
 1976.1000    13.8357    39.5742     -.0144     2.2122    70.1915     8.8723    -1.5525
 1976.2000    13.8297    39.5360     -.0209     2.1968    70.2526     8.8918    -2.3918
 1976.3000    13.8227    39.6454     -.0297     2.1789    70.2546     8.9072    -3.5554
 1976.4000    13.8170    39.6810     -.0391     2.1617    70.0573     8.9164    -4.7342
 1976.5000    13.8181    39.4811     -.0453     2.1541    69.4068     8.9164    -5.3762
 1976.6000    13.8256    39.0410     -.0477     2.1554    68.6274     8.9049    -5.6699
 1976.7000    13.8392    38.5019     -.0469     2.1640    67.9045     8.8883    -5.8244
 1976.8000    13.8592    37.8430     -.0437     2.1771    67.4247     8.8708    -6.1298
 1976.9000    13.8818    36.8645     -.0397     2.1899    67.0459     8.8627    -6.5416
 1977.0000    13.9050    35.6824     -.0353     2.2008    66.6536     8.8652    -6.8254
 1977.1000    13.9265    34.3776     -.0301     2.2082    66.1621     8.8767    -6.5752
 1977.2000    13.9439    33.2642     -.0248     2.2113    65.5809     8.8890    -5.6437
 1977.3000    13.9571    32.5772     -.0204     2.2114    65.0112     8.8945    -4.4278
 1977.4000    13.9645    32.4370     -.0183     2.2076    64.5522     8.8915    -3.2984
 1977.5000    13.9647    33.1901     -.0204     2.2027    64.3750     8.8782    -2.8181
 1977.6000    13.9609    34.5117     -.0252     2.1960    64.4286     8.8633    -2.8122
 1977.7000    13.9544    36.1197     -.0321     2.1887    64.6625     8.8505    -3.1236
 1977.8000    13.9486    37.6843     -.0394     2.1825    64.9084     8.8407    -3.2470
 1977.9000    13.9457    38.7467     -.0450     2.1788    64.9744     8.8292    -2.9427
 1978.0000    13.9461    39.2885     -.0482     2.1778    64.7815     8.8144    -2.1908
 1978.1000    13.9498    39.2324     -.0465     2.1809    64.0558     8.7956    -1.0075
 1978.2000    13.9531    38.7439     -.0426     2.1863    63.0721     8.7768      .1360
 1978.3000    13.9543    38.2559     -.0376     2.1932    62.0672     8.7618      .9449
 1978.4000    13.9487    37.9890     -.0334     2.1998    61.5786     8.7519      .6727
 1978.5000    13.9338    38.3747     -.0314     2.2040    61.8174     8.7476     -.8607
 1978.6000    13.9091    39.2405     -.0313     2.2050    62.6524     8.7462    -3.3986
 1978.7000    13.8713    40.4799     -.0325     2.2020    63.9424     8.7477    -6.7116
 1978.8000    13.8238    41.8488     -.0319     2.1974    65.1371     8.7519    -9.7264
 1978.9000    13.7739    42.8489     -.0284     2.1943    65.9291     8.7522   -11.7588
 1979.0000    13.7272    43.2378     -.0212     2.1954    66.0544     8.7446   -12.0991
