~VERSION INFORMATION
VERS.                                                 2.0:   CWLS Log ASCII Standard-VERSION 2.0
WRAP.                                                  NO:   One line per depth step
~Well Information Block
STRT.M                                           204.6000:   Top Depth
STOP.M                                          3156.9000:   Bottom Depth
STEP.M                                             .10000:   Depth Increment
NULL.                                            -999.250:   Null Value
FLD .                                             WILDCAT:   Field Name
WELL.                                             15/12-5:   NAME
WBN .                                             15/12-5:   WELLBORE
NATI.                                                 NOR:   COUNTRY
BHT1.DEGF                                            79.0:   BH TEMP 1
BHT2.DEGF                                            79.0:   BH TEMP 2
BHT3.DEGF                                            80.0:   BH TEMP 3
BS1 .IN                                            12.250:   BIT SIZE 1
CTRY.                                                 NOR:   COUNTRY
CBD1.M                                              217.0:   CSG 1 DRILL DEP
CBL1.M                                              217.0:   CSG 1 LOG DEP
CS1 .IN                                              30.0:   CSG 1 SIZE
COMP.                                             STATOIL:   OPERATOR
PDAT.                                                 MSL:   PERM DATUM
PROV.                                           NORTH SEA:   PROVINCE
COUN.                                           ROSS ISLE:   RIG NAME
SON .                                              N02422:   SOURCE OPERATOR NAME
SPUD.                                          1986/03/12:   SPUD DATE
LATI.                                        58 4 53.36 N:   SURF. LATITUDE
LONG.                                        1 54 53.24 E:   SURF. LONGITUDE
BTD1.                                            617.50 M:   TOTAL DEPTH 1
BTD2.                                            617.50 M:   TOTAL DEPTH 2
BTD3.                                            617.50 M:   TOTAL DEPTH 3
PBWE.                                             15/12-5:   PB WELL ID
APIN.                                             15/12-5:   PB WELLBORE ID
PBWS.                                                 all:   PB WELL NAME SET
~PARAMETER INFORMATION (log)
LNAM.                              CDL/CNL/GR  COMPOSITED:   NAME
LTYP.                                         DEPTH MATCH:   LOG TYPE
LSRV.                                             CAL/BGT:   LOG SERVICE
LSOU.                                             SPT/NPD:   LOG SOURCE
LVSN.                                                   1:   LOG VERSION
BHIS.                                                   R:   BRIEF HISTORY
FHIS.                                             RAW-LIS:   FULL HISTORY
LCNM.                                                  NL:   LOGGING CONTRACTOR
TOOL.                             CDL/CNL/GR (COMPOSITED):   TOOL STRING
~Curve Information Block
#MNEM.UNIT                                        API CODE    No Description
#=========                                        ========    == ===========
DEPT.M                                       00 001 00 00:     1  DEPTH
CAL.IN                                                   :     2  Caliper
CNC.%                                                    :     3  Neutron Porosity
CORR.G/CC                                                :     4  Density Correction
DEN.G/CC                                                 :     5  Bulk Density
GR.GAPI                                                  :     6  Gamma Ray
SPD.                                                     :     7  Cable Speed
TEN.LB                                                   :     8  Cable Tension
~ASCII
# ...
  404.8000    15.8484  -999.2500      .0785     1.9903    61.9605  -999.2500    -8.1612
  404.9000    15.9302  -999.2500      .0745     1.9806    62.8756  -999.2500   -10.8105
  405.0000    16.0493  -999.2500      .0689     1.9750    63.2597  -999.2500   -13.0236
  405.1000    16.2143  -999.2500      .0628     1.9730    62.8163  -999.2500   -14.5059
  405.2000    16.4025  -999.2500      .0570     1.9714    62.0160  -999.2500   -15.3780
  405.3000    16.5994  -999.2500      .0520     1.9688    61.2272  -999.2500   -15.6684
  405.4000    16.7859  -999.2500      .0481     1.9647    60.8940  -999.2500   -15.1461
  405.5000    16.9367  -999.2500      .0455     1.9605    61.1426  -999.2500   -14.0511
  405.6000    17.0492  -999.2500      .0437     1.9574    61.6939  -999.2500   -12.6598
  405.7000    17.1171  -999.2500      .0425     1.9568    62.2944  -999.2500   -11.1229
  405.8000    17.1554  -999.2500      .0427     1.9588    62.5526  -999.2500    -9.9322
  405.9000    17.1928  -999.2500      .0444     1.9639    62.5258  -999.2500    -9.0353
  406.0000    17.2441  -999.2500      .0478     1.9721    62.2290  -999.2500    -8.3924
  406.1000    17.3275  -999.2500      .0534     1.9825    61.7280  -999.2500    -8.0006
  406.2000    17.4150  -999.2500      .0596     1.9920    61.2134  -999.2500    -7.6605
  406.3000    17.4848  -999.2500      .0658     1.9991    60.7345  -999.2500    -7.2404
  406.4000    17.4699  -999.2500      .0704     1.9998    60.3596  -999.2500    -6.5650
  406.5000    17.3812  -999.2500      .0742     1.9961    60.0899  -999.2500    -5.8109
  406.6000    17.2295  -999.2500      .0774     1.9887    59.9135  -999.2500    -4.9555
  406.7000    17.0307  -999.2500      .0796     1.9784    59.8221  -999.2500    -3.8668
  406.8000    16.8343  -999.2500      .0802     1.9682    59.8494  -999.2500    -2.6178
  406.9000    16.6536  -999.2500      .0790     1.9591    60.0408  -999.2500    -1.3592
  407.0000    16.4921  -999.2500      .0751     1.9522    60.4740  -999.2500     -.4541
  407.1000    16.3136  -999.2500      .0700     1.9488    61.1119  -999.2500     -.2727
  407.2000    16.0885  -999.2500      .0651     1.9485    61.7952  -999.2500     -.6798
  407.3000    15.7820  -999.2500      .0613     1.9520    62.3229  -999.2500    -1.4482
  407.4000    15.3838  -999.2500      .0598     1.9579    62.5009  -999.2500    -2.1851
  407.5000    14.9446  -999.2500      .0596     1.9636    62.6109  -999.2500    -2.5901
  407.6000    14.4914  -999.2500      .0597     1.9676    62.9442  -999.2500    -2.2967
  407.7000    14.0945  -999.2500      .0589     1.9683    64.2849  -999.2500     -.5070
  407.8000    13.7699  -999.2500      .0584     1.9682    66.4331  -999.2500     2.2102
  407.9000    13.5244  -999.2500      .0586     1.9685    69.2080  -999.2500     5.4933
  408.0000    13.3810  -999.2500      .0595     1.9720    71.9105  -999.2500     8.5178
  408.1000    13.2834  -999.2500      .0604     1.9780    73.8160  -999.2500    10.5449
  408.2000    13.2228  -999.2500      .0608     1.9854    74.6977  -999.2500    11.2741
  408.3000    13.2210  -999.2500      .0607     1.9910    74.0218  -999.2500    10.1408
  408.4000    13.2886  -999.2500      .0607     1.9925    72.3609  -999.2500     7.8849
  408.5000    13.4317  -999.2500      .0613     1.9901    70.1076  -999.2500     5.2690
  408.6000    13.6920  -999.2500      .0633     1.9841    67.4132  -999.2500     3.1017
  408.7000    14.0657  -999.2500      .0668     1.9775    64.5940  -999.2500     1.6504
  408.8000    14.5078  -999.2500      .0721     1.9725    61.8463  -999.2500      .6388
  408.9000    14.9925  -999.2500      .0798     1.9710    59.3035  -999.2500     -.0790
  409.0000    15.4605  -999.2500      .0894     1.9746    57.0185  -999.2500     -.2622
  409.1000    15.8867  -999.2500      .0990     1.9811    54.8339  -999.2500      .0263
  409.2000    16.2587  -999.2500      .1063     1.9899    52.7031  -999.2500      .6784
  409.3000    16.5610  -999.2500      .1065     2.0006    50.6870  -999.2500     1.5264
  409.4000    16.8260  -999.2500      .1023     2.0131    48.8991  -999.2500     2.2081
  409.5000    17.0543  -999.2500      .0960     2.0270    47.5023  -999.2500     2.6242
  409.6000    17.2068  -999.2500      .0936     2.0397    47.1754  -999.2500     2.3837
  409.7000    17.2913  -999.2500      .0976     2.0534    47.5716  -999.2500     1.6325
  409.8000    17.3121  -999.2500      .1080     2.0670    48.4185  -999.2500      .5408
  409.9000    17.2728  -999.2500      .1225     2.0781    49.1685  -999.2500     -.7073
  410.0000    17.2291  -999.2500      .1335     2.0837    49.3332  -999.2500    -1.9271
  410.1000    17.2052  -999.2500      .1377     2.0836    48.9295  -999.2500    -3.1452
  410.2000    17.2185  -999.2500      .1304     2.0767    48.0142  -999.2500    -4.2805
  410.3000    17.2482  -999.2500      .1140     2.0667    47.1116  -999.2500    -5.0067
  410.4000    17.2732  -999.2500      .0950     2.0570    46.5183  -999.2500    -5.4270
  410.5000    17.2859  -999.2500      .0792     2.0505    46.4485  -999.2500    -5.6149
  410.6000    17.3017  -999.2500      .0750     2.0500    46.8316  -999.2500    -5.9131
  410.7000    17.3362  -999.2500      .0803     2.0529    47.2561  -999.2500    -6.5602
  410.8000    17.3942  -999.2500      .0932     2.0577    47.5695  -999.2500    -7.5927
  410.9000    17.4627  -999.2500      .1047     2.0608    47.7672  -999.2500    -8.9462
  411.0000    17.5176  -999.2500      .1092     2.0614    48.0259  -999.2500   -10.1624
  411.1000    17.5529  -999.2500      .1058     2.0604    48.4077  -999.2500   -10.9473
  411.2000    17.5719  -999.2500      .0954     2.0597    49.0419  -999.2500   -10.5510
  411.3000    17.6039  -999.2500      .0874     2.0605    49.7992  -999.2500    -9.4744
  411.4000    17.6573  -999.2500      .0851     2.0614    50.5679  -999.2500    -8.0881
  411.5000    17.7326  -999.2500      .0926     2.0561    51.0406  -999.2500    -6.9178
  411.6000    17.8028  -999.2500      .1039     2.0380    51.0074  -999.2500    -6.5294
  411.7000    17.8586  -999.2500      .1142     2.0062    50.4920  -999.2500    -7.0439
  411.8000    17.8964  -999.2500      .1175     1.9575    49.5331  -999.2500    -8.4353
  411.9000    17.9318  -999.2500      .1113     1.9002    48.7020  -999.2500   -10.1691
  412.0000    17.9707  -999.2500      .0982     1.8436    48.3832  -999.2500   -11.7886
  412.1000    18.0069  -999.2500      .0789     1.7955    48.9595  -999.2500   -12.9997
  412.2000    18.0134  -999.2500      .0576     1.7665    50.5688  -999.2500   -13.7307
  412.3000    17.9836  -999.2500      .0393     1.7548    52.5958  -999.2500   -14.2538
  412.4000    17.9130  -999.2500      .0270     1.7610    54.7753  -999.2500   -14.7142
  412.5000    17.8101  -999.2500      .0264     1.7873    56.8185  -999.2500   -15.1031
  412.6000    17.7127  -999.2500      .0321     1.8180    58.7272  -999.2500   -15.4868
  412.7000    17.6319  -999.2500      .0420     1.8517    60.4744  -999.2500   -15.8958
  412.8000    17.5832  -999.2500      .0529     1.8811    61.7349  -999.2500   -15.9615
  412.9000    17.5476  -999.2500      .0629     1.9042    62.4510  -999.2500   -15.8280
  413.0000    17.5171  -999.2500      .0711     1.9196    62.6409  -999.2500   -15.5354
  413.1000    17.4795  -999.2500      .0758     1.9251    62.3613  -999.2500   -14.9800
  413.2000    17.4297  -999.2500      .0764     1.9251    62.0310  -999.2500   -14.3689
  413.3000    17.3700  -999.2500      .0735     1.9253    61.8092  -999.2500   -13.8858
  413.4000    17.3015  -999.2500      .0685     1.9269    61.8149  -999.2500   -13.6870
  413.5000    17.2268  -999.2500      .0646     1.9338    61.9499  -999.2500   -13.7022
  413.6000    17.1362  -999.2500      .0631     1.9449    62.1197  -999.2500   -13.8270
  413.7000    17.0018  -999.2500      .0650     1.9618    62.3534  -999.2500   -13.9431
  413.8000    16.7847  -999.2500      .0718     1.9833    62.8114  -999.2500   -13.9877
