~VERSION INFORMATION
VERS.                                                 2.0:   CWLS Log ASCII Standard-VERSION 2.0
WRAP.                                                  NO:   One line per depth step
~Well Information Block
STRT.M                                           204.6000:   Top Depth
STOP.M                                          3156.9000:   Bottom Depth
STEP.M                                             .10000:   Depth Increment
NULL.                                            -999.250:   Null Value
FLD .                                             WILDCAT:   Field Name
WELL.                                             15/12-5:   NAME
WBN .                                             15/12-5:   WELLBORE
NATI.                                                 NOR:   COUNTRY
BHT1.DEGF                                            79.0:   BH TEMP 1
BHT2.DEGF                                            79.0:   BH TEMP 2
BHT3.DEGF                                            80.0:   BH TEMP 3
BS1 .IN                                            12.250:   BIT SIZE 1
CTRY.                                                 NOR:   COUNTRY
CBD1.M                                              217.0:   CSG 1 DRILL DEP
CBL1.M                                              217.0:   CSG 1 LOG DEP
CS1 .IN                                              30.0:   CSG 1 SIZE
COMP.                                             STATOIL:   OPERATOR
PDAT.                                                 MSL:   PERM DATUM
PROV.                                           NORTH SEA:   PROVINCE
COUN.                                           ROSS ISLE:   RIG NAME
SON .                                              N02422:   SOURCE OPERATOR NAME
SPUD.                                          1986/03/12:   SPUD DATE
LATI.                                        58 4 53.36 N:   SURF. LATITUDE
LONG.                                        1 54 53.24 E:   SURF. LONGITUDE
BTD1.                                            617.50 M:   TOTAL DEPTH 1
BTD2.                                            617.50 M:   TOTAL DEPTH 2
BTD3.                                            617.50 M:   TOTAL DEPTH 3
PBWE.                                             15/12-5:   PB WELL ID
APIN.                                             15/12-5:   PB WELLBORE ID
PBWS.                                                 all:   PB WELL NAME SET
~PARAMETER INFORMATION (log)
LNAM.                              CDL/CNL/GR  COMPOSITED:   NAME
LTYP.                                         DEPTH MATCH:   LOG TYPE
LSRV.                                             CAL/BGT:   LOG SERVICE
LSOU.                                             SPT/NPD:   LOG SOURCE
LVSN.                                                   1:   LOG VERSION
BHIS.                                                   R:   BRIEF HISTORY
FHIS.                                             RAW-LIS:   FULL HISTORY
LCNM.                                                  NL:   LOGGING CONTRACTOR
TOOL.                             CDL/CNL/GR (COMPOSITED):   TOOL STRING
~Curve Information Block
#MNEM.UNIT                                        API CODE    No Description
#=========                                        ========    == ===========
DEPT.M                                       00 001 00 00:     1  DEPTH
CAL.IN                                                   :     2  Caliper
CNC.%                                                    :     3  Neutron Porosity
CORR.G/CC                                                :     4  Density Correction
DEN.G/CC                                                 :     5  Bulk Density
GR.GAPI                                                  :     6  Gamma Ray
SPD.                                                     :     7  Cable Speed
TEN.LB                                                   :     8  Cable Tension
~ASCII
# ...
  796.1000    18.0094  -999.2500      .0635     2.1391    83.4245  -999.2500    -6.3189
  796.2000    18.0103  -999.2500      .0635     2.1354    83.1461  -999.2500    -7.3949
  796.3000    18.0126  -999.2500      .0620     2.1293    82.7030  -999.2500    -7.9579
  796.4000    18.0153  -999.2500      .0578     2.1207    82.2543  -999.2500    -7.8539
  796.5000    18.0172  -999.2500      .0522     2.1120    81.8355  -999.2500    -7.5073
  796.6000    18.0174  -999.2500      .0465     2.1043    81.4047  -999.2500    -7.1670
  796.7000    18.0146  -999.2500      .0442     2.1007    80.8829  -999.2500    -7.0384
  796.8000    18.0110  -999.2500      .0450     2.0987    80.3478  -999.2500    -6.8098
  796.9000    18.0070  -999.2500      .0488     2.1004    79.8212  -999.2500    -6.4037
  797.0000    18.0009  -999.2500      .0561     2.1071    79.4983  -999.2500    -5.8913
  797.1000    17.9912  -999.2500      .0654     2.1167    79.4714  -999.2500    -5.3225
  797.2000    17.9775  -999.2500      .0759     2.1273    79.7377  -999.2500    -4.7047
  797.3000    17.9594  -999.2500      .0866     2.1365    80.1345  -999.2500    -4.4496
  797.4000    17.9403  -999.2500      .0961     2.1419    80.1444  -999.2500    -4.8989
  797.5000    17.9229  -999.2500      .1026     2.1424    79.5746  -999.2500    -5.9028
  797.6000    17.9116  -999.2500      .1030     2.1359    78.1775  -999.2500    -7.3081
  797.7000    17.9106  -999.2500      .0959     2.1233    76.2105  -999.2500    -8.5844
  797.8000    17.9200  -999.2500      .0845     2.1088    74.2157  -999.2500    -9.4111
  797.9000    17.9430  -999.2500      .0714     2.0954    72.6086  -999.2500    -9.4988
  798.0000    17.9846  -999.2500      .0621     2.0880    71.7816  -999.2500    -8.5839
  798.1000    18.0411  -999.2500      .0570     2.0864    71.3766  -999.2500    -7.1756
  798.2000    18.1140  -999.2500      .0557     2.0903    71.2477  -999.2500    -5.6198
  798.3000    18.2078  -999.2500      .0576     2.0998    71.0717  -999.2500    -4.7037
  798.4000    18.3105  -999.2500      .0598     2.1104    70.7159  -999.2500    -4.4026
  798.5000    18.4186  -999.2500      .0617     2.1221    70.1721  -999.2500    -4.7262
  798.6000    18.5266  -999.2500      .0636     2.1337    69.4773  -999.2500    -5.8213
  798.7000    18.6322  -999.2500      .0662     2.1436    68.8823  -999.2500    -7.0676
  798.8000    18.7361  -999.2500      .0694     2.1506    68.5576  -999.2500    -8.2224
  798.9000    18.8424  -999.2500      .0717     2.1522    68.7585  -999.2500    -9.0471
  799.0000    18.9545  -999.2500      .0715     2.1497    69.2523  -999.2500    -9.4086
  799.1000    19.0719  -999.2500      .0696     2.1460    69.8193  -999.2500    -9.1477
  799.2000    19.1933  -999.2500      .0676     2.1423    70.2373  -999.2500    -7.8519
  799.3000    19.3118  -999.2500      .0670     2.1399    70.2053  -999.2500    -5.7487
  799.4000    19.4254  -999.2500      .0675     2.1383    69.7927  -999.2500    -3.5335
  799.5000    19.5318  -999.2500      .0682     2.1373    69.0414  -999.2500    -1.7564
  799.6000    19.6294  -999.2500      .0687     2.1367    68.1208  -999.2500    -1.0137
  799.7000    19.7207  -999.2500      .0697     2.1366    67.1753  -999.2500     -.9923
  799.8000    19.8047  -999.2500      .0716     2.1368    66.2747  -999.2500    -1.5845
  799.9000    19.8759  -999.2500      .0755     2.1374    65.6621  -999.2500    -2.3440
  800.0000    19.9373  -999.2500      .0804     2.1373    65.3638  -999.2500    -2.7816
  800.1000    19.9887  -999.2500      .0860     2.1361    65.4107  -999.2500    -2.9274
  800.2000    20.0256  -999.2500      .0906     2.1317    65.8718  -999.2500    -3.2162
  800.3000    20.0527  -999.2500      .0932     2.1244    66.4165  -999.2500    -3.8848
  800.4000    20.0715  -999.2500      .0943     2.1147    66.9517  -999.2500    -4.8357
  800.5000    20.0789  -999.2500      .0958     2.1034    67.4130  -999.2500    -5.8325
  800.6000    20.0756  -999.2500      .0997     2.0921    67.8057  -999.2500    -6.6086
  800.7000    20.0628  -999.2500      .1062     2.0816    68.2002  -999.2500    -7.1554
  800.8000    20.0385  -999.2500      .1144     2.0730    68.7609  -999.2500    -7.4784
  800.9000    20.0032  -999.2500      .1220     2.0666    69.6852  -999.2500    -7.6377
  801.0000    19.9585  -999.2500      .1280     2.0631    70.8938  -999.2500    -7.6266
  801.1000    19.9012  -999.2500      .1318     2.0626    72.3582  -999.2500    -7.4270
  801.2000    19.8254  -999.2500      .1305     2.0671    74.0067  -999.2500    -7.0480
  801.3000    19.7380  -999.2500      .1242     2.0695    75.6638  -999.2500    -6.6533
  801.4000    19.6422  -999.2500      .1122     2.0683    77.2045  -999.2500    -6.4428
  801.5000    19.5502  -999.2500      .0938     2.0603    78.1790  -999.2500    -6.7852
  801.6000    19.4705  -999.2500      .0754     2.0513    78.6953  -999.2500    -7.1916
  801.7000    19.4058  -999.2500      .0602     2.0440    78.8682  -999.2500    -7.4413
  801.8000    19.3607  -999.2500      .0559     2.0449    78.9221  -999.2500    -7.3223
  801.9000    19.3207  -999.2500      .0602     2.0523    79.0208  -999.2500    -7.0154
  802.0000    19.2814  -999.2500      .0700     2.0637    79.1521  -999.2500    -6.5624
  802.1000    19.2432  -999.2500      .0795     2.0742    79.2694  -999.2500    -5.9581
  802.2000    19.2167  -999.2500      .0829     2.0793    79.3043  -999.2500    -5.1760
  802.3000    19.2087  -999.2500      .0811     2.0791    79.2270  -999.2500    -4.2566
  802.4000    19.2318  -999.2500      .0752     2.0741    79.1716  -999.2500    -3.3436
  802.5000    19.2841  -999.2500      .0694     2.0662    79.6496  -999.2500    -2.6845
  802.6000    19.3489  -999.2500      .0665     2.0573    80.7710  -999.2500    -2.3282
  802.7000    19.4156  -999.2500      .0689     2.0491    82.5849  -999.2500    -2.4158
  802.8000    19.4664  -999.2500      .0794     2.0435    84.5593  -999.2500    -2.9475
  802.9000    19.5006  -999.2500      .0956     2.0403    85.9973  -999.2500    -3.5624
  803.0000    19.5179  -999.2500      .1164     2.0397    86.5791  -999.2500    -4.2173
  803.1000    19.5134  -999.2500      .1384     2.0420    85.6637  -999.2500    -5.2926
  803.2000    19.4920  -999.2500      .1559     2.0453    83.9947  -999.2500    -6.7412
  803.3000    19.4490  -999.2500      .1662     2.0486    81.8749  -999.2500    -8.3921
  803.4000    19.3602  -999.2500      .1607     2.0506    80.0453  -999.2500    -9.7873
  803.5000    19.2294  -999.2500      .1450     2.0509    79.0244  -999.2500   -10.7958
  803.6000    19.0585  -999.2500      .1229     2.0505    78.8792  -999.2500   -11.4370
  803.7000    18.8393  -999.2500      .0991     2.0503    79.7982  -999.2500   -11.5248
  803.8000    18.5966  -999.2500      .0798     2.0513    81.1595  -999.2500   -11.0476
  803.9000    18.3504  -999.2500      .0660     2.0534    82.4779  -999.2500   -10.1446
  804.0000    18.1240  -999.2500      .0588     2.0571    83.3306  -999.2500    -8.9686
  804.1000    17.9439  -999.2500      .0565     2.0619    83.5695  -999.2500    -8.0249
  804.2000    17.8075  -999.2500      .0570     2.0677    83.4833  -999.2500    -7.4926
  804.3000    17.7223  -999.2500      .0601     2.0730    83.2357  -999.2500    -7.5184
  804.4000    17.6890  -999.2500      .0649     2.0788    82.9788  -999.2500    -8.2087
  804.5000    17.6812  -999.2500      .0690     2.0834    82.6706  -999.2500    -9.2291
  804.6000    17.6934  -999.2500      .0713     2.0862    82.2281  -999.2500   -10.3931
  804.7000    17.7273  -999.2500      .0714     2.0848    81.5340  -999.2500   -11.1811
  804.8000    17.7720  -999.2500      .0728     2.0813    80.8459  -999.2500   -11.5091
  804.9000    17.8251  -999.2500      .0762     2.0762    80.2488  -999.2500   -11.3419
  805.0000    17.8806  -999.2500      .0811     2.0694    79.9299  -999.2500   -10.5484
  805.1000    17.9297  -999.2500      .0837     2.0615    79.7477  -999.2500    -9.5364
