~VERSION INFORMATION
VERS.                                                 2.0:   CWLS Log ASCII Standard-VERSION 2.0
WRAP.                                                  NO:   One line per depth step
~Well Information Block
STRT.M                                           204.6000:   Top Depth
STOP.M                                          3156.9000:   Bottom Depth
STEP.M                                             .10000:   Depth Increment
NULL.                                            -999.250:   Null Value
FLD .                                             WILDCAT:   Field Name
WELL.                                             15/12-5:   NAME
WBN .                                             15/12-5:   WELLBORE
NATI.                                                 NOR:   COUNTRY
BHT1.DEGF                                            79.0:   BH TEMP 1
BHT2.DEGF                                            79.0:   BH TEMP 2
BHT3.DEGF                                            80.0:   BH TEMP 3
BS1 .IN                                            12.250:   BIT SIZE 1
CTRY.                                                 NOR:   COUNTRY
CBD1.M                                              217.0:   CSG 1 DRILL DEP
CBL1.M                                              217.0:   CSG 1 LOG DEP
CS1 .IN                                              30.0:   CSG 1 SIZE
COMP.                                             STATOIL:   OPERATOR
PDAT.                                                 MSL:   PERM DATUM
PROV.                                           NORTH SEA:   PROVINCE
COUN.                                           ROSS ISLE:   RIG NAME
SON .                                              N02422:   SOURCE OPERATOR NAME
SPUD.                                          1986/03/12:   SPUD DATE
LATI.                                        58 4 53.36 N:   SURF. LATITUDE
LONG.                                        1 54 53.24 E:   SURF. LONGITUDE
BTD1.                                            617.50 M:   TOTAL DEPTH 1
BTD2.                                            617.50 M:   TOTAL DEPTH 2
BTD3.                                            617.50 M:   TOTAL DEPTH 3
PBWE.                                             15/12-5:   PB WELL ID
APIN.                                             15/12-5:   PB WELLBORE ID
PBWS.                                                 all:   PB WELL NAME SET
~PARAMETER INFORMATION (log)
LNAM.                              CDL/CNL/GR  COMPOSITED:   NAME
LTYP.                                         DEPTH MATCH:   LOG TYPE
LSRV.                                             CAL/BGT:   LOG SERVICE
LSOU.                                             SPT/NPD:   LOG SOURCE
LVSN.                                                   1:   LOG VERSION
BHIS.                                                   R:   BRIEF HISTORY
FHIS.                                             RAW-LIS:   FULL HISTORY
LCNM.                                                  NL:   LOGGING CONTRACTOR
TOOL.                             CDL/CNL/GR (COMPOSITED):   TOOL STRING
~Curve Information Block
#MNEM.UNIT                                        API CODE    No Description
#=========                                        ========    == ===========
DEPT.M                                       00 001 00 00:     1  DEPTH
CAL.IN                                                   :     2  Caliper
CNC.%                                                    :     3  Neutron Porosity
CORR.G/CC                                                :     4  Density Correction
DEN.G/CC                                                 :     5  Bulk Density
GR.GAPI                                                  :     6  Gamma Ray
SPD.                                                     :     7  Cable Speed
TEN.LB                                                   :     8  Cable Tension
~ASCII
# ...
 1378.5000    17.4177  -999.2500      .0569     2.1096    76.8787  -999.2500    -4.1802
 1378.6000    17.4241  -999.2500      .0585     2.1145    77.6908  -999.2500    -6.6429
 1378.7000    17.4302  -999.2500      .0596     2.1181    78.5884  -999.2500    -9.4807
 1378.8000    17.4358  -999.2500      .0610     2.1203    79.2959  -999.2500   -11.3952
 1378.9000    17.4404  -999.2500      .0624     2.1217    79.6634  -999.2500   -11.7663
 1379.0000    17.4435  -999.2500      .0631     2.1223    79.5318  -999.2500    -9.9791
 1379.1000    17.4451  -999.2500      .0620     2.1225    78.8127  -999.2500    -6.0382
 1379.2000    17.4467  -999.2500      .0601     2.1222    77.7733  -999.2500    -1.7388
 1379.3000    17.4493  -999.2500      .0579     2.1213    76.4917  -999.2500     2.0802
 1379.4000    17.4547  -999.2500      .0574     2.1199    75.3110  -999.2500     3.7064
 1379.5000    17.4613  -999.2500      .0589     2.1187    74.4500  -999.2500     3.8501
 1379.6000    17.4682  -999.2500      .0617     2.1183    73.9667  -999.2500     2.7409
 1379.7000    17.4723  -999.2500      .0634     2.1187    73.9304  -999.2500      .3688
 1379.8000    17.4736  -999.2500      .0636     2.1189    73.9351  -999.2500    -2.6564
 1379.9000    17.4729  -999.2500      .0629     2.1189    73.8230  -999.2500    -6.0885
 1380.0000    17.4724  -999.2500      .0632     2.1186    73.4809  -999.2500    -9.4880
 1380.1000    17.4746  -999.2500      .0649     2.1183    73.0060  -999.2500   -11.9674
 1380.2000    17.4796  -999.2500      .0675     2.1180    72.5266  -999.2500   -13.1191
 1380.3000    17.4866  -999.2500      .0694     2.1176    72.2961  -999.2500   -12.1974
 1380.4000    17.4918  -999.2500      .0684     2.1178    72.5454  -999.2500    -9.2419
 1380.5000    17.4936  -999.2500      .0656     2.1175    73.0944  -999.2500    -5.2813
 1380.6000    17.4916  -999.2500      .0623     2.1169    73.8574  -999.2500     -.8604
 1380.7000    17.4894  -999.2500      .0619     2.1160    74.5965  -999.2500     2.8202
 1380.8000    17.4913  -999.2500      .0645     2.1173    75.1284  -999.2500     5.2244
 1380.9000    17.4992  -999.2500      .0691     2.1209    75.3970  -999.2500     5.9603
 1381.0000    17.5159  -999.2500      .0740     2.1270    75.3804  -999.2500     3.8954
 1381.1000    17.5351  -999.2500      .0779     2.1324    75.3016  -999.2500      .6352
 1381.2000    17.5545  -999.2500      .0804     2.1362    75.2233  -999.2500    -3.1327
 1381.3000    17.5679  -999.2500      .0806     2.1352    75.2957  -999.2500    -5.8089
 1381.4000    17.5743  -999.2500      .0790     2.1309    75.4297  -999.2500    -6.7739
 1381.5000    17.5752  -999.2500      .0761     2.1230    75.5398  -999.2500    -6.2347
 1381.6000    17.5714  -999.2500      .0719     2.1119    75.5127  -999.2500    -4.5302
 1381.7000    17.5657  -999.2500      .0666     2.1006    75.2930  -999.2500    -2.9072
 1381.8000    17.5583  -999.2500      .0616     2.0913    74.9199  -999.2500    -1.7185
 1381.9000    17.5488  -999.2500      .0584     2.0861    74.4622  -999.2500     -.9635
 1382.0000    17.5368  -999.2500      .0590     2.0857    74.1202  -999.2500     -.0659
 1382.1000    17.5236  -999.2500      .0619     2.0878    73.9233  -999.2500     1.0852
 1382.2000    17.5101  -999.2500      .0661     2.0921    73.9012  -999.2500     2.2208
 1382.3000    17.4990  -999.2500      .0699     2.0971    74.0469  -999.2500     2.3484
 1382.4000    17.4914  -999.2500      .0726     2.1013    74.2326  -999.2500     1.5137
 1382.5000    17.4881  -999.2500      .0740     2.1045    74.4449  -999.2500     -.1332
 1382.6000    17.4922  -999.2500      .0753     2.1056    74.7011  -999.2500    -2.0628
 1382.7000    17.5010  -999.2500      .0772     2.1057    74.8900  -999.2500    -3.7032
 1382.8000    17.5144  -999.2500      .0790     2.1048    74.9119  -999.2500    -5.0412
 1382.9000    17.5329  -999.2500      .0784     2.1035    74.6476  -999.2500    -6.2408
 1383.0000    17.5516  -999.2500      .0754     2.1010    74.3201  -999.2500    -7.5434
 1383.1000    17.5678  -999.2500      .0708     2.0980    74.0627  -999.2500    -8.8243
 1383.2000    17.5780  -999.2500      .0658     2.0957    74.1954  -999.2500    -9.6415
 1383.3000    17.5820  -999.2500      .0619     2.0947    74.8745  -999.2500    -9.8598
 1383.4000    17.5818  -999.2500      .0599     2.0953    75.9064  -999.2500    -9.8509
 1383.5000    17.5783  -999.2500      .0616     2.0962    77.1006  -999.2500   -10.1053
 1383.6000    17.5738  -999.2500      .0669     2.0996    78.1097  -999.2500   -10.8706
 1383.7000    17.5691  -999.2500      .0732     2.1034    78.9038  -999.2500   -11.6292
 1383.8000    17.5636  -999.2500      .0793     2.1065    79.5310  -999.2500   -11.9191
 1383.9000    17.5558  -999.2500      .0818     2.1055    80.2716  -999.2500   -11.2072
 1384.0000    17.5469  -999.2500      .0807     2.1028    81.2307  -999.2500   -10.0282
 1384.1000    17.5375  -999.2500      .0762     2.0973    82.4204  -999.2500    -8.6812
 1384.2000    17.5308  -999.2500      .0690     2.0917    83.7873  -999.2500    -7.7309
 1384.3000    17.5275  -999.2500      .0621     2.0885    84.9586  -999.2500    -7.0562
 1384.4000    17.5278  -999.2500      .0566     2.0887    85.7694  -999.2500    -6.5176
 1384.5000    17.5322  -999.2500      .0536     2.0925    85.9738  -999.2500    -6.0391
 1384.6000    17.5372  -999.2500      .0512     2.0956    85.8114  -999.2500    -5.7818
 1384.7000    17.5412  -999.2500      .0491     2.0966    85.3911  -999.2500    -5.8168
 1384.8000    17.5423  -999.2500      .0478     2.0933    84.8245  -999.2500    -6.1355
 1384.9000    17.5412  -999.2500      .0473     2.0869    84.3190  -999.2500    -6.2715
 1385.0000    17.5394  -999.2500      .0480     2.0796    83.8568  -999.2500    -5.9973
 1385.1000    17.5379  -999.2500      .0497     2.0741    83.3756  -999.2500    -5.1545
 1385.2000    17.5357  -999.2500      .0518     2.0731    82.8441  -999.2500    -4.0212
 1385.3000    17.5307  -999.2500      .0545     2.0760    82.3255  -999.2500    -3.0772
 1385.4000    17.5207  -999.2500      .0582     2.0827    81.8378  -999.2500    -2.7512
 1385.5000    17.5040  -999.2500      .0636     2.0922    81.2840  -999.2500    -3.6716
 1385.6000    17.4854  -999.2500      .0696     2.1015    80.6412  -999.2500    -5.2813
 1385.7000    17.4671  -999.2500      .0759     2.1095    79.9641  -999.2500    -7.2965
 1385.8000    17.4555  -999.2500      .0798     2.1134    79.4728  -999.2500    -9.0396
 1385.9000    17.4496  -999.2500      .0803     2.1154    79.1096  -999.2500   -10.1736
 1386.0000    17.4489  -999.2500      .0765     2.1142    78.8337  -999.2500   -10.6113
 1386.1000    17.4524  -999.2500      .0664     2.1091    78.5771  -999.2500   -10.2037
 1386.2000    17.4553  -999.2500      .0535     2.1023    78.1428  -999.2500    -9.4117
 1386.3000    17.4567  -999.2500      .0405     2.0958    77.4057  -999.2500    -8.3131
 1386.4000    17.4566  -999.2500      .0317     2.0922    76.2019  -999.2500    -6.6778
 1386.5000    17.4563  -999.2500      .0300     2.0933    74.9156  -999.2500    -4.5485
 1386.6000    17.4562  -999.2500      .0343     2.0979    73.8638  -999.2500    -2.3386
 1386.7000    17.4563  -999.2500      .0451     2.1066    73.2681  -999.2500     -.7151
 1386.8000    17.4563  -999.2500      .0596     2.1159    73.0753  -999.2500     -.6485
 1386.9000    17.4563  -999.2500      .0735     2.1219    73.0610  -999.2500    -1.9181
 1387.0000    17.4563  -999.2500      .0837     2.1233    73.1426  -999.2500    -4.4150
 1387.1000    17.4577  -999.2500      .0851     2.1171    73.1584  -999.2500    -7.2444
 1387.2000    17.4603  -999.2500      .0805     2.1122    73.0839  -999.2500    -9.2203
 1387.3000    17.4645  -999.2500      .0708     2.1053    72.9506  -999.2500    -9.7710
 1387.4000    17.4705  -999.2500      .0593     2.1004    72.8393  -999.2500    -7.5951
 1387.5000    17.4763  -999.2500      .0511     2.0983    72.6964  -999.2500    -4.5286
