~VERSION INFORMATION
VERS.                                                 2.0:   CWLS Log ASCII Standard-VERSION 2.0
WRAP.                                                  NO:   One line per depth step
~Well Information Block
STRT.M                                           204.6000:   Top Depth
STOP.M                                          3156.9000:   Bottom Depth
STEP.M                                             .10000:   Depth Increment
NULL.                                            -999.250:   Null Value
FLD .                                             WILDCAT:   Field Name
WELL.                                             15/12-5:   NAME
WBN .                                             15/12-5:   WELLBORE
NATI.                                                 NOR:   COUNTRY
BHT1.DEGF                                            79.0:   BH TEMP 1
BHT2.DEGF                                            79.0:   BH TEMP 2
BHT3.DEGF                                            80.0:   BH TEMP 3
BS1 .IN                                            12.250:   BIT SIZE 1
CTRY.                                                 NOR:   COUNTRY
CBD1.M                                              217.0:   CSG 1 DRILL DEP
CBL1.M                                              217.0:   CSG 1 LOG DEP
CS1 .IN                                              30.0:   CSG 1 SIZE
COMP.                                             STATOIL:   OPERATOR
PDAT.                                                 MSL:   PERM DATUM
PROV.                                           NORTH SEA:   PROVINCE
COUN.                                           ROSS ISLE:   RIG NAME
SON .                                              N02422:   SOURCE OPERATOR NAME
SPUD.                                          1986/03/12:   SPUD DATE
LATI.                                        58 4 53.36 N:   SURF. LATITUDE
LONG.                                        1 54 53.24 E:   SURF. LONGITUDE
BTD1.                                            617.50 M:   TOTAL DEPTH 1
BTD2.                                            617.50 M:   TOTAL DEPTH 2
BTD3.                                            617.50 M:   TOTAL DEPTH 3
PBWE.                                             15/12-5:   PB WELL ID
APIN.                                             15/12-5:   PB WELLBORE ID
PBWS.                                                 all:   PB WELL NAME SET
~PARAMETER INFORMATION (log)
LNAM.                              CDL/CNL/GR  COMPOSITED:   NAME
LTYP.                                         DEPTH MATCH:   LOG TYPE
LSRV.                                             CAL/BGT:   LOG SERVICE
LSOU.                                             SPT/NPD:   LOG SOURCE
LVSN.                                                   1:   LOG VERSION
BHIS.                                                   R:   BRIEF HISTORY
FHIS.                                             RAW-LIS:   FULL HISTORY
LCNM.                                                  NL:   LOGGING CONTRACTOR
TOOL.                             CDL/CNL/GR (COMPOSITED):   TOOL STRING
~Curve Information Block
#MNEM.UNIT                                        API CODE    No Description
#=========                                        ========    == ===========
DEPT.M                                       00 001 00 00:     1  DEPTH
CAL.IN                                                   :     2  Caliper
CNC.%                                                    :     3  Neutron Porosity
CORR.G/CC                                                :     4  Density Correction
DEN.G/CC                                                 :     5  Bulk Density
GR.GAPI                                                  :     6  Gamma Ray
SPD.                                                     :     7  Cable Speed
TEN.LB                                                   :     8  Cable Tension
~ASCII
# ...
 2552.4000    12.6049    13.3234     -.0319     2.4983    17.0073     9.2639    36.4338
 2552.5000    12.6067    13.5256     -.0352     2.4920    16.6896     9.2400    39.5797
 2552.6000    12.6090    13.6710     -.0374     2.4866    16.3390     9.2403    39.3451
 2552.7000    12.6115    13.7535     -.0384     2.4825    15.9771     9.2565    35.4824
 2552.8000    12.6133    13.7544     -.0390     2.4798    15.6643     9.2833    26.6369
 2552.9000    12.6144    13.6720     -.0406     2.4771    15.4478     9.3070    15.4621
 2553.0000    12.6147    13.5853     -.0437     2.4738    15.3605     9.3198     3.3344
 2553.1000    12.6145    13.5462     -.0487     2.4703    15.4992     9.3179    -7.3865
 2553.2000    12.6144    13.6003     -.0538     2.4677    15.8252     9.2968   -14.0009
 2553.3000    12.6144    13.6366     -.0574     2.4672    16.2653     9.2673   -15.9117
 2553.4000    12.6147    13.5750     -.0573     2.4694    16.7498     9.2329   -11.4624
 2553.5000    12.6152    13.2174     -.0536     2.4743    17.1849     9.1988    -2.6197
 2553.6000    12.6156    12.7089     -.0481     2.4802    17.5099     9.1657     6.9894
 2553.7000    12.6159    12.1650     -.0427     2.4857    17.6289     9.1329    14.6079
 2553.8000    12.6158    11.7884     -.0401     2.4883    17.4136     9.0983    16.5888
 2553.9000    12.6152    11.6900     -.0395     2.4886    16.9701     9.0643    14.3239
 2554.0000    12.6141    11.8341     -.0400     2.4875    16.3414     9.0344     8.4561
 2554.1000    12.6125    12.2002     -.0384     2.4878    15.6111     9.0145      .5753
 2554.2000    12.6107    12.6084     -.0335     2.4913    14.9489     9.0048    -6.5151
 2554.3000    12.6089    12.9715     -.0257     2.4985    14.4269     9.0010   -12.0687
 2554.4000    12.6077    13.2427     -.0153     2.5105    14.2250     9.0052   -14.1951
 2554.5000    12.6068    13.4112     -.0043     2.5242    14.2248     9.0220   -13.5732
 2554.6000    12.6060    13.5255      .0062     2.5375    14.3420     9.0495   -10.5086
 2554.7000    12.6047    13.5790      .0135     2.5465    14.5099     9.0877    -5.0905
 2554.8000    12.6032    13.5116      .0163     2.5492    14.7016     9.1345      .5885
 2554.9000    12.6019    13.3733      .0151     2.5466    14.9159     9.1774     5.1539
 2555.0000    12.6017    13.1872      .0089     2.5375    15.1587     9.2095     6.8899
 2555.1000    12.6024    13.0188      .0005     2.5250    15.3720     9.2132     5.0339
 2555.2000    12.6035    12.9327     -.0068     2.5128    15.5120     9.1970      .7867
 2555.3000    12.6047    12.9514     -.0110     2.5029    15.5436     9.1672    -5.4366
 2555.4000    12.6050    13.1386     -.0116     2.4970    15.4457     9.1326   -12.2284
 2555.5000    12.6041    13.4361     -.0122     2.4932    15.2524     9.1051   -18.1890
 2555.6000    12.6021    13.7595     -.0149     2.4906    14.9717     9.0891   -22.6082
 2555.7000    12.5993    13.9600     -.0226     2.4888    14.7308     9.0931   -23.3559
 2555.8000    12.5967    13.8874     -.0311     2.4884    14.6339     9.1148   -21.3541
 2555.9000    12.5945    13.5982     -.0387     2.4892    14.7013     9.1429   -16.7111
 2556.0000    12.5935    13.1337     -.0406     2.4921    14.9666     9.1704    -9.1394
 2556.1000    12.5936    12.6363     -.0375     2.4925    15.2798     9.1890     -.6780
 2556.2000    12.5948    12.2549     -.0315     2.4922    15.5789     9.1981     7.5747
 2556.3000    12.5975    12.0771     -.0249     2.4900    15.7927     9.1962    13.5016
 2556.4000    12.6009    12.2822     -.0205     2.4865    15.8718     9.1811    15.4168
 2556.5000    12.6046    12.6919     -.0183     2.4820    15.8217     9.1613    13.2715
 2556.6000    12.6086    13.2500     -.0183     2.4770    15.6101     9.1395     5.9452
 2556.7000    12.6120    13.8857     -.0192     2.4730    15.2183     9.1211    -5.0392
 2556.8000    12.6143    14.5177     -.0203     2.4700    14.6594     9.1076   -16.8245
 2556.9000    12.6150    15.0858     -.0217     2.4686    13.9441     9.0994   -27.1376
 2557.0000    12.6138    15.4072     -.0231     2.4706    13.2309     9.0985   -32.0790
 2557.1000    12.6118    15.3817     -.0242     2.4754    12.6722     9.1018   -32.2561
 2557.2000    12.6094    15.0473     -.0248     2.4829    12.3419     9.1072   -27.7207
 2557.3000    12.6068    14.4076     -.0245     2.4921    12.3745     9.1141   -18.8778
 2557.4000    12.6046    13.6930     -.0241     2.5000    12.5669     9.1208    -9.8149
 2557.5000    12.6030    13.0845     -.0238     2.5060    12.8761     9.1256    -1.8652
 2557.6000    12.6027    12.7319     -.0225     2.5087    13.2512     9.1269     2.0827
 2557.7000    12.6026    12.8264     -.0196     2.5101    13.6068     9.1223     2.3369
 2557.8000    12.6019    13.2205     -.0153     2.5108    13.9238     9.1141     -.6425
 2557.9000    12.5995    13.8493     -.0104     2.5103    14.1592     9.1045    -7.0489
 2558.0000    12.5958    14.5475     -.0064     2.5080    14.3252     9.0994   -14.9765
 2558.1000    12.5918    15.1154     -.0039     2.5043    14.4725     9.1021   -23.1675
 2558.2000    12.5895    15.4482     -.0035     2.5000    14.6492     9.1139   -30.2769
 2558.3000    12.5910    15.2219     -.0049     2.4987    14.9205     9.1375   -34.8092
 2558.4000    12.5958    14.6055     -.0070     2.4995    15.3166     9.1640   -36.7056
 2558.5000    12.6032    13.7548     -.0093     2.5020    15.8993     9.1890   -35.3297
 2558.6000    12.6104    12.9389     -.0125     2.5032    16.6895     9.2058   -30.1706
 2558.7000    12.6154    12.4455     -.0167     2.5010    17.5070     9.2143   -23.1987
 2558.8000    12.6174    12.2851     -.0223     2.4946    18.2508     9.2166   -15.1177
 2558.9000    12.6156    12.5022     -.0279     2.4849    18.5182     9.2119    -7.9619
 2559.0000    12.6127    12.9167     -.0313     2.4766    18.3059     9.1986    -2.8759
 2559.1000    12.6097    13.3328     -.0319     2.4718    17.6203     9.1781     -.3276
 2559.2000    12.6087    13.6157     -.0287     2.4707    16.5470     9.1504    -1.7243
 2559.3000    12.6090    13.6613     -.0246     2.4726    15.5947     9.1187    -5.2477
 2559.4000    12.6097    13.5999     -.0213     2.4750    14.9929     9.0920    -9.9754
 2559.5000    12.6091    13.4888     -.0217     2.4769    15.0426     9.0764   -14.9592
 2559.6000    12.6066    13.3667     -.0250     2.4778    15.4808     9.0852   -19.1001
 2559.7000    12.6030    13.2334     -.0287     2.4780    16.0251     9.1062   -22.0774
 2559.8000    12.5997    13.0884     -.0305     2.4790    16.4590     9.1327   -23.3436
 2559.9000    12.5985    12.9564     -.0296     2.4813    16.6385     9.1516   -22.9289
 2560.0000    12.5992    12.8618     -.0284     2.4837    16.6985     9.1601   -21.6853
 2560.1000    12.6013    12.8062     -.0288     2.4854    16.7442     9.1601   -20.0309
 2560.2000    12.6033    12.7793     -.0318     2.4863    16.8627     9.1550   -18.7339
 2560.3000    12.6043    12.7546     -.0350     2.4883    17.0026     9.1516   -17.9209
 2560.4000    12.6039    12.7310     -.0369     2.4920    17.1403     9.1521   -17.5739
 2560.5000    12.6020    12.7121     -.0351     2.4976    17.2721     9.1559   -17.3330
 2560.6000    12.5999    12.7083     -.0322     2.5034    17.4478     9.1575   -16.4524
 2560.7000    12.5981    12.7233     -.0293     2.5088    17.7122     9.1559   -14.4227
 2560.8000    12.5974    12.7593     -.0280     2.5120    18.0997     9.1519    -9.6101
 2560.9000    12.5978    12.7778     -.0282     2.5141    18.4448     9.1508    -2.9584
 2561.0000    12.5992    12.7474     -.0293     2.5151    18.6655     9.1526     4.3795
 2561.1000    12.6013    12.6571     -.0315     2.5142    18.5818     9.1560    10.0253
 2561.2000    12.6022    12.5393     -.0347     2.5121    18.1628     9.1572    11.6471
 2561.3000    12.6013    12.4634     -.0379     2.5094    17.4848     9.1547     9.4950
 2561.4000    12.5975    12.4464     -.0402     2.5066    16.5950     9.1487     3.7158
