~VERSION INFORMATION
VERS.                                                 2.0:   CWLS Log ASCII Standard-VERSION 2.0
WRAP.                                                  NO:   One line per depth step
~Well Information Block
STRT.M                                           204.6000:   Top Depth
STOP.M                                          3156.9000:   Bottom Depth
STEP.M                                             .10000:   Depth Increment
NULL.                                            -999.250:   Null Value
FLD .                                             WILDCAT:   Field Name
WELL.                                             15/12-5:   NAME
WBN .                                             15/12-5:   WELLBORE
NATI.                                                 NOR:   COUNTRY
BHT1.DEGF                                            79.0:   BH TEMP 1
BHT2.DEGF                                            79.0:   BH TEMP 2
BHT3.DEGF                                            80.0:   BH TEMP 3
BS1 .IN                                            12.250:   BIT SIZE 1
CTRY.                                                 NOR:   COUNTRY
CBD1.M                                              217.0:   CSG 1 DRILL DEP
CBL1.M                                              217.0:   CSG 1 LOG DEP
CS1 .IN                                              30.0:   CSG 1 SIZE
COMP.                                             STATOIL:   OPERATOR
PDAT.                                                 MSL:   PERM DATUM
PROV.                                           NORTH SEA:   PROVINCE
COUN.                                           ROSS ISLE:   RIG NAME
SON .                                              N02422:   SOURCE OPERATOR NAME
SPUD.                                          1986/03/12:   SPUD DATE
LATI.                                        58 4 53.36 N:   SURF. LATITUDE
LONG.                                        1 54 53.24 E:   SURF. LONGITUDE
BTD1.                                            617.50 M:   TOTAL DEPTH 1
BTD2.                                            617.50 M:   TOTAL DEPTH 2
BTD3.                                            617.50 M:   TOTAL DEPTH 3
PBWE.                                             15/12-5:   PB WELL ID
APIN.                                             15/12-5:   PB WELLBORE ID
PBWS.                                                 all:   PB WELL NAME SET
~PARAMETER INFORMATION (log)
LNAM.                              CDL/CNL/GR  COMPOSITED:   NAME
LTYP.                                         DEPTH MATCH:   LOG TYPE
LSRV.                                             CAL/BGT:   LOG SERVICE
LSOU.                                             SPT/NPD:   LOG SOURCE
LVSN.                                                   1:   LOG VERSION
BHIS.                                                   R:   BRIEF HISTORY
FHIS.                                             RAW-LIS:   FULL HISTORY
LCNM.                                                  NL:   LOGGING CONTRACTOR
TOOL.                             CDL/CNL/GR (COMPOSITED):   TOOL STRING
~Curve Information Block
#MNEM.UNIT                                        API CODE    No Description
#=========                                        ========    == ===========
DEPT.M                                       00 001 00 00:     1  DEPTH
CAL.IN                                                   :     2  Caliper
CNC.%                                                    :     3  Neutron Porosity
CORR.G/CC                                                :     4  Density Correction
DEN.G/CC                                                 :     5  Bulk Density
GR.GAPI                                                  :     6  Gamma Ray
SPD.                                                     :     7  Cable Speed
TEN.LB                                                   :     8  Cable Tension
~ASCII
# ...
  987.2000    17.9085  -999.2500      .0882     2.1127    76.0222  -999.2500    -5.5631
  987.3000    17.8749  -999.2500      .0849     2.1067    75.4292  -999.2500    -7.7205
  987.4000    17.8442  -999.2500      .0812     2.1018    75.0803  -999.2500    -9.9770
  987.5000    17.8112  -999.2500      .0786     2.0999    75.1460  -999.2500   -11.3396
  987.6000    17.7747  -999.2500      .0777     2.1005    75.2916  -999.2500   -11.7829
  987.7000    17.7361  -999.2500      .0782     2.1028    75.3576  -999.2500   -11.3192
  987.8000    17.6985  -999.2500      .0785     2.1063    75.0732  -999.2500    -9.7131
  987.9000    17.6657  -999.2500      .0764     2.1094    74.4778  -999.2500    -7.6145
  988.0000    17.6385  -999.2500      .0721     2.1124    73.7369  -999.2500    -5.5542
  988.1000    17.6187  -999.2500      .0663     2.1158    73.1179  -999.2500    -4.0970
  988.2000    17.6047  -999.2500      .0620     2.1213    73.0560  -999.2500    -3.4415
  988.3000    17.5946  -999.2500      .0613     2.1282    73.5691  -999.2500    -3.3779
  988.4000    17.5891  -999.2500      .0659     2.1376    74.7567  -999.2500    -3.9964
  988.5000    17.5889  -999.2500      .0739     2.1468    76.4797  -999.2500    -5.2218
  988.6000    17.5911  -999.2500      .0803     2.1535    78.2693  -999.2500    -6.5470
  988.7000    17.5945  -999.2500      .0828     2.1564    79.9114  -999.2500    -7.7437
  988.8000    17.5972  -999.2500      .0807     2.1557    80.9483  -999.2500    -8.5487
  988.9000    17.5988  -999.2500      .0781     2.1560    81.4935  -999.2500    -9.1689
  989.0000    17.5991  -999.2500      .0766     2.1580    81.6062  -999.2500    -9.6314
  989.1000    17.5956  -999.2500      .0779     2.1628    81.5232  -999.2500    -9.7084
  989.2000    17.5887  -999.2500      .0792     2.1670    81.5915  -999.2500    -9.2926
  989.3000    17.5785  -999.2500      .0788     2.1687    81.8687  -999.2500    -8.4006
  989.4000    17.5641  -999.2500      .0727     2.1642    82.5166  -999.2500    -7.0960
  989.5000    17.5471  -999.2500      .0628     2.1551    83.3767  -999.2500    -5.8559
  989.6000    17.5288  -999.2500      .0520     2.1445    84.2042  -999.2500    -4.9597
  989.7000    17.5103  -999.2500      .0439     2.1360    84.6947  -999.2500    -4.8739
  989.8000    17.4932  -999.2500      .0410     2.1321    84.6906  -999.2500    -5.8112
  989.9000    17.4785  -999.2500      .0413     2.1315    84.3426  -999.2500    -7.3666
  990.0000    17.4681  -999.2500      .0444     2.1319    83.7529  -999.2500    -9.1717
  990.1000    17.4646  -999.2500      .0488     2.1346    83.3402  -999.2500   -10.3481
  990.2000    17.4657  -999.2500      .0532     2.1385    83.3137  -999.2500   -10.6900
  990.3000    17.4704  -999.2500      .0576     2.1437    83.7457  -999.2500   -10.1221
  990.4000    17.4766  -999.2500      .0619     2.1498    84.6298  -999.2500    -8.7537
  990.5000    17.4819  -999.2500      .0657     2.1558    85.3983  -999.2500    -7.4528
  990.6000    17.4856  -999.2500      .0685     2.1612    85.8038  -999.2500    -6.4966
  990.7000    17.4859  -999.2500      .0702     2.1656    85.4656  -999.2500    -6.4650
  990.8000    17.4834  -999.2500      .0716     2.1694    84.8265  -999.2500    -7.1149
  990.9000    17.4788  -999.2500      .0731     2.1728    84.1002  -999.2500    -8.2518
  991.0000    17.4720  -999.2500      .0751     2.1753    83.5351  -999.2500    -9.5227
  991.1000    17.4641  -999.2500      .0763     2.1764    83.1383  -999.2500   -10.4573
  991.2000    17.4561  -999.2500      .0759     2.1754    82.7214  -999.2500   -10.9399
  991.3000    17.4498  -999.2500      .0727     2.1705    81.9907  -999.2500   -10.7832
  991.4000    17.4471  -999.2500      .0671     2.1628    80.8410  -999.2500   -10.1367
  991.5000    17.4470  -999.2500      .0606     2.1545    79.5522  -999.2500    -9.3387
  991.6000    17.4490  -999.2500      .0539     2.1475    78.3763  -999.2500    -8.6098
  991.7000    17.4521  -999.2500      .0479     2.1440    77.7888  -999.2500    -8.3667
  991.8000    17.4556  -999.2500      .0426     2.1434    77.7968  -999.2500    -8.5487
  991.9000    17.4594  -999.2500      .0382     2.1458    78.4271  -999.2500    -9.0379
  992.0000    17.4634  -999.2500      .0355     2.1505    79.5692  -999.2500    -9.4088
  992.1000    17.4676  -999.2500      .0345     2.1556    80.6796  -999.2500    -9.6484
  992.2000    17.4721  -999.2500      .0354     2.1590    81.5932  -999.2500    -9.8887
  992.3000    17.4774  -999.2500      .0387     2.1619    82.0106  -999.2500   -10.2500
  992.4000    17.4824  -999.2500      .0426     2.1645    82.1817  -999.2500   -10.4154
  992.5000    17.4865  -999.2500      .0467     2.1674    82.2341  -999.2500   -10.2423
  992.6000    17.4887  -999.2500      .0501     2.1704    82.2649  -999.2500    -9.6440
  992.7000    17.4894  -999.2500      .0531     2.1733    82.3356  -999.2500    -8.9918
  992.8000    17.4889  -999.2500      .0555     2.1755    82.4510  -999.2500    -8.4686
  992.9000    17.4874  -999.2500      .0566     2.1759    82.5279  -999.2500    -8.1889
  993.0000    17.4850  -999.2500      .0563     2.1744    82.4988  -999.2500    -8.1478
  993.1000    17.4824  -999.2500      .0554     2.1722    82.4437  -999.2500    -8.2663
  993.2000    17.4802  -999.2500      .0547     2.1701    82.4104  -999.2500    -8.4407
  993.3000    17.4787  -999.2500      .0549     2.1697    82.4409  -999.2500    -8.3303
  993.4000    17.4774  -999.2500      .0563     2.1707    82.5405  -999.2500    -7.9632
  993.5000    17.4759  -999.2500      .0584     2.1730    82.7278  -999.2500    -7.4517
  993.6000    17.4721  -999.2500      .0578     2.1729    83.1305  -999.2500    -7.0755
  993.7000    17.4657  -999.2500      .0539     2.1692    83.6500  -999.2500    -6.7652
  993.8000    17.4567  -999.2500      .0473     2.1624    84.2038  -999.2500    -6.4151
  993.9000    17.4471  -999.2500      .0408     2.1540    84.6093  -999.2500    -5.8944
  994.0000    17.4418  -999.2500      .0384     2.1478    84.8704  -999.2500    -5.3507
  994.1000    17.4431  -999.2500      .0405     2.1425    85.0773  -999.2500    -4.8569
  994.2000    17.4557  -999.2500      .0478     2.1420    85.3731  -999.2500    -4.5772
  994.3000    17.4754  -999.2500      .0555     2.1431    85.8010  -999.2500    -4.8538
  994.4000    17.4975  -999.2500      .0614     2.1441    86.2664  -999.2500    -5.7931
  994.5000    17.5172  -999.2500      .0631     2.1427    86.5882  -999.2500    -7.3095
  994.6000    17.5290  -999.2500      .0613     2.1389    86.4650  -999.2500    -8.4743
  994.7000    17.5341  -999.2500      .0591     2.1348    85.9191  -999.2500    -8.8901
  994.8000    17.5331  -999.2500      .0588     2.1318    84.9532  -999.2500    -8.3274
  994.9000    17.5297  -999.2500      .0626     2.1321    83.7758  -999.2500    -6.9055
  995.0000    17.5275  -999.2500      .0687     2.1342    82.5870  -999.2500    -5.3389
  995.1000    17.5275  -999.2500      .0754     2.1368    81.4423  -999.2500    -3.9777
  995.2000    17.5296  -999.2500      .0789     2.1374    80.4696  -999.2500    -3.7090
  995.3000    17.5319  -999.2500      .0793     2.1365    79.6870  -999.2500    -4.1800
  995.4000    17.5340  -999.2500      .0771     2.1354    79.1235  -999.2500    -5.0356
  995.5000    17.5348  -999.2500      .0744     2.1361    78.9352  -999.2500    -5.1470
  995.6000    17.5349  -999.2500      .0736     2.1380    79.0119  -999.2500    -4.1360
  995.7000    17.5349  -999.2500      .0747     2.1403    79.2929  -999.2500    -2.1620
  995.8000    17.5355  -999.2500      .0771     2.1419    79.6779  -999.2500      .4565
  995.9000    17.5366  -999.2500      .0781     2.1410    79.9515  -999.2500     2.5625
  996.0000    17.5377  -999.2500      .0762     2.1367    80.0478  -999.2500     3.5789
  996.1000    17.5384  -999.2500      .0700     2.1282    79.8559  -999.2500     2.7933
  996.2000    17.5379  -999.2500      .0623     2.1192    79.3480  -999.2500      .4949
