~VERSION INFORMATION
VERS.                                                 2.0:   CWLS Log ASCII Standard-VERSION 2.0
WRAP.                                                  NO:   One line per depth step
~Well Information Block
STRT.M                                           204.6000:   Top Depth
STOP.M                                          3156.9000:   Bottom Depth
STEP.M                                             .10000:   Depth Increment
NULL.                                            -999.250:   Null Value
FLD .                                             WILDCAT:   Field Name
WELL.                                             15/12-5:   NAME
WBN .                                             15/12-5:   WELLBORE
NATI.                                                 NOR:   COUNTRY
BHT1.DEGF                                            79.0:   BH TEMP 1
BHT2.DEGF                                            79.0:   BH TEMP 2
BHT3.DEGF                                            80.0:   BH TEMP 3
BS1 .IN                                            12.250:   BIT SIZE 1
CTRY.                                                 NOR:   COUNTRY
CBD1.M                                              217.0:   CSG 1 DRILL DEP
CBL1.M                                              217.0:   CSG 1 LOG DEP
CS1 .IN                                              30.0:   CSG 1 SIZE
COMP.                                             STATOIL:   OPERATOR
PDAT.                                                 MSL:   PERM DATUM
PROV.                                           NORTH SEA:   PROVINCE
COUN.                                           ROSS ISLE:   RIG NAME
SON .                                              N02422:   SOURCE OPERATOR NAME
SPUD.                                          1986/03/12:   SPUD DATE
LATI.                                        58 4 53.36 N:   SURF. LATITUDE
LONG.                                        1 54 53.24 E:   SURF. LONGITUDE
BTD1.                                            617.50 M:   TOTAL DEPTH 1
BTD2.                                            617.50 M:   TOTAL DEPTH 2
BTD3.                                            617.50 M:   TOTAL DEPTH 3
PBWE.                                             15/12-5:   PB WELL ID
APIN.                                             15/12-5:   PB WELLBORE ID
PBWS.                                                 all:   PB WELL NAME SET
~PARAMETER INFORMATION (log)
LNAM.                              CDL/CNL/GR  COMPOSITED:   NAME
LTYP.                                         DEPTH MATCH:   LOG TYPE
LSRV.                                             CAL/BGT:   LOG SERVICE
LSOU.                                             SPT/NPD:   LOG SOURCE
LVSN.                                                   1:   LOG VERSION
BHIS.                                                   R:   BRIEF HISTORY
FHIS.                                             RAW-LIS:   FULL HISTORY
LCNM.                                                  NL:   LOGGING CONTRACTOR
TOOL.                             CDL/CNL/GR (COMPOSITED):   TOOL STRING
~Curve Information Block
#MNEM.UNIT                                        API CODE    No Description
#=========                                        ========    == ===========
DEPT.M                                       00 001 00 00:     1  DEPTH
CAL.IN                                                   :     2  Caliper
CNC.%                                                    :     3  Neutron Porosity
CORR.G/CC                                                :     4  Density Correction
DEN.G/CC                                                 :     5  Bulk Density
GR.GAPI                                                  :     6  Gamma Ray
SPD.                                                     :     7  Cable Speed
TEN.LB                                                   :     8  Cable Tension
~ASCII
# ...
 1578.7000    16.7360  -999.2500      .1511     2.0695    77.6557  -999.2500    16.2977
 1578.8000    16.7196  -999.2500      .1506     2.0701    77.8421  -999.2500    17.4143
 1578.9000    16.7014  -999.2500      .1418     2.0692    78.2779  -999.2500    16.9702
 1579.0000    16.6885  -999.2500      .1299     2.0671    78.7542  -999.2500    15.5159
 1579.1000    16.6871  -999.2500      .1176     2.0642    79.1124  -999.2500    13.3492
 1579.2000    16.7133  -999.2500      .1092     2.0633    79.1412  -999.2500    11.8102
 1579.3000    16.7665  -999.2500      .1046     2.0651    78.9874  -999.2500    11.7922
 1579.4000    16.8501  -999.2500      .1035     2.0712    78.6779  -999.2500    13.5906
 1579.5000    16.9824  -999.2500      .1066     2.0798    78.0809  -999.2500    17.0323
 1579.6000    17.1377  -999.2500      .1116     2.0929    77.3231  -999.2500    19.8610
 1579.7000    17.3064  -999.2500      .1176     2.1087    76.4930  -999.2500    21.2411
 1579.8000    17.4679  -999.2500      .1233     2.1263    75.7750  -999.2500    19.6554
 1579.9000    17.6039  -999.2500      .1277     2.1426    75.2273  -999.2500    16.5047
 1580.0000    17.7111  -999.2500      .1306     2.1569    74.8144  -999.2500    13.0530
 1580.1000    17.7802  -999.2500      .1310     2.1694    74.4783  -999.2500    11.0797
 1580.2000    17.8284  -999.2500      .1280     2.1780    74.1084  -999.2500    11.3211
 1580.3000    17.8726  -999.2500      .1213     2.1834    73.6813  -999.2500    12.8099
 1580.4000    17.9245  -999.2500      .1095     2.1850    73.1786  -999.2500    14.5606
 1580.5000    17.9908  -999.2500      .0938     2.1852    72.7527  -999.2500    15.2288
 1580.6000    18.0633  -999.2500      .0780     2.1871    72.5345  -999.2500    15.0401
 1580.7000    18.1351  -999.2500      .0650     2.1931    72.5776  -999.2500    14.3262
 1580.8000    18.1922  -999.2500      .0594     2.2048    72.7576  -999.2500    13.8259
 1580.9000    18.2364  -999.2500      .0589     2.2183    72.8840  -999.2500    13.4910
 1581.0000    18.2701  -999.2500      .0623     2.2293    72.9031  -999.2500    13.0270
 1581.1000    18.3018  -999.2500      .0685     2.2362    72.7466  -999.2500    11.4740
 1581.2000    18.3408  -999.2500      .0749     2.2393    72.5344  -999.2500     9.3562
 1581.3000    18.3877  -999.2500      .0812     2.2398    72.3055  -999.2500     7.2634
 1581.4000    18.4411  -999.2500      .0876     2.2378    72.0300  -999.2500     6.8303
 1581.5000    18.4948  -999.2500      .0943     2.2353    71.7135  -999.2500     8.3463
 1581.6000    18.5476  -999.2500      .1010     2.2327    71.4041  -999.2500    11.2366
 1581.7000    18.5978  -999.2500      .1065     2.2302    71.2167  -999.2500    14.5421
 1581.8000    18.6415  -999.2500      .1109     2.2284    71.1932  -999.2500    16.4995
 1581.9000    18.6755  -999.2500      .1151     2.2281    71.2885  -999.2500    16.7454
 1582.0000    18.6926  -999.2500      .1199     2.2301    71.4435  -999.2500    14.9899
 1582.1000    18.6877  -999.2500      .1254     2.2339    71.5271  -999.2500    12.2035
 1582.2000    18.6701  -999.2500      .1304     2.2369    71.5231  -999.2500     9.6963
 1582.3000    18.6443  -999.2500      .1338     2.2370    71.4421  -999.2500     8.1814
 1582.4000    18.6225  -999.2500      .1332     2.2300    71.4207  -999.2500     8.5969
 1582.5000    18.6101  -999.2500      .1303     2.2194    71.6320  -999.2500    10.1192
 1582.6000    18.6081  -999.2500      .1258     2.2055    72.1673  -999.2500    12.4508
 1582.7000    18.6144  -999.2500      .1227     2.1929    73.1903  -999.2500    15.1774
 1582.8000    18.6155  -999.2500      .1217     2.1844    74.3458  -999.2500    17.6029
 1582.9000    18.6035  -999.2500      .1217     2.1809    75.4741  -999.2500    19.3469
 1583.0000    18.5547  -999.2500      .1190     2.1835    76.2825  -999.2500    19.4362
 1583.1000    18.4691  -999.2500      .1113     2.1884    76.7127  -999.2500    18.3025
 1583.2000    18.3550  -999.2500      .0997     2.1943    76.8133  -999.2500    16.5734
 1583.3000    18.2215    44.0730      .0859     2.2008    76.5471     9.0628    14.9916
 1583.4000    18.0988    44.0730      .0755     2.2073    76.0894     9.0628    14.1499
 1583.5000    17.9995    44.0730      .0698     2.2135    75.5782     9.0628    13.9529
 1583.6000    17.9369    44.0730      .0694     2.2181    75.0568     9.0628    14.4364
 1583.7000    17.9107    44.0730      .0703     2.2191    74.5401     9.0628    15.2773
 1583.8000    17.9008    44.0730      .0692     2.2173    74.0749     9.0628    16.0047
 1583.9000    17.8995    44.0730      .0646     2.2137    73.6921     9.0628    16.4784
 1584.0000    17.8989    44.0730      .0581     2.2108    73.3158     9.0628    17.1671
 1584.1000    17.9001    44.0730      .0535     2.2105    72.6961     9.0628    18.2521
 1584.2000    17.9079    44.0730      .0522     2.2116    71.6227     9.0628    19.5103
 1584.3000    17.9420    44.0730      .0577     2.2183    69.4285     9.0628    19.9067
 1584.4000    18.0012    44.0730      .0672     2.2275    66.5719     9.0628    19.3894
 1584.5000    18.0834    44.0730      .0795     2.2386    63.3119     9.0628    18.1646
 1584.6000    18.1807    44.0730      .0920     2.2498    60.2659     9.0628    16.6998
 1584.7000    18.2670    44.0730      .1013     2.2597    58.0556     9.0628    15.7394
 1584.8000    18.3326    44.0730      .1064     2.2679    56.8061     9.0628    15.5205
 1584.9000    18.3627    44.0730      .1050     2.2732    56.8862     9.0628    16.3215
 1585.0000    18.3609    44.1193      .0986     2.2748    58.0046     9.0620    17.4528
 1585.1000    18.3354    44.2845      .0898     2.2728    59.7336     9.0572    18.3824
 1585.2000    18.2828    44.2309      .0805     2.2655    61.8999     9.0494    18.9584
 1585.3000    18.1997    44.0342      .0743     2.2523    64.1614     9.0408    19.6405
 1585.4000    18.0987    44.0605      .0735     2.2346    66.2850     9.0359    20.6018
 1585.5000    17.9861    44.3372      .0806     2.2155    68.1397     9.0361    21.7547
 1585.6000    17.8839    44.8389      .0966     2.1979    69.4884     9.0425    22.6073
 1585.7000    17.8046    45.3438      .1127     2.1827    70.5070     9.0492    22.8126
 1585.8000    17.7523    45.6636      .1248     2.1696    71.2808     9.0533    22.1128
 1585.9000    17.7356    45.5377      .1216     2.1602    72.0240     9.0533    19.9579
 1586.0000    17.7301    44.9601      .1082     2.1543    72.8536     9.0517    17.7069
 1586.1000    17.7298    44.3944      .0884     2.1530    73.7622     9.0517    16.1524
 1586.2000    17.7305    44.2435      .0697     2.1591    74.6664     9.0558    16.7311
 1586.3000    17.7311    44.9969      .0587     2.1698    75.4666     9.0646    18.7839
 1586.4000    17.7318    46.1213      .0551     2.1821    76.1892     9.0705    21.4429
 1586.5000    17.7331    47.2990      .0572     2.1928    76.9579     9.0688    23.5990
 1586.6000    17.7353    47.6843      .0582     2.1993    77.9749     9.0490    24.0564
 1586.7000    17.7381    47.2432      .0567     2.2024    79.1775     9.0222    22.9955
 1586.8000    17.7412    46.0801      .0532     2.2025    80.3969     8.9948    20.7361
 1586.9000    17.7445    44.5903      .0495     2.2012    81.0499     8.9793    18.9012
 1587.0000    17.7500    43.4312      .0468     2.1996    80.9935     8.9773    18.2616
 1587.1000    17.7622    42.7457      .0456     2.1989    80.1711     8.9863    19.0491
 1587.2000    17.7992    42.6057      .0466     2.1985    78.8634     9.0043    20.9086
 1587.3000    17.8590    42.7888      .0489     2.2006    77.7678     9.0251    22.7296
 1587.4000    17.9386    43.1617      .0524     2.2050    77.1532     9.0465    24.1766
 1587.5000    18.0210    43.7896      .0567     2.2127    77.4142     9.0682    24.7339
 1587.6000    18.0789    44.4240      .0611     2.2217    77.8436     9.0888    25.0109
 1587.7000    18.1008    44.7347      .0658     2.2321    78.1065     9.1064    25.4172
