~VERSION INFORMATION
VERS.                                                 2.0:   CWLS Log ASCII Standard-VERSION 2.0
WRAP.                                                  NO:   One line per depth step
~Well Information Block
STRT.M                                           204.6000:   Top Depth
STOP.M                                          3156.9000:   Bottom Depth
STEP.M                                             .10000:   Depth Increment
NULL.                                            -999.250:   Null Value
FLD .                                             WILDCAT:   Field Name
WELL.                                             15/12-5:   NAME
WBN .                                             15/12-5:   WELLBORE
NATI.                                                 NOR:   COUNTRY
BHT1.DEGF                                            79.0:   BH TEMP 1
BHT2.DEGF                                            79.0:   BH TEMP 2
BHT3.DEGF                                            80.0:   BH TEMP 3
BS1 .IN                                            12.250:   BIT SIZE 1
CTRY.                                                 NOR:   COUNTRY
CBD1.M                                              217.0:   CSG 1 DRILL DEP
CBL1.M                                              217.0:   CSG 1 LOG DEP
CS1 .IN                                              30.0:   CSG 1 SIZE
COMP.                                             STATOIL:   OPERATOR
PDAT.                                                 MSL:   PERM DATUM
PROV.                                           NORTH SEA:   PROVINCE
COUN.                                           ROSS ISLE:   RIG NAME
SON .                                              N02422:   SOURCE OPERATOR NAME
SPUD.                                          1986/03/12:   SPUD DATE
LATI.                                        58 4 53.36 N:   SURF. LATITUDE
LONG.                                        1 54 53.24 E:   SURF. LONGITUDE
BTD1.                                            617.50 M:   TOTAL DEPTH 1
BTD2.                                            617.50 M:   TOTAL DEPTH 2
BTD3.                                            617.50 M:   TOTAL DEPTH 3
PBWE.                                             15/12-5:   PB WELL ID
APIN.                                             15/12-5:   PB WELLBORE ID
PBWS.                                                 all:   PB WELL NAME SET
~PARAMETER INFORMATION (log)
LNAM.                              CDL/CNL/GR  COMPOSITED:   NAME
LTYP.                                         DEPTH MATCH:   LOG TYPE
LSRV.                                             CAL/BGT:   LOG SERVICE
LSOU.                                             SPT/NPD:   LOG SOURCE
LVSN.                                                   1:   LOG VERSION
BHIS.                                                   R:   BRIEF HISTORY
FHIS.                                             RAW-LIS:   FULL HISTORY
LCNM.                                                  NL:   LOGGING CONTRACTOR
TOOL.                             CDL/CNL/GR (COMPOSITED):   TOOL STRING
~Curve Information Block
#MNEM.UNIT                                        API CODE    No Description
#=========                                        ========    == ===========
DEPT.M                                       00 001 00 00:     1  DEPTH
CAL.IN                                                   :     2  Caliper
CNC.%                                                    :     3  Neutron Porosity
CORR.G/CC                                                :     4  Density Correction
DEN.G/CC                                                 :     5  Bulk Density
GR.GAPI                                                  :     6  Gamma Ray
SPD.                                                     :     7  Cable Speed
TEN.LB                                                   :     8  Cable Tension
~ASCII
# ...
 2361.3000    13.8641    28.6210      .0262     2.3252    63.9988     9.3498    -9.5466
 2361.4000    13.8690    29.9700      .0202     2.3189    64.1291     9.3463   -11.5387
 2361.5000    13.8773    31.1302      .0144     2.3161    63.6187     9.3396   -14.3631
 2361.6000    13.8872    31.9877      .0094     2.3166    62.5477     9.3315   -17.7853
 2361.7000    13.8933    32.2842      .0059     2.3200    61.1937     9.3240   -21.0997
 2361.8000    13.8941    32.1009      .0037     2.3246    59.8413     9.3152   -23.8656
 2361.9000    13.8888    31.5989      .0031     2.3298    58.5828     9.3027   -25.7954
 2362.0000    13.8768    30.8491      .0045     2.3332    57.4861     9.2821   -26.2952
 2362.1000    13.8634    30.0497      .0062     2.3354    56.4862     9.2520   -25.9925
 2362.2000    13.8505    29.3191      .0076     2.3363    55.6165     9.2172   -25.0567
 2362.3000    13.8412    28.7308      .0080     2.3369    55.0092     9.1820   -23.6406
 2362.4000    13.8350    28.4225      .0079     2.3383    54.6502     9.1578   -22.1405
 2362.5000    13.8313    28.3548      .0074     2.3406    54.5486     9.1476   -20.5945
 2362.6000    13.8293    28.5371      .0060     2.3445    54.7759     9.1559   -18.9812
 2362.7000    13.8279    28.8958      .0033     2.3499    55.1317     9.1899   -17.3454
 2362.8000    13.8269    29.2117      .0004     2.3571    55.4562     9.2343   -15.7839
 2362.9000    13.8264    29.4096     -.0014     2.3666    55.5989     9.2832   -14.5375
 2363.0000    13.8264    29.2992      .0000     2.3782    55.4761     9.3213   -13.6972
 2363.1000    13.8267    28.9441      .0037     2.3918    55.1150     9.3423   -12.9242
 2363.2000    13.8270    28.4213      .0089     2.4053    54.4713     9.3454   -11.8405
 2363.3000    13.8272    27.9088      .0121     2.4147    53.5807     9.3271   -10.1899
 2363.4000    13.8273    27.6612      .0115     2.4194    52.6911     9.3016    -8.6955
 2363.5000    13.8272    27.7232      .0073     2.4204    51.9390     9.2773    -7.9789
 2363.6000    13.8273    28.1872      .0035     2.4161    51.7333     9.2633    -9.7530
 2363.7000    13.8278    28.9681      .0036     2.4110    51.9439     9.2657   -13.1640
 2363.8000    13.8286    29.8592      .0085     2.4065    52.4975     9.2802   -17.7236
 2363.9000    13.8296    30.6438      .0183     2.4050    53.2718     9.3049   -22.0015
 2364.0000    13.8305    31.0226      .0291     2.4055    54.0571     9.3328   -24.8351
 2364.1000    13.8308    31.0984      .0384     2.4068    54.8257     9.3571   -26.0514
 2364.2000    13.8295    30.9237      .0434     2.4065    55.5466     9.3734   -25.4528
 2364.3000    13.8267    30.6309      .0440     2.4033    56.1347     9.3738   -24.3099
 2364.4000    13.8225    30.4311      .0420     2.3977    56.5182     9.3669   -23.2435
 2364.5000    13.8168    30.3725      .0392     2.3914    56.5418     9.3555   -22.5881
 2364.6000    13.8106    30.6136      .0375     2.3880    56.1843     9.3424   -22.4013
 2364.7000    13.8047    31.0445      .0362     2.3892    55.6132     9.3281   -22.5380
 2364.8000    13.7997    31.5914      .0350     2.3967    54.9403     9.3108   -23.0267
 2364.9000    13.7963    32.0609      .0346     2.4083    54.4424     9.2875   -23.9476
 2365.0000    13.7938    32.2127      .0338     2.4173    54.1848     9.2602   -25.1547
 2365.1000    13.7923    31.9306      .0312     2.4193    54.2298     9.2329   -26.6144
 2365.2000    13.7921    31.0520      .0256     2.4057    54.9273     9.2119   -28.3110
 2365.3000    13.7924    29.8973      .0195     2.3839    56.1499     9.2034   -30.0051
 2365.4000    13.7928    28.9101      .0140     2.3579    57.8063     9.2067   -31.5031
 2365.5000    13.7907    28.4120      .0113     2.3355    59.3753     9.2225   -32.0446
 2365.6000    13.7843    28.6951      .0099     2.3219    60.1455     9.2478   -31.3430
 2365.7000    13.7725    29.3687      .0093     2.3180    59.9360     9.2760   -29.3228
 2365.8000    13.7531    30.1967      .0094     2.3268    58.4716     9.3052   -25.6355
 2365.9000    13.7299    30.6503      .0101     2.3441    56.5020     9.3304   -21.3519
 2366.0000    13.7061    30.7375      .0113     2.3656    54.5782     9.3506   -17.3179
 2366.1000    13.6853    30.5494      .0124     2.3880    53.2527     9.3657   -14.5928
 2366.2000    13.6713    30.3555      .0119     2.4041    52.7335     9.3754   -13.9553
 2366.3000    13.6637    30.3624      .0089     2.4130    52.6508     9.3845   -14.7641
 2366.4000    13.6646    30.5361      .0023     2.4136    52.8015     9.3935   -16.5695
 2366.5000    13.6772    30.6702     -.0089     2.4079    52.8808     9.3983   -17.9903
 2366.6000    13.6981    30.5133     -.0204     2.4014    52.8717     9.3920   -18.3891
 2366.7000    13.7261    30.0867     -.0293     2.3952    52.8279     9.3731   -17.6601
 2366.8000    13.7585    29.4251     -.0306     2.3895    52.9571     9.3372   -16.2576
 2366.9000    13.7875    28.8776     -.0273     2.3809    53.3156     9.2944   -15.3679
 2367.0000    13.8102    28.6528     -.0206     2.3712    53.9567     9.2571   -15.3255
 2367.1000    13.8190    28.8881     -.0125     2.3617    54.9822     9.2370   -16.5371
 2367.2000    13.8180    29.5172     -.0052     2.3547    56.0462     9.2451   -18.0127
 2367.3000    13.8100    30.2678      .0013     2.3503    57.0245     9.2675   -19.2925
 2367.4000    13.7965    31.0538      .0077     2.3506    57.7447     9.2961   -19.9285
 2367.5000    13.7817    31.8135      .0158     2.3551    58.1989     9.3128   -20.4428
 2367.6000    13.7675    32.5797      .0258     2.3629    58.4267     9.3132   -21.4129
 2367.7000    13.7553    33.3346      .0361     2.3742    58.3612     9.2964   -23.5461
 2367.8000    13.7460    33.6767      .0433     2.3879    57.9649     9.2579   -27.0317
 2367.9000    13.7389    33.5438      .0480     2.4018    57.3283     9.2108   -31.0880
 2368.0000    13.7345    33.0026      .0508     2.4139    56.4979     9.1603   -35.1263
 2368.1000    13.7329    32.2838      .0510     2.4178    55.8692     9.1156   -37.7615
 2368.2000    13.7326    32.0132      .0487     2.4140    55.7038     9.0860   -38.8736
 2368.3000    13.7330    32.4089      .0442     2.4015    56.1717     9.0720   -38.4339
 2368.4000    13.7335    33.8313      .0390     2.3814    57.6190     9.0772   -36.6106
 2368.5000    13.7339    35.7582      .0349     2.3608    59.4027     9.0963   -34.8126
 2368.6000    13.7344    37.3749      .0317     2.3418    61.2486     9.1225   -33.4978
 2368.7000    13.7348    37.9631      .0290     2.3276    62.4790     9.1525   -33.6127
 2368.8000    13.7354    37.1227      .0262     2.3168    62.9164     9.1808   -34.5664
 2368.9000    13.7361    35.8257      .0228     2.3088    62.6030     9.2057   -35.3970
 2369.0000    13.7378    34.5374      .0179     2.3043    61.5938     9.2269   -32.7569
 2369.1000    13.7412    34.0334      .0115     2.3030    60.5236     9.2449   -22.6855
 2369.2000    13.7466    34.1000      .0050     2.3038    59.6728     9.2643    -5.0019
 2369.3000    13.7545    34.6064     -.0017     2.3059    59.2697     9.2870    21.3833
 2369.4000    13.7638    35.1926     -.0093     2.3058    59.3836     9.3127    50.6004
 2369.5000    13.7730    35.3426     -.0183     2.3026    59.7777     9.3335    76.3154
 2369.6000    13.7811    34.9772     -.0283     2.2955    60.3079     9.3440    93.0338
 2369.7000    13.7870    34.0766     -.0361     2.2866    60.6779     9.3344    93.6451
 2369.8000    13.7910    33.1745     -.0403     2.2790    60.7469     9.3144    84.2602
 2369.9000    13.7932    32.5314     -.0408     2.2742    60.3996     9.2937    67.3328
 2370.0000    13.7925    32.3497     -.0373     2.2755    59.3911     9.2805    47.0945
 2370.1000    13.7904    32.4959     -.0316     2.2824    58.1097     9.2784    28.3867
 2370.2000    13.7872    32.6940     -.0234     2.2951    56.7114     9.2815    12.0849
 2370.3000    13.7840    32.7010     -.0113     2.3152    55.5708     9.2848     -.1480
