~VERSION INFORMATION
VERS.                                                 2.0:   CWLS Log ASCII Standard-VERSION 2.0
WRAP.                                                  NO:   One line per depth step
~Well Information Block
STRT.M                                           204.6000:   Top Depth
STOP.M                                          3156.9000:   Bottom Depth
STEP.M                                             .10000:   Depth Increment
NULL.                                            -999.250:   Null Value
FLD .                                             WILDCAT:   Field Name
WELL.                                             15/12-5:   NAME
WBN .                                             15/12-5:   WELLBORE
NATI.                                                 NOR:   COUNTRY
BHT1.DEGF                                            79.0:   BH TEMP 1
BHT2.DEGF                                            79.0:   BH TEMP 2
BHT3.DEGF                                            80.0:   BH TEMP 3
BS1 .IN                                            12.250:   BIT SIZE 1
CTRY.                                                 NOR:   COUNTRY
CBD1.M                                              217.0:   CSG 1 DRILL DEP
CBL1.M                                              217.0:   CSG 1 LOG DEP
CS1 .IN                                              30.0:   CSG 1 SIZE
COMP.                                             STATOIL:   OPERATOR
PDAT.                                                 MSL:   PERM DATUM
PROV.                                           NORTH SEA:   PROVINCE
COUN.                                           ROSS ISLE:   RIG NAME
SON .                                              N02422:   SOURCE OPERATOR NAME
SPUD.                                          1986/03/12:   SPUD DATE
LATI.                                        58 4 53.36 N:   SURF. LATITUDE
LONG.                                        1 54 53.24 E:   SURF. LONGITUDE
BTD1.                                            617.50 M:   TOTAL DEPTH 1
BTD2.                                            617.50 M:   TOTAL DEPTH 2
BTD3.                                            617.50 M:   TOTAL DEPTH 3
PBWE.                                             15/12-5:   PB WELL ID
APIN.                                             15/12-5:   PB WELLBORE ID
PBWS.                                                 all:   PB WELL NAME SET
~PARAMETER INFORMATION (log)
LNAM.                              CDL/CNL/GR  COMPOSITED:   NAME
LTYP.                                         DEPTH MATCH:   LOG TYPE
LSRV.                                             CAL/BGT:   LOG SERVICE
LSOU.                                             SPT/NPD:   LOG SOURCE
LVSN.                                                   1:   LOG VERSION
BHIS.                                                   R:   BRIEF HISTORY
FHIS.                                             RAW-LIS:   FULL HISTORY
LCNM.                                                  NL:   LOGGING CONTRACTOR
TOOL.                             CDL/CNL/GR (COMPOSITED):   TOOL STRING
~Curve Information Block
#MNEM.UNIT                                        API CODE    No Description
#=========                                        ========    == ===========
DEPT.M                                       00 001 00 00:     1  DEPTH
CAL.IN                                                   :     2  Caliper
CNC.%                                                    :     3  Neutron Porosity
CORR.G/CC                                                :     4  Density Correction
DEN.G/CC                                                 :     5  Bulk Density
GR.GAPI                                                  :     6  Gamma Ray
SPD.                                                     :     7  Cable Speed
TEN.LB                                                   :     8  Cable Tension
~ASCII
# ...
 2752.6000    12.3020    12.0184     -.0357     2.5499    34.2850     9.0651    86.0517
 2752.7000    12.3036    11.9792     -.0405     2.5472    34.1299     9.0293    88.6734
 2752.8000    12.3058    11.8630     -.0448     2.5476    34.1152     8.9964    90.7348
 2752.9000    12.3072    11.6655     -.0456     2.5523    34.2328     8.9736    91.8857
 2753.0000    12.3071    11.3696     -.0426     2.5581    34.3585     8.9683    92.6395
 2753.1000    12.3056    11.0211     -.0365     2.5653    34.4333     8.9737    93.2339
 2753.2000    12.3032    10.6581     -.0293     2.5707    34.3565     8.9883    93.7666
 2753.3000    12.3015    10.3890     -.0254     2.5714    34.1189     9.0125    94.0831
 2753.4000    12.3007    10.2411     -.0256     2.5680    33.7726     9.0391    94.0051
 2753.5000    12.3010    10.2299     -.0307     2.5598    33.3368     9.0656    93.2450
 2753.6000    12.3014    10.4146     -.0385     2.5496    32.8787     9.0845    91.8653
 2753.7000    12.3018    10.6886     -.0461     2.5406    32.4511     9.0917    90.4003
 2753.8000    12.3021    11.0071     -.0515     2.5343    32.0856     9.0867    89.2947
 2753.9000    12.3032    11.3260     -.0529     2.5328    31.8397     9.0707    89.4435
 2754.0000    12.3052    11.6000     -.0519     2.5335    31.6853     9.0568    90.6389
 2754.1000    12.3081    11.8015     -.0487     2.5375    31.6267     9.0511    92.8322
 2754.2000    12.3109    11.8399     -.0421     2.5455    31.7531     9.0604    95.8983
 2754.3000    12.3123    11.6798     -.0339     2.5546    32.0297     9.0809    99.0488
 2754.4000    12.3120    11.4266     -.0253     2.5630    32.4314     9.1024   102.0153
 2754.5000    12.3091    11.1578     -.0202     2.5666    32.8627     9.1185   104.3528
 2754.6000    12.3057    11.0017     -.0190     2.5662    33.2034     9.1231   106.1852
 2754.7000    12.3025    10.9777     -.0206     2.5632    33.4299     9.1222   107.6296
 2754.8000    12.3007    11.0997     -.0239     2.5604    33.5252     9.1196   108.7739
 2754.9000    12.3000    11.3563     -.0265     2.5594    33.5865     9.1250   109.8721
 2755.0000    12.3000    11.5787     -.0268     2.5599    33.6679     9.1349   111.0917
 2755.1000    12.3002    11.7086     -.0232     2.5638    33.7883     9.1455   112.6893
 2755.2000    12.3003    11.6565     -.0164     2.5700    33.9374     9.1491   114.7067
 2755.3000    12.3000    11.5288     -.0086     2.5763    34.0875     9.1444   116.7345
 2755.4000    12.2992    11.3864     -.0016     2.5806    34.1922     9.1326   118.3817
 2755.5000    12.2974    11.3173      .0027     2.5822    34.1611     9.1166   119.0792
 2755.6000    12.2947    11.3703      .0048     2.5826    34.0630     9.1033   119.1883
 2755.7000    12.2909    11.5387      .0043     2.5848    33.9445     9.0939   118.9102
 2755.8000    12.2857    11.8385     -.0006     2.5856    33.9519     9.0883   118.9192
 2755.9000    12.2800    12.1861     -.0079     2.5854    34.0324     9.0825   119.5875
 2756.0000    12.2743    12.4974     -.0164     2.5836    34.1062     9.0740   121.0010
 2756.1000    12.2694    12.7239     -.0240     2.5817    34.0126     9.0616   123.4216
 2756.2000    12.2657    12.8032     -.0281     2.5815    33.7941     9.0476   126.2442
 2756.3000    12.2632    12.7922     -.0280     2.5837    33.5040     9.0350   129.1899
 2756.4000    12.2620    12.7165     -.0228     2.5880    33.2313     9.0251   131.9001
 2756.5000    12.2617    12.6326     -.0164     2.5916    33.0978     9.0218   133.9862
 2756.6000    12.2616    12.5852     -.0117     2.5926    33.0851     9.0224   135.3567
 2756.7000    12.2620    12.5875     -.0115     2.5892    33.1520     9.0251   135.7390
 2756.8000    12.2630    12.6690     -.0150     2.5840    33.1842     9.0242   135.3293
 2756.9000    12.2642    12.7735     -.0183     2.5795    33.1604     9.0173   134.7462
 2757.0000    12.2649    12.8657     -.0187     2.5767    33.1273     9.0057   134.3934
 2757.1000    12.2641    12.9027     -.0146     2.5786    33.3567     8.9922   135.1574
 2757.2000    12.2621    12.8849     -.0100     2.5821    33.8595     8.9819   137.4136
 2757.3000    12.2601    12.8391     -.0075     2.5868    34.6142     8.9757   142.4177
 2757.4000    12.2662    12.7927     -.0126     2.5855    35.5783     8.9723   161.4847
 2757.5000    12.2831    12.7486     -.0214     2.5806    36.5162     8.9652   195.6431
 2757.6000    12.3127    12.6709     -.0320     2.5742    37.3312     8.9500   246.0376
 2757.7000    12.3572    12.5077     -.0391     2.5710    37.7582     8.9227   313.0922
 2757.8000    12.4053    12.1659     -.0402     2.5723    37.8017     8.8811   380.8044
 2757.9000    12.4501    11.7130     -.0362     2.5748    37.5128     8.8356   440.1302
 2758.0000    12.4825    11.1917     -.0291     2.5782    36.9222     8.7907   477.3106
 2758.1000    12.5014    10.6893     -.0245     2.5788    36.3025     8.7554   491.6092
 2758.2000    12.5112    10.2663     -.0238     2.5768    35.7964     8.7297   490.8811
 2758.3000    12.5145     9.9419     -.0271     2.5749    35.5343     8.7146   479.1639
 2758.4000    12.5156     9.7915     -.0316     2.5740    35.6106     8.7123   464.2753
 2758.5000    12.5160     9.7825     -.0347     2.5756    35.8753     8.7114   448.7774
 2758.6000    12.5153     9.9064     -.0351     2.5797    36.2359     8.7056   432.3184
 2758.7000    12.5134    10.1934     -.0322     2.5842    36.4406     8.6798   414.2899
 2758.8000    12.5114    10.5466     -.0288     2.5890    36.4008     8.6196   395.4537
 2758.9000    12.5097    10.8593     -.0257     2.5930    36.0835     8.5235   376.4746
 2759.0000    12.5097    11.0056     -.0238     2.5957    35.3251     8.3803   359.0173
 2759.1000    12.5109    10.9038     -.0219     2.5980    34.3957     8.1936   343.4137
 2759.2000    12.5131    10.6377     -.0200     2.6003    33.4411     7.9815   329.7781
 2759.3000    12.5161    10.2497     -.0189     2.6025    32.7564     7.7467   317.8548
 2759.4000    12.5190     9.8889     -.0199     2.6028    32.4063     7.5017   305.6653
 2759.5000    12.5214     9.6663     -.0232     2.6002    32.3216     7.2666   292.2175
 2759.6000    12.5224     9.6296     -.0291     2.5934    32.4148     7.0535   275.8176
 2759.7000    12.5217     9.8487     -.0350     2.5848    32.4404     6.9060   256.7175
 2759.8000    12.5202    10.1304     -.0389     2.5770    32.3366     6.8021   235.8888
 2759.9000    12.5187    10.4115     -.0394     2.5722    32.1293     6.7334   213.9565
 2760.0000    12.5183    10.5930     -.0357     2.5728    31.9341     6.6815   191.9269
 2760.1000    12.5188    10.6791     -.0296     2.5775    31.7900     6.6204   170.1269
 2760.2000    12.5199    10.7056     -.0217     2.5858    31.6728     6.5446   148.8297
 2760.3000    12.5202    10.7563     -.0136     2.5952    31.3924     6.4209   127.7449
 2760.4000    12.5195    10.9168     -.0075     2.6022    30.9250     6.1985   106.8109
 2760.5000    12.5180    11.1496     -.0045     2.6049    30.2980     5.8835    86.2686
 2760.6000    12.5161    11.3528     -.0087     2.5983    29.5596     5.5152    67.8917
 2760.7000    12.5149    11.3132     -.0173     2.5863    28.9212     5.2753    52.3193
 2760.8000    12.5149    11.0498     -.0295     2.5705    28.4775     5.2511    39.7270
 2760.9000    12.5164    10.6044     -.0432     2.5553    28.4999     5.5293    31.1175
 2761.0000    12.5189    10.1558     -.0529     2.5455    28.9221     6.1315    24.4537
 2761.1000    12.5218     9.8157     -.0570     2.5422    29.6568     6.8140    18.7984
 2761.2000    12.5246     9.6203     -.0537     2.5471    30.6348     7.4635    14.0370
 2761.3000    12.5266     9.6074     -.0462     2.5558    31.6084     7.8497    10.6877
 2761.4000    12.5275     9.6335     -.0385     2.5636    32.4274     8.0576     9.2337
 2761.5000    12.5270     9.6593     -.0336     2.5670    32.9491     8.1362    10.4662
 2761.6000    12.5255     9.6599     -.0340     2.5636    33.1873     8.1518    13.5397
