~VERSION INFORMATION
VERS.                                                 2.0:   CWLS Log ASCII Standard-VERSION 2.0
WRAP.                                                  NO:   One line per depth step
~Well Information Block
STRT.M                                           204.6000:   Top Depth
STOP.M                                          3156.9000:   Bottom Depth
STEP.M                                             .10000:   Depth Increment
NULL.                                            -999.250:   Null Value
FLD .                                             WILDCAT:   Field Name
WELL.                                             15/12-5:   NAME
WBN .                                             15/12-5:   WELLBORE
NATI.                                                 NOR:   COUNTRY
BHT1.DEGF                                            79.0:   BH TEMP 1
BHT2.DEGF                                            79.0:   BH TEMP 2
BHT3.DEGF                                            80.0:   BH TEMP 3
BS1 .IN                                            12.250:   BIT SIZE 1
CTRY.                                                 NOR:   COUNTRY
CBD1.M                                              217.0:   CSG 1 DRILL DEP
CBL1.M                                              217.0:   CSG 1 LOG DEP
CS1 .IN                                              30.0:   CSG 1 SIZE
COMP.                                             STATOIL:   OPERATOR
PDAT.                                                 MSL:   PERM DATUM
PROV.                                           NORTH SEA:   PROVINCE
COUN.                                           ROSS ISLE:   RIG NAME
SON .                                              N02422:   SOURCE OPERATOR NAME
SPUD.                                          1986/03/12:   SPUD DATE
LATI.                                        58 4 53.36 N:   SURF. LATITUDE
LONG.                                        1 54 53.24 E:   SURF. LONGITUDE
BTD1.                                            617.50 M:   TOTAL DEPTH 1
BTD2.                                            617.50 M:   TOTAL DEPTH 2
BTD3.                                            617.50 M:   TOTAL DEPTH 3
PBWE.                                             15/12-5:   PB WELL ID
APIN.                                             15/12-5:   PB WELLBORE ID
PBWS.                                                 all:   PB WELL NAME SET
~PARAMETER INFORMATION (log)
LNAM.                              CDL/CNL/GR  COMPOSITED:   NAME
LTYP.                                         DEPTH MATCH:   LOG TYPE
LSRV.                                             CAL/BGT:   LOG SERVICE
LSOU.                                             SPT/NPD:   LOG SOURCE
LVSN.                                                   1:   LOG VERSION
BHIS.                                                   R:   BRIEF HISTORY
FHIS.                                             RAW-LIS:   FULL HISTORY
LCNM.                                                  NL:   LOGGING CONTRACTOR
TOOL.                             CDL/CNL/GR (COMPOSITED):   TOOL STRING
~Curve Information Block
#MNEM.UNIT                                        API CODE    No Description
#=========                                        ========    == ===========
DEPT.M                                       00 001 00 00:     1  DEPTH
CAL.IN                                                   :     2  Caliper
CNC.%                                                    :     3  Neutron Porosity
CORR.G/CC                                                :     4  Density Correction
DEN.G/CC                                                 :     5  Bulk Density
GR.GAPI                                                  :     6  Gamma Ray
SPD.                                                     :     7  Cable Speed
TEN.LB                                                   :     8  Cable Tension
~ASCII
# ...
 1187.4000    20.0637  -999.2500      .0642     1.8482    55.4050  -999.2500    -8.9579
 1187.5000    20.8739  -999.2500      .0720     1.8350    55.4654  -999.2500    -7.9132
 1187.6000    21.6058  -999.2500      .0718     1.8046    55.6075  -999.2500    -5.7058
 1187.7000    22.1762  -999.2500      .0664     1.7705    55.5993  -999.2500    -3.2466
 1187.8000    22.5780  -999.2500      .0575     1.7362    55.3679  -999.2500    -1.0187
 1187.9000    22.7727  -999.2500      .0475     1.7083    54.7634  -999.2500      .1514
 1188.0000    22.8547  -999.2500      .0394     1.6900    53.7869  -999.2500      .1801
 1188.1000    22.8851  -999.2500      .0341     1.6808    52.5049  -999.2500     -.4796
 1188.2000    22.8870  -999.2500      .0335     1.6820    50.9280  -999.2500    -1.2952
 1188.3000    22.8800  -999.2500      .0381     1.6905    49.3021  -999.2500    -1.3886
 1188.4000    22.8712  -999.2500      .0455     1.7014    47.8724  -999.2500     -.8103
 1188.5000    22.8625  -999.2500      .0539     1.7114    46.8754  -999.2500      .2241
 1188.6000    22.8567  -999.2500      .0598     1.7150    46.6379  -999.2500      .6726
 1188.7000    22.8549  -999.2500      .0620     1.7118    46.8844  -999.2500      .0219
 1188.8000    22.8574  -999.2500      .0598     1.7021    47.5215  -999.2500    -1.8775
 1188.9000    22.8166  -999.2500      .0512     1.6837    48.3338  -999.2500    -4.6626
 1189.0000    22.6667  -999.2500      .0408     1.6635    49.0362  -999.2500    -6.9415
 1189.1000    22.3622  -999.2500      .0301     1.6435    49.5697  -999.2500    -8.3072
 1189.2000    21.7851  -999.2500      .0213     1.6280    49.7771  -999.2500    -8.2221
 1189.3000    21.0632  -999.2500      .0145     1.6168    49.7489  -999.2500    -7.6681
 1189.4000    20.2964  -999.2500      .0096     1.6097    49.5342  -999.2500    -7.1496
 1189.5000    19.6602  -999.2500      .0079     1.6099    49.2304  -999.2500    -7.3429
 1189.6000    19.2978  -999.2500      .0105     1.6185    49.1784  -999.2500    -8.3945
 1189.7000    19.1981  -999.2500      .0168     1.6362    49.5718  -999.2500    -9.9224
 1189.8000    19.3965  -999.2500      .0265     1.6654    50.7356  -999.2500   -11.4890
 1189.9000    19.7986  -999.2500      .0380     1.7028    52.6194  -999.2500   -12.5379
 1190.0000    20.2783  -999.2500      .0492     1.7412    54.7028  -999.2500   -13.1524
 1190.1000    20.7985  -999.2500      .0583     1.7752    56.6248  -999.2500   -13.3757
 1190.2000    21.3061  -999.2500      .0626     1.7969    57.8307  -999.2500   -13.2596
 1190.3000    21.7697  -999.2500      .0645     1.8100    58.5377  -999.2500   -12.9738
 1190.4000    22.1699  -999.2500      .0654     1.8162    58.9238  -999.2500   -12.6269
 1190.5000    22.4471  -999.2500      .0678     1.8202    59.4328  -999.2500   -12.5737
 1190.6000    22.6412  -999.2500      .0701     1.8258    60.1950  -999.2500   -12.6873
 1190.7000    22.7588  -999.2500      .0712     1.8344    61.1600  -999.2500   -12.8172
 1190.8000    22.7912  -999.2500      .0689     1.8437    62.1248  -999.2500   -12.5155
 1190.9000    22.7604  -999.2500      .0639     1.8514    62.8739  -999.2500   -11.6100
 1191.0000    22.6494  -999.2500      .0570     1.8572    63.4419  -999.2500   -10.1523
 1191.1000    22.3734  -999.2500      .0501     1.8624    63.9922  -999.2500    -8.2509
 1191.2000    21.9207  -999.2500      .0462     1.8694    64.7475  -999.2500    -6.4852
 1191.3000    21.3377  -999.2500      .0456     1.8788    65.6409  -999.2500    -5.0783
 1191.4000    20.6409  -999.2500      .0487     1.8888    66.4909  -999.2500    -4.1393
 1191.5000    19.8917  -999.2500      .0519     1.8991    66.8718  -999.2500    -3.4692
 1191.6000    19.1507  -999.2500      .0537     1.9084    66.7404  -999.2500    -2.9172
 1191.7000    18.4635  -999.2500      .0555     1.9168    66.0873  -999.2500    -2.5124
 1191.8000    17.9368  -999.2500      .0623     1.9252    65.0510  -999.2500    -2.0962
 1191.9000    17.5914  -999.2500      .0730     1.9340    64.0625  -999.2500    -1.4626
 1192.0000    17.4681  -999.2500      .0859     1.9426    63.3716  -999.2500     -.5736
 1192.1000    17.7366  -999.2500      .0947     1.9481    63.5941  -999.2500      .3457
 1192.2000    18.2044  -999.2500      .0979     1.9497    64.3347  -999.2500      .7380
 1192.3000    18.7951  -999.2500      .0958     1.9466    65.4358  -999.2500      .2598
 1192.4000    19.3464  -999.2500      .0914     1.9364    66.5835  -999.2500    -1.7664
 1192.5000    19.7588  -999.2500      .0899     1.9212    67.5014  -999.2500    -4.4841
 1192.6000    20.0343  -999.2500      .0926     1.9031    68.1457  -999.2500    -7.2493
 1192.7000    20.1517  -999.2500      .1003     1.8835    68.4572  -999.2500    -9.0670
 1192.8000    20.1678  -999.2500      .1080     1.8651    68.5592  -999.2500    -9.5726
 1192.9000    20.1213  -999.2500      .1123     1.8480    68.5378  -999.2500    -9.2016
 1193.0000    20.0109  -999.2500      .1111     1.8336    68.4413  -999.2500    -8.2589
 1193.1000    19.8352  -999.2500      .1057     1.8199    68.4694  -999.2500    -7.2719
 1193.2000    19.6174  -999.2500      .0994     1.8071    68.7199  -999.2500    -6.4883
 1193.3000    19.3703  -999.2500      .0934     1.7957    69.2747  -999.2500    -6.0986
 1193.4000    19.1595  -999.2500      .0907     1.7906    70.0375  -999.2500    -6.3082
 1193.5000    19.0278  -999.2500      .0917     1.7901    70.7222  -999.2500    -6.7027
 1193.6000    18.9961  -999.2500      .0970     1.7974    71.1850  -999.2500    -6.9692
 1193.7000    19.1043  -999.2500      .1082     1.8139    71.0337  -999.2500    -6.1085
 1193.8000    19.2471  -999.2500      .1202     1.8311    70.5181  -999.2500    -4.6200
 1193.9000    19.3816  -999.2500      .1305     1.8454    69.7793  -999.2500    -3.0263
 1194.0000    19.4214  -999.2500      .1337     1.8515    69.1871  -999.2500    -2.6389
 1194.1000    19.3854  -999.2500      .1322     1.8537    69.0180  -999.2500    -3.4719
 1194.2000    19.3180  -999.2500      .1290     1.8560    69.2516  -999.2500    -4.9734
 1194.3000    19.2970  -999.2500      .1272     1.8633    69.8975  -999.2500    -6.1551
 1194.4000    19.3805  -999.2500      .1267     1.8774    70.6161  -999.2500    -5.8900
 1194.5000    19.5491  -999.2500      .1260     1.8967    71.1062  -999.2500    -4.2618
 1194.6000    19.7916  -999.2500      .1238     1.9206    70.9917  -999.2500    -1.6064
 1194.7000    20.0619  -999.2500      .1212     1.9474    70.1293  -999.2500      .1308
 1194.8000    20.3322  -999.2500      .1202     1.9741    68.9700  -999.2500     -.0700
 1194.9000    20.5817  -999.2500      .1219     1.9999    67.8777  -999.2500    -2.8085
 1195.0000    20.7290  -999.2500      .1282     2.0195    67.4200  -999.2500    -7.3584
 1195.1000    20.7458  -999.2500      .1361     2.0312    67.3700  -999.2500   -11.4635
 1195.2000    20.6021  -999.2500      .1438     2.0332    67.5574  -999.2500   -14.3035
 1195.3000    20.2096  -999.2500      .1472     2.0218    67.6189  -999.2500   -14.3172
 1195.4000    19.7440  -999.2500      .1479     2.0070    67.5860  -999.2500   -12.9818
 1195.5000    19.2813  -999.2500      .1472     1.9926    67.6016  -999.2500   -10.8900
 1195.6000    19.0011  -999.2500      .1447     1.9823    68.0094  -999.2500    -9.4427
 1195.7000    18.9377  -999.2500      .1399     1.9752    68.7093  -999.2500    -9.4751
 1195.8000    19.0593  -999.2500      .1333     1.9695    69.5012  -999.2500   -10.7679
 1195.9000    19.3477  -999.2500      .1258     1.9632    69.9914  -999.2500   -12.7581
 1196.0000    19.6790  -999.2500      .1193     1.9537    69.7677  -999.2500   -14.2340
 1196.1000    19.9912  -999.2500      .1136     1.9407    68.9560  -999.2500   -14.9742
 1196.2000    20.2290  -999.2500      .1085     1.9239    67.7756  -999.2500   -14.7831
 1196.3000    20.3221  -999.2500      .1029     1.9064    66.9498  -999.2500   -13.6261
 1196.4000    20.2842  -999.2500      .0961     1.8914    66.8220  -999.2500   -11.8306
