~VERSION INFORMATION
VERS.                                                 2.0:   CWLS Log ASCII Standard-VERSION 2.0
WRAP.                                                  NO:   One line per depth step
~Well Information Block
STRT.M                                           435.1508:   Top Depth
STOP.M                                          4334.9144:   Bottom Depth
STEP.M                                             .15240:   Depth Increment
NULL.                                            -999.250:   Null Value
FLD .                                             WILDCAT:   Field Name
WELL.                                              15/5-2:   NAME
WBN .                                              15/5-2:   WELLBORE
NATI.                                                 NOR:   COUNTRY
CTRY.                                                 NOR:   COUNTRY
COMP.                                         NORSK HYDRO:   OPERATOR
PROV.                                           NORTH SEA:   PROVINCE
COUN.                                     TREASURE SEEKER:   RIG NAME
SPUD.                                          1978/08/16:   SPUD DATE
LATI.                                       58 38 36.70 N:   SURF. LATITUDE
LONG.                                        1 36 16.50 E:   SURF. LONGITUDE
PBWE.                                              15/5-2:   PB WELL ID
APIN.                                              15/5-2:   PB WELLBORE ID
PBWS.                                                 all:   PB WELL NAME SET
~PARAMETER INFORMATION (log)
LNAM.                              FDC/CNL/GR  COMPOSITED:   NAME
LTYP.                                         DEPTH MATCH:   LOG TYPE
LSRV.                                            DEN/NEUT:   LOG SERVICE
LSOU.                                             SPT/NPD:   LOG SOURCE
LVSN.                                                   1:   LOG VERSION
BHIS.                                                   R:   BRIEF HISTORY
FHIS.                                             RAW-LIS:   FULL HISTORY
LCNM.                                                 SCH:   LOGGING CONTRACTOR
TOOL.                             FDC/CNL/GR (COMPOSITED):   TOOL STRING
QCST.                                               final:   QC STATUS
~Curve Information Block
#MNEM.UNIT                                        API CODE    No Description
#=========                                        ========    == ===========
DEPT.M                                       00 001 00 00:     1  DEPTH
CALI.IN                                                  :     2  Caliper
DRHO.G/CC                                                :     3  Bulk density correction
GR.GAPI                                                  :     4  Gamma Ray
NPHI.%                                                   :     5  Neutron porosity
RHOB.G/CC                                                :     6  Bulk density
TENS.LB                                                  :     7  Cable Tension
~ASCII
# ...
 2511.4484    12.4806      .0089    29.1468    27.8992     2.2545   660.1139
 2511.6008    12.4697      .0086    29.4950    28.3424     2.2659   620.3130
 2511.7532    12.4227      .0183    29.8597    29.0931     2.2656   611.8925
 2511.9056    12.3814      .0202    30.7532    29.7159     2.2627   629.7509
 2512.0580    12.3850      .0165    31.1779    29.0681     2.2616   660.5145
 2512.2104    12.4119      .0082    31.2728    28.1885     2.2583   702.0874
 2512.3628    12.4518      .0042    31.6142    27.2626     2.2554   730.9506
 2512.5152    12.4748      .0054    32.1293    26.3389     2.2607   738.5465
 2512.6676    12.4625      .0118    32.0655    25.7425     2.2725   722.9547
 2512.8200    12.4411      .0119    31.8655    26.4734     2.2819   703.2075
 2512.9724    12.4163      .0082    31.7436    27.1594     2.2733   685.0232
 2513.1248    12.3892      .0089    31.2761    27.6161     2.2577   683.2389
 2513.2772    12.3793      .0056    30.7447    28.3092     2.2459   697.2290
 2513.4296    12.3792      .0006    30.8110    29.0683     2.2357   724.2191
 2513.5820    12.4387      .0012    31.8857    28.0494     2.2408   750.4821
 2513.7344    12.4697      .0054    33.3271    27.3334     2.2519   748.4584
 2513.8868    12.4657      .0070    32.9242    27.4927     2.2555   731.9257
 2514.0392    12.4442      .0074    32.6527    27.9057     2.2628   703.7134
 2514.1916    12.4197      .0106    33.6454    28.4155     2.2645   673.3025
 2514.3440    12.3981      .0157    35.8326    29.0812     2.2668   642.9794
 2514.4964    12.4014      .0189    38.2747    29.7243     2.2723   612.7124
 2514.6488    12.4274      .0138    40.8304    30.3473     2.2738   595.3083
 2514.8012    12.4533      .0102    43.6340    30.8750     2.2769   630.5856
 2514.9536    12.5434      .0122    45.9879    31.4338     2.2795   675.7758
 2515.1060    12.5963      .0170    47.0356    33.2679     2.2844   711.1816
 2515.2584    12.5961      .0231    46.7823    35.2622     2.3003   726.3844
 2515.4108    12.5327      .0291    45.6959    35.9099     2.3131   736.3971
 2515.5632    12.4963      .0253    45.0049    33.4144     2.3112   746.0222
 2515.7156    12.5181      .0209    45.5648    33.4684     2.3118   739.8870
 2515.8680    12.5552      .0283    47.2719    35.2567     2.3292   732.6302
 2516.0204    12.6113      .0288    46.6957    37.0468     2.3191   678.1871
 2516.1728    12.6350      .0247    41.7734    37.0272     2.3001   659.5762
 2516.3252    12.6088      .0142    34.4806    34.4873     2.2745   657.5773
 2516.4776    12.5551      .0023    29.7117    31.9509     2.2473   622.8037
 2516.6300    12.4325      .0001    29.5920    29.5836     2.2331   588.8110
 2516.7824    12.3981      .0106    29.9429    28.8448     2.2339   582.6720
 2516.9348    12.4081      .0249    29.3903    29.3624     2.2520   615.5691
 2517.0872    12.4102      .0164    30.0765    29.8798     2.2471   676.4536
 2517.2396    12.4037      .0009    29.6127    30.0949     2.2353   691.5038
 2517.3920    12.4644     -.0092    28.6250    29.0668     2.2350   708.9648
 2517.5444    12.5149     -.0064    28.5525    27.7164     2.2424   717.7844
 2517.6968    12.5446     -.0002    28.6273    26.9267     2.2507   722.8762
 2517.8492    12.5095      .0040    28.6262    27.2695     2.2522   729.6300
 2518.0016    12.4196      .0105    28.8005    27.9520     2.2580   718.8397
 2518.1540    12.3642      .0156    29.2614    28.9726     2.2507   685.7648
 2518.3064    12.3427      .0129    29.7580    30.1021     2.2433   658.4044
 2518.4588    12.3342      .0024    30.2917    31.6092     2.2315   652.3417
 2518.6112    12.3910     -.0072    30.5880    30.7168     2.2346   643.9869
 2518.7636    12.4980     -.0054    30.0037    29.3246     2.2384   628.0045
 2518.9160    12.5128     -.0118    28.7533    28.4215     2.2351   605.3838
 2519.0684    12.4745     -.0055    27.8248    28.7518     2.2380   593.1138
 2519.2208    12.4329      .0003    29.0289    29.4424     2.2463   604.7070
 2519.3732    12.4327      .0095    31.3218    29.2262     2.2607   629.0002
 2519.5256    12.4326      .0280    34.1651    29.6810     2.2902   650.4236
 2519.6780    12.4324      .0314    37.8653    31.2957     2.3184   671.6938
 2519.8304    12.4560      .0215    40.1914    32.9388     2.3420   692.9640
 2519.9828    12.4918      .0232    39.5999    34.3192     2.3568   715.2863
 2520.1352    12.4866      .0151    37.4159    32.6927     2.3443   738.6586
 2520.2876    12.4561      .0037    35.0047    31.0726     2.3057   749.7675
 2520.4400    12.4307      .0055    32.5939    29.6825     2.2875   727.9468
 2520.5924    12.4028      .0150    30.7257    28.6418     2.2699   690.2371
 2520.7448    12.3669      .0065    30.1860    28.2460     2.2504   647.9675
 2520.8972    12.3593     -.0057    29.9435    28.4702     2.2346   626.3087
 2521.0496    12.4046     -.0124    30.2904    27.5963     2.2341   604.6504
 2521.2020    12.5267     -.0049    31.9779    26.5392     2.2483   580.9449
 2521.3544    12.5700      .0042    33.6346    26.4711     2.2641   552.8955
 2521.5068    12.5095      .0053    34.0860    26.9518     2.2700   558.0114
 2521.6592    12.4467      .0042    33.8605    26.3233     2.2608   592.9226
 2521.8116    12.4303      .0127    34.6557    25.8807     2.2663   641.9640
 2521.9640    12.4177      .0131    35.9384    26.1888     2.2802   675.5267
 2522.1164    12.3985      .0042    36.0258    26.8211     2.2772   722.0181
 2522.2688    12.4015      .0024    38.2870    27.3706     2.2989   753.5879
 2522.4212    12.5099      .0101    41.8760    27.5644     2.3274   769.2803
 2522.5736    12.5971      .0088    42.5921    28.1110     2.3492   756.6946
 2522.7260    12.6283      .0092    41.7695    28.0021     2.3647   713.3934
 2522.8784    12.5490      .0154    41.5009    27.9990     2.3585   670.0217
 2523.0308    12.4871      .0160    42.3603    29.2721     2.3369   624.1328
 2523.1832    12.4487      .0097    42.3899    30.5159     2.3196   577.4879
 2523.3356    12.4486      .0018    39.6930    29.6417     2.2987   541.0577
 2523.4880    12.4633      .0012    36.4970    28.0130     2.2710   520.3114
 2523.6404    12.5240      .0215    34.1292    26.6629     2.2763   527.0074
 2523.7928    12.5768      .0397    32.0382    27.1943     2.2980   591.5840
 2523.9452    12.5662      .0272    31.3341    27.8360     2.2847   668.3431
 2524.0976    12.5012      .0106    29.4514    27.4543     2.2654   708.3762
 2524.2500    12.4633      .0022    28.9848    26.8893     2.2537   734.7112
 2524.4024    12.4427      .0019    29.5888    27.0454     2.2452   740.1990
 2524.5548    12.4290      .0021    29.4660    27.0833     2.2463   750.3164
 2524.7072    12.4006     -.0033    28.6661    26.8631     2.2552   725.5106
 2524.8596    12.4572     -.0022    29.6962    26.3339     2.2646   678.2980
 2525.0120    12.6113      .0057    30.6248    25.7487     2.2730   647.7086
 2525.1644    12.6399      .0109    30.8722    25.9641     2.2677   620.8107
 2525.3168    12.5960      .0091    30.1916    26.5090     2.2623   569.9358
 2525.4692    12.5104      .0059    29.3157    26.9944     2.2598   508.8618
 2525.6216    12.4861      .0025    29.0688    27.0538     2.2629   454.5433
 2525.7740    12.4661     -.0006    28.6194    27.2755     2.2649   445.6999
 2525.9264    12.4658     -.0014    28.6734    27.2269     2.2646   529.9399
 2526.0788    12.5117      .0030    29.4729    26.8256     2.2765   645.8737
 2526.2312    12.6254      .0103    29.8990    26.0753     2.2874   688.1545
 2526.3836    12.6954      .0175    29.6209    25.3221     2.3035   740.5012
 2526.5360    12.6687      .0146    29.5852    24.8817     2.3037   741.8534
 2526.6884    12.5423      .0174    29.5452    25.1719     2.3039   741.9709
 2526.8408    12.3886      .0370    31.2858    25.3581     2.3333   709.4192
 2526.9932    12.3453      .0378    32.3187    25.1142     2.3502   657.6377
 2527.1456    12.3452      .0198    32.3238    24.5355     2.3387   592.3932
