~VERSION INFORMATION
VERS.                                                 2.0:   CWLS Log ASCII Standard-VERSION 2.0
WRAP.                                                  NO:   One line per depth step
~Well Information Block
STRT.M                                           435.1508:   Top Depth
STOP.M                                          4334.9144:   Bottom Depth
STEP.M                                             .15240:   Depth Increment
NULL.                                            -999.250:   Null Value
FLD .                                             WILDCAT:   Field Name
WELL.                                              15/5-2:   NAME
WBN .                                              15/5-2:   WELLBORE
NATI.                                                 NOR:   COUNTRY
CTRY.                                                 NOR:   COUNTRY
COMP.                                         NORSK HYDRO:   OPERATOR
PROV.                                           NORTH SEA:   PROVINCE
COUN.                                     TREASURE SEEKER:   RIG NAME
SPUD.                                          1978/08/16:   SPUD DATE
LATI.                                       58 38 36.70 N:   SURF. LATITUDE
LONG.                                        1 36 16.50 E:   SURF. LONGITUDE
PBWE.                                              15/5-2:   PB WELL ID
APIN.                                              15/5-2:   PB WELLBORE ID
PBWS.                                                 all:   PB WELL NAME SET
~PARAMETER INFORMATION (log)
LNAM.                              FDC/CNL/GR  COMPOSITED:   NAME
LTYP.                                         DEPTH MATCH:   LOG TYPE
LSRV.                                            DEN/NEUT:   LOG SERVICE
LSOU.                                             SPT/NPD:   LOG SOURCE
LVSN.                                                   1:   LOG VERSION
BHIS.                                                   R:   BRIEF HISTORY
FHIS.                                             RAW-LIS:   FULL HISTORY
LCNM.                                                 SCH:   LOGGING CONTRACTOR
TOOL.                             FDC/CNL/GR (COMPOSITED):   TOOL STRING
QCST.                                               final:   QC STATUS
~Curve Information Block
#MNEM.UNIT                                        API CODE    No Description
#=========                                        ========    == ===========
DEPT.M                                       00 001 00 00:     1  DEPTH
CALI.IN                                                  :     2  Caliper
DRHO.G/CC                                                :     3  Bulk density correction
GR.GAPI                                                  :     4  Gamma Ray
NPHI.%                                                   :     5  Neutron porosity
RHOB.G/CC                                                :     6  Bulk density
TENS.LB                                                  :     7  Cable Tension
~ASCII
  435.1508  -999.2500  -999.2500  -999.2500  -999.2500  -999.2500   610.3984
  435.3032  -999.2500  -999.2500  -999.2500  -999.2500  -999.2500   655.0190
  435.4556  -999.2500      .0002  -999.2500  -999.2500     2.5023   630.6146
  435.6080  -999.2500      .0003  -999.2500  -999.2500     2.5023   626.1531
  435.7604  -999.2500      .0003  -999.2500  -999.2500     2.5023   644.1993
  435.9128  -999.2500      .0004  -999.2500  -999.2500     2.5023   677.6770
  436.0652  -999.2500      .0004  -999.2500  -999.2500     2.5023   651.9738
  436.2176  -999.2500      .0004  -999.2500  -999.2500     2.5023   612.5920
  436.3700  -999.2500      .0005  -999.2500  -999.2500     2.5023   617.8296
  436.5224  -999.2500      .0005  -999.2500  -999.2500     2.5023   635.5320
  436.6748  -999.2500      .0006  -999.2500  -999.2500     2.5024   585.5454
  436.8272  -999.2500      .0006  -999.2500  -999.2500     2.5024   621.1288
  436.9796  -999.2500      .0007  -999.2500  -999.2500     2.5024   617.2537
  437.1320  -999.2500      .0007  -999.2500  -999.2500     2.5024   654.0062
  437.2844  -999.2500      .0007  -999.2500  -999.2500     2.5024   618.2867
  437.4368  -999.2500      .0008  -999.2500  -999.2500     2.5024   648.9766
  437.5892  -999.2500      .0008  -999.2500  -999.2500     2.5024   659.8641
  437.7416  -999.2500      .0009  -999.2500  -999.2500     2.5024   622.2761
  437.8940  -999.2500      .0009  -999.2500  -999.2500     2.5024   650.6636
  438.0464  -999.2500      .0009  -999.2500  -999.2500     2.5024   637.6731
  438.1988  -999.2500      .0010  -999.2500  -999.2500     2.5024   569.9047
  438.3512  -999.2500      .0010  -999.2500  -999.2500     2.5025   586.5525
  438.5036  -999.2500      .0011  -999.2500  -999.2500     2.5025   627.9507
  438.6560  -999.2500      .0011  -999.2500  -999.2500     2.5025   601.8663
  438.8084  -999.2500     -.0029  -999.2500  -999.2500     2.5017   642.1050
  438.9608  -999.2500     -.0686  -999.2500  -999.2500     2.4603   639.5542
  439.1132  -999.2500     -.2723    33.5021  -999.2500     2.3182   597.8087
  439.2656  -999.2500     -.2722    32.8302  -999.2500     2.3349   603.4513
  439.4180    17.7121     -.2721    32.9972  -999.2500     2.3617   620.7375
  439.5704    17.8052     -.2720    33.8643  -999.2500     2.3858   629.8202
  439.7228    17.8423     -.2719    34.3063  -999.2500     2.3964   645.5934
  439.8752    18.0799     -.2718    35.4437  -999.2500     2.3930   678.8724
  440.0276    18.4506     -.2717    37.7357  -999.2500     2.3869   680.2729
  440.1800    18.6357     -.2716    38.0999  -999.2500     2.3801   620.4863
  440.3324    18.6248     -.2715    36.7357  -999.2500     2.3781   571.8253
  440.4848    18.5953     -.2715    36.2625  -999.2500     2.3722   589.3445
  440.6372    18.5688     -.2714    35.5134  -999.2500     2.3856   616.9530
  440.7896    18.5533     -.2713    34.7884  -999.2500     2.4220   614.9133
  440.9420    18.6115     -.2712    35.3940  -999.2500     2.4531   650.4369
  441.0944    18.8182     -.2711    35.8045  -999.2500     2.4630   706.3080
  441.2468    18.8426     -.2710    34.1942  -999.2500     2.4987   656.7762
  441.3992    17.7472     -.2709    34.7803  -999.2500     2.5451   656.3361
  441.5516    17.5835     -.2708    37.0105  -999.2500     2.5747   670.0918
  441.7040    17.6219     -.2707    38.7113  -999.2500     2.5555   609.3781
  441.8564    17.6491     -.2706    38.5132  -999.2500     2.4929   629.5443
  442.0088    17.7003     -.2705    37.5190  -999.2500     2.4358   639.7023
  442.1612    17.7316     -.2704    36.8590  -999.2500     2.3769   628.3051
  442.3136    17.6202     -.2704    35.6750  -999.2500     2.3542   649.1104
  442.4660    17.7439     -.2703    34.5248  -999.2500     2.3446   718.8290
  442.6184    18.5215     -.2702    33.5968  -999.2500     2.3238   669.5239
  442.7708    18.4992     -.2701    32.6987  -999.2500     2.3220   660.3678
  442.9232    18.4768     -.2700    32.1805  -999.2500     2.3367   672.3595
  443.0756    18.5352     -.2699    31.7936  -999.2500     2.3433   650.2446
  443.2280    18.5388     -.2699    32.1070  -999.2500     2.3432   623.7650
  443.3804    18.4977     -.2699    33.0417  -999.2500     2.3419   659.2296
  443.5328    18.4547     -.2700    31.1614  -999.2500     2.3462   649.9733
  443.6852    18.4548     -.2700    29.5500  -999.2500     2.3513   616.8378
  443.8376    18.4682     -.2700    30.5083  -999.2500     2.3556   622.5737
  443.9900    18.4954     -.2701    31.0815  -999.2500     2.3546   678.4015
  444.1424    18.4900     -.2701    30.3517  -999.2500     2.3495   659.7173
  444.2948    18.4663     -.2701    30.9247  -999.2500     2.3500   715.1620
  444.4472    18.4276     -.2702    32.1958  -999.2500     2.3561   677.5983
  444.5996    18.4064     -.2702    33.7681  -999.2500     2.3468   660.8568
  444.7520    18.4571     -.2702    35.2813  -999.2500     2.3600   674.9742
  444.9044    18.5631     -.2702    34.4803  -999.2500     2.3652   627.9354
  445.0568    18.5637     -.2701    32.6265  -999.2500     2.3526   607.8889
  445.2092    18.5420     -.2701    31.2906  -999.2500     2.3532   648.4366
  445.3616    18.5249     -.2700    31.2414  -999.2500     2.3615   661.3932
  445.5140    18.5254     -.2699    34.1646  -999.2500     2.3645   671.6099
  445.6664    18.4860     -.2698    35.7586  -999.2500     2.3833   683.3313
  445.8188    18.4766     -.2697    35.2265  -999.2500     2.3927   686.7240
  445.9712    18.4678     -.2696    33.6305  -999.2500     2.4065   648.9031
  446.1236    18.5198     -.2696    34.0487  -999.2500     2.4090   679.3323
  446.2760    18.5507     -.2695    34.9144  -999.2500     2.3890   645.0162
  446.4284    18.5524     -.2694    34.7287  -999.2500     2.3842   624.8286
  446.5808    18.5087     -.2693    35.2924  -999.2500     2.3989   674.4427
  446.7332    18.4901     -.2692    36.0851  -999.2500     2.4018   668.6537
  446.8856    18.5056     -.2691    35.4442  -999.2500     2.4072   670.7977
  447.0380    18.4929     -.2691    34.4241  -999.2500     2.4067   762.9303
  447.1904    18.4974     -.2690    34.2614  -999.2500     2.4006   709.0022
  447.3428    18.5019     -.2689    33.9777  -999.2500     2.3986   711.2921
  447.4952    18.5064     -.2688    34.0764  -999.2500     2.4046   663.0065
  447.6476    18.5109     -.2687    34.1336  -999.2500     2.4102   663.3380
  447.8000    18.5154     -.2686    33.5211  -999.2500     2.4154   695.1766
  447.9524    18.5199     -.2686    32.8485  -999.2500     2.4041   703.7485
  448.1048    18.5244     -.2685    32.8314  -999.2500     2.4034   713.8945
  448.2572    18.5289     -.2684    33.4839  -999.2500     2.3945   707.5978
  448.4096    18.5334     -.2683    34.4073  -999.2500     2.4005   705.2988
  448.5620    18.5207     -.2682    34.4295  -999.2500     2.3982   662.9900
  448.7144    18.4943     -.2681    34.4355  -999.2500     2.3953   698.9564
  448.8668    18.4679     -.2680    35.1729  -999.2500     2.4037   690.7734
  449.0192    18.4414     -.2680    36.0588  -999.2500     2.4001   702.8436
  449.1716    18.4150     -.2679    34.7903  -999.2500     2.3856   712.3960
  449.3240    18.4164     -.2678    33.9815  -999.2500     2.3802   723.5125
  449.4764    18.4611     -.2677    32.6185  -999.2500     2.4072   718.0408
  449.6288    18.5058     -.2676    33.1129  -999.2500     2.4396   702.3009
  449.7812    18.5412     -.2675    34.1818  -999.2500     2.4591   703.6709
  449.9336    18.5476     -.2675    33.9080  -999.2500     2.4648   716.7057
  450.0860    18.5539     -.2674    34.1890  -999.2500     2.4616   712.1516
  450.2384    18.5603     -.2673    35.2999  -999.2500     2.4626   706.3667
  450.3908    18.5666     -.2672    35.9092  -999.2500     2.4503   677.2246
  450.5432    18.5730     -.2671    35.2009  -999.2500     2.4380   685.5251
  450.6956    18.5794     -.2670    33.9203  -999.2500     2.4324   694.1443
  450.8480    18.5811     -.2670    34.2339  -999.2500     2.4182   698.4094
