~VERSION INFORMATION
VERS.                                                 2.0:   CWLS Log ASCII Standard-VERSION 2.0
WRAP.                                                  NO:   One line per depth step
~Well Information Block
STRT.M                                           435.1508:   Top Depth
STOP.M                                          4334.9144:   Bottom Depth
STEP.M                                             .15240:   Depth Increment
NULL.                                            -999.250:   Null Value
FLD .                                             WILDCAT:   Field Name
WELL.                                              15/5-2:   NAME
WBN .                                              15/5-2:   WELLBORE
NATI.                                                 NOR:   COUNTRY
CTRY.                                                 NOR:   COUNTRY
COMP.                                         NORSK HYDRO:   OPERATOR
PROV.                                           NORTH SEA:   PROVINCE
COUN.                                     TREASURE SEEKER:   RIG NAME
SPUD.                                          1978/08/16:   SPUD DATE
LATI.                                       58 38 36.70 N:   SURF. LATITUDE
LONG.                                        1 36 16.50 E:   SURF. LONGITUDE
PBWE.                                              15/5-2:   PB WELL ID
APIN.                                              15/5-2:   PB WELLBORE ID
PBWS.                                                 all:   PB WELL NAME SET
~PARAMETER INFORMATION (log)
LNAM.                              FDC/CNL/GR  COMPOSITED:   NAME
LTYP.                                         DEPTH MATCH:   LOG TYPE
LSRV.                                            DEN/NEUT:   LOG SERVICE
LSOU.                                             SPT/NPD:   LOG SOURCE
LVSN.                                                   1:   LOG VERSION
BHIS.                                                   R:   BRIEF HISTORY
FHIS.                                             RAW-LIS:   FULL HISTORY
LCNM.                                                 SCH:   LOGGING CONTRACTOR
TOOL.                             FDC/CNL/GR (COMPOSITED):   TOOL STRING
QCST.                                               final:   QC STATUS
~Curve Information Block
#MNEM.UNIT                                        API CODE    No Description
#=========                                        ========    == ===========
DEPT.M                                       00 001 00 00:     1  DEPTH
CALI.IN                                                  :     2  Caliper
DRHO.G/CC                                                :     3  Bulk density correction
GR.GAPI                                                  :     4  Gamma Ray
NPHI.%                                                   :     5  Neutron porosity
RHOB.G/CC                                                :     6  Bulk density
TENS.LB                                                  :     7  Cable Tension
~ASCII
# ...
 3795.2660    11.2915     -.0198   124.0751    39.6771     2.4049  -999.2500
 3795.4184    11.2304     -.0179   126.0698    39.5538     2.4176  -999.2500
 3795.5708    11.3099     -.0199   129.6845    39.3694     2.4071  -999.2500
 3795.7232    11.4656     -.0183   132.3478    38.7089     2.3951  -999.2500
 3795.8756    11.4873     -.0126   130.1607    39.1731     2.4182  -999.2500
 3796.0280    11.3682     -.0048   127.6601    40.1670     2.4308  -999.2500
 3796.1804    11.6387     -.0098   128.6860    40.3931     2.4096  -999.2500
 3796.3328    11.5752     -.0143   129.7150    39.5535     2.4070  -999.2500
 3796.4852    11.5953     -.0114   126.5990    38.8085     2.4051  -999.2500
 3796.6376    11.8416     -.0248   123.9914    39.0436     2.3850  -999.2500
 3796.7900    11.7614     -.0441   122.7399    39.2308     2.3670  -999.2500
 3796.9424    12.0000     -.0541   120.7554    39.7668     2.3572  -999.2500
 3797.0948    12.0359     -.0592   115.5065    41.1082     2.3342  -999.2500
 3797.2472    12.0404     -.0612   108.9203    41.6157     2.3124  -999.2500
 3797.3996    12.0086     -.0544   104.3256    40.4220     2.3064  -999.2500
 3797.5520    12.0308     -.0557   105.0737    40.0568     2.3110  -999.2500
 3797.7044    11.7088     -.0560   109.8301    40.4241     2.3469  -999.2500
 3797.8568    11.6181     -.0413   114.3860    40.8835     2.4122  -999.2500
 3798.0092    12.0464     -.0197   116.3977    40.5618     2.4627  -999.2500
 3798.1616    11.7870     -.0041   115.8992    39.4515     2.5124  -999.2500
 3798.3140    11.6281     -.0031   115.0724    40.0225     2.5141  -999.2500
 3798.4664    11.7457     -.0099   115.5028    41.4198     2.5012  -999.2500
 3798.6188    12.0774     -.0122   117.7906    41.7695     2.4857  -999.2500
 3798.7712    11.6302     -.0084   119.6082    41.5933     2.4868  -999.2500
 3798.9236    11.6217     -.0100   119.4645    41.3068     2.4593  -999.2500
 3799.0760    12.0052     -.0109   116.9371    40.9077     2.4220  -999.2500
 3799.2284    12.0781     -.0170   113.3578    40.3155     2.4074  -999.2500
 3799.3808    12.0722     -.0274   109.2609    40.8221     2.3822  -999.2500
 3799.5332    12.1483     -.0298   105.1292    40.4035     2.3883  -999.2500
 3799.6856    12.2499     -.0269   100.8641    39.6241     2.4027  -999.2500
 3799.8380    12.1369     -.0283    95.2129    39.7802     2.3858  -999.2500
 3799.9904    12.1572     -.0382    92.6924    40.8447     2.3616  -999.2500
 3800.1428    12.3150     -.0407    93.4900    41.9650     2.3510  -999.2500
 3800.2952    12.5558     -.0464    95.3046    42.4295     2.3445  -999.2500
 3800.4476    12.4126     -.0530    96.1694    41.3172     2.3465  -999.2500
 3800.6000    12.4149     -.0495    98.1045    40.4929     2.3598  -999.2500
 3800.7524    12.6812     -.0398   101.1727    39.9792     2.3914  -999.2500
 3800.9048    12.7797     -.0320   101.8887    39.9599     2.4093  -999.2500
 3801.0572    12.6340     -.0373   100.4977    40.1324     2.4053  -999.2500
 3801.2096    12.2681     -.0412   101.6037    39.3074     2.3821  -999.2500
 3801.3620    12.4088     -.0411   105.0376    39.6708     2.3747  -999.2500
 3801.5144    12.3722     -.0462   106.8837    39.8252     2.3429  -999.2500
 3801.6668    12.1611     -.0457   110.8854    39.4256     2.3337  -999.2500
 3801.8192    12.3261     -.0392   113.5753    39.2905     2.3557  -999.2500
 3801.9716    12.6935     -.0374   110.5282    39.8244     2.3592  -999.2500
 3802.1240    12.2380     -.0434   104.4975    41.7263     2.3511  -999.2500
 3802.2764    12.5372     -.0532    99.4796    44.0108     2.3347  -999.2500
 3802.4288    13.1197     -.0577    98.5308    46.9400     2.3341  -999.2500
 3802.5812    13.0781     -.0602    99.8969    46.3953     2.3238  -999.2500
 3802.7336    13.0950     -.0617   100.3048    45.9783     2.3185  -999.2500
 3802.8860    13.6129     -.0609    99.4736    46.1051     2.3057  -999.2500
 3803.0384    13.5961     -.0563    97.2118    45.6532     2.3107  -999.2500
 3803.1908    14.1190     -.0483    93.2080    44.8476     2.3396  -999.2500
 3803.3432    14.5074     -.0453    90.4225    44.2880     2.3628  -999.2500
 3803.4956    14.2683     -.0465    90.6241    43.1045     2.3662  -999.2500
 3803.6480    14.0163     -.0404    91.9655    41.9199     2.3703  -999.2500
 3803.8004    13.7218     -.0301    92.9838    41.2045     2.3894  -999.2500
 3803.9528    13.3874     -.0195    92.2104    41.2147     2.4047  -999.2500
 3804.1052    13.5288     -.0173    91.6458    41.2277     2.3954  -999.2500
 3804.2576    13.4269     -.0155    93.4781    40.7885     2.3921  -999.2500
 3804.4100    13.5986     -.0180    95.3162    40.0404     2.3994  -999.2500
 3804.5624    14.1088     -.0179    94.1728    39.9718     2.4177  -999.2500
 3804.7148    13.7181     -.0212    93.6310    41.6511     2.4235  -999.2500
 3804.8672    13.3639     -.0229    94.2774    42.3451     2.4233  -999.2500
 3805.0196    13.5529     -.0233    96.1174    41.9595     2.4161  -999.2500
 3805.1720    13.4389     -.0324    98.8013    42.7365     2.3947  -999.2500
 3805.3244    13.5336     -.0420   102.0818    43.8027     2.3429  -999.2500
 3805.4768    13.2483     -.0397   106.2105    43.0374     2.3242  -999.2500
 3805.6292    13.1893     -.0334   109.8764    42.3902     2.3294  -999.2500
 3805.7816    12.9093     -.0347   112.3174    41.6489     2.3430  -999.2500
 3805.9340    12.3075     -.0460   113.7643    41.9654     2.3351  -999.2500
 3806.0864    12.5400     -.0556   116.2023    42.0502     2.3210  -999.2500
 3806.2388    12.9238     -.0511   118.4221    43.2075     2.3389  -999.2500
 3806.3912    12.4453     -.0395   119.9025    43.8540     2.3573  -999.2500
 3806.5436    12.3303     -.0296   122.1848    43.8487     2.3749  -999.2500
 3806.6960    12.5024     -.0228   124.0133    42.9514     2.3946  -999.2500
 3806.8484    12.4085     -.0172   124.4840    43.3812     2.4089  -999.2500
 3807.0008    12.5526     -.0159   124.1782    44.0033     2.4063  -999.2500
 3807.1532    12.3318     -.0169   121.8076    43.8137     2.4225  -999.2500
 3807.3056    12.3424     -.0207   118.5817    43.2012     2.4359  -999.2500
 3807.4580    12.3910     -.0153   118.8142    42.9846     2.4473  -999.2500
 3807.6104    12.3751     -.0169   121.8838    42.8695     2.4460  -999.2500
 3807.7628    12.3616     -.0175   121.0914    42.8827     2.4249  -999.2500
 3807.9152    12.3701     -.0215   117.3157    43.0000     2.4033  -999.2500
 3808.0676    12.4964     -.0226   115.2265    42.0199     2.4029  -999.2500
 3808.2200    12.9197     -.0110   115.5488    41.5096     2.4240  -999.2500
 3808.3724    13.1348     -.0149   116.2464    41.0699     2.4156  -999.2500
 3808.5248    13.3094     -.0239   115.9601    41.4487     2.3888  -999.2500
 3808.6772    13.5059     -.0227   117.1019    40.9079     2.3646  -999.2500
 3808.8296    13.3631     -.0277   119.8160    39.7146     2.3555  -999.2500
 3808.9820    12.7140     -.0290   118.1199    39.0823     2.3719  -999.2500
 3809.1344    12.3197     -.0241   115.9892    39.4934     2.3848  -999.2500
 3809.2868    12.6427     -.0175   115.9102    40.6405     2.4092  -999.2500
 3809.4392    12.8987     -.0082   115.5729    41.1068     2.4304  -999.2500
 3809.5916    13.0708      .0049   115.2207    40.6300     2.4595  -999.2500
 3809.7440    13.1171      .0112   115.6555    40.6536     2.4630  -999.2500
 3809.8964    13.1594      .0139   117.4840    41.6129     2.4575  -999.2500
 3810.0488    13.1113      .0170   120.1580    41.0864     2.4546  -999.2500
 3810.2012    12.9700      .0053   115.0621    40.9289     2.4373  -999.2500
 3810.3536    12.7729     -.0095   105.6290    42.6954     2.3912  -999.2500
 3810.5060    12.8616     -.0235    98.8992    43.5535     2.3533  -999.2500
 3810.6584    13.5175     -.0222    99.2239    43.8349     2.3593  -999.2500
 3810.8108    13.6607     -.0142   103.4247    43.5596     2.3745  -999.2500
 3810.9632    13.6395     -.0081   106.9977    43.0716     2.3831  -999.2500
