~VERSION INFORMATION
VERS.                                                 2.0:   CWLS Log ASCII Standard-VERSION 2.0
WRAP.                                                  NO:   One line per depth step
~Well Information Block
STRT.M                                           435.1508:   Top Depth
STOP.M                                          4334.9144:   Bottom Depth
STEP.M                                             .15240:   Depth Increment
NULL.                                            -999.250:   Null Value
FLD .                                             WILDCAT:   Field Name
WELL.                                              15/5-2:   NAME
WBN .                                              15/5-2:   WELLBORE
NATI.                                                 NOR:   COUNTRY
CTRY.                                                 NOR:   COUNTRY
COMP.                                         NORSK HYDRO:   OPERATOR
PROV.                                           NORTH SEA:   PROVINCE
COUN.                                     TREASURE SEEKER:   RIG NAME
SPUD.                                          1978/08/16:   SPUD DATE
LATI.                                       58 38 36.70 N:   SURF. LATITUDE
LONG.                                        1 36 16.50 E:   SURF. LONGITUDE
PBWE.                                              15/5-2:   PB WELL ID
APIN.                                              15/5-2:   PB WELLBORE ID
PBWS.                                                 all:   PB WELL NAME SET
~PARAMETER INFORMATION (log)
LNAM.                              FDC/CNL/GR  COMPOSITED:   NAME
LTYP.                                         DEPTH MATCH:   LOG TYPE
LSRV.                                            DEN/NEUT:   LOG SERVICE
LSOU.                                             SPT/NPD:   LOG SOURCE
LVSN.                                                   1:   LOG VERSION
BHIS.                                                   R:   BRIEF HISTORY
FHIS.                                             RAW-LIS:   FULL HISTORY
LCNM.                                                 SCH:   LOGGING CONTRACTOR
TOOL.                             FDC/CNL/GR (COMPOSITED):   TOOL STRING
QCST.                                               final:   QC STATUS
~Curve Information Block
#MNEM.UNIT                                        API CODE    No Description
#=========                                        ========    == ===========
DEPT.M                                       00 001 00 00:     1  DEPTH
CALI.IN                                                  :     2  Caliper
DRHO.G/CC                                                :     3  Bulk density correction
GR.GAPI                                                  :     4  Gamma Ray
NPHI.%                                                   :     5  Neutron porosity
RHOB.G/CC                                                :     6  Bulk density
TENS.LB                                                  :     7  Cable Tension
~ASCII
# ...
 2242.0052    12.7734      .0324    43.9632    33.2311     2.3133  1307.4573
 2242.1576    12.7660      .0414    45.2797    33.0283     2.3087  1290.0710
 2242.3100    12.7729      .0415    48.3913    33.6692     2.3004  1293.4441
 2242.4624    12.7797      .0369    50.4348    34.3820     2.3019  1297.0332
 2242.6148    12.7805      .0392    50.7576    35.0849     2.3026  1288.9766
 2242.7672    12.7653      .0433    50.3548    35.1100     2.2949  1276.6770
 2242.9196    12.7500      .0338    49.0916    34.5189     2.2823  1282.9531
 2243.0720    12.7533      .0310    49.0054    33.7582     2.2813  1315.4739
 2243.2244    12.7634      .0351    50.1394    32.6462     2.2917  1333.4519
 2243.3768    12.8213      .0286    51.6393    33.1338     2.3013  1326.4534
 2243.5292    12.9429      .0223    53.3252    34.9884     2.3096  1347.9583
 2243.6816    12.9941      .0262    55.3133    36.8431     2.3153  1383.4385
 2243.8340    12.9755      .0143    55.7045    37.0975     2.3082  1361.9536
 2243.9864    12.9895      .0150    55.6344    36.8529     2.2908  1311.1416
 2244.1388    13.0067      .0285    55.7811    38.5930     2.2898  1313.4192
 2244.2912    13.0071      .0410    54.8265    39.4146     2.3009  1288.8921
 2244.4436    13.0307      .0382    53.4052    38.3396     2.3208  1261.1479
 2244.5960    13.0561      .0175    52.2539    36.8725     2.3450  1259.8796
 2244.7484    13.0677      .0075    51.2705    35.4054     2.3809  1273.4353
 2244.9008    13.0681      .0340    50.7577    36.0193     2.4104  1288.3525
 2245.0532    13.0684      .0586    50.2924    37.7236     2.4084  1306.6980
 2245.2056    13.0688      .0571    49.6871    39.4252     2.3380  1335.9058
 2245.3580    13.0531      .0652    49.4323    40.2879     2.3238  1351.7158
 2245.5104    13.0339      .0467    51.4220    40.5346     2.2885  1331.3442
 2245.6628    13.0148      .0405    55.3379    40.1947     2.2800  1305.3108
 2245.8152    13.0107      .0498    54.9401    39.4361     2.2929  1285.4614
 2245.9676    13.0110      .0411    52.4181    38.6793     2.2829  1265.6272
 2246.1200    13.0040      .0446    52.7248    38.2806     2.2838  1262.2783
 2246.2724    12.9891      .0576    53.4790    40.0720     2.2850  1265.6548
 2246.4248    12.9228      .0472    54.4790    42.1265     2.2724  1274.0352
 2246.5772    12.9862      .0347    54.4562    41.2003     2.2623  1290.6421
 2246.7296    12.8954      .0229    53.0329    39.3821     2.2621  1305.2979
 2246.8820    12.8544      .0137    50.9559    38.9427     2.2542  1306.2300
 2247.0344    12.8433      .0108    49.9714    39.4758     2.2486  1293.1147
 2247.1868    12.8185      .0126    49.2312    38.2126     2.2507  1270.7031
 2247.3392    12.7932      .0116    48.2576    36.4170     2.2555  1244.2966
 2247.4916    12.7601      .0130    47.0949    36.9479     2.2639  1221.1846
 2247.6440    12.7220      .0229    45.4865    36.6737     2.2739  1230.6748
 2247.7964    12.7186      .0318    45.7096    36.9147     2.2902  1259.5981
 2247.9488    12.7524      .0271    45.9729    36.2818     2.2904  1307.7627
 2248.1012    12.7768      .0156    46.0170    36.8224     2.2944  1325.8167
 2248.2536    12.7591      .0130    46.1876    37.7123     2.2988  1335.8943
 2248.4060    12.7587      .0204    44.8963    38.5942     2.2929  1344.9363
 2248.5584    12.7812      .0305    45.4071    38.8369     2.2933  1348.8779
 2248.7108    12.7945      .0293    46.7123    39.0805     2.2848  1334.3027
 2248.8632    12.7482      .0232    47.8914    38.6856     2.2705  1307.4287
 2249.0156    12.7017      .0274    48.6595    38.4888     2.2654  1282.2151
 2249.1680    12.6553      .0470    47.7087    38.2650     2.2883  1258.9402
 2249.3204    12.6090      .0538    43.2736    37.3420     2.2936  1235.6663
 2249.4728    12.5838      .0328    39.0646    35.7216     2.2667  1212.4255
 2249.6252    12.5622      .0117    36.2778    34.8677     2.2355  1198.3584
 2249.7776    12.5421      .0079    35.5848    33.7685     2.2201  1211.7185
 2249.9300    12.5310      .0113    35.4046    32.2818     2.2196  1234.0552
 2250.0824    12.5393      .0118    35.9185    31.3762     2.2248  1261.5039
 2250.2348    12.5719      .0172    37.0681    32.0242     2.2423  1289.0020
 2250.3872    12.5983      .0296    39.1496    33.3798     2.2794  1314.6313
 2250.5396    12.6202      .0280    42.0986    34.7429     2.2942  1338.6934
 2250.6920    12.6267      .0135    45.1711    36.1030     2.2988  1337.2112
 2250.8444    12.6273      .0140    46.3800    36.4063     2.3091  1309.9597
 2250.9968    12.6332      .0244    45.5243    36.2150     2.3134  1280.0742
 2251.1492    12.6483      .0218    43.3370    35.7232     2.2959  1269.2815
 2251.3016    12.6026      .0132    41.4869    35.1473     2.2701  1267.0276
 2251.4540    12.5764      .0054    40.9391    34.8467     2.2424  1275.3281
 2251.6064    12.5862      .0064    41.8527    33.1427     2.2233  1285.0115
 2251.7588    12.6184      .0135    44.7035    31.3931     2.2289  1292.8289
 2251.9112    12.6315      .0136    48.0094    31.6010     2.2477  1280.3083
 2252.0636    12.6584      .0257    50.4734    32.0819     2.2746  1272.2319
 2252.2160    12.6923      .0151    50.0207    32.8066     2.3109  1264.1555
 2252.3684    12.6929      .0002    46.6467    33.7662     2.3629  1262.2676
 2252.5208    12.6935     -.0147    42.2353    33.6371     2.4217  1271.6108
 2252.6732    12.6497     -.0120    38.7468    32.0673     2.4977  1261.6409
 2252.8256    12.5801      .0179    37.8457    33.1264     2.5132  1263.3201
 2252.9780    12.5640      .0363    39.0921    32.2490     2.4554  1270.7634
 2253.1304    12.6559      .0055    40.9943    29.6265     2.2901  1300.6531
 2253.2828    12.7141      .0030    41.1355    28.6968     2.2417  1326.4343
 2253.4352    12.6395      .0015    40.3722    30.1383     2.2537  1348.5093
 2253.5876    12.4924      .0165    37.5055    31.3719     2.2756  1344.0117
 2253.7400    12.3994      .0282    33.6789    29.9480     2.2848  1314.8984
 2253.8924    12.4524      .0163    32.1650    29.0428     2.2536  1283.5137
 2254.0448    12.5594      .0148    30.9459    29.1016     2.2511  1254.9158
 2254.1972    12.5139      .0175    29.9634    28.4281     2.2502  1228.6892
 2254.3496    12.4174      .0192    30.2516    27.6756     2.2396  1211.9746
 2254.5020    12.3703      .0110    31.2158    27.9290     2.2312  1207.9832
 2254.6544    12.3649      .0098    31.6321    28.1980     2.2297  1214.9622
 2254.8068    12.3662      .0100    31.7005    28.1605     2.2320  1261.4526
 2254.9592    12.3873      .0133    30.8547    27.7418     2.2328  1304.9958
 2255.1116    12.4065      .0131    31.4186    27.0361     2.2407  1318.1892
 2255.2640    12.4071      .0237    33.5665    26.3682     2.2539  1333.0195
 2255.4164    12.3977      .0356    34.5118    25.8381     2.2658  1355.7004
 2255.5688    12.3675      .0234    34.6612    25.5005     2.2436  1340.5300
 2255.7212    12.3518      .0086    34.5101    25.8907     2.2285  1288.1021
 2255.8736    12.3586      .0037    34.5726    26.7151     2.2329  1255.0657
 2256.0260    12.3654      .0109    34.2085    27.5221     2.2507  1274.4131
 2256.1784    12.3703      .0194    34.7551    27.5195     2.2550  1274.3982
 2256.3308    12.3662      .0186    34.8970    26.7489     2.2553  1248.9565
 2256.4832    12.3621      .0261    33.3335    27.3115     2.2626  1195.5938
 2256.6356    12.3580      .0212    31.8850    28.0296     2.2593  1194.0923
 2256.7880    12.3539      .0131    32.2618    27.6967     2.2486  1234.9014
 2256.9404    12.3469      .0095    33.5851    27.5686     2.2476  1269.1685
 2257.0928    12.3398      .0218    34.5675    27.8300     2.2551  1297.9858
 2257.2452    12.3391      .0208    35.0694    27.4332     2.2640  1326.8301
 2257.3976    12.3479      .0120    34.5368    26.9864     2.2652  1339.0354
 2257.5500    12.3566      .0069    33.8951    26.8211     2.2619  1350.0566
 2257.7024    12.3474      .0020    33.2048    26.9434     2.2654  1333.4932
