~VERSION INFORMATION
VERS.                                                 2.0:   CWLS Log ASCII Standard-VERSION 2.0
WRAP.                                                  NO:   One line per depth step
~Well Information Block
STRT.M                                           435.1508:   Top Depth
STOP.M                                          4334.9144:   Bottom Depth
STEP.M                                             .15240:   Depth Increment
NULL.                                            -999.250:   Null Value
FLD .                                             WILDCAT:   Field Name
WELL.                                              15/5-2:   NAME
WBN .                                              15/5-2:   WELLBORE
NATI.                                                 NOR:   COUNTRY
CTRY.                                                 NOR:   COUNTRY
COMP.                                         NORSK HYDRO:   OPERATOR
PROV.                                           NORTH SEA:   PROVINCE
COUN.                                     TREASURE SEEKER:   RIG NAME
SPUD.                                          1978/08/16:   SPUD DATE
LATI.                                       58 38 36.70 N:   SURF. LATITUDE
LONG.                                        1 36 16.50 E:   SURF. LONGITUDE
PBWE.                                              15/5-2:   PB WELL ID
APIN.                                              15/5-2:   PB WELLBORE ID
PBWS.                                                 all:   PB WELL NAME SET
~PARAMETER INFORMATION (log)
LNAM.                              FDC/CNL/GR  COMPOSITED:   NAME
LTYP.                                         DEPTH MATCH:   LOG TYPE
LSRV.                                            DEN/NEUT:   LOG SERVICE
LSOU.                                             SPT/NPD:   LOG SOURCE
LVSN.                                                   1:   LOG VERSION
BHIS.                                                   R:   BRIEF HISTORY
FHIS.                                             RAW-LIS:   FULL HISTORY
LCNM.                                                 SCH:   LOGGING CONTRACTOR
TOOL.                             FDC/CNL/GR (COMPOSITED):   TOOL STRING
QCST.                                               final:   QC STATUS
~Curve Information Block
#MNEM.UNIT                                        API CODE    No Description
#=========                                        ========    == ===========
DEPT.M                                       00 001 00 00:     1  DEPTH
CALI.IN                                                  :     2  Caliper
DRHO.G/CC                                                :     3  Bulk density correction
GR.GAPI                                                  :     4  Gamma Ray
NPHI.%                                                   :     5  Neutron porosity
RHOB.G/CC                                                :     6  Bulk density
TENS.LB                                                  :     7  Cable Tension
~ASCII
# ...
 1211.7812    17.5100      .0656    57.4421  -999.2500     1.8745   623.9906
 1211.9336    17.8130      .0885    54.9505  -999.2500     1.8896   679.7509
 1212.0860    18.2873      .0953    54.2408  -999.2500     1.8543   703.1844
 1212.2384    18.6840      .0629    53.6781  -999.2500     1.8106   656.0723
 1212.3908    17.6133      .0364    52.8046  -999.2500     1.7998   608.5778
 1212.5432    17.7285      .0640    53.4622  -999.2500     1.8466   568.5442
 1212.6956    18.9877      .0474    54.9867  -999.2500     1.8653   629.2667
 1212.8480    18.8474      .0359    53.9415  -999.2500     1.8432   679.0032
 1213.0004    19.5221      .0603    51.5598  -999.2500     1.8677   737.6136
 1213.1528    18.5195      .0605    50.2220  -999.2500     1.8529   690.5530
 1213.3052    19.3329      .0619    50.4186  -999.2500     1.8232   615.4528
 1213.4576    18.4571      .0610    51.0206  -999.2500     1.7602   537.1282
 1213.6100    19.5826      .0847    52.5275  -999.2500     1.7382   632.1862
 1213.7624    19.8864      .0732    53.9306  -999.2500     1.7003   670.6624
 1213.9148    19.9009      .0731    54.1259  -999.2500     1.7517   652.5272
 1214.0672    17.9702      .0488    54.1926  -999.2500     1.8180   720.0798
 1214.2196    18.3360      .0588    55.0892  -999.2500     1.8685   703.0028
 1214.3720    18.3459      .0885    56.5670  -999.2500     1.8871   673.1387
 1214.5244    19.2765      .0905    57.8772  -999.2500     1.8314   672.2150
 1214.6768    19.8995      .0843    55.0735  -999.2500     1.7991   652.2013
 1214.8292    20.1593      .0701    52.9012  -999.2500     1.7956   712.4806
 1214.9816    21.2351      .0787    53.7344  -999.2500     1.8178   705.4601
 1215.1340    19.3450      .1049    52.1110  -999.2500     1.8397   657.9888
 1215.2864    19.5415      .1062    49.3834  -999.2500     1.7976   624.5005
 1215.4388    20.1988      .0869    51.2229  -999.2500     1.7377   666.6978
 1215.5912    19.9487      .0733    49.8117  -999.2500     1.7146   651.8105
 1215.7436    19.0873      .0704    47.8523  -999.2500     1.6902   700.0005
 1215.8960    19.8293      .0654    50.1954  -999.2500     1.6653   734.2976
 1216.0484    20.7261      .0686    51.1982  -999.2500     1.6819   740.1323
 1216.2008    21.6054      .0754    50.1767  -999.2500     1.7066   703.7214
 1216.3532    21.4205      .0760    49.3931  -999.2500     1.6911   598.5682
 1216.5056    19.3117      .0582    50.5857  -999.2500     1.6591   587.2462
 1216.6580    20.1892      .0608    54.3952  -999.2500     1.6447   684.4159
 1216.8104    21.2713      .0598    57.7081  -999.2500     1.6680   748.0433
 1216.9628    18.8971      .0513    59.3792  -999.2500     1.7202   691.4438
 1217.1152    18.2333      .0479    60.0997  -999.2500     1.7733   726.4495
 1217.2676    18.7870      .0585    59.1912  -999.2500     1.8160   627.9036
 1217.4200    19.1701      .0663    58.8070  -999.2500     1.8267   581.1831
 1217.5724    18.9994      .0732    57.3503  -999.2500     1.8149   582.7529
 1217.7248    18.4187      .0687    55.2405  -999.2500     1.8067   622.9647
 1217.8772    17.8396      .0731    54.0099  -999.2500     1.8088   639.2046
 1218.0296    18.4362      .0936    54.2712  -999.2500     1.8450   721.1005
 1218.1820    20.0197      .0973    55.8067  -999.2500     1.8226   710.0742
 1218.3344    19.6035      .0881    56.6535  -999.2500     1.7920   658.8070
 1218.4868    19.9935      .0794    56.6458  -999.2500     1.7698   668.3119
 1218.6392    19.3229      .0659    55.9342  -999.2500     1.7440   694.6882
 1218.7916    18.8534      .0660    56.1942  -999.2500     1.7627   705.3429
 1218.9440    18.8161      .0797    57.0739  -999.2500     1.7798   687.9814
 1219.0964    18.2600      .0583    57.3645  -999.2500     1.7877   630.4564
 1219.2488    17.7086      .0599    57.5830  -999.2500     1.8075   561.7620
 1219.4012    18.1397      .0670    57.5864  -999.2500     1.8106   600.0533
 1219.5536    17.7173      .0864    56.9401  -999.2500     1.8239   660.0004
 1219.7060    17.8740      .0771    56.5895  -999.2500     1.8450   718.7303
 1219.8584    18.1237      .0883    56.2508  -999.2500     1.8815   739.7324
 1220.0108    17.4877      .0648    55.0869  -999.2500     1.8832   743.3186
 1220.1632    18.3683      .0676    53.6348  -999.2500     1.8722   727.6537
 1220.3156    18.3225      .0626    54.4990  -999.2500     1.8686   626.4749
 1220.4680    17.8433      .0522    55.8674  -999.2500     1.8663   661.6793
 1220.6204    18.2642      .0422    56.6350  -999.2500     1.8629   674.1130
 1220.7728    17.8176      .0354    57.4984  -999.2500     1.8574   645.7144
 1220.9252    18.5462      .0508    58.4106  -999.2500     1.8626   681.4272
 1221.0776    17.8775      .0638    58.5234  -999.2500     1.8560   632.2388
 1221.2300    17.7268      .0741    55.5509  -999.2500     1.8512   644.6689
 1221.3824    17.9985      .0616    52.0908  -999.2500     1.8457   714.7457
 1221.5348    17.9152      .0709    50.8205  -999.2500     1.8630   678.1486
 1221.6872    17.6989      .0691    51.7441  -999.2500     1.8677   676.2434
 1221.8396    17.7262      .0622    52.6058  -999.2500     1.8646   629.9420
 1221.9920    17.7618      .0765    51.8379  -999.2500     1.8598   626.3975
 1222.1444    17.8266      .0833    50.8396  -999.2500     1.8450   637.2863
 1222.2968    17.8861      .0780    53.0687  -999.2500     1.8071   614.6271
 1222.4492    17.7505      .0666    56.1956  -999.2500     1.8005   670.6392
 1222.6016    17.6249      .0463    57.7296  -999.2500     1.8158   709.3533
 1222.7540    17.7004      .0577    56.1757  -999.2500     1.8530   731.0936
 1222.9064    17.7973      .0688    54.5910  -999.2500     1.8471   687.1643
 1223.0588    17.7826      .0731    54.4857  -999.2500     1.8212   676.6521
 1223.2112    17.7128      .0778    55.3865  -999.2500     1.7885   666.3042
 1223.3636    17.6655      .0836    56.2391  -999.2500     1.7782   501.3948
 1223.5160    17.6150      .0883    56.3269  -999.2500     1.8095   548.8739
 1223.6684    17.5571      .0892    55.4782  -999.2500     1.8317   623.6057
 1223.8208    17.6139      .0824    56.0752  -999.2500     1.8595   653.8364
 1223.9732    17.6961      .0749    57.2100  -999.2500     1.8623   761.3319
 1224.1256    17.7200      .0806    57.1804  -999.2500     1.8530   804.7643
 1224.2780    17.6812      .0684    56.8775  -999.2500     1.8203   737.4833
 1224.4304    17.5433      .0663    56.2439  -999.2500     1.8091   700.6490
 1224.5828    17.4857      .0616    56.4649  -999.2500     1.8331   661.2501
 1224.7352    17.5816      .0562    57.1812  -999.2500     1.8589   656.3085
 1224.8876    17.5614      .0745    56.2606  -999.2500     1.8793   686.1486
 1225.0400    17.6087      .0567    56.5986  -999.2500     1.8655   703.7158
 1225.1924    17.7511      .0504    57.8024  -999.2500     1.8744   687.1515
 1225.3448    17.3888      .0655    57.3415  -999.2500     1.8881   673.3225
 1225.4972    17.2847      .0748    57.0556  -999.2500     1.8732   696.1274
 1225.6496    17.3520      .0684    57.3141  -999.2500     1.8274   680.9653
 1225.8020    17.6168      .0416    55.9092  -999.2500     1.7680   673.7604
 1225.9544    17.9039      .0293    54.4818  -999.2500     1.7195   765.7161
 1226.1068    18.1410      .0562    55.3224  -999.2500     1.6745   774.4082
 1226.2592    17.9342      .0599    53.2834  -999.2500     1.6712   705.3983
 1226.4116    17.6997      .0455    52.0329  -999.2500     1.7278   656.1168
 1226.5640    17.7983      .0529    53.0605  -999.2500     1.8194   627.1758
 1226.7164    17.9839      .0708    54.1389  -999.2500     1.8782   635.3099
 1226.8688    18.1218      .0677    54.0937  -999.2500     1.8668   668.3911
 1227.0212    18.0058      .0530    52.1749  -999.2500     1.8437   701.9353
 1227.1736    17.9776      .0537    52.8043  -999.2500     1.8371   721.4885
 1227.3260    18.0083      .0672    53.3749  -999.2500     1.8356   713.7520
 1227.4784    17.9356      .0769    52.4761  -999.2500     1.8400   684.3787
