~VERSION INFORMATION
VERS.                                                 2.0:   CWLS Log ASCII Standard-VERSION 2.0
WRAP.                                                  NO:   One line per depth step
~Well Information Block
STRT.M                                           435.1508:   Top Depth
STOP.M                                          4334.9144:   Bottom Depth
STEP.M                                             .15240:   Depth Increment
NULL.                                            -999.250:   Null Value
FLD .                                             WILDCAT:   Field Name
WELL.                                              15/5-2:   NAME
WBN .                                              15/5-2:   WELLBORE
NATI.                                                 NOR:   COUNTRY
CTRY.                                                 NOR:   COUNTRY
COMP.                                         NORSK HYDRO:   OPERATOR
PROV.                                           NORTH SEA:   PROVINCE
COUN.                                     TREASURE SEEKER:   RIG NAME
SPUD.                                          1978/08/16:   SPUD DATE
LATI.                                       58 38 36.70 N:   SURF. LATITUDE
LONG.                                        1 36 16.50 E:   SURF. LONGITUDE
PBWE.                                              15/5-2:   PB WELL ID
APIN.                                              15/5-2:   PB WELLBORE ID
PBWS.                                                 all:   PB WELL NAME SET
~PARAMETER INFORMATION (log)
LNAM.                              FDC/CNL/GR  COMPOSITED:   NAME
LTYP.                                         DEPTH MATCH:   LOG TYPE
LSRV.                                            DEN/NEUT:   LOG SERVICE
LSOU.                                             SPT/NPD:   LOG SOURCE
LVSN.                                                   1:   LOG VERSION
BHIS.                                                   R:   BRIEF HISTORY
FHIS.                                             RAW-LIS:   FULL HISTORY
LCNM.                                                 SCH:   LOGGING CONTRACTOR
TOOL.                             FDC/CNL/GR (COMPOSITED):   TOOL STRING
QCST.                                               final:   QC STATUS
~Curve Information Block
#MNEM.UNIT                                        API CODE    No Description
#=========                                        ========    == ===========
DEPT.M                                       00 001 00 00:     1  DEPTH
CALI.IN                                                  :     2  Caliper
DRHO.G/CC                                                :     3  Bulk density correction
GR.GAPI                                                  :     4  Gamma Ray
NPHI.%                                                   :     5  Neutron porosity
RHOB.G/CC                                                :     6  Bulk density
TENS.LB                                                  :     7  Cable Tension
~ASCII
# ...
 2765.0420    13.0222      .0654    34.5046    21.3612     2.6213  1711.2075
 2765.1944    13.0202      .0473    33.7644    20.2490     2.6197  1653.3931
 2765.3468    13.0191      .0330    33.8107    19.1746     2.6208  1613.9888
 2765.4992    13.0192      .0180    32.8063    18.5537     2.6143  1596.5420
 2765.6516    13.0192      .0170    31.7286    19.3097     2.6064  1611.3723
 2765.8040    13.0193      .0182    31.7039    20.4188     2.6139  1644.9419
 2765.9564    13.0194      .0159    31.9303    21.1019     2.5983  1674.7368
 2766.1088    13.0195      .0228    32.0692    20.5392     2.5952  1699.8796
 2766.2612    13.0196      .0292    33.4789    20.2938     2.6062  1734.8662
 2766.4136    13.0199      .0293    35.0660    21.2565     2.5987  1761.1892
 2766.5660    13.0217      .0464    36.1121    22.1042     2.6039  1776.8103
 2766.7184    13.0235      .0573    36.6938    22.5432     2.5996  1783.6975
 2766.8708    13.0253      .0449    37.9436    22.4532     2.5896  1749.3521
 2767.0232    13.0271      .0314    38.2534    22.1174     2.5771  1702.7104
 2767.1756    13.0289      .0468    38.3659    23.1092     2.5905  1683.7415
 2767.3280    13.0307      .0740    39.2532    24.8480     2.6152  1667.2861
 2767.4804    13.0325      .0740    41.6182    25.6938     2.6034  1633.0823
 2767.6328    13.0343      .0680    41.8303    25.8743     2.5849  1619.7029
 2767.7852    13.0361      .0403    40.3672    25.7265     2.5615  1623.6812
 2767.9376    13.0379      .0435    39.4242    24.6791     2.5651  1630.3704
 2768.0900    13.0397      .0566    39.3066    23.9299     2.5755  1658.9724
 2768.2424    13.0407      .0607    38.2565    24.4094     2.5863  1692.4370
 2768.3948    13.0408      .0491    37.0577    24.0390     2.5934  1734.9075
 2768.5472    13.0409      .0511    36.1798    23.5953     2.5938  1758.8704
 2768.6996    13.0410      .0552    35.3943    23.5455     2.5966  1785.2534
 2768.8520    13.0411      .0423    35.1221    24.1877     2.5740  1813.0664
 2769.0044    13.0411      .0290    35.8509    24.5635     2.5582  1787.1543
 2769.1568    13.0412      .0110    36.9683    23.6615     2.5408  1718.4934
 2769.3092    13.0413      .0115    37.6799    23.5722     2.5526  1661.4185
 2769.4616    13.0414      .0073    35.8910    24.0598     2.5418  1624.9524
 2769.6140    13.0415      .0149    33.9795    24.9137     2.5286  1596.5884
 2769.7664    13.0416      .0304    35.6704    26.0234     2.5222  1570.1990
 2769.9188    13.0417      .0245    37.3237    26.5386     2.5159  1574.6252
 2770.0712    13.0418      .0408    37.6831    25.7153     2.5456  1616.3198
 2770.2236    13.0419      .0562    39.2925    25.9329     2.5690  1670.8687
 2770.3760    13.0420      .0383    40.1344    26.6093     2.5538  1729.5024
 2770.5284    13.0443      .0351    39.3058    25.2639     2.5488  1786.1265
 2770.6808    13.0475      .0513    40.0974    24.1837     2.5764  1815.7183
 2770.8332    13.0507      .0546    43.2644    24.7719     2.5978  1810.2722
 2770.9856    13.0539      .0506    45.7213    25.6493     2.5834  1762.5234
 2771.1380    13.0571      .0515    46.0426    26.8105     2.5693  1721.3608
 2771.2904    13.0603      .0683    47.7559    27.7688     2.5669  1684.3130
 2771.4428    13.0634      .0751    47.1863    28.6281     2.5433  1646.6445
 2771.5952    13.0666      .0609    45.6489    28.3239     2.5260  1605.1760
 2771.7476    13.0698      .0466    43.5903    27.5912     2.5151  1602.3738
 2771.9000    13.0730      .0338    43.0789    27.2440     2.5072  1647.5757
 2772.0524    13.0762      .0251    44.7733    28.4267     2.4987  1719.4473
 2772.2048    13.0794      .0396    45.4929    29.3629     2.5074  1752.1174
 2772.3572    13.0826      .0504    44.9929    30.2332     2.5266  1752.2256
 2772.5096    13.0817      .0562    44.4641    31.1034     2.5304  1769.8115
 2772.6620    13.0802      .0580    44.4976    31.8960     2.5192  1749.3586
 2772.8144    13.0786      .0591    44.7234    31.5921     2.5128  1717.0156
 2772.9668    13.0770      .0688    44.6985    30.9637     2.5297  1668.4072
 2773.1192    13.0755      .0679    44.5664    31.1168     2.5445  1624.5254
 2773.2716    13.0739      .0523    45.6656    30.8049     2.5321  1612.1790
 2773.4240    13.0723      .0615    44.9982    29.1145     2.5535  1621.3379
 2773.5764    13.0707      .0599    43.7427    28.4717     2.5532  1673.9651
 2773.7288    13.0692      .0557    42.6285    27.8990     2.5661  1701.8733
 2773.8812    13.0676      .0543    41.7315    26.2886     2.5754  1717.8989
 2774.0336    13.0660      .0469    41.2240    24.6771     2.5741  1747.2856
 2774.1860    13.0645      .0647    40.9171    23.7292     2.5623  1771.6035
 2774.3384    13.0663      .0814    40.8255    25.0194     2.5464  1728.0325
 2774.4908    13.0684      .0817    40.3025    25.2897     2.5395  1684.5820
 2774.6432    13.0705      .0918    39.7897    24.1986     2.5747  1630.8315
 2774.7956    13.0726      .1007    40.7806    23.1084     2.6003  1566.2239
 2774.9480    13.0747      .0806    43.6684    23.3873     2.5832  1535.5403
 2775.1004    13.0768      .0437    45.7554    26.2818     2.5348  1539.5623
 2775.2528    13.0790      .0324    44.5404    25.8979     2.5258  1568.3638
 2775.4052    13.0811      .0506    43.9911    26.8190     2.5193  1619.6069
 2775.5576    13.0832      .0490    44.9113    28.9541     2.5038  1680.2866
 2775.7100    13.0852      .0516    46.9951    31.1456     2.5062  1727.5730
 2775.8624    13.0829      .0473    49.3917    32.7859     2.4977  1774.0588
 2776.0148    13.0807      .0306    51.7915    33.4954     2.4643  1790.1248
 2776.1672    13.0785      .0237    52.2504    34.2662     2.4415  1793.5967
 2776.3196    13.0762      .0306    50.8324    34.8359     2.4456  1760.5728
 2776.4720    13.0740      .0527    49.9612    34.2938     2.4850  1712.4597
 2776.6244    13.0718      .0537    49.9474    32.9707     2.4896  1662.8918
 2776.7768    13.0695      .0490    48.3314    31.1270     2.4999  1614.2070
 2776.9292    13.0673      .0414    47.6348    29.4610     2.5204  1585.5579
 2777.0816    13.0630      .0263    48.0861    27.8368     2.5221  1596.5352
 2777.2340    13.0566      .0399    49.2104    28.6099     2.5192  1640.8181
 2777.3864    13.0503      .0672    50.5009    31.8244     2.4967  1698.5002
 2777.5388    13.0440      .0639    52.0940    33.7938     2.4512  1738.1321
 2777.6912    13.0377      .0424    50.5388    35.1502     2.4177  1737.3755
 2777.8436    13.0313      .0483    46.6627    36.2379     2.4343  1758.2249
 2777.9960    13.0250      .0726    43.8246    35.8586     2.4637  1784.4617
 2778.1484    13.0187      .0858    43.2571    35.0843     2.4879  1809.8203
 2778.3008    13.0123      .0634    44.3757    35.1832     2.4629  1749.9265
 2778.4532    13.0085      .0713    44.1983    35.7839     2.4530  1700.6929
 2778.6056    13.0139      .0825    43.9501    34.5626     2.4632  1663.4016
 2778.7580    13.0193      .0739    44.7582    32.5414     2.4801  1631.6443
 2778.9104    13.0247      .0490    43.6662    30.2109     2.5068  1594.7266
 2779.0628    13.0300      .0261    40.6435    25.7000     2.5304  1598.5801
 2779.2152    13.0354      .0121    37.3587    21.9106     2.5664  1643.0540
 2779.3676    13.0408      .0270    34.9602    19.1187     2.5967  1697.4714
 2779.5200    13.0462      .0630    34.8265    19.3717     2.6203  1740.8132
 2779.6724    13.0516      .0928    31.5663    21.5799     2.6012  1772.1868
 2779.8248    13.0569      .0715    25.6704    19.7197     2.5744  1789.9229
 2779.9772    13.0623      .0396    19.9970    13.4810     2.5747  1781.3052
 2780.1296    13.0677      .0055    17.1901     9.0131     2.6034  1722.7822
 2780.2820    13.0642      .0098    18.9566     9.7710     2.6307  1672.1421
 2780.4344    13.0599      .0358    23.2352    14.5953     2.6122  1623.2986
 2780.5868    13.0556      .0725    28.2652    20.3516     2.5657  1576.1487
 2780.7392    13.0513      .1098    33.2499    27.9082     2.5065  1560.1909
