~VERSION INFORMATION
VERS.                                                 2.0:   CWLS Log ASCII Standard-VERSION 2.0
WRAP.                                                  NO:   One line per depth step
~Well Information Block
STRT.M                                           435.1508:   Top Depth
STOP.M                                          4334.9144:   Bottom Depth
STEP.M                                             .15240:   Depth Increment
NULL.                                            -999.250:   Null Value
FLD .                                             WILDCAT:   Field Name
WELL.                                              15/5-2:   NAME
WBN .                                              15/5-2:   WELLBORE
NATI.                                                 NOR:   COUNTRY
CTRY.                                                 NOR:   COUNTRY
COMP.                                         NORSK HYDRO:   OPERATOR
PROV.                                           NORTH SEA:   PROVINCE
COUN.                                     TREASURE SEEKER:   RIG NAME
SPUD.                                          1978/08/16:   SPUD DATE
LATI.                                       58 38 36.70 N:   SURF. LATITUDE
LONG.                                        1 36 16.50 E:   SURF. LONGITUDE
PBWE.                                              15/5-2:   PB WELL ID
APIN.                                              15/5-2:   PB WELLBORE ID
PBWS.                                                 all:   PB WELL NAME SET
~PARAMETER INFORMATION (log)
LNAM.                              FDC/CNL/GR  COMPOSITED:   NAME
LTYP.                                         DEPTH MATCH:   LOG TYPE
LSRV.                                            DEN/NEUT:   LOG SERVICE
LSOU.                                             SPT/NPD:   LOG SOURCE
LVSN.                                                   1:   LOG VERSION
BHIS.                                                   R:   BRIEF HISTORY
FHIS.                                             RAW-LIS:   FULL HISTORY
LCNM.                                                 SCH:   LOGGING CONTRACTOR
TOOL.                             FDC/CNL/GR (COMPOSITED):   TOOL STRING
QCST.                                               final:   QC STATUS
~Curve Information Block
#MNEM.UNIT                                        API CODE    No Description
#=========                                        ========    == ===========
DEPT.M                                       00 001 00 00:     1  DEPTH
CALI.IN                                                  :     2  Caliper
DRHO.G/CC                                                :     3  Bulk density correction
GR.GAPI                                                  :     4  Gamma Ray
NPHI.%                                                   :     5  Neutron porosity
RHOB.G/CC                                                :     6  Bulk density
TENS.LB                                                  :     7  Cable Tension
~ASCII
# ...
 3541.6724    13.0466      .0137    30.9316    16.8382     2.6453  1663.3093
 3541.8248    13.0467      .0163    29.3895    16.8740     2.6514  1687.6646
 3541.9772    13.0468      .0347    30.7692    16.7827     2.6773  1688.0017
 3542.1296    13.0468      .0335    29.9280    16.3288     2.6459  1672.5212
 3542.2820    13.0469      .0250    28.7324    15.7927     2.6296  1652.8984
 3542.4344    13.0469      .0181    27.7002    15.1578     2.6224  1597.8398
 3542.5868    13.0470      .0144    26.7787    15.2574     2.6121  1550.1521
 3542.7392    13.0471      .0198    26.7597    15.2966     2.6218  1514.4009
 3542.8916    13.0471      .0199    27.4489    14.9034     2.6339  1479.1829
 3543.0440    13.0461      .0136    27.4579    14.7545     2.6282  1470.6931
 3543.1964    13.0452      .0230    27.6097    14.7949     2.6312  1488.3130
 3543.3488    13.0442      .0211    28.6895    15.2485     2.6293  1559.9697
 3543.5012    13.0432      .0108    31.2111    16.2583     2.6212  1609.0972
 3543.6536    13.0423      .0239    32.6450    16.5921     2.6271  1648.1167
 3543.8060    13.0413      .0161    31.7166    16.5386     2.6224  1664.0605
 3543.9584    13.0403      .0038    30.8789    16.5346     2.6171  1693.9980
 3544.1108    13.0394      .0042    33.2875    17.1745     2.6246  1653.4607
 3544.2632    13.0384      .0093    36.4207    18.3483     2.6284  1612.3586
 3544.4156    13.0374      .0148    38.4073    19.5513     2.6126  1552.7986
 3544.5680    13.0364      .0164    38.0181    20.0213     2.5764  1504.7478
 3544.7204    13.0355      .0159    36.8290    20.3683     2.5307  1468.9973
 3544.8728    13.0345      .0404    35.6079    21.9860     2.4691  1403.6729
 3545.0252    13.0335      .0331    36.6746    24.6017     2.3965  1378.2297
 3545.1776    13.0326      .0016    36.1278    27.1501     2.3344  1427.3931
 3545.3300    13.0316     -.0103    33.1312    26.4533     2.3781  1549.3711
 3545.4824    13.0307      .0165    29.4985    22.2982     2.4835  1622.3940
 3545.6348    13.0297      .0455    26.7897    17.9552     2.5905  1635.8389
 3545.7872    13.0287      .0512    25.5989    14.5276     2.6613  1644.1526
 3545.9396    13.0294      .0286    24.7838    13.4664     2.6549  1669.8706
 3546.0920    13.0308      .0317    24.3515    13.0216     2.6633  1665.4429
 3546.2444    13.0323      .0225    23.3973    12.0155     2.6697  1645.6963
 3546.3968    13.0337      .0147    22.0415    10.7882     2.6635  1612.2209
 3546.5492    13.0352      .0111    21.8575    10.2764     2.6601  1567.0864
 3546.7016    13.0366      .0066    21.7239    10.1877     2.6589  1521.2998
 3546.8540    13.0381      .0133    22.4250    10.6833     2.6580  1490.3730
 3547.0064    13.0395      .0299    23.9383    11.6478     2.6772  1476.0471
 3547.1588    13.0410      .0272    25.3539    12.7264     2.6780  1476.0168
 3547.3112    13.0424      .0152    24.8168    13.5075     2.6543  1503.5562
 3547.4636    13.0439      .0265    23.6261    13.3556     2.6592  1547.0969
 3547.6160    13.0453      .0180    22.2202    12.9592     2.6464  1564.0088
 3547.7684    13.0468      .0063    21.2226    12.2807     2.6298  1602.3860
 3547.9208    13.0482      .0135    20.4114    11.1977     2.6388  1632.0320
 3548.0732    13.0492      .0244    19.6230    10.2582     2.6524  1664.9375
 3548.2256    13.0492      .0200    18.8804     9.3321     2.6576  1698.0757
 3548.3780    13.0493      .0133    18.4352     8.6928     2.6494  1674.3796
 3548.5304    13.0494      .0124    18.0619     8.4807     2.6590  1617.7432
 3548.6828    13.0495      .0164    17.3815     8.3923     2.6795  1548.8037
 3548.8352    13.0495      .0255    17.3788     8.3905     2.6852  1499.5005
 3548.9876    13.0496      .0383    17.7374     8.5345     2.6870  1477.9624
 3549.1400    13.0497      .0474    17.7440     8.7409     2.6916  1475.6279
 3549.2924    13.0497      .0377    18.1532     9.0862     2.6846  1501.0342
 3549.4448    13.0498      .0197    19.1102     9.3984     2.6573  1542.2915
 3549.5972    13.0499      .0259    19.4368     9.6890     2.6562  1601.5896
 3549.7496    13.0500      .0418    19.3627     9.9848     2.6840  1642.8408
 3549.9020    13.0500      .0504    18.8478    10.3578     2.7079  1653.9790
 3550.0544    13.0501      .0343    19.3551    10.9999     2.6936  1644.8015
 3550.2068    13.0502      .0150    20.0543    11.7191     2.6659  1608.7151
 3550.3592    13.0503      .0079    20.7790    12.4369     2.6458  1563.5120
 3550.5116    13.0503      .0114    21.0082    12.7528     2.6467  1518.3440
 3550.6640    13.0504      .0181    20.7947    12.7284     2.6432  1487.0105
 3550.8164    13.0505      .0147    21.2683    12.3537     2.6368  1468.6257
 3550.9688    13.0506      .0058    21.4792    12.8273     2.6220  1480.7874
 3551.1212    13.0507      .0089    21.6176    13.3772     2.6210  1534.3430
 3551.2736    13.0508      .0070    21.3085    13.2058     2.6328  1585.2524
 3551.4260    13.0509      .0081    20.3782    12.2105     2.6414  1618.4766
 3551.5784    13.0510      .0218    21.1519    11.4028     2.6598  1652.4519
 3551.7308    13.0511      .0353    22.2860    11.8426     2.6640  1653.7441
 3551.8832    13.0512      .0456    22.2113    11.7372     2.6819  1620.9749
 3552.0356    13.0507      .0440    21.0466    11.3691     2.6855  1581.4502
 3552.1880    13.0489      .0390    19.2988    11.1565     2.6919  1545.0945
 3552.3404    13.0470      .0359    19.0724    10.7290     2.6873  1515.5898
 3552.4928    13.0451      .0249    19.5761    10.1637     2.6747  1487.8328
 3552.6452    13.0432      .0182    19.4102    10.1746     2.6755  1476.4175
 3552.7976    13.0413      .0261    19.5256    10.1741     2.6800  1497.2427
 3552.9500    13.0395      .0257    19.5182    10.1049     2.6768  1554.5874
 3553.1024    13.0376      .0201    19.4411    10.4540     2.6573  1591.0110
 3553.2548    13.0357      .0200    21.0130    11.1443     2.6598  1630.0918
 3553.4072    13.0338      .0318    22.4514    11.2552     2.6736  1652.8086
 3553.5596    13.0323      .0272    22.7964    10.8966     2.6647  1627.7483
 3553.7120    13.0324      .0198    22.2808    10.9587     2.6570  1589.8711
 3553.8644    13.0324      .0219    20.6915    11.1874     2.6450  1543.4365
 3554.0168    13.0325      .0265    19.5793    11.4422     2.6470  1497.4629
 3554.1692    13.0326      .0229    19.7815    11.7685     2.6474  1455.3289
 3554.3216    13.0327      .0170    20.5438    11.5395     2.6368  1463.0796
 3554.4740    13.0328      .0130    21.6618    11.4584     2.6253  1476.7227
 3554.6264    13.0329      .0092    22.6694    11.7064     2.6255  1519.0813
 3554.7788    13.0330      .0060    23.2054    11.9233     2.6395  1592.0347
 3554.9312    13.0331      .0141    24.4671    11.8662     2.6457  1617.6025
 3555.0836    13.0332      .0135    25.1773    11.4072     2.6456  1607.0435
 3555.2360    13.0333      .0269    24.6734    10.7909     2.6650  1558.9021
 3555.3884    13.0354      .0439    25.4400    11.6003     2.6863  1535.2078
 3555.5408    13.0378      .0427    26.8895    13.0642     2.6979  1525.5588
 3555.6932    13.0402      .0358    27.7552    14.2546     2.6842  1532.1301
 3555.8456    13.0426      .0229    27.9562    15.4469     2.6589  1554.7190
 3555.9980    13.0450      .0124    28.4433    15.8791     2.6360  1581.4136
 3556.1504    13.0474      .0101    28.9223    15.3606     2.6334  1610.6907
 3556.3028    13.0498      .0107    27.6313    14.6166     2.6362  1610.9231
 3556.4552    13.0522      .0137    25.6249    13.7369     2.6436  1572.8176
 3556.6076    13.0539      .0217    25.9871    13.1540     2.6502  1530.6511
 3556.7600    13.0540      .0236    27.1068    13.3145     2.6637  1493.8491
 3556.9124    13.0541      .0258    26.7861    13.8049     2.6803  1501.2791
 3557.0648    13.0542      .0281    27.4389    14.3146     2.6698  1499.5496
 3557.2172    13.0543      .0166    28.4299    15.0516     2.6381  1481.2063
 3557.3696    13.0544      .0237    29.4246    15.8247     2.6316  1490.5232
