~VERSION INFORMATION
VERS.                                                 2.0:   CWLS Log ASCII Standard-VERSION 2.0
WRAP.                                                  NO:   One line per depth step
~Well Information Block
STRT.M                                           435.1508:   Top Depth
STOP.M                                          4334.9144:   Bottom Depth
STEP.M                                             .15240:   Depth Increment
NULL.                                            -999.250:   Null Value
FLD .                                             WILDCAT:   Field Name
WELL.                                              15/5-2:   NAME
WBN .                                              15/5-2:   WELLBORE
NATI.                                                 NOR:   COUNTRY
CTRY.                                                 NOR:   COUNTRY
COMP.                                         NORSK HYDRO:   OPERATOR
PROV.                                           NORTH SEA:   PROVINCE
COUN.                                     TREASURE SEEKER:   RIG NAME
SPUD.                                          1978/08/16:   SPUD DATE
LATI.                                       58 38 36.70 N:   SURF. LATITUDE
LONG.                                        1 36 16.50 E:   SURF. LONGITUDE
PBWE.                                              15/5-2:   PB WELL ID
APIN.                                              15/5-2:   PB WELLBORE ID
PBWS.                                                 all:   PB WELL NAME SET
~PARAMETER INFORMATION (log)
LNAM.                              FDC/CNL/GR  COMPOSITED:   NAME
LTYP.                                         DEPTH MATCH:   LOG TYPE
LSRV.                                            DEN/NEUT:   LOG SERVICE
LSOU.                                             SPT/NPD:   LOG SOURCE
LVSN.                                                   1:   LOG VERSION
BHIS.                                                   R:   BRIEF HISTORY
FHIS.                                             RAW-LIS:   FULL HISTORY
LCNM.                                                 SCH:   LOGGING CONTRACTOR
TOOL.                             FDC/CNL/GR (COMPOSITED):   TOOL STRING
QCST.                                               final:   QC STATUS
~Curve Information Block
#MNEM.UNIT                                        API CODE    No Description
#=========                                        ========    == ===========
DEPT.M                                       00 001 00 00:     1  DEPTH
CALI.IN                                                  :     2  Caliper
DRHO.G/CC                                                :     3  Bulk density correction
GR.GAPI                                                  :     4  Gamma Ray
NPHI.%                                                   :     5  Neutron porosity
RHOB.G/CC                                                :     6  Bulk density
TENS.LB                                                  :     7  Cable Tension
~ASCII
# ...
 3018.6356    13.0197      .0387    24.1735    15.0117     2.6802  1180.7942
 3018.7880    13.0208      .0229    24.6349    16.0192     2.6553  1195.4739
 3018.9404    13.0219      .0312    24.4498    16.8754     2.6483  1189.0020
 3019.0928    13.0230      .0245    23.1854    17.1177     2.6393  1139.0127
 3019.2452    13.0242      .0147    22.5601    17.0297     2.6320  1076.2610
 3019.3976    13.0253      .0102    22.9857    17.0038     2.6243  1046.4346
 3019.5500    13.0264      .0148    23.7704    17.0293     2.6182  1100.3828
 3019.7024    13.0275      .0295    24.5796    17.5616     2.6156  1097.9829
 3019.8548    13.0286      .0315    25.1761    18.2445     2.6112  1063.8667
 3020.0072    13.0297      .0198    24.5906    18.4106     2.5860  1026.3372
 3020.1596    13.0309      .0306    23.9239    18.4028     2.5766   995.5884
 3020.3120    13.0320      .0587    23.1259    18.8149     2.5810  1013.8507
 3020.4644    13.0331      .0817    22.4876    19.0259     2.5919  1062.4631
 3020.6168    13.0342      .0560    22.4198    18.7117     2.5618  1113.7397
 3020.7692    13.0353      .0606    23.6282    19.2420     2.5884  1152.4763
 3020.9216    13.0364      .0798    24.7663    20.1048     2.6037  1159.3704
 3021.0740    13.0375      .0720    24.2141    20.4007     2.5886  1174.2642
 3021.2264    13.0385      .0377    22.3088    18.9591     2.5783  1160.8242
 3021.3788    13.0395      .0161    21.7155    18.2066     2.6026  1141.1594
 3021.5312    13.0406      .0163    21.6024    18.7491     2.6074  1143.4915
 3021.6836    13.0416      .0195    21.1459    19.1169     2.5876  1133.2695
 3021.8360    13.0426      .0179    20.5334    18.0636     2.5883  1082.9316
 3021.9884    13.0436      .0174    20.2430    17.1279     2.6027  1056.1907
 3022.1408    13.0447      .0254    20.1667    16.4870     2.6240  1079.2197
 3022.2932    13.0457      .0162    20.1274    16.0031     2.6196  1095.8257
 3022.4456    13.0467      .0049    19.8390    16.2456     2.6068  1092.4106
 3022.5980    13.0477      .0058    20.2542    16.7148     2.5984  1080.6252
 3022.7504    13.0488      .0171    20.6129    17.2018     2.6007  1082.8005
 3022.9028    13.0498      .0320    20.2096    17.4661     2.6164  1102.6201
 3023.0552    13.0508      .0272    19.9910    17.5482     2.6115  1127.3364
 3023.2076    13.0518      .0170    20.5425    17.5599     2.5978  1163.9597
 3023.3600    13.0529      .0165    21.2635    18.0750     2.6094  1200.4683
 3023.5124    13.0539      .0156    22.2458    18.7353     2.6123  1215.3506
 3023.6648    13.0549      .0144    22.6688    19.2160     2.6131  1210.9812
 3023.8172    13.0538      .0079    20.9248    18.4227     2.6028  1200.3867
 3023.9696    13.0510      .0099    20.0472    17.9313     2.6112  1174.6184
 3024.1220    13.0482      .0173    20.9735    18.0438     2.6259  1142.8030
 3024.2744    13.0455      .0207    21.4491    17.5371     2.6307  1111.0266
 3024.4268    13.0427      .0264    21.0187    16.9277     2.6417  1075.2832
 3024.5792    13.0399      .0272    20.6371    16.4052     2.6510  1031.8699
 3024.7316    13.0372      .0284    20.1220    16.1775     2.6541  1007.4513
 3024.8840    13.0348      .0283    19.9143    15.9944     2.6526  1007.5143
 3025.0364    13.0347      .0216    19.9058    15.6365     2.6434  1056.7883
 3025.1888    13.0346      .0155    20.0585    15.1654     2.6351  1096.7480
 3025.3412    13.0345      .0207    19.1014    14.9902     2.6420  1112.0183
 3025.4936    13.0344      .0219    18.3282    14.9644     2.6436  1125.0417
 3025.6460    13.0343      .0155    19.7090    15.0639     2.6394  1159.9180
 3025.7984    13.0342      .0192    21.2048    15.5900     2.6423  1182.1924
 3025.9508    13.0342      .0164    21.6810    16.3050     2.6439  1179.4819
 3026.1032    13.0341      .0262    20.4540    16.1632     2.6482  1141.0713
 3026.2556    13.0340      .0232    19.3491    15.6991     2.6501  1106.5098
 3026.4080    13.0339      .0168    18.7646    15.6481     2.6449  1072.7737
 3026.5604    13.0338      .0304    18.6951    15.4267     2.6562  1045.5894
 3026.7128    13.0337      .0297    19.1160    15.1291     2.6622  1025.6855
 3026.8652    13.0336      .0246    20.1626    15.3852     2.6634  1018.3086
 3027.0176    13.0335      .0193    22.1768    15.8524     2.6663  1025.5659
 3027.1700    13.0334      .0190    23.6066    16.6623     2.6587  1055.2498
 3027.3224    13.0333      .0083    23.2228    17.0151     2.6427  1088.7761
 3027.4748    13.0333     -.0011    22.4569    16.7009     2.6287  1117.6411
 3027.6272    13.0332      .0008    22.0855    17.3126     2.6322  1127.9197
 3027.7796    13.0331      .0094    22.0097    18.0284     2.6458  1196.3745
 3027.9320    13.0330      .0131    22.5579    18.7847     2.6314  1162.7080
 3028.0844    13.0329      .0154    22.1086    19.5724     2.6192  1129.7012
 3028.2368    13.0328      .0158    22.8166    19.6741     2.6140  1118.6335
 3028.3892    13.0327      .0200    24.4427    19.8964     2.6259  1116.4871
 3028.5416    13.0326      .0184    25.9347    19.9810     2.6204  1108.6494
 3028.6940    13.0325      .0174    25.8486    19.8054     2.6200  1100.8162
 3028.8464    13.0324      .0332    26.2979    19.8492     2.6339  1098.9348
 3028.9988    13.0324      .0353    27.3248    20.1015     2.6294  1101.0195
 3029.1512    13.0323      .0200    28.8025    19.8471     2.6226  1111.9617
 3029.3036    13.0322      .0307    28.3996    19.1791     2.6384  1155.6548
 3029.4560    13.0321      .0284    26.9250    18.6696     2.6391  1182.1077
 3029.6084    13.0320      .0274    27.3337    17.8781     2.6425  1189.0344
 3029.7608    13.0319      .0173    29.1301    17.6027     2.6357  1167.6653
 3029.9132    13.0318      .0059    29.5162    17.1943     2.6284  1106.1624
 3030.0656    13.0317      .0084    28.6541    16.9597     2.6289  1088.4355
 3030.2180    13.0316      .0124    27.6016    17.0198     2.6360  1066.9441
 3030.3704    13.0316      .0114    26.9485    17.2237     2.6389  1045.9387
 3030.5228    13.0315      .0097    27.4723    17.3183     2.6309  1039.7737
 3030.6752    13.0314      .0066    26.7821    17.0167     2.6319  1077.3237
 3030.8276    13.0313      .0059    26.6431    16.2656     2.6211  1141.4937
 3030.9800    13.0312      .0128    28.5174    16.3631     2.6181  1143.0303
 3031.1324    13.0311      .0249    30.6847    16.3963     2.6342  1141.3242
 3031.2848    13.0310      .0168    32.8262    16.2108     2.6321  1172.5698
 3031.4372    13.0309      .0109    31.6871    16.5089     2.6280  1186.4106
 3031.5896    13.0308      .0107    27.1410    16.7864     2.6244  1135.6653
 3031.7420    13.0307      .0106    24.0459    16.4903     2.6122  1095.9707
 3031.8944    13.0307      .0211    21.5971    15.9060     2.6206  1058.3513
 3032.0468    13.0306      .0317    20.7442    15.2884     2.6406  1024.3215
 3032.1992    13.0305      .0400    20.4677    15.1266     2.6549  1002.6609
 3032.3516    13.0304      .0447    18.7174    15.3216     2.6725  1024.6216
 3032.5040    13.0303      .0357    16.9412    15.4866     2.6743  1064.2974
 3032.6564    13.0302      .0339    16.4933    15.5256     2.6713  1098.5627
 3032.8088    13.0302      .0255    18.2071    15.6846     2.6504  1122.3818
 3032.9612    13.0312      .0142    20.1102    15.6615     2.6282  1153.9819
 3033.1136    13.0321      .0112    19.8298    15.4576     2.6255  1168.8325
 3033.2660    13.0331      .0197    19.1536    15.2807     2.6274  1154.6748
 3033.4184    13.0341      .0396    19.3179    15.1876     2.6559  1128.3330
 3033.5708    13.0351      .0397    20.7181    14.5626     2.6689  1084.3840
 3033.7232    13.0360      .0345    22.9947    14.6209     2.6579  1043.2073
 3033.8756    13.0370      .0382    25.1190    15.3373     2.6587  1034.2776
 3034.0280    13.0380      .0363    24.9307    16.7842     2.6553  1025.4849
 3034.1804    13.0389      .0334    22.5127    17.3797     2.6482  1004.3875
 3034.3328    13.0399      .0331    20.2336    16.6387     2.6563  1013.3279
