~VERSION INFORMATION
VERS.                                                 2.0:   CWLS Log ASCII Standard-VERSION 2.0
WRAP.                                                  NO:   One line per depth step
~Well Information Block
STRT.M                                           435.1508:   Top Depth
STOP.M                                          4334.9144:   Bottom Depth
STEP.M                                             .15240:   Depth Increment
NULL.                                            -999.250:   Null Value
FLD .                                             WILDCAT:   Field Name
WELL.                                              15/5-2:   NAME
WBN .                                              15/5-2:   WELLBORE
NATI.                                                 NOR:   COUNTRY
CTRY.                                                 NOR:   COUNTRY
COMP.                                         NORSK HYDRO:   OPERATOR
PROV.                                           NORTH SEA:   PROVINCE
COUN.                                     TREASURE SEEKER:   RIG NAME
SPUD.                                          1978/08/16:   SPUD DATE
LATI.                                       58 38 36.70 N:   SURF. LATITUDE
LONG.                                        1 36 16.50 E:   SURF. LONGITUDE
PBWE.                                              15/5-2:   PB WELL ID
APIN.                                              15/5-2:   PB WELLBORE ID
PBWS.                                                 all:   PB WELL NAME SET
~PARAMETER INFORMATION (log)
LNAM.                              FDC/CNL/GR  COMPOSITED:   NAME
LTYP.                                         DEPTH MATCH:   LOG TYPE
LSRV.                                            DEN/NEUT:   LOG SERVICE
LSOU.                                             SPT/NPD:   LOG SOURCE
LVSN.                                                   1:   LOG VERSION
BHIS.                                                   R:   BRIEF HISTORY
FHIS.                                             RAW-LIS:   FULL HISTORY
LCNM.                                                 SCH:   LOGGING CONTRACTOR
TOOL.                             FDC/CNL/GR (COMPOSITED):   TOOL STRING
QCST.                                               final:   QC STATUS
~Curve Information Block
#MNEM.UNIT                                        API CODE    No Description
#=========                                        ========    == ===========
DEPT.M                                       00 001 00 00:     1  DEPTH
CALI.IN                                                  :     2  Caliper
DRHO.G/CC                                                :     3  Bulk density correction
GR.GAPI                                                  :     4  Gamma Ray
NPHI.%                                                   :     5  Neutron porosity
RHOB.G/CC                                                :     6  Bulk density
TENS.LB                                                  :     7  Cable Tension
~ASCII
# ...
 1734.8180    13.0659      .0259    43.6845    53.6152     1.9904  1431.3665
 1734.9704    13.0684      .0151    41.2542    53.1765     2.0004  1457.5352
 1735.1228    13.0710      .0283    39.9971    53.9895     2.0288  1449.7375
 1735.2752    13.0736      .0263    38.8961    55.5584     2.0267  1449.8843
 1735.4276    13.0761      .0131    37.4687    54.4946     2.0231  1495.7739
 1735.5800    13.0787     -.0001    35.3482    52.0946     2.0336  1498.5996
 1735.7324    13.0758     -.0116    33.0581    48.5461     2.0557  1454.4011
 1735.8848    13.0727     -.0081    29.9258    45.0005     2.1007  1450.4739
 1736.0372    13.0697     -.0022    26.8500    39.3979     2.1206  1460.6030
 1736.1896    13.0667     -.0000    25.0599    34.6956     2.1334  1451.5405
 1736.3420    13.0636      .0019    23.3024    34.4261     2.1394  1406.2666
 1736.4944    13.0606      .0021    22.1879    33.9172     2.1378  1336.7229
 1736.6468    13.0575      .0016    21.8148    32.6966     2.1361  1366.3186
 1736.7992    13.0586     -.0005    21.5489    32.8591     2.1259  1430.1958
 1736.9516    13.0616     -.0018    21.6432    33.4400     2.1188  1446.4897
 1737.1040    13.0645     -.0001    21.9116    32.6993     2.1242  1441.6699
 1737.2564    13.0675      .0029    22.1529    31.9514     2.1287  1464.1558
 1737.4088    13.0704      .0050    21.4309    31.2115     2.1294  1492.8186
 1737.5612    13.0734      .0023    21.2751    31.1699     2.1268  1521.9536
 1737.7136    13.0723     -.0029    21.8558    31.4082     2.1205  1504.8391
 1737.8660    13.0681     -.0076    22.6040    30.8559     2.1213  1473.2917
 1738.0184    13.0639     -.0029    22.7329    30.2790     2.1315  1459.4336
 1738.1708    13.0597      .0027    22.7587    30.7001     2.1362  1436.4241
 1738.3232    13.0555     -.0045    22.6097    31.2743     2.1337  1413.3962
 1738.4756    13.0542     -.0043    21.9567    31.0518     2.1417  1379.3777
 1738.6280    13.0565      .0018    22.4531    31.2552     2.1464  1353.5518
 1738.7804    13.0589      .0042    23.5914    32.2067     2.1471  1369.1023
 1738.9328    13.0613      .0089    22.8165    31.7579     2.1509  1403.6570
 1739.0852    13.0637      .0175    21.6272    30.9915     2.1631  1423.8999
 1739.2376    13.0660      .0200    21.5970    30.1520     2.1640  1444.1450
 1739.3900    13.0684      .0126    22.6493    30.2827     2.1576  1464.4080
 1739.5424    13.0708      .0058    24.6462    31.5205     2.1542  1493.2168
 1739.6948    13.0705      .0069    25.0625    32.7341     2.1577  1519.6648
 1739.8472    13.0702      .0152    23.8719    33.5164     2.1658  1513.3977
 1739.9996    13.0699      .0074    21.6932    31.6877     2.1789  1494.3030
 1740.1520    13.0696      .0037    21.7806    29.6081     2.1939  1464.2444
 1740.3044    13.0693      .0133    22.0973    27.3778     2.2014  1419.2493
 1740.4568    13.0690      .0089    22.2142    27.6739     2.2013  1381.4663
 1740.6092    13.0687      .0028    22.1936    28.2329     2.1976  1366.5493
 1740.7616    13.0683      .0112    22.2080    28.7769     2.2001  1359.9019
 1740.9140    13.0650      .0267    21.4691    30.1770     2.2037  1360.2629
 1741.0664    13.0613      .0404    21.1599    32.9070     2.2058  1378.4963
 1741.2188    13.0575      .0500    22.1064    34.7037     2.2036  1404.0127
 1741.3712    13.0538      .0541    23.1818    35.8655     2.2007  1430.6899
 1741.5236    13.0501      .0455    22.9669    36.6988     2.1894  1445.9429
 1741.6760    13.0475      .0291    22.4993    35.5195     2.1757  1452.0315
 1741.8284    13.0581      .0127    20.9732    33.4122     2.1663  1479.8926
 1741.9808    13.0659      .0025    20.3862    31.3399     2.1663  1501.8396
 1742.1332    13.0656      .0020    21.0242    29.9156     2.1784  1461.9404
 1742.2856    12.9989      .0113    23.8327    32.3904     2.1859  1435.1306
 1742.4380    12.9654      .0294    24.3195    35.1505     2.1899  1426.8823
 1742.5904    12.9833      .0420    24.2080    37.8412     2.1970  1424.9758
 1742.7428    13.0231      .0531    25.6828    40.7798     2.1937  1413.0842
 1742.8952    13.0500      .0610    28.8033    43.3736     2.1857  1399.6294
 1743.0476    13.0638      .0629    33.4108    44.9222     2.1714  1410.3911
 1743.2000    13.0598      .0578    37.9913    45.7011     2.1419  1447.7769
 1743.3524    13.0199      .0750    42.5169    46.9068     2.1545  1454.6228
 1743.5048    12.9633      .0767    44.7448    46.9816     2.1642  1449.6528
 1743.6572    12.7921      .0686    43.7035    45.6545     2.1698  1399.4070
 1743.8096    12.8626      .0548    41.4333    43.3686     2.1816  1397.0071
 1743.9620    12.9748      .0350    39.0273    40.8387     2.1727  1431.8464
 1744.1144    12.5839      .0147    36.5422    37.9945     2.1634  1438.4756
 1744.2668    12.4163      .0031    34.1138    35.8409     2.1578  1441.5857
 1744.4192    12.4056     -.0001    32.6867    33.6985     2.1655  1459.5432
 1744.5716    12.4455      .0016    31.5536    33.7355     2.1928  1484.0349
 1744.7240    12.5036      .0058    29.8482    33.0030     2.2117  1488.9077
 1744.8764    12.5768      .0063    29.7785    32.1850     2.2227  1445.9304
 1745.0288    12.6500      .0094    31.8477    32.9649     2.2218  1421.7454
 1745.1812    12.7155      .0241    35.0219    34.4302     2.2216  1418.1956
 1745.3336    12.7407      .0276    36.0239    36.2892     2.2087  1439.6541
 1745.4860    12.6871      .0207    37.7562    38.7957     2.1762  1428.5999
 1745.6384    12.6100      .0225    41.3839    41.4711     2.1494  1375.1140
 1745.7908    12.5268      .0324    45.5208    45.0205     2.1356  1353.0664
 1745.9432    12.6330      .0446    49.4314    49.6755     2.1347  1365.7520
 1746.0956    12.7310      .0300    50.8845    50.3341     2.1209  1400.3323
 1746.2480    12.6310      .0346    49.6476    49.4160     2.1193  1420.6592
 1746.4004    12.5121      .0260    47.0699    47.4801     2.1257  1436.8169
 1746.5528    12.3969      .0022    43.8216    43.4714     2.1317  1447.6482
 1746.7052    12.4045     -.0034    39.7043    38.5548     2.1388  1472.0740
 1746.8576    12.4194      .0033    34.6348    36.2542     2.1486  1510.8835
 1747.0100    12.4339      .0026    34.0832    37.0333     2.1486  1451.5447
 1747.1624    12.4981      .0043    36.0992    38.6988     2.1388  1405.2688
 1747.3148    12.5647      .0266    38.5430    40.3656     2.1401  1391.7461
 1747.4672    12.6781      .0530    40.6369    43.8203     2.1481  1391.8938
 1747.6196    12.6871      .0570    39.4720    44.9523     2.1309  1392.0427
 1747.7720    12.6345      .0411    35.9204    46.2894     2.1079  1397.0137
 1747.9244    12.5679      .0190    31.9536    41.4837     2.1024  1392.4431
 1748.0768    12.5484      .0094    30.2112    37.8157     2.1071  1407.4893
 1748.2292    12.5331      .0191    29.8506    36.5765     2.1227  1421.7788
 1748.3816    12.5178      .0202    29.6884    36.6969     2.1279  1406.2654
 1748.5340    12.5291      .0100    29.3432    37.0719     2.1201  1407.6057
 1748.6864    12.5438     -.0006    28.3842    38.0191     2.1104  1442.8936
 1748.8388    12.5928     -.0089    27.8741    37.9603     2.1092  1416.0415
 1748.9912    12.7284      .0015    27.4417    37.1686     2.1217  1402.1094
 1749.1436    12.7732      .0098    27.5828    36.3887     2.1304  1441.3325
 1749.2960    12.7729      .0105    28.1954    36.6168     2.1243  1453.4424
 1749.4484    12.7620      .0124    28.2093    37.5601     2.1203  1451.3857
 1749.6008    12.7217      .0168    27.3610    38.5041     2.1233  1435.0342
 1749.7532    12.6813      .0150    26.9523    39.4474     2.1353  1417.1477
 1749.9056    12.6187      .0108    26.5599    39.7720     2.1401  1404.2288
 1750.0580    12.5498      .0063    26.1564    39.0303     2.1407  1419.5173
 1750.2104    12.5072      .0026    25.6000    38.0139     2.1412  1403.8984
 1750.3628    12.4950      .0020    25.2597    36.8199     2.1350  1362.5562
 1750.5152    12.4999      .0020    25.3369    36.0977     2.1249  1359.0881
