~VERSION INFORMATION
VERS.                                                 2.0:   CWLS Log ASCII Standard-VERSION 2.0
WRAP.                                                  NO:   One line per depth step
~Well Information Block
STRT.M                                           435.1508:   Top Depth
STOP.M                                          4334.9144:   Bottom Depth
STEP.M                                             .15240:   Depth Increment
NULL.                                            -999.250:   Null Value
FLD .                                             WILDCAT:   Field Name
WELL.                                              15/5-2:   NAME
WBN .                                              15/5-2:   WELLBORE
NATI.                                                 NOR:   COUNTRY
CTRY.                                                 NOR:   COUNTRY
COMP.                                         NORSK HYDRO:   OPERATOR
PROV.                                           NORTH SEA:   PROVINCE
COUN.                                     TREASURE SEEKER:   RIG NAME
SPUD.                                          1978/08/16:   SPUD DATE
LATI.                                       58 38 36.70 N:   SURF. LATITUDE
LONG.                                        1 36 16.50 E:   SURF. LONGITUDE
PBWE.                                              15/5-2:   PB WELL ID
APIN.                                              15/5-2:   PB WELLBORE ID
PBWS.                                                 all:   PB WELL NAME SET
~PARAMETER INFORMATION (log)
LNAM.                              FDC/CNL/GR  COMPOSITED:   NAME
LTYP.                                         DEPTH MATCH:   LOG TYPE
LSRV.                                            DEN/NEUT:   LOG SERVICE
LSOU.                                             SPT/NPD:   LOG SOURCE
LVSN.                                                   1:   LOG VERSION
BHIS.                                                   R:   BRIEF HISTORY
FHIS.                                             RAW-LIS:   FULL HISTORY
LCNM.                                                 SCH:   LOGGING CONTRACTOR
TOOL.                             FDC/CNL/GR (COMPOSITED):   TOOL STRING
QCST.                                               final:   QC STATUS
~Curve Information Block
#MNEM.UNIT                                        API CODE    No Description
#=========                                        ========    == ===========
DEPT.M                                       00 001 00 00:     1  DEPTH
CALI.IN                                                  :     2  Caliper
DRHO.G/CC                                                :     3  Bulk density correction
GR.GAPI                                                  :     4  Gamma Ray
NPHI.%                                                   :     5  Neutron porosity
RHOB.G/CC                                                :     6  Bulk density
TENS.LB                                                  :     7  Cable Tension
~ASCII
# ...
  688.7444    17.5121      .0820    68.6435  -999.2500     1.7352   524.0936
  688.8968    17.5615      .1101    67.0087  -999.2500     1.7692   579.3890
  689.0492    17.6134      .1113    66.7748  -999.2500     1.7986   615.3295
  689.2016    17.6239      .1276    66.6274  -999.2500     1.8245   671.2144
  689.3540    17.6321      .1321    66.2533  -999.2500     1.8500   665.4218
  689.5064    17.6313      .1221    66.9666  -999.2500     1.8432   633.5825
  689.6588    17.5445      .1115    67.6100  -999.2500     1.8486   581.1440
  689.8112    17.4870      .0950    67.3177  -999.2500     1.8353   556.5897
  689.9636    17.4742      .0848    65.0271  -999.2500     1.8419   584.5768
  690.1160    17.5217      .0838    65.0871  -999.2500     1.8537   620.6420
  690.2684    17.5717      .0969    66.2418  -999.2500     1.8595   643.1610
  690.4208    17.5717      .1054    65.6605  -999.2500     1.8568   628.4857
  690.5732    17.5569      .1023    66.4808  -999.2500     1.8518   609.0691
  690.7256    17.5573      .0876    70.4195  -999.2500     1.8384   598.0457
  690.8780    17.6634      .0881    70.3367  -999.2500     1.8351   607.0160
  691.0304    17.6448      .0951    69.5825  -999.2500     1.8431   637.8988
  691.1828    17.7106      .1123    70.7096  -999.2500     1.8582   617.3491
  691.3352    17.6376      .1131    70.3394  -999.2500     1.8607   608.7062
  691.4876    17.6630      .1364    72.3870  -999.2500     1.8761   617.4481
  691.6400    17.6553      .1452    72.0189  -999.2500     1.8985   600.0504
  691.7924    17.7191      .1264    70.5663  -999.2500     1.8873   616.8170
  691.9448    17.7988      .1149    70.8085  -999.2500     1.8768   653.2064
  692.0972    17.9423      .0985    70.2003  -999.2500     1.8726   681.9857
  692.2496    17.8948      .1005    74.0949  -999.2500     1.8907   678.3761
  692.4020    18.1296      .1262    72.1866  -999.2500     1.9157   628.2200
  692.5544    18.1364      .1190    69.1209  -999.2500     1.9181   586.4697
  692.7068    18.0121      .1007    71.3147  -999.2500     1.8992   559.0695
  692.8592    18.0342      .0919    71.4841  -999.2500     1.8844   596.8475
  693.0116    17.9915      .0970    71.4872  -999.2500     1.8841   647.7604
  693.1640    18.0979      .1094    69.6089  -999.2500     1.8945   683.2960
  693.3164    18.1869      .1172    65.9765  -999.2500     1.9187   665.4950
  693.4688    18.1487      .1291    65.8133  -999.2500     1.9423   623.2814
  693.6212    18.1769      .1471    66.6487  -999.2500     1.9827   599.6599
  693.7736    18.1795      .1441    66.8456  -999.2500     1.9911   592.9965
  693.9260    18.1678      .1222    67.8234  -999.2500     1.9552   633.0659
  694.0784    18.1849      .1194    68.7816  -999.2500     1.9519   682.0514
  694.2308    18.2044      .1196    69.3381  -999.2500     1.9622   659.8822
  694.3832    18.1068      .1009    69.2250  -999.2500     1.9729   580.1176
  694.5356    17.9873      .0998    67.0334  -999.2500     1.9897   642.3446
  694.6880    18.0871      .1470    64.9165  -999.2500     2.0367   560.1842
  694.8404    18.1663      .1576    66.5278  -999.2500     2.0562   605.3561
  694.9928    18.1618      .1336    66.2983  -999.2500     2.0260   650.0219
  695.1452    18.1576      .1280    63.9958  -999.2500     2.0376   633.4274
  695.2976    18.4038      .1739    63.3458  -999.2500     2.0953   685.2012
  695.4500    17.7983      .1843    64.8013  -999.2500     2.1359   656.7316
  695.6024    17.4919      .1421    65.9185  -999.2500     2.1405   588.8267
  695.7548    17.4855      .1083    67.3699  -999.2500     2.0875   590.2380
  695.9072    17.8234      .0949    68.9908  -999.2500     2.0679   613.5598
  696.0596    17.8774      .0884    69.3381  -999.2500     2.0431   617.7032
  696.2120    18.2859      .0985    68.7688  -999.2500     2.0308   690.7561
  696.3644    18.6208      .0827    67.6854  -999.2500     1.9871   661.3523
  696.5168    18.6168      .0813    67.1153  -999.2500     1.9782   623.4054
  696.6692    18.5849      .0910    66.6008  -999.2500     1.9948   588.4115
  696.8216    18.5684      .1007    66.4841  -999.2500     1.9909   571.0345
  696.9740    18.5862      .1093    66.7560  -999.2500     2.0049   600.5476
  697.1264    18.6044      .0973    67.6243  -999.2500     2.0083   617.6527
  697.2788    18.6255      .0948    69.4805  -999.2500     2.0064   673.0172
  697.4312    18.6750      .1151    70.7751  -999.2500     2.0317   667.4301
  697.5836    18.8200      .1249    70.6478  -999.2500     2.0609   627.5919
  697.7360    18.8001      .0939    73.2497  -999.2500     2.0386   605.5894
  697.8884    18.6833      .0868    72.0914  -999.2500     2.0268   567.9674
  698.0408    18.6105      .0750    71.6762  -999.2500     2.0086   588.3712
  698.1932    18.6366      .0928    69.9853  -999.2500     2.0218   620.7583
  698.3456    18.7705      .0940    68.6397  -999.2500     2.0208   639.0724
  698.4980    18.8632      .0926    67.3746  -999.2500     2.0085   643.3556
  698.6504    18.8777      .0991    67.0442  -999.2500     2.0214   644.1449
  698.8028    18.8795      .1003    68.4649  -999.2500     2.0231   655.0475
  698.9552    18.8793      .1320    69.9046  -999.2500     2.0499   647.4462
  699.1076    18.8985      .1360    70.3661  -999.2500     2.0585   616.3809
  699.2600    18.8990      .1464    69.4253  -999.2500     2.0583   626.5214
  699.4124    18.8988      .1418    66.2817  -999.2500     2.0342   611.5261
  699.5648    18.8363      .1253    63.8214  -999.2500     2.0018   553.2057
  699.7172    18.7276      .1023    64.3857  -999.2500     1.9689   541.1495
  699.8696    18.5112      .0713    67.5511  -999.2500     1.9497   599.5841
  700.0220    18.3442      .0563    68.2165  -999.2500     1.9350   637.0210
  700.1744    18.3276      .0696    67.7381  -999.2500     1.9455   640.6960
  700.3268    18.4164      .0925    68.5880  -999.2500     1.9634   707.7416
  700.4792    18.5473      .0912    70.8871  -999.2500     1.9574   675.0419
  700.6316    18.6138      .1064    74.5051  -999.2500     1.9612   642.1326
  700.7840    18.6058      .1174    74.2615  -999.2500     1.9659   660.3801
  700.9364    18.5668      .1150    71.5771  -999.2500     1.9726   575.6620
  701.0888    18.4637      .1082    66.5581  -999.2500     1.9790   587.5769
  701.2412    18.3231      .0868    65.1817  -999.2500     1.9708   598.9633
  701.3936    18.2767      .0830    65.8030  -999.2500     1.9761   640.5240
  701.5460    18.2534      .0952    65.3439  -999.2500     1.9802   663.1222
  701.6984    18.2421      .0811    65.9910  -999.2500     1.9427   668.2734
  701.8508    18.2309      .0910    65.8225  -999.2500     1.9112   660.0566
  702.0032    18.2202      .0970    64.0156  -999.2500     1.9042   641.7511
  702.1556    18.2488      .1051    64.3380  -999.2500     1.9123   632.9158
  702.3080    18.9106      .1074    65.6508  -999.2500     1.9224   684.8381
  702.4604    18.4207      .0942    64.5898  -999.2500     1.9534   649.8459
  702.6128    18.1775      .0827    63.8601  -999.2500     1.9702   668.4912
  702.7652    18.3224      .0947    65.0149  -999.2500     1.9920   683.3640
  702.9176    18.3556      .0965    67.4625  -999.2500     2.0080   659.1250
  703.0700    18.3316      .0908    68.8262  -999.2500     1.9896   631.9818
  703.2224    18.3022      .0919    69.4522  -999.2500     1.9495   608.1592
  703.3748    18.2729      .0931    67.6939  -999.2500     1.9313   608.7360
  703.5272    18.2436      .0892    68.9471  -999.2500     1.9063   630.4647
  703.6796    18.2503      .0804    68.2719  -999.2500     1.8910   639.3131
  703.8320    18.3117      .0785    69.9686  -999.2500     1.8859   645.7844
  703.9844    18.4265      .0805    72.5688  -999.2500     1.8815   653.3033
  704.1368    18.5264      .0783    71.5947  -999.2500     1.8749   674.7040
  704.2892    18.6262      .0785    71.4344  -999.2500     1.8653   691.3201
  704.4416    18.6686      .0909    71.0503  -999.2500     1.8558   688.4969
