~VERSION INFORMATION
VERS.                                                 2.0:   CWLS Log ASCII Standard-VERSION 2.0
WRAP.                                                  NO:   One line per depth step
~Well Information Block
STRT.M                                           435.1508:   Top Depth
STOP.M                                          4334.9144:   Bottom Depth
STEP.M                                             .15240:   Depth Increment
NULL.                                            -999.250:   Null Value
FLD .                                             WILDCAT:   Field Name
WELL.                                              15/5-2:   NAME
WBN .                                              15/5-2:   WELLBORE
NATI.                                                 NOR:   COUNTRY
CTRY.                                                 NOR:   COUNTRY
COMP.                                         NORSK HYDRO:   OPERATOR
PROV.                                           NORTH SEA:   PROVINCE
COUN.                                     TREASURE SEEKER:   RIG NAME
SPUD.                                          1978/08/16:   SPUD DATE
LATI.                                       58 38 36.70 N:   SURF. LATITUDE
LONG.                                        1 36 16.50 E:   SURF. LONGITUDE
PBWE.                                              15/5-2:   PB WELL ID
APIN.                                              15/5-2:   PB WELLBORE ID
PBWS.                                                 all:   PB WELL NAME SET
~PARAMETER INFORMATION (log)
LNAM.                              FDC/CNL/GR  COMPOSITED:   NAME
LTYP.                                         DEPTH MATCH:   LOG TYPE
LSRV.                                            DEN/NEUT:   LOG SERVICE
LSOU.                                             SPT/NPD:   LOG SOURCE
LVSN.                                                   1:   LOG VERSION
BHIS.                                                   R:   BRIEF HISTORY
FHIS.                                             RAW-LIS:   FULL HISTORY
LCNM.                                                 SCH:   LOGGING CONTRACTOR
TOOL.                             FDC/CNL/GR (COMPOSITED):   TOOL STRING
QCST.                                               final:   QC STATUS
~Curve Information Block
#MNEM.UNIT                                        API CODE    No Description
#=========                                        ========    == ===========
DEPT.M                                       00 001 00 00:     1  DEPTH
CALI.IN                                                  :     2  Caliper
DRHO.G/CC                                                :     3  Bulk density correction
GR.GAPI                                                  :     4  Gamma Ray
NPHI.%                                                   :     5  Neutron porosity
RHOB.G/CC                                                :     6  Bulk density
TENS.LB                                                  :     7  Cable Tension
~ASCII
# ...
 1988.4116    13.0194      .0348    53.5597    48.1937     2.1538  1977.0093
 1988.5640    13.0197      .0186    52.6233    48.0474     2.1383  1984.4070
 1988.7164    13.0218      .0177    53.8893    49.6303     2.1381  1991.5784
 1988.8688    13.0246      .0252    52.5894    51.2144     2.1491  1942.5806
 1989.0212    13.0273      .0313    52.4031    50.5783     2.1577  1907.3884
 1989.1736    13.0300      .0306    54.2278    49.0694     2.1585  1906.4053
 1989.3260    13.0327      .0250    55.5231    48.7437     2.1496  1883.2234
 1989.4784    13.0355      .0150    54.8897    49.1226     2.1414  1832.4270
 1989.6308    13.0382      .0113    54.0970    49.3508     2.1379  1809.7710
 1989.7832    13.0409      .0225    55.1428    49.8270     2.1466  1833.2000
 1989.9356    13.0421      .0257    55.3993    50.3556     2.1547  1881.7961
 1990.0880    13.0424      .0319    55.5093    51.2372     2.1632  1910.7505
 1990.2404    13.0427      .0294    55.3395    52.2707     2.1650  1923.3616
 1990.3928    13.0430      .0413    54.3963    52.9443     2.1777  1955.7065
 1990.5452    13.0433      .0493    54.9064    52.3648     2.1915  1974.8840
 1990.6976    13.0435      .0520    57.3360    52.4880     2.1961  1974.7324
 1990.8500    13.0438      .0540    57.8906    53.6043     2.1984  1968.8953
 1991.0024    13.0441      .0563    56.3522    53.5860     2.1959  1939.8528
 1991.1548    13.0444      .0517    55.2991    52.3322     2.1904  1896.8357
 1991.3072    13.0439      .0502    54.8273    52.7986     2.1856  1856.2197
 1991.4596    13.0421      .0487    52.3300    51.6065     2.1860  1831.1255
 1991.6120    13.0403      .0457    49.4622    50.3006     2.1836  1828.4263
 1991.7644    13.0385      .0457    50.2730    49.6708     2.1840  1847.5410
 1991.9168    13.0366      .0470    52.4697    49.6266     2.1873  1872.3379
 1992.0692    13.0348      .0525    54.7245    48.8998     2.1884  1907.3083
 1992.2216    13.0330      .0475    55.2317    49.5397     2.1839  1913.7468
 1992.3740    13.0312      .0379    52.6547    50.3990     2.1695  1926.6677
 1992.5264    13.0293      .0333    50.7002    50.2389     2.1637  1956.2178
 1992.6788    13.0275      .0337    51.2902    48.1988     2.1648  1982.1006
 1992.8312    13.0290      .0469    52.5420    46.2394     2.1642  1977.1965
 1992.9836    13.0308      .0363    53.3296    45.1712     2.1579  1943.0496
 1993.1360    13.0326      .0352    53.4654    45.8226     2.1582  1918.0122
 1993.2884    13.0345      .0318    53.2417    47.0692     2.1669  1898.6511
 1993.4408    13.0363      .0333    52.4404    48.3146     2.1669  1892.1699
 1993.5932    13.0381      .0325    50.5849    49.2772     2.1694  1892.6729
 1993.7456    13.0399      .0394    47.7080    48.1503     2.1971  1901.3730
 1993.8980    13.0417      .0365    45.1046    46.9367     2.2321  1901.6926
 1994.0504    13.0436      .0203    43.9809    45.6677     2.2789  1901.5405
 1994.2028    13.0454     -.0157    42.6479    44.8026     2.3364  1903.2532
 1994.3552    13.0472     -.0161    42.1869    46.1564     2.3760  1921.1946
 1994.5076    13.0490      .0137    43.3225    48.4381     2.3553  1930.1938
 1994.6600    13.0509      .0358    45.5438    48.8072     2.2518  1899.7832
 1994.8124    13.0490      .0254    46.5795    48.1684     2.1476  1863.9031
 1994.9648    13.0469      .0339    46.9009    48.4564     2.1487  1850.7332
 1995.1172    13.0448      .0401    48.0385    49.4843     2.1602  1859.4905
 1995.2696    13.0428      .0420    49.6413    50.5129     2.1679  1887.0381
 1995.4220    13.0407      .0388    50.6803    51.4313     2.1688  1908.5183
 1995.5744    13.0386      .0462    50.7919    50.9296     2.1758  1929.1409
 1995.7268    13.0366      .0520    49.9961    50.1291     2.1800  1964.7754
 1995.8792    13.0345      .0425    48.6137    49.3626     2.1611  1972.0901
 1996.0316    13.0336      .0140    47.3175    49.9204     2.1400  1966.3350
 1996.1840    13.0339      .0229    48.5189    50.9133     2.1426  1927.4934
 1996.3364    13.0341      .0353    50.5078    51.9854     2.1506  1887.2095
 1996.4888    13.0344      .0279    52.1976    53.0573     2.1430  1848.7749
 1996.6412    13.0347      .0272    52.8578    52.8885     2.1468  1839.7117
 1996.7936    13.0350      .0245    52.9367    52.0041     2.1438  1847.2139
 1996.9460    13.0353      .0249    52.6350    51.0118     2.1398  1848.3855
 1997.0984    13.0356      .0453    51.2903    49.6043     2.1461  1846.1689
 1997.2508    13.0358      .0435    50.6448    48.6725     2.1483  1883.1323
 1997.4032    13.0361      .0552    52.1805    49.8573     2.1516  1930.4656
 1997.5556    13.0364      .0582    53.2188    50.8430     2.1492  1948.0825
 1997.7080    13.0367      .0590    51.3764    51.2228     2.1451  1959.9614
 1997.8604    13.0370      .0624    49.4688    51.3113     2.1406  1962.3606
 1998.0128    13.0373      .0637    49.1740    50.7130     2.1292  1956.9866
 1998.1652    13.0375      .0598    50.4587    49.9008     2.1214  1921.9136
 1998.3176    13.0348      .0505    50.8921    50.3224     2.1160  1838.2952
 1998.4700    13.0318      .0396    53.1149    50.8604     2.0950  1757.4131
 1998.6224    13.0288      .0364    55.1814    50.1826     2.1001  1780.3062
 1998.7748    13.0258      .0353    51.9312    50.2647     2.1139  1846.8362
 1998.9272    13.0228      .0304    50.0748    50.1913     2.1230  1846.7759
 1999.0796    13.0198      .0251    50.9567    49.2104     2.1187  1847.3291
 1999.2320    13.0217      .0287    52.7041    47.7958     2.1159  1854.1094
 1999.3844    13.0244      .0230    52.8876    47.4286     2.1091  1844.4924
 1999.5368    13.0271      .0209    53.0176    48.6117     2.1067  1836.2634
 1999.6892    13.0298      .0252    53.8173    49.7265     2.1066  1843.4624
 1999.8416    13.0325      .0180    54.8501    50.7628     2.1063  1862.3616
 1999.9940    13.0352      .0224    56.1700    51.6108     2.1082  1881.2817
 2000.1464    13.0379      .0182    58.4164    50.4469     2.1058  1897.7847
 2000.2988    13.0406      .0198    57.1926    49.5626     2.1046  1941.8127
 2000.4512    13.0416      .0231    52.8864    51.2344     2.1100  1971.7659
 2000.6036    13.0418      .0282    49.9348    51.7680     2.1211  1974.1936
 2000.7560    13.0421      .0340    49.2257    50.3077     2.1289  1911.9368
 2000.9084    13.0423      .0334    49.6422    50.8645     2.1224  1887.0730
 2001.0608    13.0426      .0343    49.0659    51.0392     2.1208  1895.4514
 2001.2132    13.0428      .0296    47.8379    49.9688     2.1206  1879.8721
 2001.3656    13.0431      .0200    46.8713    50.0289     2.1185  1846.3323
 2001.5180    13.0434      .0338    45.8662    49.2040     2.1244  1804.6484
 2001.6704    13.0436      .0309    44.8878    47.9813     2.1284  1775.4194
 2001.8228    13.0450      .0223    44.5481    48.8555     2.1204  1798.6426
 2001.9752    13.0471      .0242    44.2046    50.4379     2.1194  1860.7485
 2002.1276    13.0493      .0309    44.9576    51.5061     2.1200  1865.0278
 2002.2800    13.0515      .0433    46.6297    50.3772     2.1168  1859.1829
 2002.4324    13.0536      .0423    48.5026    50.5834     2.1086  1900.5046
 2002.5848    13.0558      .0363    50.2231    49.3788     2.1053  1941.2654
 2002.7372    13.0580      .0411    49.8817    47.9246     2.1014  1954.5662
 2002.8896    13.0601      .0412    47.5397    48.8082     2.0882  1948.8762
 2003.0420    13.0623      .0424    47.4058    50.1568     2.0725  1903.7769
 2003.1944    13.0645      .0414    47.0388    51.5065     2.0594  1855.4995
 2003.3468    13.0659      .0384    46.3932    52.3869     2.0477  1870.8994
 2003.4992    13.0637      .0350    46.9354    51.7278     2.0477  1821.8386
 2003.6516    13.0615      .0313    48.1700    49.1733     2.0468  1755.1162
 2003.8040    13.0593      .0344    48.9051    46.8618     2.0456  1760.0513
 2003.9564    13.0571      .0375    48.9510    46.0123     2.0505  1813.7231
 2004.1088    13.0549      .0333    47.9387    46.4627     2.0570  1829.5100
