~VERSION INFORMATION
VERS.                                                 2.0:   CWLS Log ASCII Standard-VERSION 2.0
WRAP.                                                  NO:   One line per depth step
~Well Information Block
STRT.M                                           435.1508:   Top Depth
STOP.M                                          4334.9144:   Bottom Depth
STEP.M                                             .15240:   Depth Increment
NULL.                                            -999.250:   Null Value
FLD .                                             WILDCAT:   Field Name
WELL.                                              15/5-2:   NAME
WBN .                                              15/5-2:   WELLBORE
NATI.                                                 NOR:   COUNTRY
CTRY.                                                 NOR:   COUNTRY
COMP.                                         NORSK HYDRO:   OPERATOR
PROV.                                           NORTH SEA:   PROVINCE
COUN.                                     TREASURE SEEKER:   RIG NAME
SPUD.                                          1978/08/16:   SPUD DATE
LATI.                                       58 38 36.70 N:   SURF. LATITUDE
LONG.                                        1 36 16.50 E:   SURF. LONGITUDE
PBWE.                                              15/5-2:   PB WELL ID
APIN.                                              15/5-2:   PB WELLBORE ID
PBWS.                                                 all:   PB WELL NAME SET
~PARAMETER INFORMATION (log)
LNAM.                              FDC/CNL/GR  COMPOSITED:   NAME
LTYP.                                         DEPTH MATCH:   LOG TYPE
LSRV.                                            DEN/NEUT:   LOG SERVICE
LSOU.                                             SPT/NPD:   LOG SOURCE
LVSN.                                                   1:   LOG VERSION
BHIS.                                                   R:   BRIEF HISTORY
FHIS.                                             RAW-LIS:   FULL HISTORY
LCNM.                                                 SCH:   LOGGING CONTRACTOR
TOOL.                             FDC/CNL/GR (COMPOSITED):   TOOL STRING
QCST.                                               final:   QC STATUS
~Curve Information Block
#MNEM.UNIT                                        API CODE    No Description
#=========                                        ========    == ===========
DEPT.M                                       00 001 00 00:     1  DEPTH
CALI.IN                                                  :     2  Caliper
DRHO.G/CC                                                :     3  Bulk density correction
GR.GAPI                                                  :     4  Gamma Ray
NPHI.%                                                   :     5  Neutron porosity
RHOB.G/CC                                                :     6  Bulk density
TENS.LB                                                  :     7  Cable Tension
~ASCII
# ...
  958.1876    17.1860      .1041    49.6889  -999.2500     2.0012   -37.4024
  958.3400    17.1983      .0989    50.4837  -999.2500     1.9944    48.7440
  958.4924    17.2916      .0915    52.5723  -999.2500     1.9887    76.1092
  958.6448    17.2753      .0911    55.4298  -999.2500     1.9975   105.4560
  958.7972    17.2127      .0925    56.7018  -999.2500     2.0012   122.6130
  958.9496    17.2083      .0952    54.7127  -999.2500     1.9986    78.5298
  959.1020    17.2209      .1018    54.0014  -999.2500     2.0148     8.1097
  959.2544    17.2209      .1065    57.2146  -999.2500     2.0252   -20.8990
  959.4068    17.2019      .1025    55.1738  -999.2500     2.0278    45.1652
  959.5592    17.1593      .0952    53.2437  -999.2500     2.0228    68.2794
  959.7116    17.1346      .0906    53.1156  -999.2500     2.0275   103.4198
  959.8640    17.1229      .0829    52.9510  -999.2500     2.0249   132.0331
  960.0164    17.1473      .0814    52.9160  -999.2500     2.0325    56.2644
  960.1688    17.1768      .0711    54.7453  -999.2500     2.0319    50.2134
  960.3212    17.2112      .0780    56.7431  -999.2500     2.0512    30.6933
  960.4736    17.1917      .0837    55.1566  -999.2500     2.0583   -19.9355
  960.6260    17.1914      .0779    53.9283  -999.2500     2.0487    26.1340
  960.7784    17.2128      .0884    53.1266  -999.2500     2.0516    93.5318
  960.9308    17.2133      .0896    52.9618  -999.2500     2.0506    87.3549
  961.0832    17.2003      .0704    52.8144  -999.2500     2.0318    72.8830
  961.2356    17.1873      .0613    53.0035  -999.2500     2.0257   169.4531
  961.3880    17.1923      .0674    53.4476  -999.2500     2.0333   101.1509
  961.5404    17.2119      .0836    53.8064  -999.2500     2.0475    49.8389
  961.6928    17.2153      .0721    53.6885  -999.2500     2.0356    57.0622
  961.8452    17.2036      .0552    52.9872  -999.2500     2.0111    -9.9557
  961.9976    17.1727      .0586    52.7193  -999.2500     1.9859   -24.8074
  962.1500    17.1241      .0884    53.1946  -999.2500     1.9925    77.6203
  962.3024    16.9274      .1113    53.3203  -999.2500     1.9838    14.8212
  962.4548    16.4867      .1180    51.6920  -999.2500     1.9777   115.6708
  962.6072    16.2459      .1294    51.3817  -999.2500     1.9956   169.3140
  962.7596    16.3783      .1214    52.8456  -999.2500     2.0152   103.7620
  962.9120    16.5981      .0967    54.5894  -999.2500     2.0104   176.7730
  963.0644    16.8948      .0692    57.0076  -999.2500     2.0074   169.8745
  963.2168    17.0720      .0601    56.7134  -999.2500     2.0127    55.8755
  963.3692    17.0975      .0634    54.5968  -999.2500     2.0182    28.5585
  963.5216    17.0877      .0704    52.4344  -999.2500     2.0234    27.7257
  963.6740    17.1000      .0796    50.2718  -999.2500     2.0253    61.1040
  963.8264    17.1392      .0820    49.2939  -999.2500     2.0125   106.7523
  963.9788    17.2176      .0729    50.5861  -999.2500     1.9849   119.1478
  964.1312    17.2991      .0957    52.1701  -999.2500     2.0015   107.7242
  964.2836    17.3214      .1194    52.6167  -999.2500     2.0149    37.8553
  964.4360    17.1013      .1283    51.7916  -999.2500     2.0147     2.5826
  964.5884    16.7719      .1304    48.9250  -999.2500     2.0152    95.7373
  964.7408    17.0064      .1209    51.1207  -999.2500     2.0201   189.3888
  964.8932    17.2918      .1033    52.8676  -999.2500     2.0125   160.3580
  965.0456    17.2249      .1021    52.2984  -999.2500     2.0284    95.8285
  965.1980    17.1776      .0992    51.6230  -999.2500     2.0312   117.9635
  965.3504    17.1692      .0896    51.8505  -999.2500     2.0217    59.2096
  965.5028    17.2441      .0862    52.4826  -999.2500     2.0160    40.8972
  965.6552    17.2158      .0799    52.0513  -999.2500     2.0060    79.6418
  965.8076    17.1513      .0722    51.2237  -999.2500     2.0055    63.2671
  965.9600    17.2154      .0692    51.4916  -999.2500     2.0166   157.3354
  966.1124    17.2819      .0711    51.9385  -999.2500     2.0193   170.7923
  966.2648    17.2588      .0778    51.4269  -999.2500     2.0239   104.8399
  966.4172    17.2422      .0842    49.8841  -999.2500     2.0180   119.6025
  966.5696    17.2422      .0810    49.3404  -999.2500     2.0042    79.8562
  966.7220    17.2616      .0732    48.6706  -999.2500     1.9930    59.8008
  966.8744    17.3198      .0807    47.6703  -999.2500     1.9951   112.7523
  967.0268    17.4925      .0978    47.7121  -999.2500     2.0067   129.3578
  967.1792    17.5155      .0971    49.2867  -999.2500     1.9973   129.3461
  967.3316    17.4468      .0688    51.4141  -999.2500     1.9628   108.0522
  967.4840    17.5665      .0624    52.5018  -999.2500     1.9593    94.4789
  967.6364    17.4762      .0601    51.1279  -999.2500     1.9607   100.5132
  967.7888    17.6361      .0781    50.8882  -999.2500     1.9652   125.2592
  967.9412    17.4836      .0851    52.1806  -999.2500     1.9557   152.6856
  968.0936    17.1453      .0865    53.0651  -999.2500     1.9607   173.4376
  968.2460    17.7788      .0837    53.3391  -999.2500     1.9692   168.5938
  968.3984    17.5165      .0785    53.1551  -999.2500     1.9737   109.9393
  968.5508    17.0673      .0892    53.1111  -999.2500     1.9785    59.7979
  968.7032    16.8720      .0982    53.8233  -999.2500     1.9881   126.5339
  968.8556    16.9838      .1009    54.3195  -999.2500     1.9977    83.3823
  969.0080    16.9997      .0982    53.8784  -999.2500     1.9949    29.8984
  969.1604    17.1012      .0892    52.1993  -999.2500     1.9863    85.9186
  969.3128    17.3349      .0773    52.5431  -999.2500     1.9553   142.8007
  969.4652    17.4608      .0771    53.7839  -999.2500     1.9493   164.2783
  969.6176    17.0779      .0702    53.1179  -999.2500     1.9371   214.6553
  969.7700    17.2421      .0590    53.5905  -999.2500     1.9032   226.7379
  969.9224    17.4643      .0666    54.4460  -999.2500     1.9101   104.9002
  970.0748    17.6064      .0635    55.1333  -999.2500     1.9024   108.5863
  970.2272    17.4453      .0643    56.0105  -999.2500     1.9094    34.9857
  970.3796    17.2314      .0685    58.6564  -999.2500     1.9334    34.2028
  970.5320    17.4948      .0858    58.3096  -999.2500     1.9537    79.6518
  970.6844    17.1715      .1034    55.4445  -999.2500     1.9754   162.3109
  970.8368    17.0668      .1004    51.2214  -999.2500     1.9736   204.8923
  970.9892    17.2635      .0860    49.8522  -999.2500     1.9706   182.8927
  971.1416    17.4023      .0792    49.5303  -999.2500     1.9671   120.8260
  971.2940    17.2730      .0735    48.8989  -999.2500     1.9754    53.4958
  971.4464    17.7527      .0776    48.3509  -999.2500     1.9774   137.2586
  971.5988    18.2301      .0754    50.0216  -999.2500     1.9736   138.7692
  971.7512    17.5815      .0695    53.0056  -999.2500     1.9709   177.0468
  971.9036    18.5983      .0748    54.1891  -999.2500     1.9750   188.4639
  972.0560    18.1842      .0737    54.8325  -999.2500     1.9745   160.1979
  972.2084    17.7116      .0667    56.8017  -999.2500     1.9611   117.6319
  972.3608    18.0481      .0610    57.7247  -999.2500     1.9506   101.7243
  972.5132    17.4794      .0671    56.5637  -999.2500     1.9525   120.7919
  972.6656    18.0537      .0779    54.7441  -999.2500     1.9735   142.0686
  972.8180    17.3627      .0831    53.6124  -999.2500     1.9776   155.6453
  972.9704    17.4763      .0851    51.4324  -999.2500     1.9807   182.0744
  973.1228    17.5879      .0816    51.8058  -999.2500     1.9810   188.1215
  973.2752    17.4438      .0731    53.3997  -999.2500     1.9777   144.9300
  973.4276    17.5737      .0848    54.5891  -999.2500     1.9894   101.2773
  973.5800    17.6917      .1036    56.1950  -999.2500     2.0027    90.6740
  973.7324    17.5565      .1048    59.2260  -999.2500     2.0007   114.8062
  973.8848    17.4470      .0808    59.6979  -999.2500     1.9725   153.5835
