~VERSION INFORMATION
VERS.                                                 2.0:   CWLS Log ASCII Standard-VERSION 2.0
WRAP.                                                  NO:   One line per depth step
~Well Information Block
STRT.M                                           435.1508:   Top Depth
STOP.M                                          4334.9144:   Bottom Depth
STEP.M                                             .15240:   Depth Increment
NULL.                                            -999.250:   Null Value
FLD .                                             WILDCAT:   Field Name
WELL.                                              15/5-2:   NAME
WBN .                                              15/5-2:   WELLBORE
NATI.                                                 NOR:   COUNTRY
CTRY.                                                 NOR:   COUNTRY
COMP.                                         NORSK HYDRO:   OPERATOR
PROV.                                           NORTH SEA:   PROVINCE
COUN.                                     TREASURE SEEKER:   RIG NAME
SPUD.                                          1978/08/16:   SPUD DATE
LATI.                                       58 38 36.70 N:   SURF. LATITUDE
LONG.                                        1 36 16.50 E:   SURF. LONGITUDE
PBWE.                                              15/5-2:   PB WELL ID
APIN.                                              15/5-2:   PB WELLBORE ID
PBWS.                                                 all:   PB WELL NAME SET
~PARAMETER INFORMATION (log)
LNAM.                              FDC/CNL/GR  COMPOSITED:   NAME
LTYP.                                         DEPTH MATCH:   LOG TYPE
LSRV.                                            DEN/NEUT:   LOG SERVICE
LSOU.                                             SPT/NPD:   LOG SOURCE
LVSN.                                                   1:   LOG VERSION
BHIS.                                                   R:   BRIEF HISTORY
FHIS.                                             RAW-LIS:   FULL HISTORY
LCNM.                                                 SCH:   LOGGING CONTRACTOR
TOOL.                             FDC/CNL/GR (COMPOSITED):   TOOL STRING
QCST.                                               final:   QC STATUS
~Curve Information Block
#MNEM.UNIT                                        API CODE    No Description
#=========                                        ========    == ===========
DEPT.M                                       00 001 00 00:     1  DEPTH
CALI.IN                                                  :     2  Caliper
DRHO.G/CC                                                :     3  Bulk density correction
GR.GAPI                                                  :     4  Gamma Ray
NPHI.%                                                   :     5  Neutron porosity
RHOB.G/CC                                                :     6  Bulk density
TENS.LB                                                  :     7  Cable Tension
~ASCII
# ...
 1465.3748    17.3443      .0683    45.0311  -999.2500     2.0657   568.2152
 1465.5272    17.3617      .0702    46.3612  -999.2500     2.0724   522.4285
 1465.6796    17.4136      .0713    47.4970  -999.2500     2.0634   607.5530
 1465.8320    17.2750      .0693    52.5178  -999.2500     2.0606   750.6193
 1465.9844    17.2335      .0727    56.1416  -999.2500     2.0493   682.1195
 1466.1368    17.1926      .0788    57.4713  -999.2500     2.0447   564.6379
 1466.2892    17.2709      .0766    57.9580  -999.2500     2.0437   586.8245
 1466.4416    17.2709      .0828    56.5611  -999.2500     2.0505   626.6479
 1466.5940    17.1404      .0819    54.4475  -999.2500     2.0386   712.8630
 1466.7464    17.0752      .0802    51.2203  -999.2500     2.0237   661.8615
 1466.8988    17.1148      .0660    48.7723  -999.2500     2.0081   591.0698
 1467.0512    17.0998      .0672    50.2322  -999.2500     1.9972   588.7023
 1467.2036    17.0252      .0773    51.0280  -999.2500     2.0067   634.7196
 1467.3560    16.8839      .0683    49.5917  -999.2500     2.0114   707.2615
 1467.5084    17.0377      .0741    49.3803  -999.2500     2.0363   749.3530
 1467.6608    17.2800      .0949    49.0928  -999.2500     2.0696   688.4525
 1467.8132    17.2981      .0952    50.4643  -999.2500     2.0753   606.4198
 1467.9656    17.2804      .0841    53.9489  -999.2500     2.0548   525.3862
 1468.1180    17.2795      .0804    51.5414  -999.2500     2.0537   548.3550
 1468.2704    17.3213      .0775    49.6417  -999.2500     2.0568   613.4889
 1468.4228    17.3924      .0668    51.6542  -999.2500     2.0531   690.6182
 1468.5752    17.4638      .0597    51.7790  -999.2500     2.0510   681.3789
 1468.7276    17.5301      .0648    50.0616  -999.2500     2.0540   777.0269
 1468.8800    17.5563      .0731    49.7452  -999.2500     2.0605   728.7578
 1469.0324    17.5620      .0725    50.1328  -999.2500     2.0437   686.4707
 1469.1848    17.5435      .0700    50.3548  -999.2500     2.0266   641.6223
 1469.3372    17.4517      .0849    49.9765  -999.2500     2.0203   578.5642
 1469.4896    17.3291      .0861    51.4734  -999.2500     2.0033   529.4705
 1469.6420    17.2060      .0769    52.1159  -999.2500     2.0106   578.4344
 1469.7944    17.2603      .0750    52.5369  -999.2500     2.0265   636.3260
 1469.9468    17.5414      .0859    54.6915  -999.2500     2.0418   656.4966
 1470.0992    17.5003      .1029    54.8721  -999.2500     2.0590   718.7968
 1470.2516    17.3280      .0963    54.4139  -999.2500     2.0581   740.7614
 1470.4040    17.4512      .0887    55.2244  -999.2500     2.0535   676.0577
 1470.5564    17.6081      .0950    55.2087  -999.2500     2.0497   622.2026
 1470.7088    17.4668      .0957    54.4865  -999.2500     2.0374   626.9963
 1470.8612    17.2449      .0808    55.1039  -999.2500     2.0162   586.4755
 1471.0136    17.3092      .0871    55.6061  -999.2500     2.0204   599.7319
 1471.1660    17.4852      .0836    55.1050  -999.2500     2.0255   616.3002
 1471.3184    17.5491      .0891    55.2190  -999.2500     2.0314   629.5431
 1471.4708    17.4333      .1040    54.3349  -999.2500     2.0271   653.1501
 1471.6232    17.1851      .0853    53.2357  -999.2500     2.0051   686.4857
 1471.7756    17.1858      .0682    52.9602  -999.2500     2.0089   711.6115
 1471.9280    17.2510      .0576    53.2075  -999.2500     2.0061   698.2584
 1472.0804    17.2427      .0550    53.6920  -999.2500     2.0103   672.8942
 1472.2328    17.3100      .0546    54.2215  -999.2500     2.0205   658.1741
 1472.3852    17.3549      .0501    54.3633  -999.2500     2.0053   651.8396
 1472.5376    17.3539      .0602    54.0626  -999.2500     2.0123   672.3530
 1472.6900    17.3429      .0787    52.8290  -999.2500     2.0393   678.9270
 1472.8424    17.3666      .0905    52.4541  -999.2500     2.0436   647.5398
 1472.9948    17.3615      .0910    52.7142  -999.2500     2.0374   619.4409
 1473.1472    17.3080      .0847    53.3614  -999.2500     2.0328   609.2689
 1473.2996    17.2661      .0723    53.5842  -999.2500     2.0177   642.9653
 1473.4520    17.3203      .0595    49.5822  -999.2500     2.0151   685.7877
 1473.6044    17.4366      .0577    44.3843  -999.2500     2.0307   705.6302
 1473.7568    17.5017      .0627    42.7951  -999.2500     2.0394   674.2383
 1473.9092    17.4899      .0572    44.5758  -999.2500     2.0353   672.8436
 1474.0616    17.4375      .0658    46.1693  -999.2500     2.0480   689.0571
 1474.2140    17.6103      .0706    47.1672  -999.2500     2.0502   717.8192
 1474.3664    17.6432      .0632    46.5870  -999.2500     2.0317   723.0784
 1474.5188    17.4471      .0625    46.5373  -999.2500     2.0157   707.9862
 1474.6712    17.1407      .0812    46.3588  -999.2500     2.0190   668.6252
 1474.8236    17.0393      .0697    47.9162  -999.2500     2.0131   621.7217
 1474.9760    17.3800      .0603    50.5086  -999.2500     2.0093   612.5189
 1475.1284    17.6354      .0585    50.7721  -999.2500     2.0086   659.4828
 1475.2808    17.5538      .0673    51.1384  -999.2500     2.0106   673.9977
 1475.4332    17.2718      .0739    49.9847  -999.2500     2.0162   766.2568
 1475.5856    17.3347      .0680    50.2683  -999.2500     2.0122   829.2521
 1475.7380    17.3613      .0607    51.6726  -999.2500     2.0124   747.0334
 1475.8904    17.2797      .0684    52.0405  -999.2500     2.0273   716.8403
 1476.0428    17.3798      .0691    50.6469  -999.2500     2.0285   705.3179
 1476.1952    17.4666      .0849    49.4133  -999.2500     2.0458   617.0371
 1476.3476    17.5102      .0965    49.0317  -999.2500     2.0556   583.2150
 1476.5000    17.4434      .0925    47.2123  -999.2500     2.0537   652.2473
 1476.6524    17.4611      .0717    44.7808  -999.2500     2.0319   715.8276
 1476.8048    17.5704      .0932    45.5682  -999.2500     2.0502   744.3613
 1476.9572    17.4959      .0815    45.5884  -999.2500     2.0388   742.9572
 1477.1096    17.4874      .0674    45.4262  -999.2500     2.0202   696.0275
 1477.2620    17.4705      .0780    45.9141  -999.2500     2.0364   689.1030
 1477.4144    17.4648      .0802    47.5636  -999.2500     2.0362   716.3630
 1477.5668    17.5639      .0700    48.7705  -999.2500     2.0305   739.1691
 1477.7192    17.5551      .0765    48.7014  -999.2500     2.0359   757.0493
 1477.8716    17.4895      .0705    48.6248  -999.2500     2.0144   750.4695
 1478.0240    17.4232      .0655    50.1120  -999.2500     2.0035   728.1791
 1478.1764    17.2580      .0787    54.1250  -999.2500     2.0134   684.5890
 1478.3288    17.1220      .0735    51.1362  -999.2500     2.0176   636.4662
 1478.4812    17.1430      .0723    48.7401  -999.2500     2.0308   640.2979
 1478.6336    17.2735      .0818    48.5614  -999.2500     2.0471   667.4840
 1478.7860    17.4164      .0878    47.7738  -999.2500     2.0544   725.9353
 1478.9384    17.4825      .0880    47.9145  -999.2500     2.0502   805.3694
 1479.0908    17.4638      .0768    50.3943  -999.2500     2.0508   842.1851
 1479.2432    17.3984      .0758    53.0597  -999.2500     2.0694   769.5204
 1479.3956    17.2260      .0792    53.9488  -999.2500     2.0711   667.1102
 1479.5480    17.2081      .0871    53.6644  -999.2500     2.0662   603.4541
 1479.7004    17.3708      .0913    51.6641  -999.2500     2.0642   643.0825
 1479.8528    17.4164      .0988    49.0192  -999.2500     2.0697   711.9463
 1480.0052    17.3327      .1057    49.5094  -999.2500     2.0670   779.6526
 1480.1576    17.2906      .0890    47.2783  -999.2500     2.0397   782.1125
 1480.3100    17.2674      .0856    45.7797  -999.2500     2.0351   720.6808
 1480.4624    17.2507      .0903    45.9626  -999.2500     2.0407   683.4026
 1480.6148    17.2860      .0889    49.1316  -999.2500     2.0484   698.3710
 1480.7672    17.2237      .0780    52.4766  -999.2500     2.0370   747.7477
 1480.9196    17.1486      .0788    53.2658  -999.2500     2.0559   768.9932
 1481.0720    17.1967      .0782    50.2739  -999.2500     2.0592   745.8759
