~VERSION INFORMATION
VERS.                                                 2.0:   CWLS Log ASCII Standard-VERSION 2.0
WRAP.                                                  NO:   One line per depth step
~Well Information Block
STRT.M                                           435.1508:   Top Depth
STOP.M                                          4334.9144:   Bottom Depth
STEP.M                                             .15240:   Depth Increment
NULL.                                            -999.250:   Null Value
FLD .                                             WILDCAT:   Field Name
WELL.                                              15/5-2:   NAME
WBN .                                              15/5-2:   WELLBORE
NATI.                                                 NOR:   COUNTRY
CTRY.                                                 NOR:   COUNTRY
COMP.                                         NORSK HYDRO:   OPERATOR
PROV.                                           NORTH SEA:   PROVINCE
COUN.                                     TREASURE SEEKER:   RIG NAME
SPUD.                                          1978/08/16:   SPUD DATE
LATI.                                       58 38 36.70 N:   SURF. LATITUDE
LONG.                                        1 36 16.50 E:   SURF. LONGITUDE
PBWE.                                              15/5-2:   PB WELL ID
APIN.                                              15/5-2:   PB WELLBORE ID
PBWS.                                                 all:   PB WELL NAME SET
~PARAMETER INFORMATION (log)
LNAM.                              FDC/CNL/GR  COMPOSITED:   NAME
LTYP.                                         DEPTH MATCH:   LOG TYPE
LSRV.                                            DEN/NEUT:   LOG SERVICE
LSOU.                                             SPT/NPD:   LOG SOURCE
LVSN.                                                   1:   LOG VERSION
BHIS.                                                   R:   BRIEF HISTORY
FHIS.                                             RAW-LIS:   FULL HISTORY
LCNM.                                                 SCH:   LOGGING CONTRACTOR
TOOL.                             FDC/CNL/GR (COMPOSITED):   TOOL STRING
QCST.                                               final:   QC STATUS
~Curve Information Block
#MNEM.UNIT                                        API CODE    No Description
#=========                                        ========    == ===========
DEPT.M                                       00 001 00 00:     1  DEPTH
CALI.IN                                                  :     2  Caliper
DRHO.G/CC                                                :     3  Bulk density correction
GR.GAPI                                                  :     4  Gamma Ray
NPHI.%                                                   :     5  Neutron porosity
RHOB.G/CC                                                :     6  Bulk density
TENS.LB                                                  :     7  Cable Tension
~ASCII
# ...
 4064.7092     9.0455      .0175    88.0849    24.0968     2.5939   765.5717
 4064.8616     9.0355      .0135    88.2668    24.7252     2.5970   751.1252
 4065.0140     9.0359      .0125    88.2539    25.2677     2.6042   694.6875
 4065.1664     9.0362      .0180    87.6385    25.5918     2.6153   693.5223
 4065.3188     9.0366      .0280    85.6800    25.6009     2.6277   630.8433
 4065.4712     9.0500      .0297    83.9429    24.7193     2.6186   576.7950
 4065.6236     9.0943      .0267    82.8161    23.3512     2.6152   591.9139
 4065.7760     9.1077      .0290    80.8733    22.8522     2.6118   669.8242
 4065.9284     9.0583      .0389    77.3409    21.8248     2.6250   709.6832
 4066.0808     9.0094      .0436    72.3030    19.4444     2.6281   814.4615
 4066.2332     8.9679      .0265    69.6346    16.9339     2.6293   864.8070
 4066.3856     8.9592      .0144    68.8294    16.0170     2.6560   753.5121
 4066.5380     8.9595      .0127    70.5428    17.7591     2.6884   648.0010
 4066.6904     8.9600      .0154    76.1838    19.8493     2.7254   608.7233
 4066.8428     8.9655      .0323    83.3553    22.2570     2.7114   562.3998
 4066.9952     8.9730      .0274    88.8966    22.9494     2.6537   567.0497
 4067.1476     8.9761      .0093    90.5048    23.8386     2.6036   662.4806
 4067.3000     8.9498      .0025    90.0189    24.4726     2.5855   678.7385
 4067.4524     8.9158      .0057    88.3152    25.0894     2.5754   717.2672
 4067.6048     8.9024      .0098    86.3328    25.3626     2.5795   814.8873
 4067.7572     8.9025      .0060    83.2915    24.1482     2.5774   834.0885
 4067.9096     8.8956      .0110    80.7105    21.7503     2.5759   751.5144
 4068.0620     8.8632      .0223    77.6436    18.6576     2.6103   664.4247
 4068.2144     8.8189      .0315    73.7793    16.5276     2.6496   525.9640
 4068.3668     8.7743      .0277    67.8106    14.1817     2.6951   534.7148
 4068.5192     8.7296      .0097    59.5266    12.7986     2.7550   497.0479
 4068.6716     8.6849      .0078    53.9756    12.0876     2.8118   620.3112
 4068.8240     8.6537      .0052    52.2930    12.8135     2.8007   635.0332
 4068.9764     8.6571      .0064    55.0723    13.9410     2.7683   698.2976
 4069.1288     8.6350      .0036    59.3907    15.6108     2.7388   762.8690
 4069.2812     8.5976      .0059    62.9281    16.8035     2.7357   828.6863
 4069.4336     8.5730      .0146    65.6310    17.5642     2.7350   845.6268
 4069.5860     8.5289      .0287    69.5234    19.0828     2.7281   745.6940
 4069.7384     8.5235      .0370    76.5793    22.2386     2.7108   645.7612
 4069.8908     8.5916      .0233    85.6386    27.0682     2.6700   612.3977
 4070.0432     8.6499      .0124    92.4948    29.8802     2.6533   630.5833
 4070.1956     8.6613      .0091    92.6127    30.3484     2.6539   534.2780
 4070.3480     8.6082      .0153    91.1322    30.6774     2.6590   542.1537
 4070.5004     8.5577      .0202    92.6294    31.5013     2.6579   636.5333
 4070.6528     8.5786      .0123    93.3517    31.6975     2.6377   723.7107
 4070.8052     8.6251      .0009    91.2797    31.2767     2.6202   746.0933
 4070.9576     8.6764      .0098    90.8212    30.6218     2.6246   833.4125
 4071.1100     8.7275      .0179    92.7789    30.4528     2.6220   848.6494
 4071.2624     8.7578      .0154    94.6838    31.1612     2.6077   767.9397
 4071.4148     8.7007      .0185    95.0954    31.6176     2.6113   760.3057
 4071.5672     8.6285      .0228    95.4783    31.4783     2.6172   626.4727
 4071.7196     8.6398      .0131    96.8579    31.6470     2.6180   573.9489
 4071.8720     8.6689      .0100    97.0297    32.0911     2.6213   515.5122
 4072.0244     8.7067      .0384    96.4918    32.5329     2.6299   641.2576
 4072.1768     8.7463      .0451    96.9530    32.5445     2.6313   650.0840
 4072.3292     8.7763      .0299    96.7020    31.8440     2.6096   747.2655
 4072.4816     8.7797      .0254    96.6969    30.4774     2.6023   861.1125
 4072.6340     8.7474      .0262    95.8470    28.5733     2.6087   893.2454
 4072.7864     8.7189      .0272    88.9892    26.7879     2.6218   749.5695
 4072.9388     8.7149      .0141    79.4619    25.0121     2.6222   702.9794
 4073.0912     8.7154      .0041    69.5809    22.2570     2.6304   632.8093
 4073.2436     8.7467      .0075    64.4641    19.7440     2.6476   566.7834
 4073.3960     8.7879      .0050    60.0983    17.6943     2.6875   558.1705
 4073.5484     8.8046     -.0022    53.6328    15.7310     2.7320   635.3958
 4073.7008     8.8138      .0003    49.3788    14.9664     2.7644   808.7803
 4073.8532     8.7985      .0030    50.7197    16.8680     2.7687   896.6162
 4074.0056     8.7652      .0064    54.7073    19.4080     2.7458   815.9677
 4074.1580     8.7392      .0058    63.9337    23.8303     2.7141   569.1895
 4074.3104     8.7435     -.0063    70.3027    24.6303     2.6795   355.6377
 4074.4628     8.7708     -.0083    68.7194    22.6402     2.6771   373.6127
 4074.6152     8.8013     -.0028    65.3855    21.1171     2.7050   820.1851
 4074.7676     8.8186      .0055    65.6815    20.9958     2.7295  1715.2600
 4074.9200     8.8197      .0167    68.0659    21.3809     2.7540  2223.4258
 4075.0724     8.8200      .0271    69.9891    22.9016     2.7695  1958.6592
 4075.2248     8.8324      .0290    73.1728    25.3189     2.7437  1753.8716
 4075.3772     8.8527      .0148    79.4301    28.6423     2.6889  1523.7949
 4075.5296     8.8700      .0046    86.1360    31.1999     2.6536  1275.5903
 4075.6820     8.9279      .0015    90.4349    33.0663     2.6523  1045.6421
 4075.8344     8.9887      .0136    92.2727    33.4823     2.6718  1002.6188
 4075.9868     9.0494      .0346    93.4766    33.0617     2.6904   787.8535
 4076.1392     9.1056      .0234    92.6509    32.3042     2.6593   808.7310
 4076.2916     9.1458      .0090    88.7162    32.1787     2.6440   878.8270
 4076.4440     9.1842      .0079    82.1846    32.3799     2.6386   989.4355
 4076.5964     9.2019      .0144    72.0667    32.5237     2.6300   892.3448
 4076.7488     9.1877      .0131    62.3749    31.6317     2.6104   828.0369
 4076.9012     9.1923      .0020    49.7009    30.3498     2.5850   875.1910
 4077.0536     9.1975      .0000    39.6691    28.8404     2.5799   787.4651
 4077.2060     9.2027      .0032    37.9648    28.5260     2.5879   714.5967
 4077.3584     9.2181     -.0022    38.8539    29.7341     2.5925   658.5260
 4077.5108     9.2433     -.0075    39.8186    29.7404     2.5912   639.2052
 4077.6632     9.2687     -.0114    40.3004    28.4739     2.5753   768.8740
 4077.8156     9.2942     -.0264    40.2829    26.7535     2.5233   799.3422
 4077.9680     9.2931     -.0449    40.6438    28.4974     2.4289   861.6700
 4078.1204     9.2684     -.0364    40.9104    31.7309     2.2906   977.6985
 4078.2728     9.2352     -.0106    40.1333    36.9748     2.0056   907.8877
 4078.4252     9.1525     -.0015    39.3605    49.6424     1.8819   824.4330
 4078.5776     8.8753     -.0335    38.8651    54.1818     1.5610   745.1271
 4078.7300     8.6331     -.0440    38.7604    53.3801     1.4283   657.6506
 4078.8824     8.6921     -.0360    40.4382    52.2744     1.4302   611.5922
 4079.0348     8.7479     -.0218    44.6388    53.0735     1.4484   732.5300
 4079.1872     8.9926     -.0178    48.8702    55.8843     1.4809   852.4778
 4079.3396     9.2222     -.0220    49.3054    56.7228     1.5235   792.1639
 4079.4920     9.2391     -.0139    45.5422    56.7075     1.5456   837.3408
 4079.6444     9.0289     -.0043    39.4817    58.2938     1.5154   969.8319
 4079.7968     8.8785     -.0262    35.2480    58.1289     1.4611  1031.5850
 4079.9492     8.7729     -.0390    33.8270    58.3546     1.4170   795.4229
 4080.1016     8.7584     -.0363    36.0247    58.8153     1.4300   820.2393
 4080.2540     8.7792     -.0317    39.6222    58.5805     1.4601   807.2186
 4080.4064     8.8430     -.0245    42.7371    56.1948     1.4780   801.9778
