~VERSION INFORMATION
VERS.                                                 2.0:   CWLS Log ASCII Standard-VERSION 2.0
WRAP.                                                  NO:   One line per depth step
~Well Information Block
STRT.M                                           435.1508:   Top Depth
STOP.M                                          4334.9144:   Bottom Depth
STEP.M                                             .15240:   Depth Increment
NULL.                                            -999.250:   Null Value
FLD .                                             WILDCAT:   Field Name
WELL.                                              15/5-2:   NAME
WBN .                                              15/5-2:   WELLBORE
NATI.                                                 NOR:   COUNTRY
CTRY.                                                 NOR:   COUNTRY
COMP.                                         NORSK HYDRO:   OPERATOR
PROV.                                           NORTH SEA:   PROVINCE
COUN.                                     TREASURE SEEKER:   RIG NAME
SPUD.                                          1978/08/16:   SPUD DATE
LATI.                                       58 38 36.70 N:   SURF. LATITUDE
LONG.                                        1 36 16.50 E:   SURF. LONGITUDE
PBWE.                                              15/5-2:   PB WELL ID
APIN.                                              15/5-2:   PB WELLBORE ID
PBWS.                                                 all:   PB WELL NAME SET
~PARAMETER INFORMATION (log)
LNAM.                              FDC/CNL/GR  COMPOSITED:   NAME
LTYP.                                         DEPTH MATCH:   LOG TYPE
LSRV.                                            DEN/NEUT:   LOG SERVICE
LSOU.                                             SPT/NPD:   LOG SOURCE
LVSN.                                                   1:   LOG VERSION
BHIS.                                                   R:   BRIEF HISTORY
FHIS.                                             RAW-LIS:   FULL HISTORY
LCNM.                                                 SCH:   LOGGING CONTRACTOR
TOOL.                             FDC/CNL/GR (COMPOSITED):   TOOL STRING
QCST.                                               final:   QC STATUS
~Curve Information Block
#MNEM.UNIT                                        API CODE    No Description
#=========                                        ========    == ===========
DEPT.M                                       00 001 00 00:     1  DEPTH
CALI.IN                                                  :     2  Caliper
DRHO.G/CC                                                :     3  Bulk density correction
GR.GAPI                                                  :     4  Gamma Ray
NPHI.%                                                   :     5  Neutron porosity
RHOB.G/CC                                                :     6  Bulk density
TENS.LB                                                  :     7  Cable Tension
~ASCII
# ...
 4318.3028     7.7777     -.1908    58.7631    16.6667     2.5150   677.2372
 4318.4552     7.7721     -.1805    56.3256    17.1795     2.4874   668.7184
 4318.6076     7.7855     -.1961    58.3037    16.9095     2.4586   745.6134
 4318.7600     7.8152     -.2065    61.9813    16.5376     2.4418   852.5845
 4318.9124     7.8449     -.1877    63.2347    17.1536     2.4517   919.6996
 4319.0648     7.8343     -.1776    62.5863    17.7814     2.4601   927.9406
 4319.2172     7.7871     -.1780    62.8834    17.4461     2.4735   861.3474
 4319.3696     7.7182     -.1879    64.8184    16.5436     2.4699   822.1873
 4319.5220     7.6884     -.1840    65.5125    16.1856     2.4711   978.1871
 4319.6744     7.7579     -.1684    64.0240    16.3683     2.4724   908.8345
 4319.8268     7.8376     -.1705    62.7145    16.5552     2.4530   933.3624
 4319.9792     7.7944     -.1622    61.4230    16.8712     2.4549  1051.5078
 4320.1316     7.7710     -.1462    60.2314    18.3136     2.4430   998.1470
 4320.2840     7.8567     -.1237    59.3269    19.0040     2.4439  1010.5056
 4320.4364     7.8591     -.1322    59.6256    19.4869     2.4274  1164.9458
 4320.5888     7.7546     -.1442    61.6275    20.4750     2.4090  1193.8760
 4320.7412     7.6740     -.1329    65.5096    21.0654     2.4228  1211.3218
 4320.8936     7.6257     -.1188    68.5699    20.9874     2.4413  1734.7449
 4321.0460     7.6695     -.1088    69.4166    21.1593     2.4452  3798.4336
 4321.1984     7.6915     -.1272    72.1506    21.4836     2.4048  5277.6270
 4321.3508     7.6585     -.1197    74.8880    21.8359     2.3843  5059.1328
 4321.5032     7.6097     -.1146    73.9898    21.6967     2.3839  5053.9443
 4321.6556     7.5494     -.1221    78.2236    21.8518     2.3904  5231.5771
 4321.8080     7.5040     -.1229    85.2764    21.5925     2.4149  5333.7676
 4321.9604     7.5037     -.1276    88.3580    21.4512     2.4224  5416.2402
 4322.1128     7.5113     -.1379    88.6586    21.3041     2.3800  5267.3271
 4322.2652     7.5273     -.1273    80.0970    21.2390     2.3683  5147.1318
 4322.4176     7.5721     -.1146    67.2732    21.3699     2.3757  5070.0537
 4322.5700     7.6257     -.1031    59.2500    21.6378     2.3896  5095.6211
 4322.7224     7.6819     -.0999    55.8278    22.0489     2.4210  5202.3154
 4322.8748     7.7381     -.1161    57.5705    22.2181     2.4164  5341.6230
 4323.0272     7.8111     -.1388    62.2667    21.8539     2.3932  5762.4004
 4323.1796     7.8422     -.1592    62.7889    21.4205     2.4039  5800.1162
 4323.3320     7.7789     -.1963    60.1024    20.9856     2.4071  5610.7383
 4323.4844     7.7399     -.2202    53.9191    20.6705     2.3942  5618.4238
 4323.6368     7.7595     -.2161    50.6935    21.3202     2.3894  5649.7451
 4323.7892     7.7592     -.2197    47.0008    21.7602     2.4065  5528.9941
 4323.9416     7.7395     -.2331    41.8822    21.8678     2.3803  5479.6289
 4324.0940     7.5896     -.2324    40.0481    21.9576     2.3733  5838.6328
 4324.2464     7.4182     -.2262    41.4696    22.1081     2.3729  5998.7432
 4324.3988     7.2684     -.2169    42.7370    22.1087     2.3648  5895.7900
 4324.5512     7.1987     -.2155    44.0115    22.3626     2.3619  5685.9912
 4324.7036     7.2179     -.2189    45.4833    22.6479     2.3755  5517.4082
 4324.8560     7.1929     -.2109    45.3326    22.4890     2.3960  5348.8242
 4325.0084     7.1582     -.2055    46.1921    22.4577     2.4071  5151.7734
 4325.1608     7.0592     -.2137    44.7795    22.4003     2.3982  4994.2402
 4325.3132     6.7422     -.2235    42.2421    22.5907     2.3689  4991.5586
 4325.4656     6.2179     -.2274    41.8936    22.3523     2.3627  4724.7617
 4325.6180     5.9608     -.2171    44.2930    22.5978     2.3537  4543.3535
 4325.7704     5.9384     -.2148    45.0755    22.9641     2.3555  4326.9932
 4325.9228     5.9267     -.2275    46.3689    23.1877     2.3453  4064.6802
 4326.0752     5.9124     -.2270    47.7721    23.1206     2.3398  3829.7314
 4326.2276     5.8980     -.2201    47.5174    22.8347     2.3610  3673.9790
 4326.3800     5.8837     -.2145    45.7540    22.3380     2.3688  3528.2783
 4326.5324     5.8694     -.2196    44.3724    21.6429     2.3616  3354.2734
 4326.6848     5.8551     -.2262    44.4938    20.8530     2.3578  3183.6440
 4326.8372     5.8407     -.2211    45.6109    19.0906     2.3627  3023.9873
 4326.9896     5.8372     -.2147    47.0005    16.7949     2.3686  3084.8730
 4327.1420     5.8392     -.2160    45.9862    13.0913     2.3709  3101.5757
 4327.2944     5.8412     -.2227    44.2686     6.8534     2.3613  3049.0874
 4327.4468     5.8432     -.2296    45.2496     -.5748     2.3549  2991.6836
 4327.5992     5.8452     -.2235    44.8356    -2.1239     2.3630  2895.2383
 4327.7516     5.8472     -.2122    44.4483    -2.5972     2.3981  2878.9634
 4327.9040     5.8491     -.2105    44.7220    -2.6477     2.3888  2774.6938
 4328.0564     5.8511     -.1997    46.3222    -2.6922     2.3826  2824.2949
 4328.2088     5.8514     -.1906    44.2654    -2.6710     2.3879  2877.6748
 4328.3612     5.8442     -.1905    41.1375    -2.6688     2.3900  2936.4385
 4328.5136     5.8369     -.1880    43.0624    -2.6679     2.3730  3032.1279
 4328.6660     5.8297     -.1919    44.9984    -2.6670     2.3614  3029.6631
 4328.8184     5.8224     -.1979    42.7629    -2.6660     2.3761  2943.4336
 4328.9708     5.8152     -.2067    41.2450    -2.6651     2.4030  2869.7627
 4329.1232     5.8126     -.2018    43.1530    -2.6641     2.3913  2742.1069
 4329.2756     5.8180     -.2044    43.5481    -2.6632     2.3716  2744.2603
 4329.4280     5.8233     -.1816    43.6358    -2.6622     2.3973  2819.8794
 4329.5804     5.8287     -.1751    44.5606    -2.6546     2.4197  2775.5938
 4329.7328     5.8304     -.1818    44.3099    -2.6051     2.4084  2801.5439
 4329.8852     5.8317     -.1819    44.3766    -2.5555     2.3907  2952.4863
 4330.0376     5.8329     -.1881    45.1992    -2.5596     2.3943  2897.3442
 4330.1900     5.8342     -.1837    46.8204    -2.5890     2.4399  2991.3833
 4330.3424     5.8355     -.1833    46.8227    -2.5968     2.4454  2843.7534
 4330.4948     5.8367     -.1959    45.3707    -2.5959     2.4077  2721.1489
 4330.6472     5.8380     -.2037    43.8884    -2.5950     2.3842  2659.6553
 4330.7996     5.8392     -.2103    42.7024    -2.5718     2.3832  2629.8428
 4330.9520     5.8405     -.2196    38.4212    -2.5130     2.3715  2670.0791
 4331.1044     5.8417     -.2140    31.9936    -2.4551     2.3690  2700.4399
 4331.2568     5.8430     -.2025    22.0720    -2.4157     2.3689  2752.8818
 4331.4092     5.8442     -.1930     9.1052    -2.3765     2.3971  2832.0918
 4331.5616     5.8912     -.1941      .6206    -2.2970     2.4230  2848.1069
 4331.7140     7.2102     -.2009      .6732    -2.1563     2.4288  2805.6128
 4331.8664     7.9694     -.2040      .7257    -2.1096     2.4264  2795.6909
 4332.0188     7.9806     -.2169      .7783    -2.1369     2.3730  2761.5601
 4332.1712     7.9917     -.2273      .8312    -3.9992     2.3551  2565.1865
 4332.3236     8.0007     -.2258      .8838     -.1237  -999.2500  2516.5444
 4332.4760     7.9990     -.2064      .9363      .0285  -999.2500  2558.3174
 4332.6284     7.9974     -.2036      .9888      .1646  -999.2500  2633.1099
 4332.7808     7.9958     -.2037     1.0413      .1655  -999.2500  2666.2617
 4332.9332     7.9941     -.2035     1.0939      .1664  -999.2500  2710.1484
 4333.0856     7.9925     -.2033     1.1464      .1674  -999.2500  2793.0166
 4333.2380     7.9908     -.2031     1.1990      .1683  -999.2500  2758.5254
 4333.3904     7.9892     -.2029     1.2516      .1692  -999.2500  2679.9878
 4333.5428     7.9876     -.2029     1.3044      .1701  -999.2500  2675.0688
 4333.6952     7.9859     -.2029     1.3570      .1624  -999.2500  2573.7593
 4333.8476     7.9843     -.2029     1.4096      .1511  -999.2500  2344.8892
 4334.0000     7.9826     -.2029  -999.2500      .1399  -999.2500  2350.5063
