~VERSION INFORMATION
VERS.                                                 2.0:   CWLS Log ASCII Standard-VERSION 2.0
WRAP.                                                  NO:   One line per depth step
~Well Information Block
STRT.M                                           435.1508:   Top Depth
STOP.M                                          4334.9144:   Bottom Depth
STEP.M                                             .15240:   Depth Increment
NULL.                                            -999.250:   Null Value
FLD .                                             WILDCAT:   Field Name
WELL.                                              15/5-2:   NAME
WBN .                                              15/5-2:   WELLBORE
NATI.                                                 NOR:   COUNTRY
CTRY.                                                 NOR:   COUNTRY
COMP.                                         NORSK HYDRO:   OPERATOR
PROV.                                           NORTH SEA:   PROVINCE
COUN.                                     TREASURE SEEKER:   RIG NAME
SPUD.                                          1978/08/16:   SPUD DATE
LATI.                                       58 38 36.70 N:   SURF. LATITUDE
LONG.                                        1 36 16.50 E:   SURF. LONGITUDE
PBWE.                                              15/5-2:   PB WELL ID
APIN.                                              15/5-2:   PB WELLBORE ID
PBWS.                                                 all:   PB WELL NAME SET
~PARAMETER INFORMATION (log)
LNAM.                              FDC/CNL/GR  COMPOSITED:   NAME
LTYP.                                         DEPTH MATCH:   LOG TYPE
LSRV.                                            DEN/NEUT:   LOG SERVICE
LSOU.                                             SPT/NPD:   LOG SOURCE
LVSN.                                                   1:   LOG VERSION
BHIS.                                                   R:   BRIEF HISTORY
FHIS.                                             RAW-LIS:   FULL HISTORY
LCNM.                                                 SCH:   LOGGING CONTRACTOR
TOOL.                             FDC/CNL/GR (COMPOSITED):   TOOL STRING
QCST.                                               final:   QC STATUS
~Curve Information Block
#MNEM.UNIT                                        API CODE    No Description
#=========                                        ========    == ===========
DEPT.M                                       00 001 00 00:     1  DEPTH
CALI.IN                                                  :     2  Caliper
DRHO.G/CC                                                :     3  Bulk density correction
GR.GAPI                                                  :     4  Gamma Ray
NPHI.%                                                   :     5  Neutron porosity
RHOB.G/CC                                                :     6  Bulk density
TENS.LB                                                  :     7  Cable Tension
~ASCII
# ...
 3288.0788    13.0588      .0926    46.5876    31.2862     2.4678  1564.7410
 3288.2312    13.0579      .1150    47.3592    33.3788     2.4254  1660.9485
 3288.3836    13.0570      .0981    48.7424    35.4715     2.3801  1753.7576
 3288.5360    13.0561      .1044    49.4405    35.5107     2.3892  1814.8821
 3288.6884    13.0552      .0883    49.7426    32.9699     2.4402  1838.8889
 3288.8408    13.0543      .0607    49.8839    30.6238     2.5064  1861.0225
 3288.9932    13.0534      .0707    49.7426    29.3831     2.5549  1860.9702
 3289.1456    13.0525      .0592    48.7402    28.6693     2.5618  1828.8137
 3289.2980    13.0516      .0363    46.6390    29.0992     2.5150  1760.0286
 3289.4504    13.0507      .0309    44.7457    30.6434     2.4343  1657.4150
 3289.6028    13.0498      .0817    43.0492    32.2029     2.3821  1614.0156
 3289.7552    13.0490      .0969    42.4383    31.7858     2.3721  1605.6155
 3289.9076    13.0481      .0639    42.8680    32.0699     2.3830  1598.1096
 3290.0600    13.0472      .0439    42.4911    31.7527     2.4279  1597.2717
 3290.2124    13.0471      .0678    40.8620    32.6640     2.4439  1620.3215
 3290.3648    13.0469      .0957    39.7737    34.2791     2.4171  1680.6597
 3290.5172    13.0468      .1086    38.7789    35.3241     2.3995  1754.3069
 3290.6696    13.0467      .1015    35.9774    35.8686     2.3847  1823.3005
 3290.8220    13.0466      .0852    33.4812    33.4737     2.3652  1849.0657
 3290.9744    13.0464      .0631    32.2876    29.8891     2.4156  1859.2815
 3291.1268    13.0463      .0320    31.9311    27.2489     2.4790  1827.8394
 3291.2792    13.0462      .0307    31.8375    26.9126     2.5261  1761.9358
 3291.4316    13.0461      .0307    32.3825    27.6368     2.5063  1715.2466
 3291.5840    13.0460      .0456    33.2724    28.8766     2.4516  1702.9114
 3291.7364    13.0458      .0678    34.5360    30.8660     2.3856  1742.2849
 3291.8888    13.0457      .0339    35.6706    32.7039     2.3342  1704.1426
 3292.0412    13.0456      .0109    33.8033    31.4692     2.3473  1641.0654
 3292.1936    13.0455      .0459    32.4975    30.0813     2.3633  1601.2446
 3292.3460    13.0454      .0720    32.0370    31.5685     2.2994  1645.3608
 3292.4984    13.0452      .0479    32.0441    32.8439     2.2357  1722.7690
 3292.6508    13.0451      .0256    32.1514    30.8627     2.2642  1794.1245
 3292.8032    13.0450      .0129    32.4122    27.5395     2.4035  1815.9617
 3292.9556    13.0449      .0310    32.2827    22.7318     2.5386  1790.5190
 3293.1080    13.0448      .0326    33.0431    19.8094     2.6116  1781.3225
 3293.2604    13.0446      .0271    33.8543    20.6510     2.6222  1772.7041
 3293.4128    13.0445      .0236    34.4380    21.6060     2.6232  1765.7371
 3293.5652    13.0444      .0338    34.3571    22.0007     2.6316  1730.7520
 3293.7176    13.0443      .0268    32.1950    22.0278     2.6275  1713.0239
 3293.8700    13.0441      .0145    30.9305    21.4972     2.6322  1731.8792
 3294.0224    13.0440      .0187    32.9368    20.7053     2.6437  1731.6919
 3294.1748    13.0439      .0156    35.3507    20.0930     2.6354  1665.6790
 3294.3272    13.0438      .0350    36.7117    19.7542     2.6551  1510.5630
 3294.4796    13.0437      .0564    35.0654    19.6521     2.6656  1105.9675
 3294.6320    13.0435      .0300    34.7825    19.5723     2.6546  1097.6001
 3294.7844    13.0434      .0365    35.5529    19.4763     2.6514  1249.4524
 3294.9368    13.0433      .0335    34.4141    19.3564     2.6537  1417.3289
 3295.0892    13.0432      .0162    32.4728    18.9127     2.6403  1584.9363
 3295.2416    13.0431      .0262    31.5369    18.6164     2.6497  1688.8140
 3295.3940    13.0429      .0369    32.4001    18.9495     2.6671  1755.6565
 3295.5464    13.0428      .0420    34.1241    19.5081     2.6574  1782.4395
 3295.6988    13.0427      .0434    36.2593    20.1336     2.6523  1797.9749
 3295.8512    13.0426      .0178    38.1190    20.8783     2.6153  1816.2498
 3296.0036    13.0424      .0017    39.6162    21.8315     2.5838  1828.9761
 3296.1560    13.0423      .0115    39.1753    22.6837     2.5711  1821.4111
 3296.3084    13.0422      .0525    39.1937    22.4134     2.5808  1796.1350
 3296.4608    13.0421      .0675    38.1058    21.0889     2.5925  1770.4126
 3296.6132    13.0420      .0347    37.8119    19.8045     2.5859  1733.1726
 3296.7656    13.0429      .0232    37.8687    19.3512     2.5998  1687.7437
 3296.9180    13.0440      .0616    38.3987    19.9103     2.6241  1679.6204
 3297.0704    13.0451      .0959    39.3443    20.6219     2.6506  1764.4460
 3297.2228    13.0462      .1156    39.9371    21.1713     2.6693  1865.0159
 3297.3752    13.0474      .0603    38.9070    20.5405     2.6199  1873.8120
 3297.5276    13.0485      .0067    37.3195    19.8324     2.5994  1546.4128
 3297.6800    13.0496      .0069    36.2691    20.0864     2.5928   754.8861
 3297.8324    13.0507      .0179    35.0424    20.4151     2.6097    -9.5460
 3297.9848    13.0518      .0311    33.9058    20.3238     2.6446    -7.3739
 3298.1372    13.0530      .0407    33.4187    19.4119     2.6568    -5.2053
 3298.2896    13.0541      .0350    34.3675    19.5067     2.6572    -3.0367
 3298.4420    13.0552      .0272    35.8785    20.3756     2.6358     -.8680
 3298.5944    13.0563      .0294    37.3620    20.4916     2.6371    92.2062
 3298.7468    13.0575      .0179    38.5864    19.6244     2.6273   214.7899
 3298.8992    13.0586      .0225    38.0104    18.8148     2.6158   350.3712
 3299.0516    13.0597      .0365    35.7755    18.7385     2.6310   505.8552
 3299.2040    13.0572      .0495    34.9116    19.1424     2.6325   661.3409
 3299.3564    13.0536      .0399    37.3401    20.1747     2.6137   783.9438
 3299.5088    13.0501      .0393    39.3496    21.5310     2.6218   892.2693
 3299.6612    13.0466      .0325    39.4802    22.0891     2.6214  1000.5925
 3299.8136    13.0430      .0254    38.4199    21.0902     2.6162  1106.8271
 3299.9660    13.0395      .0405    36.9238    19.6809     2.6244  1212.1748
 3300.1184    13.0360      .0431    35.9326    18.7995     2.6332  1317.3547
 3300.2708    13.0324      .0485    35.2704    19.2952     2.6380  1422.5332
 3300.4232    13.0289      .0417    33.8588    20.0027     2.6326  1527.5454
 3300.5756    13.0254      .0368    32.4654    19.9995     2.6340  1615.7695
 3300.7280    13.0218      .0366    32.9489    19.2924     2.6318  1603.7231
 3300.8804    13.0193      .0416    33.6160    18.6729     2.6464  1551.9026
 3301.0328    13.0193      .0526    33.6587    18.6695     2.6600  1537.1367
 3301.1852    13.0192      .0455    34.1385    19.0747     2.6630  1570.2949
 3301.3376    13.0191      .0334    35.7219    19.6584     2.6482  1636.8030
 3301.4900    13.0191      .0227    37.5045    19.9166     2.6138  1677.9983
 3301.6424    13.0190      .0246    36.9929    20.1174     2.6112  1692.7583
 3301.7948    13.0190      .0201    34.1789    19.9799     2.6119  1695.3982
 3301.9472    13.0189      .0178    31.3694    18.8911     2.6039  1695.4282
 3302.0996    13.0188      .0192    28.7148    17.6207     2.6113  1676.2739
 3302.2520    13.0188      .0106    26.9236    17.3810     2.6114  1609.7795
 3302.4044    13.0187      .0038    28.2724    17.8242     2.5974  1600.1416
 3302.5568    13.0187      .0072    30.9883    18.6389     2.5874  1618.6748
 3302.7092    13.0186      .0140    31.4431    19.0466     2.5830  1572.6165
 3302.8616    13.0192      .0214    31.9990    18.6922     2.5887  1521.1636
 3303.0140    13.0200      .0264    29.5200    17.9229     2.6040  1513.3513
 3303.1664    13.0208      .0272    28.1744    17.3504     2.6210  1531.4661
 3303.3188    13.0216      .0246    28.0461    17.2214     2.6343  1571.4429
 3303.4712    13.0224      .0317    29.0117    17.6020     2.6287  1621.6309
 3303.6236    13.0233      .0377    30.4316    18.3726     2.6318  1671.8188
 3303.7760    13.0241      .0357    31.6171    19.5560     2.6278  1720.1511
