~VERSION INFORMATION
VERS.                                                 2.0:   CWLS Log ASCII Standard-VERSION 2.0
WRAP.                                                  NO:   One line per depth step
~Well Information Block
STRT.M                                           493.5200:   Top Depth
STOP.M                                          3752.7464:   Bottom Depth
STEP.M                                             .15240:   Depth Increment
NULL.                                            -999.250:   Null Value
FLD .                                            SLEIPNER:   Field Name
WELL.                                             15/9-12:   NAME
WBN .                                             15/9-12:   WELLBORE
NATI.                                                 NOR:   COUNTRY
BHT1.DEGF                                            74.0:   BH TEMP 1
BHT2.DEGF                                            74.0:   BH TEMP 2
BHT3.DEGF                                            76.0:   BH TEMP 3
BS1 .IN                                            12.250:   BIT SIZE 1
CTRY.                                                 NOR:   COUNTRY
CBD1.M                                              195.0:   CSG 1 DRILL DEP
CBL1.M                                              195.0:   CSG 1 LOG DEP
CS1 .IN                                              30.0:   CSG 1 SIZE
COMP.                                             STATOIL:   OPERATOR
PDAT.                                                 MSL:   PERM DATUM
PROV.                                           NORTH SEA:   PROVINCE
COUN.                                            NORDRAUG:   RIG NAME
SPUD.                                          1981/11/22:   SPUD DATE
LATI.                                       58 27 23.17 N:   SURF. LATITUDE
LONG.                                         1 43 4.01 E:   SURF. LONGITUDE
BTD1.                                             514.0 M:   TOTAL DEPTH 1
BTD2.                                             514.0 M:   TOTAL DEPTH 2
BTD3.                                             514.0 M:   TOTAL DEPTH 3
PBWE.                                             15/9-12:   PB WELL ID
APIN.                                             15/9-12:   PB WELLBORE ID
PBWS.                                                 all:   PB WELL NAME SET
~PARAMETER INFORMATION (log)
LNAM.                              FDC/CNL/GR  COMPOSITED:   NAME
LTYP.                                         DEPTH MATCH:   LOG TYPE
LSRV.                                            DEN/NEUT:   LOG SERVICE
LSOU.                                             SPT/NPD:   LOG SOURCE
LVSN.                                                   1:   LOG VERSION
BHIS.                                                   R:   BRIEF HISTORY
FHIS.                                             RAW-LIS:   FULL HISTORY
LCNM.                                                 SCH:   LOGGING CONTRACTOR
TOOL.                             FDC/CNL/GR (COMPOSITED):   TOOL STRING
~Curve Information Block
#MNEM.UNIT                                        API CODE    No Description
#=========                                        ========    == ===========
DEPT.M                                       00 001 00 00:     1  DEPTH
CALI.IN                                                  :     2  Caliper
CS.                                                      :     3  Cable Speed
DRHO.G/CC                                                :     4  Bulk density correction
GR.GAPI                                                  :     5  Gamma Ray
NPHI.%                                                   :     6  Neutron porosity
RHOB.G/CC                                                :     7  Bulk density
TENS.LB                                                  :     8  Cable Tension
~ASCII
# ...
 1353.3608    13.3672  2542.0000      .0376    46.0625    31.6895     1.9727  1675.0000
 1353.5132    13.5625  2542.0000      .0273    53.9062    39.9414     1.9160  1650.0000
 1353.6656    13.7813  2540.0000      .0464    61.2500    47.4121     1.8975  1690.0000
 1353.8180    13.6875  2536.0000      .0405    64.6875    52.1484     1.8574  1680.0000
 1353.9704    14.1406  2534.0000      .0181    67.3750    48.3887     1.8340  1620.0000
 1354.1228    14.8359  2534.0000      .0137    66.5000    45.2637     1.8477  1685.0000
 1354.2752    13.9141  2534.0000      .0562    66.7500    44.3848     1.8906  1830.0000
 1354.4276    13.9766  2534.0000      .0654    68.0000    46.4844     1.8838  1705.0000
 1354.5800    13.8672  2536.0000      .0361    68.3750    47.6074     1.8379  1660.0000
 1354.7324    13.9687  2536.0000      .0010    68.3750    44.3848     1.8223  1700.0000
 1354.8848    13.9531  2538.0000      .0063    67.1250    42.2852     1.8457  1680.0000
 1355.0372    13.9922  2542.0000      .0039    68.1250    47.6562     1.8750  1680.0000
 1355.1896    13.9375  2540.0000      .0127    68.8750    53.1738     1.8818  1705.0000
 1355.3420    13.9141  2538.0000      .0332    69.1875    54.1016     1.9082  1705.0000
 1355.4944    13.9531  2532.0000      .0391    68.0625    48.5840     1.8984  1675.0000
 1355.6468    14.3828  2532.0000      .0151    68.5625    49.0723     1.8711  1670.0000
 1355.7992    13.9453  2532.0000      .0005    67.0000    55.2246     1.8721  1710.0000
 1355.9516    13.9219  2534.0000     -.0005    67.1250    57.5684     1.8945  1690.0000
 1356.1040    13.8516  2534.0000      .0063    65.5000    56.2988     1.9326  1685.0000
 1356.2564    13.7813  2536.0000      .0195    68.2500    54.7363     1.9414  1700.0000
 1356.4088    13.7969  2536.0000      .0620    67.5625    53.9062     1.9561  1730.0000
 1356.5612    14.0234  2538.0000      .0786    68.5000    50.5371     1.9316  1675.0000
 1356.7136    14.2656  2540.0000      .0767    64.6250    46.4844     1.8867  1665.0000
 1356.8660    14.2969  2538.0000      .0615    66.6875    46.0449     1.8574  1690.0000
 1357.0184    13.8906  2534.0000      .0527    67.1875    50.8789     1.8359  1705.0000
 1357.1708    13.8359  2530.0000      .0386    69.6875    52.4902     1.8418  1670.0000
 1357.3232    13.9766  2528.0000      .0229    71.3125    51.3672     1.8379  1650.0000
 1357.4756    14.0234  2528.0000      .0356    71.8125    51.5137     1.8838  1710.0000
 1357.6280    14.1250  2528.0000      .0474    72.1875    50.7812     1.8945  1700.0000
 1357.7804    13.8359  2532.0000      .0234    69.0625    58.5449     1.8662  1670.0000
 1357.9328    13.8828  2534.0000      .0244    68.0000    56.4941     1.8486  1675.0000
 1358.0852    13.7656  2538.0000      .0117    68.3750    54.3945     1.8408  1690.0000
 1358.2376    13.7813  2538.0000      .0166    69.0625    47.2168     1.8564  1680.0000
 1358.3900    13.6797  2540.0000      .0049    69.4375    45.1172     1.8545  1705.0000
 1358.5424    13.7813  2538.0000      .0264    73.3750    44.8242     1.8799  1690.0000
 1358.6948    13.8828  2534.0000      .0342    76.1875    45.1660     1.9053  1710.0000
 1358.8472    13.6875  2530.0000      .0142    80.0000    49.4141     1.9063  1715.0000
 1358.9996    13.8594  2528.0000     -.0063    78.2500    53.2715     1.9102  1705.0000
 1359.1520    14.3203  2528.0000     -.0024    77.3750    52.6855     1.9102  1660.0000
 1359.3044    14.3516  2530.0000      .0210    74.0000    48.1445     1.9297  1670.0000
 1359.4568    13.9453  2534.0000      .0303    75.5000    44.7266     1.9297  1675.0000
 1359.6092    13.7734  2536.0000      .0229    78.8125    44.7754     1.9277  1670.0000
 1359.7616    13.3516  2540.0000      .0146    79.0000    48.3398     1.9248  1675.0000
 1359.9140    13.4766  2542.0000      .0151    74.6875    49.9023     1.9336  1690.0000
 1360.0664    13.9531  2546.0000      .0244    72.3750    53.3203     1.9531  1690.0000
 1360.2188    13.0234  2546.0000      .0156    78.0625    51.4160     1.9541  1695.0000
 1360.3712    13.2578  2542.0000      .0024    82.5625    55.8594     1.9424  1690.0000
 1360.5236    12.9375  2540.0000     -.0044    83.8750    56.5918     1.9414  1660.0000
 1360.6760    13.2578  2536.0000      .0063    79.6250    56.8848     1.9668  1685.0000
 1360.8284    13.2344  2536.0000      .0220    75.7500    52.0020     1.9990  1690.0000
 1360.9808    13.2187  2538.0000      .0234    75.7500    48.0469     2.0098  1675.0000
 1361.1332    13.2187  2538.0000      .0171    77.0625    51.5625     1.9971  1695.0000
 1361.2856    12.9297  2538.0000      .0103    79.2500    51.2207     1.9844  1685.0000
 1361.4380    12.7578  2538.0000      .0083    78.5000    52.8320     1.9600  1670.0000
 1361.5904    13.0312  2540.0000      .0127    76.7500    46.5332     1.9541  1700.0000
 1361.7428    13.3906  2540.0000      .0181    74.2500    44.5801     1.9453  1710.0000
 1361.8952    13.0000  2538.0000      .0098    71.6875    43.1152     1.9395  1670.0000
 1362.0476    12.8828  2534.0000     -.0005    73.4375    44.3359     1.9346  1665.0000
 1362.2000    12.6719  2532.0000      .0171    77.3750    45.7520     1.9609  1670.0000
 1362.3524    12.5859  2530.0000      .0376    78.0625    48.7305     1.9785  1690.0000
 1362.5048    12.4609  2532.0000      .0610    75.9375    49.8047     1.9980  1675.0000
 1362.6572    12.6016  2534.0000      .0532    71.0000    51.6602     1.9814  1670.0000
 1362.8096    12.5391  2536.0000      .0659    69.7500    52.2949     1.9863  1690.0000
 1362.9620    12.5859  2538.0000      .0459    71.0000    53.0762     1.9521  1690.0000
 1363.1144    12.4453  2540.0000      .0298    70.6875    53.7598     1.9346  1695.0000
 1363.2668    13.1328  2544.0000      .0063    72.6250    48.2910     1.9189  1700.0000
 1363.4192    13.0469  2546.0000     -.0020    72.2500    46.2402     1.9170  1660.0000
 1363.5716    13.4922  2546.0000     -.0015    71.8750    44.4336     1.9268  1700.0000
 1363.7240    12.7031  2542.0000      .0083    70.3125    47.9492     1.9443  1710.0000
 1363.8764    12.8594  2538.0000      .0254    70.0000    50.1953     1.9658  1685.0000
 1364.0288    13.1797  2534.0000      .0269    71.9375    50.3418     1.9580  1710.0000
 1364.1812    13.0312  2534.0000      .0469    70.2500    45.8008     1.9629  1685.0000
 1364.3336    14.3437  2532.0000      .0522    66.0000    43.7500     1.9697  1680.0000
 1364.4860    13.6797  2534.0000      .0493    64.0625    45.1660     1.9766  1675.0000
 1364.6384    12.9062  2534.0000      .0303    68.1875    47.9004     1.9697  1690.0000
 1364.7908    13.7344  2536.0000      .0581    70.7500    46.8750     2.0059  1670.0000
 1364.9432    13.4609  2538.0000      .0674    73.2500    46.9727     2.0234  1695.0000
 1365.0956    14.0000  2540.0000      .0786    67.8750    47.9492     2.0293  1700.0000
 1365.2480    13.4844  2540.0000      .0552    70.5000    49.5117     2.0059  1680.0000
 1365.4004    12.9141  2538.0000      .0752    66.8125    47.7051     2.0137  1710.0000
 1365.5528    13.1484  2534.0000      .0635    69.4375    49.9023     2.0000  1745.0000
 1365.7052    12.9609  2532.0000      .0767    69.8125    48.2422     2.0020  1690.0000
 1365.8576    13.1797  2530.0000      .0562    73.3750    50.8301     1.9746  1725.0000
 1366.0100    13.0781  2532.0000      .0498    76.8750    49.1699     1.9678  1755.0000
 1366.1624    13.3047  2534.0000      .0356    72.5000    47.9492     1.9648  1725.0000
 1366.3148    13.1328  2536.0000      .0439    75.1250    53.8086     1.9795  1710.0000
 1366.4672    12.8906  2538.0000      .0503    74.8125    55.1270     1.9922  1670.0000
 1366.6196    13.2031  2542.0000      .0312    76.2500    59.4238     1.9668  1690.0000
 1366.7720    13.7422  2544.0000      .0039    73.3125    52.7832     1.9590  1725.0000
 1366.9244    12.8906  2544.0000      .0054    70.0625    48.6816     1.9805  1715.0000
 1367.0768    13.2500  2538.0000      .0254    72.3125    44.4336     2.0020  1705.0000
