~VERSION INFORMATION
VERS.                                                 2.0:   CWLS Log ASCII Standard-VERSION 2.0
WRAP.                                                  NO:   One line per depth step
~Well Information Block
STRT.M                                           493.5200:   Top Depth
STOP.M                                          3752.7464:   Bottom Depth
STEP.M                                             .15240:   Depth Increment
NULL.                                            -999.250:   Null Value
FLD .                                            SLEIPNER:   Field Name
WELL.                                             15/9-12:   NAME
WBN .                                             15/9-12:   WELLBORE
NATI.                                                 NOR:   COUNTRY
BHT1.DEGF                                            74.0:   BH TEMP 1
BHT2.DEGF                                            74.0:   BH TEMP 2
BHT3.DEGF                                            76.0:   BH TEMP 3
BS1 .IN                                            12.250:   BIT SIZE 1
CTRY.                                                 NOR:   COUNTRY
CBD1.M                                              195.0:   CSG 1 DRILL DEP
CBL1.M                                              195.0:   CSG 1 LOG DEP
CS1 .IN                                              30.0:   CSG 1 SIZE
COMP.                                             STATOIL:   OPERATOR
PDAT.                                                 MSL:   PERM DATUM
PROV.                                           NORTH SEA:   PROVINCE
COUN.                                            NORDRAUG:   RIG NAME
SPUD.                                          1981/11/22:   SPUD DATE
LATI.                                       58 27 23.17 N:   SURF. LATITUDE
LONG.                                         1 43 4.01 E:   SURF. LONGITUDE
BTD1.                                             514.0 M:   TOTAL DEPTH 1
BTD2.                                             514.0 M:   TOTAL DEPTH 2
BTD3.                                             514.0 M:   TOTAL DEPTH 3
PBWE.                                             15/9-12:   PB WELL ID
APIN.                                             15/9-12:   PB WELLBORE ID
PBWS.                                                 all:   PB WELL NAME SET
~PARAMETER INFORMATION (log)
LNAM.                              FDC/CNL/GR  COMPOSITED:   NAME
LTYP.                                         DEPTH MATCH:   LOG TYPE
LSRV.                                            DEN/NEUT:   LOG SERVICE
LSOU.                                             SPT/NPD:   LOG SOURCE
LVSN.                                                   1:   LOG VERSION
BHIS.                                                   R:   BRIEF HISTORY
FHIS.                                             RAW-LIS:   FULL HISTORY
LCNM.                                                 SCH:   LOGGING CONTRACTOR
TOOL.                             FDC/CNL/GR (COMPOSITED):   TOOL STRING
~Curve Information Block
#MNEM.UNIT                                        API CODE    No Description
#=========                                        ========    == ===========
DEPT.M                                       00 001 00 00:     1  DEPTH
CALI.IN                                                  :     2  Caliper
CS.                                                      :     3  Cable Speed
DRHO.G/CC                                                :     4  Bulk density correction
GR.GAPI                                                  :     5  Gamma Ray
NPHI.%                                                   :     6  Neutron porosity
RHOB.G/CC                                                :     7  Bulk density
TENS.LB                                                  :     8  Cable Tension
~ASCII
# ...
 3516.8312     8.0312  2468.0000     -.0107    29.7031    18.9453     2.4004  3624.0000
 3516.9836     8.0391  2466.0000      .0029    30.3438    17.6270     2.4687  3630.0000
 3517.1360     8.0391  2464.0000      .0024    32.6250    17.2852     2.4687  3630.0000
 3517.2884     8.0391  2464.0000      .0063    30.8906    18.1641     2.4062  3634.0000
 3517.4408     8.0312  2464.0000     -.0093    29.2969    19.0918     2.3320  3634.0000
 3517.5932     8.0391  2462.0000     -.0112    26.1094    19.5313     2.2852  3620.0000
 3517.7456     8.0391  2462.0000     -.0146    26.3281    19.3848     2.2617  3610.0000
 3517.8980     8.0391  2464.0000     -.0137    26.6406    19.0430     2.2559  3600.0000
 3518.0504     8.0391  2464.0000     -.0117    28.1563    19.4336     2.2520  3600.0000
 3518.2028     8.0391  2466.0000     -.0146    33.7187    18.8477     2.2715  3584.0000
 3518.3552     8.0391  2464.0000     -.0220    41.2187    18.8965     2.3008  3584.0000
 3518.5076     8.0391  2462.0000     -.0200    44.3750    18.6523     2.3691  3600.0000
 3518.6600     8.0469  2462.0000     -.0093    42.9375    19.0918     2.4160  3600.0000
 3518.8124     8.0469  2462.0000      .0132    39.8438    20.0195     2.4434  3610.0000
 3518.9648     8.0391  2464.0000      .0127    37.6250    19.8730     2.4082  3610.0000
 3519.1172     8.0234  2464.0000     -.0020    35.3125    19.9219     2.3535  3610.0000
 3519.2696     8.0234  2466.0000     -.0137    31.5156    20.1660     2.2930  3614.0000
 3519.4220     8.0234  2466.0000     -.0200    28.6563    21.2891     2.2598  3620.0000
 3519.5744     8.0234  2468.0000     -.0171    25.5625    20.8984     2.2441  3620.0000
 3519.7268     8.0234  2466.0000     -.0146    24.6719    21.1914     2.2480  3610.0000
 3519.8792     8.0312  2464.0000     -.0083    23.1719    20.3613     2.2617  3600.0000
 3520.0316     8.0391  2464.0000     -.0132    23.5625    20.6055     2.2715  3600.0000
 3520.1840     8.0391  2464.0000     -.0146    24.8438    18.1152     2.2949  3590.0000
 3520.3364     8.0625  2462.0000     -.0142    27.0469    16.5527     2.3535  3590.0000
 3520.4888     8.0625  2464.0000     -.0166    31.1094    13.5742     2.4258  3584.0000
 3520.6412     8.0703  2464.0000     -.0039    34.5000    12.6953     2.5273  3590.0000
 3520.7936     8.0859  2466.0000     -.0059    42.9375    13.7207     2.5449  3600.0000
 3520.9460     8.1016  2466.0000      .0107    48.1563    17.5293     2.5586  3604.0000
 3521.0984     8.1016  2464.0000      .0098    48.4375    20.5566     2.5293  3610.0000
 3521.2508     8.1016  2462.0000     -.0010    43.7500    20.5566     2.4824  3604.0000
 3521.4032     8.0703  2462.0000      .0112    38.8750    20.4102     2.4805  3610.0000
 3521.5556     8.0703  2462.0000      .0015    40.1562    20.3613     2.4746  3604.0000
 3521.7080     8.0703  2464.0000      .0146    42.0312    20.7520     2.4961  3600.0000
 3521.8604     8.0703  2464.0000      .0059    44.7500    19.9219     2.4785  3610.0000
 3522.0128     8.0703  2466.0000      .0107    43.7500    19.3359     2.4863  3604.0000
 3522.1652     8.0703  2468.0000      .0020    42.4687    19.5801     2.4648  3610.0000
 3522.3176     8.0703  2470.0000     -.0020    38.4062    19.3359     2.4258  3614.0000
 3522.4700     8.0547  2468.0000     -.0054    39.0312    18.7500     2.3906  3614.0000
 3522.6224     8.0547  2466.0000     -.0010    37.5313    19.2871     2.3926  3610.0000
 3522.7748     8.0547  2466.0000      .0029    37.0000    20.6543     2.3945  3610.0000
 3522.9272     8.0547  2466.0000     -.0034    34.6250    20.8008     2.3672  3594.0000
 3523.0796     8.0625  2464.0000     -.0039    35.2812    20.2637     2.3750  3580.0000
 3523.2320     8.0625  2464.0000     -.0088    34.2500    18.2129     2.4258  3594.0000
 3523.3844     8.0625  2464.0000      .0015    30.3750    16.1133     2.5215  3604.0000
 3523.5368     8.0703  2466.0000      .0044    28.7813    13.3301     2.5781  3610.0000
 3523.6892     8.0937  2466.0000      .0098    27.7969    11.6211     2.6387  3614.0000
 3523.8416     8.0937  2468.0000      .0063    29.3750    10.7422     2.6895  3620.0000
 3523.9940     8.0937  2466.0000      .0117    30.0156     9.7168     2.7266  3624.0000
 3524.1464     8.0937  2464.0000      .0088    37.0313    11.4258     2.6934  3610.0000
 3524.2988     8.0859  2464.0000      .0264    42.1875    14.8926     2.6211  3614.0000
 3524.4512     8.0703  2466.0000      .0181    43.5000    19.5801     2.5098  3614.0000
 3524.6036     8.0547  2468.0000      .0049    41.1875    21.2402     2.3984  3624.0000
 3524.7560     8.0547  2468.0000     -.0068    37.6250    21.5332     2.3320  3624.0000
 3524.9084     8.0625  2468.0000     -.0132    37.2500    19.7266     2.3340  3610.0000
 3525.0608     8.1250  2470.0000     -.0186    40.6875    17.9199     2.3926  3604.0000
 3525.2132     8.2109  2470.0000     -.0176    51.0000    17.6758     2.4980  3600.0000
 3525.3656     8.3203  2468.0000     -.0068    65.6875    20.2148     2.5703  3604.0000
 3525.5180     8.3359  2464.0000     -.0020    76.8125    23.0957     2.5879  3610.0000
 3525.6704     8.3359  2464.0000      .0078    81.7500    26.7578     2.5937  3630.0000
 3525.8228     8.3437  2464.0000     -.0005    79.3750    26.7578     2.5918  3654.0000
 3525.9752     8.3437  2462.0000      .0161    80.8750    27.4414     2.6367  3680.0000
 3526.1276     8.3437  2462.0000      .0073    77.2500    26.4160     2.6074  3690.0000
 3526.2800     8.3437  2464.0000      .0059    81.6250    27.4902     2.5977  3654.0000
 3526.4324     8.3437  2464.0000     -.0005    80.1875    28.0273     2.5879  3650.0000
 3526.5848     8.3437  2466.0000     -.0020    81.3125    28.8574     2.6211  3644.0000
 3526.7372     8.3437  2464.0000      .0015    81.5000    30.6641     2.6641  3644.0000
 3526.8896     8.3437  2462.0000      .0112    80.6875    31.6895     2.6973  3624.0000
 3527.0420     8.3437  2462.0000      .0225    87.2500    33.7402     2.6562  3620.0000
 3527.1944     8.3359  2462.0000      .0171    87.5000    35.0098     2.5781  3620.0000
 3527.3468     8.3125  2464.0000      .0132    89.0000    36.5723     2.5117  3614.0000
 3527.4992     8.2969  2466.0000     -.0029    87.1250    34.8145     2.4766  3624.0000
 3527.6516     8.2812  2468.0000      .0117    84.0000    33.0566     2.4844  3630.0000
 3527.8040     8.2656  2468.0000      .0146    79.3125    34.0332     2.5078  3640.0000
 3527.9564     8.2344  2470.0000     -.0010    71.5000    35.1074     2.5273  3640.0000
 3528.1088     8.2187  2470.0000     -.0044    60.0000    33.3496     2.5488  3660.0000
 3528.2612     8.1953  2466.0000      .0054    48.5000    28.2715     2.5508  3660.0000
 3528.4136     8.1719  2466.0000      .0303    38.9688    23.5352     2.5059  3660.0000
 3528.5660     8.1016  2466.0000      .0200    38.7813    22.2656     2.4316  3650.0000
 3528.7184     8.0703  2464.0000     -.0063    41.2500    19.9707     2.3750  3630.0000
 3528.8708     8.0859  2464.0000     -.0112    43.6563    20.0684     2.3887  3630.0000
 3529.0232     8.0937  2464.0000     -.0068    43.5937    18.9941     2.4297  3610.0000
 3529.1756     8.0859  2466.0000      .0005    39.7813    19.8242     2.4238  3614.0000
 3529.3280     8.0703  2466.0000     -.0024    36.9375    19.8242     2.3750  3610.0000
 3529.4804     8.0703  2468.0000     -.0132    35.5937    19.3848     2.3320  3630.0000
 3529.6328     8.0859  2466.0000     -.0098    38.7187    19.8242     2.3437  3640.0000
 3529.7852     8.0937  2464.0000     -.0024    42.9375    19.5801     2.3965  3654.0000
 3529.9376     8.0937  2466.0000     -.0015    44.0312    19.9707     2.4258  3630.0000
 3530.0900     8.0937  2466.0000     -.0088    41.5625    19.4336     2.4121  3620.0000
 3530.2424     8.0937  2466.0000     -.0044    36.4063    19.8730     2.4219  3620.0000
 3530.3948     8.1016  2468.0000      .0068    35.0313    20.1660     2.4512  3614.0000
 3530.5472     8.1172  2470.0000      .0391    35.9375    20.3125     2.5215  3610.0000
