~VERSION INFORMATION
VERS.                                                 2.0:   CWLS Log ASCII Standard-VERSION 2.0
WRAP.                                                  NO:   One line per depth step
~Well Information Block
STRT.M                                           493.5200:   Top Depth
STOP.M                                          3752.7464:   Bottom Depth
STEP.M                                             .15240:   Depth Increment
NULL.                                            -999.250:   Null Value
FLD .                                            SLEIPNER:   Field Name
WELL.                                             15/9-12:   NAME
WBN .                                             15/9-12:   WELLBORE
NATI.                                                 NOR:   COUNTRY
BHT1.DEGF                                            74.0:   BH TEMP 1
BHT2.DEGF                                            74.0:   BH TEMP 2
BHT3.DEGF                                            76.0:   BH TEMP 3
BS1 .IN                                            12.250:   BIT SIZE 1
CTRY.                                                 NOR:   COUNTRY
CBD1.M                                              195.0:   CSG 1 DRILL DEP
CBL1.M                                              195.0:   CSG 1 LOG DEP
CS1 .IN                                              30.0:   CSG 1 SIZE
COMP.                                             STATOIL:   OPERATOR
PDAT.                                                 MSL:   PERM DATUM
PROV.                                           NORTH SEA:   PROVINCE
COUN.                                            NORDRAUG:   RIG NAME
SPUD.                                          1981/11/22:   SPUD DATE
LATI.                                       58 27 23.17 N:   SURF. LATITUDE
LONG.                                         1 43 4.01 E:   SURF. LONGITUDE
BTD1.                                             514.0 M:   TOTAL DEPTH 1
BTD2.                                             514.0 M:   TOTAL DEPTH 2
BTD3.                                             514.0 M:   TOTAL DEPTH 3
PBWE.                                             15/9-12:   PB WELL ID
APIN.                                             15/9-12:   PB WELLBORE ID
PBWS.                                                 all:   PB WELL NAME SET
~PARAMETER INFORMATION (log)
LNAM.                              FDC/CNL/GR  COMPOSITED:   NAME
LTYP.                                         DEPTH MATCH:   LOG TYPE
LSRV.                                            DEN/NEUT:   LOG SERVICE
LSOU.                                             SPT/NPD:   LOG SOURCE
LVSN.                                                   1:   LOG VERSION
BHIS.                                                   R:   BRIEF HISTORY
FHIS.                                             RAW-LIS:   FULL HISTORY
LCNM.                                                 SCH:   LOGGING CONTRACTOR
TOOL.                             FDC/CNL/GR (COMPOSITED):   TOOL STRING
~Curve Information Block
#MNEM.UNIT                                        API CODE    No Description
#=========                                        ========    == ===========
DEPT.M                                       00 001 00 00:     1  DEPTH
CALI.IN                                                  :     2  Caliper
CS.                                                      :     3  Cable Speed
DRHO.G/CC                                                :     4  Bulk density correction
GR.GAPI                                                  :     5  Gamma Ray
NPHI.%                                                   :     6  Neutron porosity
RHOB.G/CC                                                :     7  Bulk density
TENS.LB                                                  :     8  Cable Tension
~ASCII
# ...
 3086.9108    11.2734  2412.0000     -.0039    20.5469    12.1582     2.5410  3720.0000
 3087.0632    11.2656  2406.0000     -.0010    22.1094    12.5977     2.5586  4352.0000
 3087.2156    11.2422  2408.0000      .0034    20.5937    13.8672     2.5703  4292.0000
 3087.3680    11.2422  2408.0000     -.0059    19.7500    13.0859     2.5586  4228.0000
 3087.5204    11.3203  2410.0000     -.0029    16.7188    12.5977     2.5527  4168.0000
 3087.6728    11.2422  2412.0000     -.0015    17.0625    11.7188     2.5527  4104.0000
 3087.8252    11.2969  2414.0000      .0024    16.4531    12.1094     2.5508  4034.0000
 3087.9776    11.2969  2416.0000     -.0103    19.2344    13.1836     2.5410  3974.0000
 3088.1300    11.2969  2418.0000     -.0103    23.6094    14.2090     2.5156  3920.0000
 3088.2824    10.9844  2418.0000     -.0093    25.6563    15.9180     2.5137  3870.0000
 3088.4348    10.9688  2416.0000     -.0024    26.1094    15.6738     2.5391  3810.0000
 3088.5872    10.9688  2418.0000     -.0034    22.2500    15.6250     2.5547  3744.0000
 3088.7396    10.9688  2418.0000     -.0024    18.2813    14.6484     2.5586  3680.0000
 3088.8920    10.9609  2420.0000     -.0029    17.7188    14.6973     2.5391  3620.0000
 3089.0444    10.9609  2422.0000      .0146    17.4844    13.9160     2.5605  3560.0000
 3089.1968    11.0781  2426.0000      .0161    19.3125    13.3789     2.5547  3480.0000
 3089.3492    10.8984  2428.0000      .0210    17.7969    12.9395     2.5723  3440.0000
 3089.5016    10.9062  2430.0000      .0098    17.7656    13.5742     2.5547  3370.0000
 3089.6540    10.8984  2428.0000     -.0049    18.0625    13.5254     2.5508  3370.0000
 3089.8064    10.9062  2428.0000     -.0024    18.0625    14.5020     2.5156  3270.0000
 3089.9588    11.0156  2424.0000      .0020    19.6094    14.9902     2.4844  3264.0000
 3090.1112    11.1094  2424.0000      .0146    19.6563    14.9414     2.4668  3250.0000
 3090.2636    11.5000  2422.0000     -.0005    19.0625    13.7695     2.4375  3200.0000
 3090.4160    11.2891  2422.0000     -.0225    17.2813    13.0859     2.4062  3140.0000
 3090.5684    11.2422  2424.0000     -.0298    16.7031    12.8418     2.3965  2990.0000
 3090.7208    11.2578  2422.0000     -.0337    16.3906    14.4043     2.3906  3064.0000
 3090.8732    11.2266  2420.0000     -.0264    17.5938    16.0645     2.4043  3264.0000
 3091.0256    11.1484  2418.0000     -.0283    18.1875    16.5039     2.4062  3904.0000
 3091.1780    11.0000  2418.0000     -.0337    21.2969    15.5273     2.3945  3844.0000
 3091.3304    10.9609  2418.0000     -.0356    22.2188    13.5254     2.3828  3780.0000
 3091.4828    10.9609  2418.0000     -.0249    23.4688    12.8906     2.4023  3724.0000
 3091.6352    10.9688  2418.0000     -.0112    23.4219    12.1094     2.4531  3660.0000
 3091.7876    10.9688  2420.0000     -.0044    24.0156    12.7441     2.5078  3610.0000
 3091.9400    11.0234  2422.0000     -.0137    24.0156    12.4512     2.5137  3544.0000
 3092.0924    10.8437  2424.0000     -.0117    24.6250    12.5488     2.5371  3500.0000
 3092.2448    10.8437  2426.0000      .0000    20.9219    12.4512     2.5586  3450.0000
 3092.3972    10.8437  2426.0000      .0264    21.4531    12.7441     2.5996  3310.0000
 3092.5496    10.8437  2426.0000      .0317    20.2188    12.9395     2.6016  3334.0000
 3092.7020    10.8750  2424.0000      .0317    22.0313    13.2813     2.5937  3364.0000
 3092.8544    10.8359  2422.0000      .0088    21.4375    13.4277     2.5566  3400.0000
 3093.0068    10.8203  2422.0000      .0117    22.0781    13.3789     2.5352  3290.0000
 3093.1592    10.8437  2422.0000     -.0083    21.8437    12.5000     2.4766  3304.0000
 3093.3116    10.8594  2422.0000     -.0015    19.4688    12.5488     2.4590  3430.0000
 3093.4640    10.8047  2424.0000     -.0093    19.6406    13.4766     2.4629  3370.0000
 3093.6164    10.8359  2426.0000     -.0015    23.3750    13.5742     2.5117  3330.0000
 3093.7688    10.8203  2428.0000     -.0039    27.6719    14.8926     2.5391  3224.0000
 3093.9212    10.8203  2426.0000     -.0088    27.7656    15.7227     2.5176  3210.0000
 3094.0736    10.7734  2426.0000     -.0029    29.1719    17.1387     2.4434  3300.0000
 3094.2260    10.7734  2426.0000      .0063    32.0938    17.8711     2.4004  3330.0000
 3094.3784    10.7734  2422.0000      .0127    36.0625    16.7480     2.3789  3374.0000
 3094.5308    10.7734  2422.0000     -.0054    33.9063    14.9902     2.3730  3334.0000
 3094.6832    10.7734  2424.0000     -.0142    33.0937    12.8906     2.3789  3240.0000
 3094.8356    10.7734  2424.0000     -.0190    32.9375    12.6465     2.3594  3244.0000
 3094.9880    10.7734  2426.0000     -.0205    33.6875    13.2324     2.3691  3274.0000
 3095.1404    10.8047  2428.0000     -.0215    31.2031    12.9395     2.3633  3274.0000
 3095.2928    10.8125  2428.0000     -.0098    29.9063    13.3789     2.4336  3240.0000
 3095.4452    10.8906  2430.0000     -.0073    30.7344    12.6465     2.4805  3174.0000
 3095.5976    10.8906  2428.0000     -.0034    28.9063    12.5488     2.5488  3110.0000
 3095.7500    10.9062  2424.0000     -.0161    25.8125    11.8164     2.5391  3030.0000
 3095.9024    10.9062  2422.0000     -.0044    22.4375    12.3047     2.5527  2890.0000
 3096.0548    10.9062  2418.0000     -.0098    21.5312    12.3047     2.5449  2870.0000
 3096.2072    10.9062  2416.0000     -.0068    20.3281    14.7949     2.5527  3024.0000
 3096.3596    10.9062  2412.0000     -.0122    21.3906    15.7715     2.5391  3874.0000
 3096.5120    10.9062  2412.0000     -.0015    26.9375    15.6250     2.5488  4128.0000
 3096.6644    10.9062  2414.0000      .0107    39.4688    13.6230     2.5664  4074.0000
 3096.8168    10.9062  2416.0000      .0068    41.1875    12.5000     2.5625  4010.0000
 3096.9692    10.9062  2418.0000     -.0005    38.3750    12.2559     2.5508  3950.0000
 3097.1216    10.9062  2418.0000     -.0054    25.5000    11.3281     2.5293  3884.0000
 3097.2740    10.9062  2418.0000     -.0068    22.0938    10.4004     2.5293  3820.0000
 3097.4264    10.9062  2420.0000     -.0049    22.1094    11.1328     2.5352  3754.0000
 3097.5788    10.9062  2420.0000     -.0010    26.5000    11.6211     2.5566  3694.0000
 3097.7312    10.9219  2422.0000     -.0010    28.5156    12.6953     2.5391  3634.0000
 3097.8836    10.9219  2424.0000     -.0010    27.7031    11.7676     2.5195  3574.0000
 3098.0360    10.9062  2426.0000      .0034    25.8281    14.3555     2.5020  3520.0000
 3098.1884    10.9062  2428.0000      .0127    23.2031    16.3574     2.5098  3470.0000
 3098.3408    10.9219  2428.0000      .0020    21.7813    16.8457     2.5059  3354.0000
 3098.4932    10.9844  2428.0000     -.0059    20.7656    18.0664     2.4941  3360.0000
 3098.6456    10.8750  2426.0000     -.0059    21.3750    20.3125     2.5000  3294.0000
 3098.7980    10.7813  2424.0000     -.0127    24.1719    23.4863     2.4473  3264.0000
 3098.9504    10.7578  2424.0000     -.0146    23.6094    23.0469     2.4336  3230.0000
 3099.1028    10.7578  2424.0000     -.0283    23.6719    18.9453     2.3926  3154.0000
 3099.2552    10.7578  2424.0000     -.0225    21.6406    16.8457     2.4316  3014.0000
 3099.4076    10.7578  2424.0000     -.0215    23.8594    12.4023     2.4453  3110.0000
 3099.5600    10.7578  2422.0000     -.0273    24.4688    11.7188     2.4492  3320.0000
 3099.7124    10.7578  2422.0000     -.0273    23.7500     9.9121     2.4395  3844.0000
 3099.8648    10.7578  2422.0000     -.0410    23.0625    10.1563     2.4141  3784.0000
 3100.0172    10.7578  2422.0000     -.0225    25.4844    10.1563     2.4336  3714.0000
 3100.1696    10.7578  2420.0000     -.0210    27.3594    10.1563     2.4531  3650.0000
 3100.3220    10.7578  2420.0000     -.0063    27.0938    10.4492     2.4766  3590.0000
 3100.4744    10.7578  2422.0000     -.0044    24.7188    12.2070     2.4980  3530.0000
 3100.6268    10.7578  2424.0000      .0073    23.7969    14.3555     2.5273  3470.0000
