~VERSION INFORMATION
VERS.                                                 2.0:   CWLS Log ASCII Standard-VERSION 2.0
WRAP.                                                  NO:   One line per depth step
~Well Information Block
STRT.M                                           493.5200:   Top Depth
STOP.M                                          3752.7464:   Bottom Depth
STEP.M                                             .15240:   Depth Increment
NULL.                                            -999.250:   Null Value
FLD .                                            SLEIPNER:   Field Name
WELL.                                             15/9-12:   NAME
WBN .                                             15/9-12:   WELLBORE
NATI.                                                 NOR:   COUNTRY
BHT1.DEGF                                            74.0:   BH TEMP 1
BHT2.DEGF                                            74.0:   BH TEMP 2
BHT3.DEGF                                            76.0:   BH TEMP 3
BS1 .IN                                            12.250:   BIT SIZE 1
CTRY.                                                 NOR:   COUNTRY
CBD1.M                                              195.0:   CSG 1 DRILL DEP
CBL1.M                                              195.0:   CSG 1 LOG DEP
CS1 .IN                                              30.0:   CSG 1 SIZE
COMP.                                             STATOIL:   OPERATOR
PDAT.                                                 MSL:   PERM DATUM
PROV.                                           NORTH SEA:   PROVINCE
COUN.                                            NORDRAUG:   RIG NAME
SPUD.                                          1981/11/22:   SPUD DATE
LATI.                                       58 27 23.17 N:   SURF. LATITUDE
LONG.                                         1 43 4.01 E:   SURF. LONGITUDE
BTD1.                                             514.0 M:   TOTAL DEPTH 1
BTD2.                                             514.0 M:   TOTAL DEPTH 2
BTD3.                                             514.0 M:   TOTAL DEPTH 3
PBWE.                                             15/9-12:   PB WELL ID
APIN.                                             15/9-12:   PB WELLBORE ID
PBWS.                                                 all:   PB WELL NAME SET
~PARAMETER INFORMATION (log)
LNAM.                              FDC/CNL/GR  COMPOSITED:   NAME
LTYP.                                         DEPTH MATCH:   LOG TYPE
LSRV.                                            DEN/NEUT:   LOG SERVICE
LSOU.                                             SPT/NPD:   LOG SOURCE
LVSN.                                                   1:   LOG VERSION
BHIS.                                                   R:   BRIEF HISTORY
FHIS.                                             RAW-LIS:   FULL HISTORY
LCNM.                                                 SCH:   LOGGING CONTRACTOR
TOOL.                             FDC/CNL/GR (COMPOSITED):   TOOL STRING
~Curve Information Block
#MNEM.UNIT                                        API CODE    No Description
#=========                                        ========    == ===========
DEPT.M                                       00 001 00 00:     1  DEPTH
CALI.IN                                                  :     2  Caliper
CS.                                                      :     3  Cable Speed
DRHO.G/CC                                                :     4  Bulk density correction
GR.GAPI                                                  :     5  Gamma Ray
NPHI.%                                                   :     6  Neutron porosity
RHOB.G/CC                                                :     7  Bulk density
TENS.LB                                                  :     8  Cable Tension
~ASCII
# ...
 2878.8848    10.0781  2384.0000     -.0063     9.7344     5.7129     2.5977  3064.0000
 2879.0372    10.0547  2386.0000      .0103     9.4297     5.7129     2.6172  3080.0000
 2879.1896    10.1172  2386.0000      .0498     9.6719     5.1758     2.6484  3080.0000
 2879.3420    10.1719  2386.0000      .0835    10.8594     5.7617     2.6230  3094.0000
 2879.4944    11.1641  2382.0000      .0742    12.9375     5.6641     2.4902  3110.0000
 2879.6468    12.3281  2380.0000      .0264    13.8359     7.4707     2.2598  3110.0000
 2879.7992    14.8281  2380.0000     -.0034    15.6406    10.1563     2.1348  3090.0000
 2879.9516    13.4922  2380.0000     -.0254    17.4844    17.7246     2.0879  3070.0000
 2880.1040    14.4375  2382.0000     -.0293    18.7656    23.8770     2.1270  3064.0000
 2880.2564    14.6719  2382.0000     -.0239    17.9219    23.4375     2.1816  3074.0000
 2880.4088    14.5000  2384.0000      .0068    14.9375    19.3848     2.2520  3110.0000
 2880.5612    12.4609  2386.0000      .0142    12.4922    13.6230     2.2812  3144.0000
 2880.7136    12.0078  2386.0000      .0010    13.3672    12.5000     2.3008  3244.0000
 2880.8660    11.3516  2386.0000     -.0283    14.8359    17.3340     2.2773  3250.0000
 2881.0184    11.5625  2382.0000     -.0435    15.4219    25.7324     2.2988  3210.0000
 2881.1708    11.7344  2380.0000     -.0454    13.5859    25.9277     2.3574  3124.0000
 2881.3232    10.3672  2380.0000     -.0317    10.5469    18.8965     2.4629  3064.0000
 2881.4756    10.2656  2380.0000     -.0176     9.9375     8.8867     2.5820  3120.0000
 2881.6280    10.1172  2382.0000     -.0205    10.5625     5.8594     2.5996  3274.0000
 2881.7804    10.1172  2384.0000     -.0181    14.2734     5.1270     2.6016  3220.0000
 2881.9328    10.1250  2386.0000     -.0024    14.8984     9.7656     2.4961  3150.0000
 2882.0852    10.2422  2388.0000     -.0078    16.6875    15.0879     2.3828  3084.0000
 2882.2376    11.4766  2388.0000      .0122    16.6250    17.3828     2.3457  3084.0000
 2882.3900    10.7109  2386.0000     -.0029    19.0156    14.8926     2.3457  3080.0000
 2882.5424    11.4453  2382.0000      .0312    17.5000    12.0605     2.4297  3060.0000
 2882.6948    11.9297  2380.0000      .0063    14.4531    14.2090     2.4512  3060.0000
 2882.8472    11.5859  2378.0000      .0464     9.9297    13.5254     2.5293  3070.0000
 2882.9996    11.7109  2378.0000      .0405     9.0547    12.0605     2.5371  3070.0000
 2883.1520    11.7500  2376.0000      .0464    11.8203     9.5703     2.5234  3154.0000
 2883.3044    12.0391  2378.0000     -.0024    15.5312    10.4492     2.4219  3280.0000
 2883.4568    11.2578  2380.0000     -.0083    15.2266    12.6465     2.3984  3264.0000
 2883.6092    10.8437  2384.0000     -.0078    14.5937    13.2324     2.3848  3124.0000
 2883.7616    10.5937  2384.0000     -.0112    13.2969    13.0859     2.4043  3194.0000
 2883.9140    10.4453  2382.0000     -.0088    14.4844    12.8418     2.4219  3134.0000
 2884.0664    10.4531  2380.0000     -.0137    14.4609    11.3281     2.4629  3104.0000
 2884.2188    10.6484  2378.0000     -.0015    15.3281    10.3027     2.5469  3040.0000
 2884.3712    10.4844  2378.0000      .0010    17.4531     9.1309     2.5742  3050.0000
 2884.5236    10.2578  2380.0000     -.0034    15.9531     9.7656     2.5449  3110.0000
 2884.6760    10.3203  2380.0000     -.0044    16.0313    11.3281     2.5156  3250.0000
 2884.8284    10.2422  2382.0000      .0005    15.5312    12.3535     2.5156  3194.0000
 2884.9808    10.2344  2384.0000      .0098    19.7500    12.9395     2.5312  3150.0000
 2885.1332    10.2109  2384.0000     -.0015    19.1250    12.2070     2.5254  3104.0000
 2885.2856    10.2578  2384.0000     -.0078    18.7188    12.4512     2.5273  3104.0000
 2885.4380    10.1406  2382.0000     -.0171    15.3906    12.0605     2.5430  3120.0000
 2885.5904    10.1953  2378.0000     -.0122    15.0469     9.6191     2.5586  3104.0000
 2885.7428    10.0781  2378.0000      .0034    15.6172     7.2754     2.5898  3100.0000
 2885.8952    10.0859  2378.0000      .0205    17.4063     7.7148     2.6113  3084.0000
 2886.0476    10.1406  2380.0000      .0229    20.4688     9.1309     2.5937  3084.0000
 2886.2000    10.2109  2380.0000     -.0054    20.2500    10.9863     2.5234  3084.0000
 2886.3524    10.3203  2380.0000     -.0054    23.1094    11.2305     2.5039  3100.0000
 2886.5048    10.2969  2382.0000      .0200    22.2031    13.2813     2.4746  3110.0000
 2886.6572    10.3281  2384.0000      .0132    24.2813    14.3066     2.4277  3110.0000
 2886.8096    10.9688  2384.0000     -.0054    22.0625    14.8926     2.3652  3100.0000
 2886.9620    11.0703  2380.0000     -.0371    22.6406    12.0117     2.3418  3090.0000
 2887.1144    11.1016  2378.0000     -.0308    18.9844     9.1309     2.3926  3090.0000
 2887.2668    10.2656  2378.0000     -.0093    16.5469     8.6914     2.4668  3134.0000
 2887.4192    10.2891  2380.0000     -.0034    13.8437    12.3047     2.4062  3184.0000
 2887.5716    10.3828  2380.0000     -.0239    16.5938    16.5527     2.2969  3240.0000
 2887.7240    11.2578  2382.0000     -.0454    18.5156    19.0430     2.2148  3160.0000
 2887.8764    11.4453  2384.0000     -.0537    18.8438    20.2637     2.2871  3110.0000
 2888.0288    10.3828  2386.0000     -.0161    14.5937    17.3828     2.4453  3070.0000
 2888.1812    10.3672  2386.0000      .0073    12.4062    14.7461     2.5918  3084.0000
 2888.3336    10.4062  2386.0000      .0098    11.4609    14.2090     2.5859  3130.0000
 2888.4860    10.4141  2382.0000     -.0078    14.4844    18.0664     2.5371  3160.0000
 2888.6384    10.5469  2380.0000      .0200    15.0703    18.7988     2.4941  3090.0000
 2888.7908    10.8437  2380.0000      .0376    15.6797    18.5547     2.4766  3090.0000
 2888.9432    11.4219  2378.0000      .0298    15.0859    17.8711     2.4492  3070.0000
 2889.0956    11.5859  2378.0000     -.0010    15.7266    17.7734     2.4062  3060.0000
 2889.2480    10.4766  2378.0000     -.0068    15.2031    17.9688     2.3789  3064.0000
 2889.4004    10.5312  2380.0000     -.0015    13.7031    17.7734     2.3828  3090.0000
 2889.5528    10.8359  2382.0000      .0171    14.0156    16.5527     2.3887  3210.0000
 2889.7052    10.9297  2382.0000      .0342    14.5625    13.3789     2.3770  3200.0000
 2889.8576    11.3828  2382.0000      .0298    16.9375    10.8887     2.2988  3160.0000
 2890.0100    11.4219  2378.0000     -.0029    16.2813    13.1836     2.2754  3040.0000
 2890.1624    11.7969  2378.0000     -.0171    16.5625    17.2363     2.3398  3060.0000
 2890.3148    11.6641  2378.0000     -.0171    15.3672    16.7969     2.4844  3114.0000
 2890.4672    11.7188  2378.0000      .0020    13.2734    12.3047     2.5977  3270.0000
 2890.6196    11.7344  2378.0000      .0200    12.1172     7.5195     2.6562  3244.0000
 2890.7720    11.7500  2380.0000      .0332    10.3516     6.3965     2.6875  3190.0000
 2890.9244    11.8359  2382.0000      .0288    10.3516     5.3711     2.6855  3130.0000
 2891.0768    11.6562  2382.0000      .0352    10.3125     5.1270     2.6133  3110.0000
 2891.2292    11.0234  2382.0000      .0083    11.4609     5.9570     2.4766  3140.0000
 2891.3816    11.2891  2382.0000      .0078    13.5469     8.2031     2.3730  3154.0000
 2891.5340    11.2344  2378.0000     -.0034    13.8359    14.1602     2.2891  3134.0000
 2891.6864    11.7500  2376.0000      .0122    14.1328    16.9922     2.2812  3060.0000
 2891.8388    11.9219  2376.0000      .0186    15.0625    21.8262     2.3184  3030.0000
 2891.9912    12.6250  2376.0000      .0337    16.5938    18.1641     2.3887  3044.0000
 2892.1436    12.6484  2378.0000      .0508    15.4375    15.9668     2.4492  3130.0000
 2892.2960    12.6797  2378.0000     -.0015    14.3125    12.8418     2.3203  3294.0000
 2892.4484    12.8281  2380.0000     -.0054    13.7187    14.0625     2.2695  3234.0000
 2892.6008    10.6250  2382.0000     -.0239    15.8203    16.4063     2.1230  3230.0000
