~VERSION INFORMATION
VERS.                                                 2.0:   CWLS Log ASCII Standard-VERSION 2.0
WRAP.                                                  NO:   One line per depth step
~Well Information Block
STRT.M                                           493.5200:   Top Depth
STOP.M                                          3752.7464:   Bottom Depth
STEP.M                                             .15240:   Depth Increment
NULL.                                            -999.250:   Null Value
FLD .                                            SLEIPNER:   Field Name
WELL.                                             15/9-12:   NAME
WBN .                                             15/9-12:   WELLBORE
NATI.                                                 NOR:   COUNTRY
BHT1.DEGF                                            74.0:   BH TEMP 1
BHT2.DEGF                                            74.0:   BH TEMP 2
BHT3.DEGF                                            76.0:   BH TEMP 3
BS1 .IN                                            12.250:   BIT SIZE 1
CTRY.                                                 NOR:   COUNTRY
CBD1.M                                              195.0:   CSG 1 DRILL DEP
CBL1.M                                              195.0:   CSG 1 LOG DEP
CS1 .IN                                              30.0:   CSG 1 SIZE
COMP.                                             STATOIL:   OPERATOR
PDAT.                                                 MSL:   PERM DATUM
PROV.                                           NORTH SEA:   PROVINCE
COUN.                                            NORDRAUG:   RIG NAME
SPUD.                                          1981/11/22:   SPUD DATE
LATI.                                       58 27 23.17 N:   SURF. LATITUDE
LONG.                                         1 43 4.01 E:   SURF. LONGITUDE
BTD1.                                             514.0 M:   TOTAL DEPTH 1
BTD2.                                             514.0 M:   TOTAL DEPTH 2
BTD3.                                             514.0 M:   TOTAL DEPTH 3
PBWE.                                             15/9-12:   PB WELL ID
APIN.                                             15/9-12:   PB WELLBORE ID
PBWS.                                                 all:   PB WELL NAME SET
~PARAMETER INFORMATION (log)
LNAM.                              FDC/CNL/GR  COMPOSITED:   NAME
LTYP.                                         DEPTH MATCH:   LOG TYPE
LSRV.                                            DEN/NEUT:   LOG SERVICE
LSOU.                                             SPT/NPD:   LOG SOURCE
LVSN.                                                   1:   LOG VERSION
BHIS.                                                   R:   BRIEF HISTORY
FHIS.                                             RAW-LIS:   FULL HISTORY
LCNM.                                                 SCH:   LOGGING CONTRACTOR
TOOL.                             FDC/CNL/GR (COMPOSITED):   TOOL STRING
~Curve Information Block
#MNEM.UNIT                                        API CODE    No Description
#=========                                        ========    == ===========
DEPT.M                                       00 001 00 00:     1  DEPTH
CALI.IN                                                  :     2  Caliper
CS.                                                      :     3  Cable Speed
DRHO.G/CC                                                :     4  Bulk density correction
GR.GAPI                                                  :     5  Gamma Ray
NPHI.%                                                   :     6  Neutron porosity
RHOB.G/CC                                                :     7  Bulk density
TENS.LB                                                  :     8  Cable Tension
~ASCII
# ...
 1145.3348    14.8047  2524.0000      .0483    71.8125    43.7988     2.0762  1480.0000
 1145.4872    14.8125  2524.0000      .0405    74.5000    45.3613     2.0547  1480.0000
 1145.6396    14.7109  2522.0000      .0356    78.8750    44.6777     2.0508  1495.0000
 1145.7920    14.9453  2524.0000      .0186    79.9375    45.1172     2.0293  1505.0000
 1145.9444    14.8047  2526.0000      .0103    78.5625    43.4082     2.0176  1490.0000
 1146.0968    14.5156  2528.0000      .0068    73.1250    42.4805     2.0039  1485.0000
 1146.2492    14.4609  2530.0000      .0078    76.7500    44.7266     1.9854  1480.0000
 1146.4016    14.5156  2532.0000      .0059    72.3750    47.1680     1.9746  1490.0000
 1146.5540    14.7266  2534.0000     -.0020    72.1250    48.4375     1.9600  1510.0000
 1146.7064    14.5391  2534.0000      .0049    69.6250    47.6562     1.9834  1515.0000
 1146.8588    14.6875  2530.0000      .0068    70.0000    45.9961     2.0039  1525.0000
 1147.0112    14.4297  2530.0000      .0186    68.5625    43.7012     2.0391  1515.0000
 1147.1636    15.2578  2530.0000      .0073    70.9375    41.5039     2.0391  1520.0000
 1147.3160    15.1406  2530.0000      .0122    71.8750    40.3809     2.0508  1515.0000
 1147.4684    14.4609  2532.0000      .0195    77.3125    46.4844     2.0449  1505.0000
 1147.6208    14.3828  2534.0000      .0298    77.0625    49.3164     2.0293  1510.0000
 1147.7732    14.1953  2536.0000      .0337    79.9375    49.1699     2.0059  1480.0000
 1147.9256    14.1953  2538.0000      .0112    81.5000    46.3379     1.9717  1500.0000
 1148.0780    14.1406  2538.0000     -.0039    78.6875    43.0176     1.9580  1515.0000
 1148.2304    14.2656  2538.0000     -.0078    78.0625    44.5312     1.9629  1510.0000
 1148.3828    14.2344  2538.0000     -.0029    73.6250    40.1855     1.9629  1510.0000
 1148.5352    14.5937  2538.0000      .0044    78.0000    43.6035     1.9639  1510.0000
 1148.6876    14.6094  2534.0000      .0015    80.3750    44.7754     1.9541  1470.0000
 1148.8400    14.4219  2534.0000      .0020    81.0625    48.0957     1.9609  1500.0000
 1148.9924    14.3516  2534.0000      .0112    76.7500    44.3848     1.9873  1540.0000
 1149.1448    14.2891  2536.0000      .0190    77.2500    40.7715     1.9932  1500.0000
 1149.2972    14.3359  2538.0000      .0146    79.3750    40.5273     1.9814  1505.0000
 1149.4496    14.2031  2538.0000     -.0020    80.8125    40.0879     1.9443  1510.0000
 1149.6020    14.1641  2538.0000     -.0107    81.7500    46.1426     1.9365  1495.0000
 1149.7544    14.1641  2538.0000     -.0078    77.3750    44.0918     1.9414  1500.0000
 1149.9068    14.0938  2538.0000     -.0049    76.8125    43.6523     1.9570  1500.0000
 1150.0592    14.1719  2536.0000      .0054    74.4375    40.0391     1.9658  1525.0000
 1150.2116    14.2656  2532.0000      .0034    79.6250    43.0664     1.9570  1515.0000
 1150.3640    14.2891  2530.0000      .0044    83.6250    45.0195     1.9531  1510.0000
 1150.5164    14.2266  2530.0000     -.0059    81.3750    44.6777     1.9561  1495.0000
 1150.6688    14.3203  2530.0000     -.0034    81.0000    44.2383     1.9707  1490.0000
 1150.8212    14.2891  2530.0000     -.0034    76.1875    47.4121     1.9658  1490.0000
 1150.9736    14.2656  2532.0000     -.0020    80.0625    47.9004     1.9600  1500.0000
 1151.1260    14.1172  2532.0000     -.0059    81.5625    47.2656     1.9609  1515.0000
 1151.2784    14.0078  2534.0000     -.0073    83.9375    44.7266     1.9619  1505.0000
 1151.4308    14.2266  2534.0000      .0049    87.5625    49.5605     1.9707  1510.0000
 1151.5832    14.0078  2534.0000      .0005    89.2500    52.2949     1.9473  1475.0000
 1151.7356    14.3437  2532.0000      .0205    93.9375    49.6094     1.9600  1520.0000
 1151.8880    13.9687  2530.0000     -.0010    90.4375    44.5801     1.9336  1495.0000
 1152.0404    14.1484  2526.0000     -.0054    88.2500    42.5293     1.9170  1495.0000
 1152.1928    13.9453  2526.0000     -.0098    83.7500    48.3398     1.9043  1510.0000
 1152.3452    14.0000  2526.0000     -.0024    81.9375    50.2441     1.9063  1505.0000
 1152.4976    14.0547  2528.0000      .0098    81.5000    49.7070     1.9336  1515.0000
 1152.6500    13.9922  2530.0000      .0117    85.3750    48.0957     1.9424  1485.0000
 1152.8024    14.0000  2530.0000      .0068    86.1250    46.9727     1.9336  1495.0000
 1152.9548    14.0859  2532.0000      .0127    87.7500    46.2891     1.9463  1490.0000
 1153.1072    14.0625  2532.0000      .0039    85.3750    46.5332     1.9453  1480.0000
 1153.2596    14.0234  2534.0000      .0127    85.3125    47.8516     1.9551  1510.0000
 1153.4120    13.9922  2532.0000      .0264    81.6250    49.7070     1.9639  1510.0000
 1153.5644    14.0781  2528.0000      .0488    80.5000    46.8262     1.9658  1495.0000
 1153.7168    14.0859  2528.0000      .0488    80.2500    45.7031     1.9639  1505.0000
 1153.8692    14.3828  2528.0000      .0205    86.0000    41.0645     1.9248  1520.0000
 1154.0216    14.1172  2528.0000      .0146    89.3750    41.6504     1.9375  1505.0000
 1154.1740    14.5156  2530.0000      .0093    89.6875    38.9160     1.9463  1475.0000
 1154.3264    14.5469  2532.0000      .0151    90.5000    45.2637     1.9697  1505.0000
 1154.4788    14.2969  2534.0000      .0000    87.6250    48.5840     1.9658  1480.0000
 1154.6312    14.3203  2536.0000      .0010    93.0625    51.4648     1.9746  1520.0000
 1154.7836    14.9531  2536.0000      .0044    90.8125    49.5605     1.9736  1500.0000
 1154.9360    14.4297  2538.0000      .0122    92.1875    49.3652     1.9746  1480.0000
 1155.0884    14.5078  2536.0000      .0234    84.7500    47.9980     1.9814  1515.0000
 1155.2408    14.8281  2536.0000      .0161    82.5625    49.3164     1.9756  1525.0000
 1155.3932    15.4375  2534.0000      .0225    79.6250    46.6309     1.9863  1485.0000
 1155.5456    15.1250  2534.0000      .0210    86.8125    49.7070     1.9766  1520.0000
 1155.6980    14.9687  2536.0000      .0391    89.6875    50.4395     1.9951  1485.0000
 1155.8504    14.9531  2536.0000      .0215    93.1875    49.0723     1.9814  1480.0000
 1156.0028    15.2891  2538.0000      .0093    88.8750    46.5820     1.9697  1515.0000
 1156.1552    14.9844  2538.0000      .0098    88.8750    43.0176     1.9648  1515.0000
 1156.3076    15.6406  2538.0000      .0317    86.1875    45.8984     1.9844  1510.0000
 1156.4600    15.9531  2538.0000      .0605    86.9375    48.2910     2.0234  1490.0000
 1156.6124    15.0234  2538.0000      .0371    84.8125    50.7812     2.0156  1500.0000
 1156.7648    15.0313  2538.0000      .0205    87.5000    49.2187     2.0020  1530.0000
 1156.9172    15.0000  2532.0000      .0044    91.7500    49.5117     1.9834  1500.0000
 1157.0696    15.1953  2532.0000      .0103    95.2500    43.6035     1.9766  1510.0000
 1157.2220    15.0078  2532.0000      .0195   100.6250    43.1152     1.9756  1510.0000
 1157.3744    15.0391  2532.0000      .0166    99.0625    40.2344     1.9609  1485.0000
 1157.5268    15.0000  2534.0000      .0195    97.3125    46.8750     1.9551  1535.0000
 1157.6792    15.0703  2536.0000      .0337    94.0625    45.9961     1.9521  1510.0000
 1157.8316    15.7812  2540.0000      .0425    95.6875    47.1191     1.9619  1500.0000
 1157.9840    15.1172  2542.0000      .0493    97.7500    43.1641     1.9648  1505.0000
 1158.1364    15.0625  2540.0000      .0273    97.0625    45.5078     1.9434  1520.0000
 1158.2888    15.2109  2540.0000      .0293    98.9375    44.9219     1.9414  1495.0000
 1158.4412    15.5156  2538.0000      .0273   101.5625    48.4375     1.9473  1500.0000
 1158.5936    15.3203  2534.0000      .0303   103.1875    47.9004     1.9678  1545.0000
 1158.7460    15.0937  2528.0000      .0205   100.1250    45.0195     1.9658  1525.0000
 1158.8984    15.4531  2528.0000      .0166    93.1250    42.6270     1.9502  1495.0000
 1159.0508    15.2344  2528.0000      .0059    93.7500    41.5527     1.9297  1520.0000
