~VERSION INFORMATION
VERS.                                                 2.0:   CWLS Log ASCII Standard-VERSION 2.0
WRAP.                                                  NO:   One line per depth step
~Well Information Block
STRT.M                                           493.5200:   Top Depth
STOP.M                                          3752.7464:   Bottom Depth
STEP.M                                             .15240:   Depth Increment
NULL.                                            -999.250:   Null Value
FLD .                                            SLEIPNER:   Field Name
WELL.                                             15/9-12:   NAME
WBN .                                             15/9-12:   WELLBORE
NATI.                                                 NOR:   COUNTRY
BHT1.DEGF                                            74.0:   BH TEMP 1
BHT2.DEGF                                            74.0:   BH TEMP 2
BHT3.DEGF                                            76.0:   BH TEMP 3
BS1 .IN                                            12.250:   BIT SIZE 1
CTRY.                                                 NOR:   COUNTRY
CBD1.M                                              195.0:   CSG 1 DRILL DEP
CBL1.M                                              195.0:   CSG 1 LOG DEP
CS1 .IN                                              30.0:   CSG 1 SIZE
COMP.                                             STATOIL:   OPERATOR
PDAT.                                                 MSL:   PERM DATUM
PROV.                                           NORTH SEA:   PROVINCE
COUN.                                            NORDRAUG:   RIG NAME
SPUD.                                          1981/11/22:   SPUD DATE
LATI.                                       58 27 23.17 N:   SURF. LATITUDE
LONG.                                         1 43 4.01 E:   SURF. LONGITUDE
BTD1.                                             514.0 M:   TOTAL DEPTH 1
BTD2.                                             514.0 M:   TOTAL DEPTH 2
BTD3.                                             514.0 M:   TOTAL DEPTH 3
PBWE.                                             15/9-12:   PB WELL ID
APIN.                                             15/9-12:   PB WELLBORE ID
PBWS.                                                 all:   PB WELL NAME SET
~PARAMETER INFORMATION (log)
LNAM.                              FDC/CNL/GR  COMPOSITED:   NAME
LTYP.                                         DEPTH MATCH:   LOG TYPE
LSRV.                                            DEN/NEUT:   LOG SERVICE
LSOU.                                             SPT/NPD:   LOG SOURCE
LVSN.                                                   1:   LOG VERSION
BHIS.                                                   R:   BRIEF HISTORY
FHIS.                                             RAW-LIS:   FULL HISTORY
LCNM.                                                 SCH:   LOGGING CONTRACTOR
TOOL.                             FDC/CNL/GR (COMPOSITED):   TOOL STRING
~Curve Information Block
#MNEM.UNIT                                        API CODE    No Description
#=========                                        ========    == ===========
DEPT.M                                       00 001 00 00:     1  DEPTH
CALI.IN                                                  :     2  Caliper
CS.                                                      :     3  Cable Speed
DRHO.G/CC                                                :     4  Bulk density correction
GR.GAPI                                                  :     5  Gamma Ray
NPHI.%                                                   :     6  Neutron porosity
RHOB.G/CC                                                :     7  Bulk density
TENS.LB                                                  :     8  Cable Tension
~ASCII
# ...
 2435.0960    12.0234  2324.0000      .0176    31.9688    26.3184     2.2051  2670.0000
 2435.2484    12.1328  2324.0000      .0410    34.3125    28.4668     2.2305  2650.0000
 2435.4008    12.1641  2326.0000      .0444    36.0938    28.3203     2.2246  2660.0000
 2435.5532    12.1719  2328.0000      .0435    33.0313    28.9551     2.2246  2670.0000
 2435.7056    12.2422  2330.0000      .0303    29.9687    30.0781     2.2051  2670.0000
 2435.8580    12.2812  2332.0000      .0200    28.1875    29.7363     2.2031  2664.0000
 2436.0104    12.2734  2334.0000      .0156    29.8438    30.8594     2.1895  2660.0000
 2436.1628    12.1094  2334.0000      .0122    32.5313    29.4434     2.1914  2670.0000
 2436.3152    12.0313  2330.0000      .0239    32.8438    31.0059     2.2031  2664.0000
 2436.4676    12.0156  2324.0000      .0386    33.6250    30.5664     2.2148  2700.0000
 2436.6200    12.0156  2324.0000      .0391    33.0625    29.7852     2.2109  2690.0000
 2436.7724    12.0859  2324.0000      .0400    36.3750    28.2715     2.2246  2700.0000
 2436.9248    12.1875  2326.0000      .0205    42.1875    28.5645     2.2559  2670.0000
 2437.0772    12.2031  2326.0000      .0161    49.4688    29.1016     2.3047  2684.0000
 2437.2296    12.0703  2328.0000      .0132    52.5000    32.6660     2.3379  2700.0000
 2437.3820    12.0000  2328.0000      .0156    48.0000    30.3711     2.3184  2684.0000
 2437.5344    11.9687  2332.0000      .0244    42.9375    29.9316     2.2891  2684.0000
 2437.6868    12.0000  2334.0000      .0220    39.8750    25.1953     2.2539  2674.0000
 2437.8392    12.0547  2332.0000      .0225    38.7187    26.3184     2.2383  2670.0000
 2437.9916    12.0703  2328.0000      .0190    37.4687    25.7324     2.2285  2660.0000
 2438.1440    12.0547  2330.0000      .0186    36.2813    27.5391     2.2187  2674.0000
 2438.2964    12.1094  2330.0000      .0103    38.5313    30.2734     2.2051  2670.0000
 2438.4488    12.1641  2330.0000      .0361    37.7500    30.7129     2.1855  2674.0000
 2438.6012    12.1641  2332.0000      .0693    40.7812    31.7383     2.2109  2684.0000
 2438.7536    12.2422  2332.0000      .0610    46.1875    31.2012     2.1992  2694.0000
 2438.9060    13.0859  2336.0000      .0200    55.2812    37.3535     2.2305  2690.0000
 2439.0584    12.1641  2336.0000      .0020    64.1250    39.1113     2.2598  2684.0000
 2439.2108    12.1641  2338.0000      .0483    63.4062    38.2324     2.3379  2650.0000
 2439.3632    12.1406  2336.0000      .0381    56.2813    33.2031     2.2891  2664.0000
 2439.5156    12.1875  2330.0000      .0298    42.8438    30.6641     2.2441  2684.0000
 2439.6680    12.2266  2326.0000      .0020    31.8125    29.7363     2.1895  2690.0000
 2439.8204    12.2812  2326.0000      .0117    28.6406    27.5879     2.2129  2650.0000
 2439.9728    12.3359  2326.0000     -.0015    26.5312    26.8555     2.2656  2654.0000
 2440.1252    12.3359  2326.0000      .0049    30.4531    21.8262     2.3867  2654.0000
 2440.2776    12.3047  2328.0000      .0244    32.0000    14.9414     2.5098  2654.0000
 2440.4300    12.1562  2328.0000      .0332    35.6563     7.6660     2.5039  2660.0000
 2440.5824    12.1094  2330.0000      .0352    37.5938     6.1035     2.4316  2660.0000
 2440.7348    12.1094  2332.0000      .0283    39.0625    10.1074     2.3477  2664.0000
 2440.8872    12.0156  2332.0000      .0273    37.7500    15.6250     2.3047  2684.0000
 2441.0396    12.0156  2328.0000      .0156    35.8438    19.0430     2.2715  2690.0000
 2441.1920    12.0469  2324.0000      .0166    35.8750    20.5566     2.2637  2704.0000
 2441.3444    12.0547  2324.0000      .0200    33.8750    21.8750     2.2500  2694.0000
 2441.4968    12.0547  2326.0000      .0205    32.3750    23.1934     2.2285  2690.0000
 2441.6492    12.0469  2330.0000      .0010    28.1719    24.2676     2.1953  2684.0000
 2441.8016    12.0781  2330.0000      .0015    28.4531    25.3418     2.1934  2664.0000
 2441.9540    12.0703  2332.0000     -.0039    28.9688    25.7813     2.2012  2674.0000
 2442.1064    12.1719  2336.0000      .0068    33.9063    25.2930     2.2598  2670.0000
 2442.2588    12.7969  2336.0000      .0073    41.7187    25.0977     2.3242  2660.0000
 2442.4112    12.3281  2336.0000      .0303    54.6250    25.5859     2.3984  2664.0000
 2442.5636    12.3125  2332.0000      .0342    56.1250    26.1230     2.4141  2670.0000
 2442.7160    12.1016  2328.0000      .0459    55.3438    24.8047     2.3926  2690.0000
 2442.8684    12.0156  2326.0000      .0342    46.9375    23.2422     2.3437  2710.0000
 2443.0208    12.1328  2326.0000      .0303    44.5000    23.8281     2.2891  2710.0000
 2443.1732    12.2734  2326.0000      .0322    37.8125    24.3164     2.2578  2700.0000
 2443.3256    12.2578  2326.0000      .0239    32.7188    26.0254     2.2285  2690.0000
 2443.4780    12.2500  2328.0000      .0215    26.9688    26.2207     2.2266  2680.0000
 2443.6304    12.1719  2330.0000     -.0015    28.1875    28.1250     2.2070  2670.0000
 2443.7828    12.1094  2332.0000     -.0117    28.9219    28.5156     2.2305  2674.0000
 2443.9352    12.1172  2332.0000     -.0220    30.6406    28.0762     2.2832  2690.0000
 2444.0876    12.1719  2330.0000     -.0034    27.0313    24.1699     2.4102  2684.0000
 2444.2400    12.2891  2326.0000      .0503    27.2031    21.7285     2.5391  2674.0000
 2444.3924    12.3125  2326.0000      .0796    29.1250    21.0938     2.5684  2680.0000
 2444.5448    12.1719  2326.0000      .0630    30.2500    22.2168     2.5371  2674.0000
 2444.6972    12.1719  2326.0000      .0508    28.7500    22.4609     2.4961  2690.0000
 2444.8496    12.1953  2328.0000      .0752    27.5156    22.9492     2.4453  2700.0000
 2445.0020    12.2500  2328.0000      .0532    28.4375    23.5840     2.3242  2700.0000
 2445.1544    12.1641  2330.0000      .0278    29.9844    25.9277     2.2324  2694.0000
 2445.3068    12.1719  2330.0000      .0044    31.0781    27.3926     2.2031  2684.0000
 2445.4592    12.2266  2330.0000      .0166    31.2969    28.1738     2.2285  2680.0000
 2445.6116    12.2188  2328.0000      .0303    32.0000    27.1973     2.2578  2690.0000
 2445.7640    12.1719  2322.0000      .0103    30.9688    27.2949     2.2285  2700.0000
 2445.9164    12.1719  2320.0000      .0122    31.3906    27.1484     2.2285  2680.0000
 2446.0688    12.1641  2318.0000      .0176    29.1719    27.4902     2.2305  2680.0000
 2446.2212    11.9922  2318.0000      .0312    30.3906    27.0996     2.2402  2660.0000
 2446.3736    11.9687  2318.0000      .0259    30.9688    27.1484     2.2344  2660.0000
 2446.5260    12.0547  2320.0000      .0308    34.5938    26.2695     2.2422  2670.0000
 2446.6784    12.0859  2320.0000      .0420    33.9375    24.6582     2.2656  2654.0000
 2446.8308    11.9687  2322.0000      .0220    34.9375    24.0723     2.2246  2660.0000
 2446.9832    12.1875  2324.0000      .0176    35.7813    23.0469     2.2109  2680.0000
 2447.1356    12.2188  2324.0000      .0142    37.7500    22.2168     2.1914  2694.0000
 2447.2880    12.1875  2318.0000      .0410    38.5938    22.2656     2.2344  2704.0000
 2447.4404    12.1875  2316.0000      .0488    35.3125    23.1934     2.2363  2680.0000
 2447.5928    12.1406  2318.0000      .0317    35.1250    23.8770     2.2246  2680.0000
 2447.7452    12.0859  2320.0000      .0112    36.6250    25.6348     2.2187  2684.0000
 2447.8976    12.1953  2322.0000      .0000    41.3750    28.0273     2.2617  2694.0000
 2448.0500    12.2891  2324.0000      .0229    50.0625    31.4453     2.3555  2710.0000
 2448.2024    12.7344  2326.0000      .0361    55.8125    33.1543     2.3926  2694.0000
 2448.3548    12.6719  2328.0000      .0342    59.9375    32.3242     2.3965  2680.0000
 2448.5072    12.3125  2330.0000      .0479    58.5000    29.1016     2.4023  2690.0000
 2448.6596    12.3125  2328.0000      .0430    56.3438    27.3438     2.3887  2690.0000
 2448.8120    12.3594  2326.0000      .0430    51.4375    26.8555     2.3672  2690.0000
