~VERSION INFORMATION
VERS.                                                 2.0:   CWLS Log ASCII Standard-VERSION 2.0
WRAP.                                                  NO:   One line per depth step
~Well Information Block
STRT.M                                           493.5200:   Top Depth
STOP.M                                          3752.7464:   Bottom Depth
STEP.M                                             .15240:   Depth Increment
NULL.                                            -999.250:   Null Value
FLD .                                            SLEIPNER:   Field Name
WELL.                                             15/9-12:   NAME
WBN .                                             15/9-12:   WELLBORE
NATI.                                                 NOR:   COUNTRY
BHT1.DEGF                                            74.0:   BH TEMP 1
BHT2.DEGF                                            74.0:   BH TEMP 2
BHT3.DEGF                                            76.0:   BH TEMP 3
BS1 .IN                                            12.250:   BIT SIZE 1
CTRY.                                                 NOR:   COUNTRY
CBD1.M                                              195.0:   CSG 1 DRILL DEP
CBL1.M                                              195.0:   CSG 1 LOG DEP
CS1 .IN                                              30.0:   CSG 1 SIZE
COMP.                                             STATOIL:   OPERATOR
PDAT.                                                 MSL:   PERM DATUM
PROV.                                           NORTH SEA:   PROVINCE
COUN.                                            NORDRAUG:   RIG NAME
SPUD.                                          1981/11/22:   SPUD DATE
LATI.                                       58 27 23.17 N:   SURF. LATITUDE
LONG.                                         1 43 4.01 E:   SURF. LONGITUDE
BTD1.                                             514.0 M:   TOTAL DEPTH 1
BTD2.                                             514.0 M:   TOTAL DEPTH 2
BTD3.                                             514.0 M:   TOTAL DEPTH 3
PBWE.                                             15/9-12:   PB WELL ID
APIN.                                             15/9-12:   PB WELLBORE ID
PBWS.                                                 all:   PB WELL NAME SET
~PARAMETER INFORMATION (log)
LNAM.                              FDC/CNL/GR  COMPOSITED:   NAME
LTYP.                                         DEPTH MATCH:   LOG TYPE
LSRV.                                            DEN/NEUT:   LOG SERVICE
LSOU.                                             SPT/NPD:   LOG SOURCE
LVSN.                                                   1:   LOG VERSION
BHIS.                                                   R:   BRIEF HISTORY
FHIS.                                             RAW-LIS:   FULL HISTORY
LCNM.                                                 SCH:   LOGGING CONTRACTOR
TOOL.                             FDC/CNL/GR (COMPOSITED):   TOOL STRING
~Curve Information Block
#MNEM.UNIT                                        API CODE    No Description
#=========                                        ========    == ===========
DEPT.M                                       00 001 00 00:     1  DEPTH
CALI.IN                                                  :     2  Caliper
CS.                                                      :     3  Cable Speed
DRHO.G/CC                                                :     4  Bulk density correction
GR.GAPI                                                  :     5  Gamma Ray
NPHI.%                                                   :     6  Neutron porosity
RHOB.G/CC                                                :     7  Bulk density
TENS.LB                                                  :     8  Cable Tension
~ASCII
# ...
 3738.7256     8.6016  1657.0000     -.0015    47.7188    14.3555     2.5898  3740.0000
 3738.8780     8.6094  1654.0000      .0117    45.9375    14.2578     2.6035  3740.0000
 3739.0304     8.5781  1653.0000      .0181    46.9688    14.3066     2.5957  3720.0000
 3739.1828     8.5781  1651.0000      .0098    44.9375    14.6484     2.5684  3740.0000
 3739.3352     8.5234  1651.0000      .0210    45.9062    15.0879     2.5586  3790.0000
 3739.4876     8.3750  1651.0000      .0142    44.4063    15.0879     2.5312  3814.0000
 3739.6400     8.3125  1653.0000      .0444    41.0313    15.1367     2.5547  3800.0000
 3739.7924     8.1875  1653.0000      .0137    36.8750    14.9902     2.5176  3790.0000
 3739.9448     8.0625  1651.0000      .0068    33.0000    16.2598     2.4883  3764.0000
 3740.0972     7.9648  1648.0000     -.0190    32.0625    16.3086     2.4531  3750.0000
 3740.2496     7.9687  1646.0000     -.0205    33.7500    14.8437     2.4687  3740.0000
 3740.4020     8.1016  1644.0000     -.0112    35.1563    12.8418     2.5273  3730.0000
 3740.5544     8.1562  1643.0000     -.0010    36.7813    11.6699     2.5410  3720.0000
 3740.7068     8.2422  1642.0000     -.0034    34.5625    12.5488     2.5078  3720.0000
 3740.8592     8.2500  1641.0000     -.0137    35.2500    12.0117     2.4687  3714.0000
 3741.0116     8.2656  1640.0000     -.0122    36.9063    10.4004     2.4746  3720.0000
 3741.1640     8.2734  1638.0000     -.0142    36.1875     7.5195     2.4980  3744.0000
 3741.3164     8.2656  1635.0000     -.0122    35.6250     5.6152     2.5371  3740.0000
 3741.4688     8.2891  1630.0000     -.0137    34.4375     4.4434     2.5664  3740.0000
 3741.6212     8.1953  1625.0000     -.0029    36.0313     5.0781     2.5918  3740.0000
 3741.7736     8.3594  1622.0000      .0054    34.7188     6.0059     2.6250  3740.0000
 3741.9260     8.3359  1620.0000      .0220    32.0000     7.6172     2.6445  3734.0000
 3742.0784     8.3047  1620.0000      .0327    32.3125     8.6426     2.6465  3730.0000
 3742.2308     8.3281  1621.0000      .0415    33.6250     9.7168     2.6133  3740.0000
 3742.3832     8.2891  1623.0000      .0264    35.7188    10.6934     2.5723  3760.0000
 3742.5356     8.3594  1622.0000      .0020    36.8437    11.1816     2.5410  3794.0000
 3742.6880     8.3594  1623.0000     -.0098    36.2187    11.8164     2.5508  3810.0000
 3742.8404     8.3828  1622.0000     -.0039    36.4375    12.2559     2.5703  3810.0000
 3742.9928     8.3750  1621.0000      .0142    35.1250    12.9395     2.6152  3784.0000
 3743.1452     8.3281  1622.0000      .0200    35.7813    12.9395     2.6289  3774.0000
 3743.2976     8.3281  1622.0000      .0146    33.5313    13.0859     2.6348  3794.0000
 3743.4500     8.3281  1621.0000      .0171    34.9375    13.0859     2.6309  3820.0000
 3743.6024     8.3359  1621.0000      .0273    35.5625    13.2324     2.6230  3844.0000
 3743.7548     8.3437  1621.0000      .0215    38.0937    13.4277     2.5996  3870.0000
 3743.9072     8.3047  1621.0000      .0132    38.6875    13.2813     2.5645  3880.0000
 3744.0596     8.3281  1621.0000      .0088    38.4375    13.3301     2.5508  3860.0000
 3744.2120     8.3047  1620.0000      .0098    38.2188    13.1836     2.5391  3840.0000
 3744.3644     8.2969  1619.0000      .0122    37.0938    13.5254     2.5508  3820.0000
 3744.5168     8.2812  1619.0000      .0127    37.2188    13.6719     2.5527  3800.0000
 3744.6692     8.2500  1618.0000      .0098    37.1250    13.7207     2.5449  3794.0000
 3744.8216     8.2500  1618.0000      .0132    37.7188    13.2324     2.5410  3774.0000
 3744.9740     8.2031  1619.0000      .0039    37.7812    13.1836     2.5117  3770.0000
 3745.1264     8.1875  1619.0000     -.0005    37.7812    12.9395     2.5137  3760.0000
 3745.2788     8.2344  1618.0000     -.0020    37.7812    13.1836     2.5273  3750.0000
 3745.4312     8.2500  1618.0000      .0029    37.7812    13.9648     2.5742  3774.0000
 3745.5836     8.3437  1617.0000      .0127    37.7812    14.1113     2.6055  3754.0000
 3745.7360     8.3594  1617.0000      .0088    37.7812    14.2090     2.5957  3744.0000
 3745.8884     8.3594  1618.0000      .0034    37.7812    13.1348     2.5605  3730.0000
 3746.0408     8.3672  1616.0000      .0093    37.7812    13.3789     2.5566  3730.0000
 3746.1932     8.3594  1616.0000      .0049    37.7812    13.1836     2.5469  3764.0000
 3746.3456     8.3437  1615.0000      .0190    37.7812    13.5742     2.5742  3804.0000
 3746.4980     8.2891  1615.0000      .0054    37.7812    13.2324     2.5781  3814.0000
 3746.6504     8.2578  1615.0000      .0093    37.7812    13.1836     2.6074  3780.0000
 3746.8028     8.2500  1614.0000     -.0054    37.7812    12.7441     2.6094  3760.0000
 3746.9552     8.2500  1614.0000     -.0049    37.7812    12.9883     2.6250  3744.0000
 3747.1076     8.2500  1612.0000      .0005    37.7812    13.1348     2.6406  3770.0000
 3747.2600     8.2812  1611.0000      .0186    37.7812    13.2324     2.6777  3780.0000
 3747.4124     8.2734  1609.0000      .0239    37.7812    12.9395     2.6699  3800.0000
 3747.5648     8.2344  1608.0000      .0249    37.7812    12.7930     2.6621  3780.0000
 3747.7172     8.1641  1607.0000      .0229    37.7812    12.8906     2.6250  3740.0000
 3747.8696     7.8477  1607.0000      .0317    37.7812    13.3301     2.6152  3700.0000
 3748.0220     7.7656  1606.0000      .0332    37.7812    13.3789     2.6016  3644.0000
 3748.1744     7.6992  1604.0000      .0454    37.7812    13.4277     2.6074  3600.0000
 3748.3268     7.6758  1601.0000      .0713    37.7812    13.4766     2.6289  3570.0000
 3748.4792     7.6680  1598.0000      .0869    37.7812    13.4766     2.6211  3520.0000
 3748.6316     7.6367  1596.0000      .0825    37.7812    13.4766     2.6094  3480.0000
 3748.7840     7.6328  1592.0000      .0664    37.7812    13.4766     2.5957  3440.0000
 3748.9364     7.6367  1588.0000      .0547    37.7812    13.4766     2.5898  3390.0000
 3749.0888     7.6367  1583.0000      .0469    37.7812    13.4766     2.5820  3330.0000
 3749.2412     7.6328  1577.0000      .0405    37.7812    13.4766     2.5625  3280.0000
 3749.3936     7.6328  1568.0000      .0586    37.7812    13.4766     2.5937  3230.0000
 3749.5460     7.6328  1559.0000      .0937    37.7812    13.4766     2.6406  3160.0000
 3749.6984     7.6328  1548.0000      .1123    37.7812    13.4766     2.6816  3154.0000
 3749.8508     7.6367  1537.0000      .1089    37.7812    13.4766     2.6719  3150.0000
 3750.0032     7.6211  1525.0000      .0854    37.7812    13.5254     2.6387  3150.0000
 3750.1556     7.6172  1511.0000      .0630    37.7812    13.5254     2.6016  3154.0000
 3750.3080     7.6172  1496.0000      .0361    37.7812    13.5254     2.5703  3150.0000
 3750.4604     7.6172  1480.0000      .0352    37.7812    13.5254     2.5840  3150.0000
 3750.6128     7.6094  1463.0000      .0459    37.7812    13.5254     2.5957  3154.0000
 3750.7652     7.6172  1443.0000      .0649    37.7812    13.5254     2.6152  3140.0000
 3750.9176     7.6094  1420.0000      .0645    37.7812    13.5254     2.6113  3140.0000
 3751.0700     7.6094  1394.0000      .0488    37.7812    13.5254     2.5957  3130.0000
 3751.2224     7.6094  1366.0000      .0464    37.7812    13.5254     2.5937  3124.0000
 3751.3748     7.5937  1335.0000      .0625    37.7812    13.5254     2.6074  3130.0000
 3751.5272     7.5859  1301.0000      .0933    37.7812    13.5254     2.6309  3130.0000
 3751.6796     7.5781  1268.0000      .1001    37.7812    13.5254     2.6250  3140.0000
 3751.8320     7.5547  1245.0000      .0923    37.7812    13.5742     2.6016  3130.0000
 3751.9844     7.5547  1239.0000      .0854    37.7812    13.5742     2.5859  3124.0000
 3752.1368     7.5547  1236.0000      .0854    37.7812    13.5742     2.5859  3110.0000
 3752.2892     7.5547  1232.0000      .0854    37.7812    13.5742     2.5859  3110.0000
 3752.4416     7.5547  1228.0000      .0854    37.7812    13.5742     2.5859  3054.0000
