~VERSION INFORMATION
VERS.                                                 2.0:   CWLS Log ASCII Standard-VERSION 2.0
WRAP.                                                  NO:   One line per depth step
~Well Information Block
STRT.M                                           493.5200:   Top Depth
STOP.M                                          3752.7464:   Bottom Depth
STEP.M                                             .15240:   Depth Increment
NULL.                                            -999.250:   Null Value
FLD .                                            SLEIPNER:   Field Name
WELL.                                             15/9-12:   NAME
WBN .                                             15/9-12:   WELLBORE
NATI.                                                 NOR:   COUNTRY
BHT1.DEGF                                            74.0:   BH TEMP 1
BHT2.DEGF                                            74.0:   BH TEMP 2
BHT3.DEGF                                            76.0:   BH TEMP 3
BS1 .IN                                            12.250:   BIT SIZE 1
CTRY.                                                 NOR:   COUNTRY
CBD1.M                                              195.0:   CSG 1 DRILL DEP
CBL1.M                                              195.0:   CSG 1 LOG DEP
CS1 .IN                                              30.0:   CSG 1 SIZE
COMP.                                             STATOIL:   OPERATOR
PDAT.                                                 MSL:   PERM DATUM
PROV.                                           NORTH SEA:   PROVINCE
COUN.                                            NORDRAUG:   RIG NAME
SPUD.                                          1981/11/22:   SPUD DATE
LATI.                                       58 27 23.17 N:   SURF. LATITUDE
LONG.                                         1 43 4.01 E:   SURF. LONGITUDE
BTD1.                                             514.0 M:   TOTAL DEPTH 1
BTD2.                                             514.0 M:   TOTAL DEPTH 2
BTD3.                                             514.0 M:   TOTAL DEPTH 3
PBWE.                                             15/9-12:   PB WELL ID
APIN.                                             15/9-12:   PB WELLBORE ID
PBWS.                                                 all:   PB WELL NAME SET
~PARAMETER INFORMATION (log)
LNAM.                              FDC/CNL/GR  COMPOSITED:   NAME
LTYP.                                         DEPTH MATCH:   LOG TYPE
LSRV.                                            DEN/NEUT:   LOG SERVICE
LSOU.                                             SPT/NPD:   LOG SOURCE
LVSN.                                                   1:   LOG VERSION
BHIS.                                                   R:   BRIEF HISTORY
FHIS.                                             RAW-LIS:   FULL HISTORY
LCNM.                                                 SCH:   LOGGING CONTRACTOR
TOOL.                             FDC/CNL/GR (COMPOSITED):   TOOL STRING
~Curve Information Block
#MNEM.UNIT                                        API CODE    No Description
#=========                                        ========    == ===========
DEPT.M                                       00 001 00 00:     1  DEPTH
CALI.IN                                                  :     2  Caliper
CS.                                                      :     3  Cable Speed
DRHO.G/CC                                                :     4  Bulk density correction
GR.GAPI                                                  :     5  Gamma Ray
NPHI.%                                                   :     6  Neutron porosity
RHOB.G/CC                                                :     7  Bulk density
TENS.LB                                                  :     8  Cable Tension
~ASCII
# ...
 1797.1496    12.1719  2436.0000      .0356    64.5625    48.5352     2.0898  2080.0000
 1797.3020    12.1719  2436.0000      .0352    67.7500    45.5566     2.0977  2090.0000
 1797.4544    12.1719  2436.0000      .0229    65.2500    46.1426     2.0937  2100.0000
 1797.6068    12.1016  2438.0000      .0332    64.9375    47.6562     2.1055  2100.0000
 1797.7592    12.0781  2438.0000      .0225    62.1875    50.2441     2.0957  2080.0000
 1797.9116    12.1172  2438.0000      .0244    67.3125    46.9238     2.1055  2090.0000
 1798.0640    12.1094  2436.0000      .0156    66.7500    50.2441     2.0918  2114.0000
 1798.2164    12.0234  2434.0000      .0229    66.5000    50.2930     2.0937  2114.0000
 1798.3688    12.0781  2430.0000      .0205    68.3750    51.0742     2.0820  2090.0000
 1798.5212    12.0859  2430.0000      .0298    70.1875    42.3340     2.0898  2090.0000
 1798.6736    12.0781  2428.0000      .0430    73.3125    42.7246     2.1074  2090.0000
 1798.8260    12.0781  2428.0000      .0132    68.6875    43.0176     2.0918  2084.0000
 1798.9784    12.0781  2430.0000     -.0029    67.3750    46.4844     2.1152  2080.0000
 1799.1308    12.0781  2432.0000     -.0029    62.7188    47.8027     2.1523  2080.0000
 1799.2832    12.1562  2434.0000      .0249    60.5000    51.5625     2.1582  2090.0000
 1799.4356    12.0781  2434.0000      .0352    59.0625    54.2969     2.1133  2090.0000
 1799.5880    12.0859  2434.0000      .0122    61.7187    50.2930     2.0430  2094.0000
 1799.7404    12.0156  2432.0000      .0034    70.7500    47.4121     2.0273  2094.0000
 1799.8928    12.0859  2428.0000      .0039    69.0625    47.7539     2.0312  2090.0000
 1800.0452    12.1016  2430.0000      .0034    65.3750    49.6582     2.0430  2090.0000
 1800.1976    12.0859  2432.0000      .0049    61.0625    47.6562     2.0527  2104.0000
 1800.3500    12.1641  2432.0000     -.0039    61.0000    43.5059     2.0566  2104.0000
 1800.5024    12.1719  2434.0000     -.0039    63.2812    48.2910     2.0586  2100.0000
 1800.6548    12.1016  2434.0000      .0024    59.0938    54.4922     2.0664  2084.0000
 1800.8072    12.1016  2436.0000      .0088    57.8125    54.8828     2.0684  2090.0000
 1800.9596    12.1016  2438.0000      .0176    57.4375    54.5898     2.0820  2090.0000
 1801.1120    12.1562  2440.0000      .0107    55.5313    50.8301     2.0645  2100.0000
 1801.2644    12.1172  2438.0000      .0093    56.8750    52.9785     2.0566  2090.0000
 1801.4168    12.1328  2438.0000      .0034    56.5938    47.5586     2.0430  2100.0000
 1801.5692    12.1094  2434.0000     -.0054    58.0313    47.9492     2.0664  2090.0000
 1801.7216    12.0859  2432.0000     -.0098    58.2812    45.8496     2.1426  2110.0000
 1801.8740    12.0313  2432.0000      .0161    55.4063    49.0234     2.2676  2110.0000
 1802.0264    12.1172  2430.0000      .0396    54.2187    48.2422     2.2773  2104.0000
 1802.1788    12.1641  2432.0000      .0425    54.5625    49.9023     2.1875  2100.0000
 1802.3312    12.0859  2434.0000      .0078    58.3438    49.3164     2.0762  2100.0000
 1802.4836    12.0859  2438.0000      .0024    56.4375    47.5098     2.0488  2094.0000
 1802.6360    12.1016  2442.0000      .0171    53.5937    49.1211     2.0586  2090.0000
 1802.7884    12.1875  2444.0000      .0220    49.5938    46.6309     2.0508  2110.0000
 1802.9408    12.1875  2444.0000      .0317    53.3125    52.0020     2.0566  2104.0000
 1803.0932    12.1875  2440.0000      .0093    53.8438    49.3652     2.0312  2100.0000
 1803.2456    12.2188  2438.0000      .0098    56.9063    47.7051     2.0293  2090.0000
 1803.3980    12.2891  2436.0000      .0054    53.9062    44.8730     2.0234  2100.0000
 1803.5504    12.1875  2434.0000      .0190    54.3437    47.8027     2.0273  2114.0000
 1803.7028    12.2422  2434.0000      .0146    54.0625    48.8770     2.0254  2114.0000
 1803.8552    12.1875  2434.0000      .0122    56.8125    50.5371     2.0176  2110.0000
 1804.0076    12.3984  2436.0000      .0044    53.8438    49.6582     2.0137  2120.0000
 1804.1600    12.1875  2436.0000      .0132    51.2500    50.2930     2.0195  2110.0000
 1804.3124    12.2734  2436.0000      .0337    49.3750    51.5137     2.0469  2100.0000
 1804.4648    12.2734  2438.0000      .0396    52.0000    49.9023     2.0508  2100.0000
 1804.6172    12.2578  2438.0000      .0479    50.3125    55.5664     2.0625  2104.0000
 1804.7696    12.2422  2434.0000      .0225    50.5625    50.0488     2.0371  2100.0000
 1804.9220    12.1719  2432.0000      .0337    49.9063    50.0000     2.0508  2104.0000
 1805.0744    12.1875  2434.0000      .0317    51.0625    44.6777     2.0449  2100.0000
 1805.2268    12.1328  2434.0000      .0312    52.5000    45.0195     2.0430  2100.0000
 1805.3792    12.0859  2436.0000     -.0015    53.4688    45.4102     2.0234  2100.0000
 1805.5316    12.0703  2438.0000      .0029    54.0625    48.1445     2.0527  2104.0000
 1805.6840    12.0703  2440.0000      .0132    52.6250    49.1211     2.0684  2104.0000
 1805.8364    12.0781  2440.0000      .0337    53.8438    48.9746     2.0703  2104.0000
 1805.9888    12.0156  2442.0000      .0225    57.0625    45.6055     2.0410  2110.0000
 1806.1412    12.0156  2442.0000      .0083    57.3437    45.4102     2.0156  2120.0000
 1806.2936    12.0156  2438.0000      .0107    57.3125    46.7773     2.0332  2120.0000
 1806.4460    12.0234  2436.0000     -.0049    53.3438    46.4844     2.0234  2110.0000
 1806.5984    12.0781  2436.0000     -.0015    56.9688    47.1191     2.0449  2110.0000
 1806.7508    12.0859  2438.0000     -.0107    57.5000    49.4141     2.0371  2104.0000
 1806.9032    12.1016  2442.0000      .0103    64.2500    49.9512     2.0723  2110.0000
 1807.0556    12.1406  2444.0000      .0063    61.0937    46.2402     2.0605  2104.0000
 1807.2080    12.1406  2444.0000      .0312    60.8438    45.8496     2.0781  2090.0000
 1807.3604    12.1875  2444.0000      .0024    60.0625    48.7793     2.0312  2094.0000
 1807.5128    12.1875  2444.0000      .0093    63.4688    52.9297     2.0332  2090.0000
 1807.6652    12.1875  2444.0000      .0083    64.2500    50.4883     2.0312  2090.0000
 1807.8176    12.2266  2442.0000      .0234    63.9688    49.1211     2.0527  2094.0000
 1807.9700    12.2188  2438.0000      .0215    62.4375    50.7812     2.0469  2120.0000
 1808.1224    12.1719  2434.0000      .0132    60.5000    53.5156     2.0371  2120.0000
 1808.2748    12.1953  2434.0000      .0132    56.9063    54.2969     2.0293  2110.0000
 1808.4272    12.1094  2434.0000      .0156    55.0313    52.5391     2.0352  2100.0000
 1808.5796    12.0859  2434.0000      .0137    54.6875    46.0449     2.0371  2094.0000
 1808.7320    12.1016  2434.0000      .0122    56.8437    47.7539     2.0352  2104.0000
 1808.8844    12.0859  2436.0000      .0054    56.1875    47.7051     2.0176  2124.0000
 1809.0368    12.0859  2438.0000      .0024    58.4688    49.2676     2.0098  2110.0000
 1809.1892    12.1094  2438.0000      .0107    56.3125    43.8965     2.0234  2090.0000
 1809.3416    12.0859  2438.0000      .0190    57.6562    43.7500     2.0410  2100.0000
 1809.4940    12.0859  2434.0000      .0337    57.0625    44.2871     2.0605  2100.0000
 1809.6464    12.0781  2432.0000      .0220    55.6563    46.8750     2.0410  2100.0000
 1809.7988    12.0859  2432.0000      .0190    53.5313    43.7012     2.0293  2100.0000
 1809.9512    12.0859  2434.0000      .0186    52.8125    43.0664     2.0293  2110.0000
 1810.1036    12.0859  2436.0000      .0254    51.3125    42.8711     2.0430  2114.0000
 1810.2560    12.0859  2436.0000      .0400    50.5000    43.8477     2.0664  2100.0000
 1810.4084    12.0859  2438.0000      .0298    51.9688    46.0449     2.0527  2104.0000
 1810.5608    12.0781  2440.0000      .0161    53.5313    52.0020     2.0371  2114.0000
 1810.7132    12.0781  2440.0000     -.0054    55.7500    55.4687     2.0098  2104.0000
 1810.8656    12.1328  2440.0000     -.0034    52.0312    54.5898     2.0156  2100.0000
