~VERSION INFORMATION
VERS.                                                 2.0:   CWLS Log ASCII Standard-VERSION 2.0
WRAP.                                                  NO:   One line per depth step
~Well Information Block
STRT.M                                           493.5200:   Top Depth
STOP.M                                          3752.7464:   Bottom Depth
STEP.M                                             .15240:   Depth Increment
NULL.                                            -999.250:   Null Value
FLD .                                            SLEIPNER:   Field Name
WELL.                                             15/9-12:   NAME
WBN .                                             15/9-12:   WELLBORE
NATI.                                                 NOR:   COUNTRY
BHT1.DEGF                                            74.0:   BH TEMP 1
BHT2.DEGF                                            74.0:   BH TEMP 2
BHT3.DEGF                                            76.0:   BH TEMP 3
BS1 .IN                                            12.250:   BIT SIZE 1
CTRY.                                                 NOR:   COUNTRY
CBD1.M                                              195.0:   CSG 1 DRILL DEP
CBL1.M                                              195.0:   CSG 1 LOG DEP
CS1 .IN                                              30.0:   CSG 1 SIZE
COMP.                                             STATOIL:   OPERATOR
PDAT.                                                 MSL:   PERM DATUM
PROV.                                           NORTH SEA:   PROVINCE
COUN.                                            NORDRAUG:   RIG NAME
SPUD.                                          1981/11/22:   SPUD DATE
LATI.                                       58 27 23.17 N:   SURF. LATITUDE
LONG.                                         1 43 4.01 E:   SURF. LONGITUDE
BTD1.                                             514.0 M:   TOTAL DEPTH 1
BTD2.                                             514.0 M:   TOTAL DEPTH 2
BTD3.                                             514.0 M:   TOTAL DEPTH 3
PBWE.                                             15/9-12:   PB WELL ID
APIN.                                             15/9-12:   PB WELLBORE ID
PBWS.                                                 all:   PB WELL NAME SET
~PARAMETER INFORMATION (log)
LNAM.                              FDC/CNL/GR  COMPOSITED:   NAME
LTYP.                                         DEPTH MATCH:   LOG TYPE
LSRV.                                            DEN/NEUT:   LOG SERVICE
LSOU.                                             SPT/NPD:   LOG SOURCE
LVSN.                                                   1:   LOG VERSION
BHIS.                                                   R:   BRIEF HISTORY
FHIS.                                             RAW-LIS:   FULL HISTORY
LCNM.                                                 SCH:   LOGGING CONTRACTOR
TOOL.                             FDC/CNL/GR (COMPOSITED):   TOOL STRING
~Curve Information Block
#MNEM.UNIT                                        API CODE    No Description
#=========                                        ========    == ===========
DEPT.M                                       00 001 00 00:     1  DEPTH
CALI.IN                                                  :     2  Caliper
CS.                                                      :     3  Cable Speed
DRHO.G/CC                                                :     4  Bulk density correction
GR.GAPI                                                  :     5  Gamma Ray
NPHI.%                                                   :     6  Neutron porosity
RHOB.G/CC                                                :     7  Bulk density
TENS.LB                                                  :     8  Cable Tension
~ASCII
# ...
 1575.2552    16.0625  2498.0000      .0527    55.9375    48.6816     2.0840  1880.0000
 1575.4076    16.0313  2500.0000      .0688    54.6250    43.6035     2.0879  1880.0000
 1575.5600    15.9609  2500.0000      .0391    52.0312    45.0195     2.0469  1890.0000
 1575.7124    15.9453  2500.0000      .0518    49.2500    42.3828     2.0645  1890.0000
 1575.8648    15.8984  2498.0000      .0420    50.3750    47.0215     2.0723  1890.0000
 1576.0172    15.8984  2494.0000      .0396    51.3750    45.4590     2.0781  1880.0000
 1576.1696    15.9453  2490.0000      .0454    51.6250    45.4590     2.0801  1890.0000
 1576.3220    16.0000  2490.0000      .0352    51.9063    43.0664     2.0605  1900.0000
 1576.4744    15.9609  2490.0000      .0469    54.7813    45.2148     2.0645  1900.0000
 1576.6268    15.9844  2492.0000      .0415    53.8125    47.1680     2.0605  1860.0000
 1576.7792    16.0156  2494.0000      .0425    55.9688    48.3398     2.0547  1860.0000
 1576.9316    16.0313  2494.0000      .0415    51.7187    47.9492     2.0586  1860.0000
 1577.0840    16.1250  2494.0000      .0298    53.6875    48.9746     2.0449  1875.0000
 1577.2364    16.1719  2494.0000      .0220    49.8750    49.5605     2.0469  1880.0000
 1577.3888    16.1250  2492.0000      .0317    52.3125    47.5098     2.0449  1870.0000
 1577.5412    16.1406  2488.0000      .0479    53.7813    43.9941     2.0645  1865.0000
 1577.6936    16.0938  2486.0000      .0508    56.8125    43.9941     2.0449  1890.0000
 1577.8460    16.0938  2486.0000      .0449    58.9375    48.2910     2.0410  1890.0000
 1577.9984    16.0156  2488.0000      .0444    57.7500    47.9492     2.0352  1890.0000
 1578.1508    16.0781  2490.0000      .0566    59.3125    46.7285     2.0586  1880.0000
 1578.3032    16.1563  2494.0000      .0537    58.9688    44.1406     2.0566  1860.0000
 1578.4556    16.2344  2496.0000      .0400    59.6875    45.3613     2.0391  1880.0000
 1578.6080    16.2344  2498.0000      .0122    59.5000    45.6543     2.0039  1900.0000
 1578.7604    16.2500  2496.0000      .0034    60.1562    48.2422     2.0020  1870.0000
 1578.9128    16.3281  2498.0000      .0063    60.1875    48.7305     2.0137  1860.0000
 1579.0652    16.4063  2498.0000      .0322    57.4063    51.8555     2.0547  1915.0000
 1579.2176    16.4063  2496.0000      .0464    50.8438    51.1719     2.0723  1930.0000
 1579.3700    16.4063  2492.0000      .0620    50.7812    52.6367     2.0820  1860.0000
 1579.5224    16.4219  2490.0000      .0532    51.3750    50.0000     2.0625  1855.0000
 1579.6748    16.3750  2490.0000      .0713    53.6250    46.0937     2.0703  1910.0000
 1579.8272    16.3438  2492.0000      .0566    52.0625    43.6035     2.0508  1935.0000
 1579.9796    16.2188  2492.0000      .0483    55.7500    42.9199     2.0430  1880.0000
 1580.1320    16.0938  2494.0000      .0210    56.3438    43.7500     2.0332  1875.0000
 1580.2844    16.2656  2496.0000      .0190    56.9688    44.6289     2.0625  1890.0000
 1580.4368    16.3438  2498.0000      .0522    55.0313    43.2617     2.1211  1900.0000
 1580.5892    16.3750  2498.0000      .0601    58.0313    43.9453     2.1074  1880.0000
 1580.7416    16.0625  2496.0000      .0376    59.6562    44.0430     2.0352  1860.0000
 1580.8940    15.7734  2492.0000      .0054    59.4063    46.4355     1.9746  1880.0000
 1581.0464    15.8047  2490.0000      .0049    57.8750    45.4102     1.9697  1890.0000
 1581.1988    15.7812  2490.0000      .0283    64.1250    44.1406     2.0176  1915.0000
 1581.3512    15.9297  2490.0000      .0425    60.5313    48.0957     2.0527  1900.0000
 1581.5036    16.0938  2492.0000      .0239    61.3750    48.9746     2.0449  1890.0000
 1581.6560    16.2813  2492.0000      .0142    54.4688    53.8574     2.0352  1920.0000
 1581.8084    16.2969  2492.0000      .0132    58.3438    46.9238     2.0273  1900.0000
 1581.9608    16.3438  2492.0000      .0337    56.0000    45.5566     2.0410  1870.0000
 1582.1132    16.3125  2492.0000      .0435    58.1250    45.5566     2.0449  1875.0000
 1582.2656    16.2969  2492.0000      .0552    57.4063    50.1953     2.0547  1950.0000
 1582.4180    16.3438  2490.0000      .0469    58.4375    51.1719     2.0449  1985.0000
 1582.5704    16.2344  2488.0000      .0444    58.0000    50.7324     2.0312  1930.0000
 1582.7228    16.1719  2484.0000      .0293    59.9687    49.6094     2.0098  1920.0000
 1582.8752    16.1250  2484.0000      .0322    60.7500    49.9512     2.0078  1895.0000
 1583.0276    16.0781  2486.0000      .0142    60.0000    48.1445     1.9951  1870.0000
 1583.1800    16.1250  2486.0000      .0142    55.3438    44.0430     2.0137  1875.0000
 1583.3324    16.0313  2490.0000     -.0068    52.8438    42.8711     2.0312  1885.0000
 1583.4848    16.1094  2492.0000     -.0083    47.5625    41.0156     2.0781  1885.0000
 1583.6372    16.0938  2494.0000     -.0078    44.0312    42.4316     2.0996  1865.0000
 1583.7896    16.1250  2494.0000      .0312    40.8125    42.0898     2.1406  1855.0000
 1583.9420    16.2656  2496.0000      .0527    44.7813    41.7969     2.1289  1885.0000
 1584.0944    16.2656  2490.0000      .0859    45.8438    44.2383     2.1191  1925.0000
 1584.2468    16.1719  2486.0000      .0767    51.6250    47.0215     2.0410  1910.0000
 1584.3992    15.7500  2486.0000      .0649    54.0938    48.4375     1.9795  1900.0000
 1584.5516    15.3672  2486.0000      .0361    58.5313    48.0469     1.9463  1870.0000
 1584.7040    15.1719  2488.0000      .0137    60.0938    49.9023     1.9531  1880.0000
 1584.8564    15.2969  2490.0000      .0137    59.9063    48.2910     1.9844  1900.0000
 1585.0088    15.3750  2494.0000      .0132    64.1250    47.0703     1.9893  1910.0000
 1585.1612    15.5000  2494.0000      .0239    66.5000    48.5352     1.9922  1900.0000
 1585.3136    15.6016  2496.0000      .0288    67.0625    49.2676     1.9854  1860.0000
 1585.4660    15.5547  2496.0000      .0449    63.5625    51.0254     2.0059  1860.0000
 1585.6184    15.4922  2496.0000      .0439    63.7813    47.4121     2.0176  1905.0000
 1585.7708    15.7187  2496.0000      .0581    64.3125    47.9980     2.0547  1955.0000
 1585.9232    15.8437  2494.0000      .0591    66.5000    43.0176     2.0586  1940.0000
 1586.0756    15.9844  2490.0000      .0674    64.1250    45.5566     2.0566  1915.0000
 1586.2280    15.9453  2490.0000      .0596    66.0000    43.7988     2.0352  1905.0000
 1586.3804    15.8047  2492.0000      .0479    70.0000    47.9492     2.0156  1860.0000
 1586.5328    15.6563  2492.0000      .0352    70.6875    45.7031     2.0059  1935.0000
 1586.6852    15.4609  2496.0000      .0352    70.5000    45.5078     2.0156  1990.0000
 1586.8376    15.4687  2500.0000      .0342    65.8125    43.4082     2.0137  1870.0000
 1586.9900    15.5859  2502.0000      .0288    67.2500    41.0645     2.0137  1890.0000
 1587.1424    15.6719  2504.0000      .0415    68.0000    42.6270     2.0293  1900.0000
 1587.2948    15.7812  2502.0000      .0420    68.7500    46.1426     2.0547  1885.0000
 1587.4472    15.9609  2500.0000      .0371    66.0625    46.5332     2.0840  1880.0000
 1587.5996    16.0938  2496.0000      .0063    62.4063    46.0937     2.0879  1905.0000
 1587.7520    16.1250  2496.0000      .0117    59.9375    42.0898     2.1055  1940.0000
 1587.9044    16.2344  2496.0000      .0464    58.2188    42.9199     2.1230  1930.0000
 1588.0568    16.2813  2496.0000      .0586    54.1250    42.0898     2.0840  1895.0000
 1588.2092    16.2969  2498.0000      .0674    52.5625    43.7988     2.0469  1865.0000
 1588.3616    16.3594  2498.0000      .0488    53.5000    44.9219     1.9980  1915.0000
 1588.5140    16.3594  2498.0000      .0552    56.6563    45.8984     2.0039  2005.0000
 1588.6664    16.3281  2500.0000      .0356    59.9375    50.4883     2.0020  1930.0000
 1588.8188    16.3281  2500.0000      .0195    62.4063    50.5371     2.0098  1880.0000
 1588.9712    16.2188  2500.0000      .0137    62.0000    51.5625     2.0176  1890.0000
