~VERSION INFORMATION
VERS.                                                 2.0:   CWLS Log ASCII Standard-VERSION 2.0
WRAP.                                                  NO:   One line per depth step
~Well Information Block
STRT.M                                           493.5200:   Top Depth
STOP.M                                          3752.7464:   Bottom Depth
STEP.M                                             .15240:   Depth Increment
NULL.                                            -999.250:   Null Value
FLD .                                            SLEIPNER:   Field Name
WELL.                                             15/9-12:   NAME
WBN .                                             15/9-12:   WELLBORE
NATI.                                                 NOR:   COUNTRY
BHT1.DEGF                                            74.0:   BH TEMP 1
BHT2.DEGF                                            74.0:   BH TEMP 2
BHT3.DEGF                                            76.0:   BH TEMP 3
BS1 .IN                                            12.250:   BIT SIZE 1
CTRY.                                                 NOR:   COUNTRY
CBD1.M                                              195.0:   CSG 1 DRILL DEP
CBL1.M                                              195.0:   CSG 1 LOG DEP
CS1 .IN                                              30.0:   CSG 1 SIZE
COMP.                                             STATOIL:   OPERATOR
PDAT.                                                 MSL:   PERM DATUM
PROV.                                           NORTH SEA:   PROVINCE
COUN.                                            NORDRAUG:   RIG NAME
SPUD.                                          1981/11/22:   SPUD DATE
LATI.                                       58 27 23.17 N:   SURF. LATITUDE
LONG.                                         1 43 4.01 E:   SURF. LONGITUDE
BTD1.                                             514.0 M:   TOTAL DEPTH 1
BTD2.                                             514.0 M:   TOTAL DEPTH 2
BTD3.                                             514.0 M:   TOTAL DEPTH 3
PBWE.                                             15/9-12:   PB WELL ID
APIN.                                             15/9-12:   PB WELLBORE ID
PBWS.                                                 all:   PB WELL NAME SET
~PARAMETER INFORMATION (log)
LNAM.                              FDC/CNL/GR  COMPOSITED:   NAME
LTYP.                                         DEPTH MATCH:   LOG TYPE
LSRV.                                            DEN/NEUT:   LOG SERVICE
LSOU.                                             SPT/NPD:   LOG SOURCE
LVSN.                                                   1:   LOG VERSION
BHIS.                                                   R:   BRIEF HISTORY
FHIS.                                             RAW-LIS:   FULL HISTORY
LCNM.                                                 SCH:   LOGGING CONTRACTOR
TOOL.                             FDC/CNL/GR (COMPOSITED):   TOOL STRING
~Curve Information Block
#MNEM.UNIT                                        API CODE    No Description
#=========                                        ========    == ===========
DEPT.M                                       00 001 00 00:     1  DEPTH
CALI.IN                                                  :     2  Caliper
CS.                                                      :     3  Cable Speed
DRHO.G/CC                                                :     4  Bulk density correction
GR.GAPI                                                  :     5  Gamma Ray
NPHI.%                                                   :     6  Neutron porosity
RHOB.G/CC                                                :     7  Bulk density
TENS.LB                                                  :     8  Cable Tension
~ASCII
# ...
 2227.0700    14.4922  2374.0000      .0498    58.9062    46.0449     2.2773  2504.0000
 2227.2224    14.3516  2374.0000      .0298    53.7187    41.2109     2.3027  2530.0000
 2227.3748    14.0234  2374.0000      .0356    54.6875    37.9883     2.2949  2534.0000
 2227.5272    13.9375  2374.0000      .0894    55.5625    37.1094     2.3359  2530.0000
 2227.6796    14.0000  2374.0000      .1338    57.2813    34.4238     2.3379  2530.0000
 2227.8320    14.3125  2372.0000      .1260    52.8750    34.8633     2.3145  2520.0000
 2227.9844    14.6016  2372.0000      .0835    53.8750    35.5957     2.2617  2494.0000
 2228.1368    14.3828  2372.0000      .1650    56.8437    39.1602     2.3223  2500.0000
 2228.2892    14.3828  2376.0000      .1724    57.0312    38.2813     2.2812  2520.0000
 2228.4416    14.3828  2378.0000      .1396    57.5313    38.8672     2.2266  2540.0000
 2228.5940    14.6406  2380.0000      .0405    56.6875    45.8496     2.1484  2554.0000
 2228.7464    14.6328  2380.0000      .0498    60.9062    44.8730     2.2129  2524.0000
 2228.8988    14.6562  2380.0000      .0972    62.3750    44.4824     2.2891  2470.0000
 2229.0512    14.9375  2378.0000      .0981    63.5000    38.6719     2.3047  2480.0000
 2229.2036    14.6094  2376.0000      .0610    59.1875    43.1641     2.2812  2510.0000
 2229.3560    14.5391  2370.0000      .0063    54.3750    41.9922     2.2500  2514.0000
 2229.5084    14.0547  2370.0000      .0029    50.5625    40.8691     2.2734  2530.0000
 2229.6608    14.0312  2370.0000      .0195    48.9688    35.9863     2.3086  2520.0000
 2229.8132    14.0391  2370.0000      .0645    52.8438    33.4961     2.3613  2494.0000
 2229.9656    14.0859  2370.0000      .0615    52.7812    35.4004     2.3320  2504.0000
 2230.1180    14.0625  2370.0000      .0854    54.2813    36.0840     2.3203  2514.0000
 2230.2704    14.0078  2372.0000      .0610    49.2187    36.9629     2.3125  2510.0000
 2230.4228    14.3203  2372.0000      .0713    48.4688    38.1836     2.3691  2490.0000
 2230.5752    13.9219  2372.0000      .0991    43.9688    36.9141     2.4746  2504.0000
 2230.7276    13.8203  2372.0000      .1152    45.1250    34.9121     2.4355  2504.0000
 2230.8800    13.7734  2370.0000      .1318    44.1875    31.4453     2.3945  2500.0000
 2231.0324    13.9531  2366.0000      .0732    51.1875    35.7910     2.2656  2500.0000
 2231.1848    14.6016  2366.0000      .0840    57.9687    40.0391     2.2793  2504.0000
 2231.3372    13.8516  2368.0000      .0762    64.3125    41.0156     2.2598  2520.0000
 2231.4896    14.2891  2370.0000      .0547    62.1250    43.9453     2.2695  2524.0000
 2231.6420    13.9766  2372.0000      .0234    57.0000    43.3594     2.2539  2520.0000
 2231.7944    13.8594  2374.0000      .0112    50.3750    43.5547     2.2891  2520.0000
 2231.9468    13.8047  2374.0000      .0142    48.0937    35.4980     2.2988  2504.0000
 2232.0992    13.8672  2372.0000      .0205    47.1250    33.7891     2.3164  2510.0000
 2232.2516    13.8281  2372.0000      .0083    47.1562    32.6172     2.2949  2514.0000
 2232.4040    13.8203  2366.0000      .0063    52.4375    36.6699     2.2891  2510.0000
 2232.5564    13.8203  2364.0000     -.0005    55.1562    38.7695     2.2793  2504.0000
 2232.7088    13.8203  2364.0000      .0054    65.5625    37.5977     2.2734  2530.0000
 2232.8612    13.8672  2364.0000      .0166    69.8125    37.2070     2.2773  2520.0000
 2233.0136    13.9219  2362.0000      .0293    71.2500    40.0879     2.2773  2520.0000
 2233.1660    13.9687  2362.0000      .0254    65.1875    45.7031     2.2852  2500.0000
 2233.3184    14.1641  2362.0000      .0181    58.9062    49.1699     2.2930  2480.0000
 2233.4708    13.9219  2358.0000      .0107    54.8437    44.6777     2.3066  2484.0000
 2233.6232    13.9219  2354.0000      .0308    53.2188    39.6484     2.3262  2510.0000
 2233.7756    13.9531  2350.0000      .0312    58.1875    36.5234     2.3242  2494.0000
 2233.9280    13.9687  2344.0000      .0527    60.8750    38.8184     2.3340  2500.0000
 2234.0804    14.1641  2338.0000      .0664    62.1875    39.0625     2.3535  2484.0000
 2234.2328    14.2500  2330.0000      .0928    58.7187    37.9395     2.3613  2500.0000
 2234.3852    14.2109  2330.0000      .0703    59.1563    36.7676     2.3437  2504.0000
 2234.5376    14.1719  2330.0000      .0386    59.7813    38.1348     2.2871  2490.0000
 2234.6900    14.1250  2330.0000      .0151    57.0312    35.7422     2.2773  2500.0000
 2234.8424    14.2969  2328.0000      .0049    52.9687    35.8398     2.2695  2510.0000
 2234.9948    14.6328  2328.0000      .0000    50.3438    34.9609     2.2891  2500.0000
 2235.1472    13.9922  2328.0000      .0010    50.8750    37.1094     2.2891  2474.0000
 2235.2996    14.0234  2326.0000      .0244    50.5937    37.5000     2.3125  2490.0000
 2235.4520    13.9922  2326.0000      .0449    52.6875    35.8398     2.3105  2510.0000
 2235.6044    14.0547  2324.0000      .0635    52.5000    36.4258     2.3223  2520.0000
 2235.7568    14.1641  2324.0000      .0420    54.9063    34.5703     2.2949  2524.0000
 2235.9092    14.1172  2324.0000      .0239    58.4688    37.9395     2.2871  2530.0000
 2236.0616    14.1484  2328.0000      .0044    62.1250    35.7422     2.2832  2530.0000
 2236.2140    14.1250  2330.0000     -.0024    63.2500    35.8887     2.2930  2520.0000
 2236.3664    14.0938  2332.0000      .0034    59.7500    34.4727     2.3086  2520.0000
 2236.5188    14.0547  2334.0000      .0859    54.3125    35.7910     2.3535  2520.0000
 2236.6712    14.1484  2334.0000      .1284    52.3125    35.1563     2.3262  2500.0000
 2236.8236    14.6875  2334.0000      .1523    51.1250    36.8652     2.2930  2494.0000
 2236.9760    14.5547  2332.0000      .0625    53.8125    37.4023     2.1895  2490.0000
 2237.1284    15.9219  2330.0000      .0322    53.3750    42.9199     2.1973  2484.0000
 2237.2808    14.5781  2328.0000      .0078    50.8125    41.7969     2.2246  2490.0000
 2237.4332    14.2969  2328.0000      .0210    49.3125    39.6484     2.2754  2484.0000
 2237.5856    14.1484  2328.0000      .0161    48.0000    35.4492     2.2910  2520.0000
 2237.7380    14.0000  2328.0000      .0146    47.7188    34.5215     2.2988  2530.0000
 2237.8904    14.0391  2330.0000      .0132    47.9375    34.1797     2.3008  2524.0000
 2238.0428    14.0078  2332.0000      .0093    49.8750    33.7402     2.2812  2510.0000
 2238.1952    14.0391  2334.0000      .0117    52.9375    34.3262     2.2773  2524.0000
 2238.3476    14.5937  2334.0000      .0288    54.5625    37.5977     2.2910  2524.0000
 2238.5000    14.1797  2332.0000      .0410    52.6562    38.3789     2.2988  2494.0000
 2238.6524    14.2812  2332.0000      .0430    51.6875    39.0625     2.3086  2490.0000
 2238.8048    14.1484  2332.0000      .0132    48.5625    38.3301     2.2812  2510.0000
 2238.9572    14.2266  2332.0000      .0195    46.7500    35.9375     2.2949  2510.0000
 2239.1096    14.4297  2332.0000      .0098    46.7500    34.2773     2.2715  2524.0000
 2239.2620    14.4375  2332.0000      .0239    45.8438    36.4258     2.2773  2534.0000
 2239.4144    14.4609  2334.0000      .0225    48.5625    36.0352     2.2773  2520.0000
 2239.5668    14.5703  2334.0000      .0269    49.5938    38.0859     2.2969  2510.0000
 2239.7192    14.5391  2334.0000      .0142    48.8125    34.9121     2.2988  2510.0000
 2239.8716    14.5469  2332.0000      .0132    48.0313    36.9141     2.3086  2520.0000
 2240.0240    14.7500  2330.0000      .0005    47.0938    35.8398     2.2812  2484.0000
 2240.1764    14.4609  2330.0000     -.0015    51.8750    36.3281     2.2793  2484.0000
 2240.3288    14.5078  2328.0000     -.0088    53.8750    38.9160     2.2598  2500.0000
 2240.4812    14.4687  2328.0000      .0098    55.3125    39.6484     2.2949  2504.0000
 2240.6336    14.5469  2328.0000      .0195    54.6875    38.9160     2.3086  2510.0000
 2240.7860    14.4922  2330.0000      .0273    57.0312    37.1094     2.3281  2524.0000
