~VERSION INFORMATION
VERS.                                                 2.0:   CWLS Log ASCII Standard-VERSION 2.0
WRAP.                                                  NO:   One line per depth step
~Well Information Block
STRT.M                                           493.5200:   Top Depth
STOP.M                                          3752.7464:   Bottom Depth
STEP.M                                             .15240:   Depth Increment
NULL.                                            -999.250:   Null Value
FLD .                                            SLEIPNER:   Field Name
WELL.                                             15/9-12:   NAME
WBN .                                             15/9-12:   WELLBORE
NATI.                                                 NOR:   COUNTRY
BHT1.DEGF                                            74.0:   BH TEMP 1
BHT2.DEGF                                            74.0:   BH TEMP 2
BHT3.DEGF                                            76.0:   BH TEMP 3
BS1 .IN                                            12.250:   BIT SIZE 1
CTRY.                                                 NOR:   COUNTRY
CBD1.M                                              195.0:   CSG 1 DRILL DEP
CBL1.M                                              195.0:   CSG 1 LOG DEP
CS1 .IN                                              30.0:   CSG 1 SIZE
COMP.                                             STATOIL:   OPERATOR
PDAT.                                                 MSL:   PERM DATUM
PROV.                                           NORTH SEA:   PROVINCE
COUN.                                            NORDRAUG:   RIG NAME
SPUD.                                          1981/11/22:   SPUD DATE
LATI.                                       58 27 23.17 N:   SURF. LATITUDE
LONG.                                         1 43 4.01 E:   SURF. LONGITUDE
BTD1.                                             514.0 M:   TOTAL DEPTH 1
BTD2.                                             514.0 M:   TOTAL DEPTH 2
BTD3.                                             514.0 M:   TOTAL DEPTH 3
PBWE.                                             15/9-12:   PB WELL ID
APIN.                                             15/9-12:   PB WELLBORE ID
PBWS.                                                 all:   PB WELL NAME SET
~PARAMETER INFORMATION (log)
LNAM.                              FDC/CNL/GR  COMPOSITED:   NAME
LTYP.                                         DEPTH MATCH:   LOG TYPE
LSRV.                                            DEN/NEUT:   LOG SERVICE
LSOU.                                             SPT/NPD:   LOG SOURCE
LVSN.                                                   1:   LOG VERSION
BHIS.                                                   R:   BRIEF HISTORY
FHIS.                                             RAW-LIS:   FULL HISTORY
LCNM.                                                 SCH:   LOGGING CONTRACTOR
TOOL.                             FDC/CNL/GR (COMPOSITED):   TOOL STRING
~Curve Information Block
#MNEM.UNIT                                        API CODE    No Description
#=========                                        ========    == ===========
DEPT.M                                       00 001 00 00:     1  DEPTH
CALI.IN                                                  :     2  Caliper
CS.                                                      :     3  Cable Speed
DRHO.G/CC                                                :     4  Bulk density correction
GR.GAPI                                                  :     5  Gamma Ray
NPHI.%                                                   :     6  Neutron porosity
RHOB.G/CC                                                :     7  Bulk density
TENS.LB                                                  :     8  Cable Tension
~ASCII
# ...
 2005.1756    15.5547  2384.0000      .0142    26.1719    28.5156     2.1055  2310.0000
 2005.3280    14.0312  2384.0000     -.0205    24.8906    33.7402     2.1504  2300.0000
 2005.4804    12.6016  2384.0000     -.0229    24.8750    31.6895     2.2480  2310.0000
 2005.6328    12.3438  2384.0000      .0103    24.3437    33.1055     2.3613  2334.0000
 2005.7852    12.3281  2386.0000      .0464    33.3750    35.9375     2.2852  2374.0000
 2005.9376    12.1641  2386.0000      .0439    39.7188    44.9707     2.1543  2320.0000
 2006.0900    12.2031  2384.0000      .0107    49.2500    48.7793     2.0352  2290.0000
 2006.2424    12.2422  2380.0000      .0068    48.5000    50.5859     2.0176  2280.0000
 2006.3948    12.1641  2378.0000      .0029    48.7500    50.5859     2.0078  2300.0000
 2006.5472    11.8984  2378.0000      .0044    48.9062    52.1973     2.0020  2314.0000
 2006.6996    12.0859  2380.0000      .0063    48.3750    53.8574     2.0000  2310.0000
 2006.8520    12.0703  2380.0000      .0083    46.0625    52.9297     2.0078  2330.0000
 2007.0044    12.0859  2382.0000      .0083    44.7813    51.6602     2.0215  2324.0000
 2007.1568    12.1875  2384.0000      .0107    46.0000    49.8047     2.0449  2310.0000
 2007.3092    12.2188  2386.0000      .0142    48.5937    50.0000     2.0664  2310.0000
 2007.4616    12.1641  2388.0000      .0176    44.8750    48.7793     2.0742  2300.0000
 2007.6140    12.2422  2388.0000      .0156    41.5625    47.0703     2.0723  2324.0000
 2007.7664    12.4766  2386.0000      .0205    41.4688    47.1680     2.0762  2324.0000
 2007.9188    13.1641  2382.0000      .0352    42.6875    48.9746     2.0859  2314.0000
 2008.0712    13.6094  2384.0000      .0303    45.1250    51.6602     2.0859  2310.0000
 2008.2236    13.4844  2382.0000      .0225    48.6563    51.3184     2.0703  2320.0000
 2008.3760    12.9141  2382.0000      .0010    48.9688    52.8320     2.0547  2350.0000
 2008.5284    13.2266  2384.0000      .0127    46.1250    52.4902     2.0703  2360.0000
 2008.6808    13.5391  2384.0000      .0176    38.6875    50.8301     2.0840  2350.0000
 2008.8332    12.7969  2388.0000      .0288    41.1875    52.1973     2.1035  2310.0000
 2008.9856    12.6016  2390.0000      .0112    44.0312    50.1465     2.0742  2320.0000
 2009.1380    12.6875  2392.0000     -.0044    46.2500    54.5898     2.0430  2320.0000
 2009.2904    12.6172  2392.0000     -.0049    45.8438    51.6113     2.0332  2320.0000
 2009.4428    12.6484  2388.0000     -.0029    46.8750    54.2969     2.0410  2300.0000
 2009.5952    13.3750  2388.0000      .0044    46.1250    51.0742     2.0449  2314.0000
 2009.7476    13.3437  2386.0000      .0044    42.5000    50.9277     2.0371  2334.0000
 2009.9000    13.2187  2388.0000     -.0098    42.2813    49.1699     2.0273  2324.0000
 2010.0524    12.9297  2390.0000     -.0044    46.3125    47.8516     2.0723  2300.0000
 2010.2048    13.0469  2390.0000     -.0039    49.3125    46.3867     2.1113  2320.0000
 2010.3572    14.0000  2392.0000      .0195    48.6875    43.3594     2.1250  2330.0000
 2010.5096    14.3828  2394.0000      .0298    47.7812    42.1875     2.1094  2304.0000
 2010.6620    13.8906  2396.0000      .0288    43.2500    43.5059     2.0781  2300.0000
 2010.8144    13.9141  2394.0000      .0264    44.6875    45.1660     2.0684  2324.0000
 2010.9668    12.9688  2392.0000      .0190    43.6875    47.6562     2.0527  2350.0000
 2011.1192    13.0000  2388.0000      .0269    47.4063    49.9023     2.0645  2350.0000
 2011.2716    13.2891  2386.0000      .0298    46.6563    48.9746     2.0723  2314.0000
 2011.4240    13.6797  2386.0000      .0156    48.6250    54.5410     2.0586  2310.0000
 2011.5764    13.5938  2388.0000     -.0005    49.1875    53.3203     2.0410  2310.0000
 2011.7288    13.2500  2390.0000     -.0015    47.6562    52.7832     2.0566  2320.0000
 2011.8812    13.1094  2392.0000      .0000    47.8750    48.4375     2.0801  2340.0000
 2012.0336    12.8203  2392.0000      .0117    48.1563    46.6797     2.1016  2350.0000
 2012.1860    12.8203  2394.0000      .0059    48.8125    48.8281     2.0762  2340.0000
 2012.3384    12.6563  2394.0000      .0107    49.0312    43.4082     2.0664  2340.0000
 2012.4908    12.5391  2394.0000      .0059    48.7187    46.0449     2.0488  2334.0000
 2012.6432    12.4453  2390.0000      .0078    47.8750    47.3633     2.0527  2314.0000
 2012.7956    12.1094  2390.0000      .0073    44.3437    52.2461     2.0430  2314.0000
 2012.9480    12.0781  2390.0000      .0176    42.1875    52.6855     2.0273  2334.0000
 2013.1004    12.0156  2390.0000      .0293    43.5625    51.9531     2.0098  2360.0000
 2013.2528    11.9922  2392.0000      .0474    45.0625    52.6855     2.0020  2314.0000
 2013.4052    11.9922  2392.0000      .0337    46.9375    51.5625     1.9912  2294.0000
 2013.5576    11.9922  2394.0000      .0195    47.5625    54.8828     1.9854  2300.0000
 2013.7100    11.9297  2394.0000     -.0029    47.8750    54.5410     1.9854  2300.0000
 2013.8624    12.3281  2394.0000     -.0054    49.5625    52.2461     2.0000  2310.0000
 2014.0148    14.0312  2394.0000      .0083    47.8750    46.8750     2.0312  2340.0000
 2014.1672    14.2109  2392.0000      .0190    47.5000    42.4316     2.0410  2344.0000
 2014.3196    14.6094  2388.0000      .0269    45.9062    43.1641     2.0508  2310.0000
 2014.4720    14.2500  2386.0000      .0073    47.6562    43.7500     2.0332  2314.0000
 2014.6244    14.1797  2386.0000      .0146    47.4375    47.5586     2.0527  2330.0000
 2014.7768    12.3281  2386.0000      .0059    46.7813    51.4160     2.0469  2330.0000
 2014.9292    12.3281  2390.0000      .0205    46.7500    52.3926     2.0625  2334.0000
 2015.0816    12.2578  2390.0000      .0054    45.1875    51.3672     2.0391  2340.0000
 2015.2340    12.2578  2392.0000      .0161    46.4062    48.2422     2.0625  2350.0000
 2015.3864    12.2891  2394.0000     -.0010    44.1875    47.8516     2.0547  2310.0000
 2015.5388    12.3672  2392.0000      .0078    46.8125    46.6797     2.0820  2324.0000
 2015.6912    12.5391  2392.0000      .0088    45.7812    47.1680     2.0703  2334.0000
 2015.8436    12.6016  2388.0000      .0063    44.6562    46.8262     2.0527  2330.0000
 2015.9960    13.0234  2388.0000     -.0005    45.4687    49.0234     2.0332  2340.0000
 2016.1484    14.7656  2388.0000     -.0029    44.0625    49.5605     2.0410  2324.0000
 2016.3008    14.1719  2390.0000      .0000    49.4688    49.7559     2.0645  2320.0000
 2016.4532    14.4297  2390.0000      .0015    48.1875    49.0723     2.0723  2314.0000
 2016.6056    14.0312  2390.0000      .0059    50.2812    47.5098     2.0781  2314.0000
 2016.7580    13.9375  2390.0000      .0078    45.0313    49.5605     2.0840  2330.0000
 2016.9104    14.6250  2390.0000      .0195    45.0625    48.9746     2.1055  2324.0000
 2017.0628    13.6484  2390.0000      .0151    43.0313    52.0996     2.1133  2340.0000
 2017.2152    13.5938  2390.0000      .0210    46.7187    47.7539     2.1152  2340.0000
 2017.3676    13.4844  2386.0000      .0195    46.3438    47.9492     2.1055  2334.0000
 2017.5200    13.5938  2382.0000      .0220    46.5625    43.4082     2.1035  2354.0000
 2017.6724    13.5156  2384.0000      .0332    46.0313    41.9922     2.1113  2350.0000
 2017.8248    13.5391  2384.0000      .0269    47.6875    40.8691     2.1074  2330.0000
 2017.9772    13.7344  2384.0000      .0352    49.2500    41.4551     2.1211  2330.0000
 2018.1296    13.4375  2386.0000      .0269    50.2500    45.3125     2.1270  2350.0000
 2018.2820    13.2813  2388.0000      .0151    48.6563    44.1406     2.1309  2344.0000
 2018.4344    13.0547  2390.0000      .0249    48.2812    44.3848     2.1562  2340.0000
 2018.5868    12.6875  2392.0000      .0308    47.3437    42.8711     2.1621  2330.0000
 2018.7392    12.4531  2392.0000      .0269    46.2500    42.8223     2.1367  2344.0000
 2018.8916    12.5859  2390.0000      .0044    49.3437    43.1641     2.0879  2354.0000
