~VERSION INFORMATION
VERS.                                                 2.0:   CWLS Log ASCII Standard-VERSION 2.0
WRAP.                                                  NO:   One line per depth step
~Well Information Block
STRT.M                                           493.5200:   Top Depth
STOP.M                                          3752.7464:   Bottom Depth
STEP.M                                             .15240:   Depth Increment
NULL.                                            -999.250:   Null Value
FLD .                                            SLEIPNER:   Field Name
WELL.                                             15/9-12:   NAME
WBN .                                             15/9-12:   WELLBORE
NATI.                                                 NOR:   COUNTRY
BHT1.DEGF                                            74.0:   BH TEMP 1
BHT2.DEGF                                            74.0:   BH TEMP 2
BHT3.DEGF                                            76.0:   BH TEMP 3
BS1 .IN                                            12.250:   BIT SIZE 1
CTRY.                                                 NOR:   COUNTRY
CBD1.M                                              195.0:   CSG 1 DRILL DEP
CBL1.M                                              195.0:   CSG 1 LOG DEP
CS1 .IN                                              30.0:   CSG 1 SIZE
COMP.                                             STATOIL:   OPERATOR
PDAT.                                                 MSL:   PERM DATUM
PROV.                                           NORTH SEA:   PROVINCE
COUN.                                            NORDRAUG:   RIG NAME
SPUD.                                          1981/11/22:   SPUD DATE
LATI.                                       58 27 23.17 N:   SURF. LATITUDE
LONG.                                         1 43 4.01 E:   SURF. LONGITUDE
BTD1.                                             514.0 M:   TOTAL DEPTH 1
BTD2.                                             514.0 M:   TOTAL DEPTH 2
BTD3.                                             514.0 M:   TOTAL DEPTH 3
PBWE.                                             15/9-12:   PB WELL ID
APIN.                                             15/9-12:   PB WELLBORE ID
PBWS.                                                 all:   PB WELL NAME SET
~PARAMETER INFORMATION (log)
LNAM.                              FDC/CNL/GR  COMPOSITED:   NAME
LTYP.                                         DEPTH MATCH:   LOG TYPE
LSRV.                                            DEN/NEUT:   LOG SERVICE
LSOU.                                             SPT/NPD:   LOG SOURCE
LVSN.                                                   1:   LOG VERSION
BHIS.                                                   R:   BRIEF HISTORY
FHIS.                                             RAW-LIS:   FULL HISTORY
LCNM.                                                 SCH:   LOGGING CONTRACTOR
TOOL.                             FDC/CNL/GR (COMPOSITED):   TOOL STRING
~Curve Information Block
#MNEM.UNIT                                        API CODE    No Description
#=========                                        ========    == ===========
DEPT.M                                       00 001 00 00:     1  DEPTH
CALI.IN                                                  :     2  Caliper
CS.                                                      :     3  Cable Speed
DRHO.G/CC                                                :     4  Bulk density correction
GR.GAPI                                                  :     5  Gamma Ray
NPHI.%                                                   :     6  Neutron porosity
RHOB.G/CC                                                :     7  Bulk density
TENS.LB                                                  :     8  Cable Tension
~ASCII
# ...
  923.4404    20.3438  1922.0000      .0063    32.1562  -999.2500     1.9707  1170.0000
  923.5928    19.3438  1922.0000      .0186    36.1563  -999.2500     1.9785  1220.0000
  923.7452    19.7031  1924.0000      .0386    42.4063  -999.2500     1.9688  1170.0000
  923.8976    19.8594  1926.0000      .0410    43.9375  -999.2500     1.9570  1240.0000
  924.0500    20.5156  1927.0000      .0225    45.5937  -999.2500     1.9229  1170.0000
  924.2024    22.6094  1928.0000      .0249    47.8438  -999.2500     1.9326  1275.0000
  924.3548    21.0156  1927.0000      .0508    48.0313  -999.2500     1.9541  1230.0000
  924.5072    21.3594  1923.0000      .0674    47.0312  -999.2500     1.9609  1270.0000
  924.6596    20.2812  1921.0000      .0469    41.8437  -999.2500     1.9297  1270.0000
  924.8120    19.0469  1921.0000      .0132    42.2188  -999.2500     1.9004  1195.0000
  924.9644    18.8281  1922.0000      .0034    42.8125  -999.2500     1.9355  1225.0000
  925.1168    18.1719  1923.0000     -.0039    45.1875  -999.2500     1.9658  1195.0000
  925.2692    17.7500  1924.0000     -.0107    44.7188  -999.2500     1.9795  1240.0000
  925.4216    17.7344  1926.0000     -.0132    42.3125  -999.2500     1.9717  1200.0000
  925.5740    17.7031  1927.0000     -.0112    40.9688  -999.2500     1.9805  1210.0000
  925.7264    17.7188  1928.0000     -.0005    41.1250  -999.2500     1.9951  1240.0000
  925.8788    17.7344  1930.0000      .0010    41.7500  -999.2500     1.9961  1210.0000
  926.0312    17.7344  1930.0000      .0049    42.4375  -999.2500     1.9980  1230.0000
  926.1836    17.7344  1930.0000     -.0024    39.5313  -999.2500     1.9912  1230.0000
  926.3360    17.7500  1928.0000      .0093    39.2188  -999.2500     2.0078  1210.0000
  926.4884    17.7031  1924.0000      .0083    39.0000  -999.2500     2.0059  1185.0000
  926.6408    17.7031  1922.0000      .0137    40.5937  -999.2500     2.0078  1200.0000
  926.7932    17.7344  1922.0000      .0015    39.3750  -999.2500     1.9902  1160.0000
  926.9456    17.7344  1922.0000     -.0059    39.0312  -999.2500     1.9814  1245.0000
  927.0980    17.6719  1923.0000     -.0068    40.3750  -999.2500     1.9863  1195.0000
  927.2504    17.7344  1924.0000     -.0098    40.6250  -999.2500     1.9863  1230.0000
  927.4028    17.7344  1926.0000     -.0078    40.6563  -999.2500     1.9932  1225.0000
  927.5552    17.7500  1928.0000     -.0088    37.0000  -999.2500     1.9873  1240.0000
  927.7076    17.7813  1928.0000     -.0039    36.2813  -999.2500     1.9980  1205.0000
  927.8600    17.7344  1927.0000     -.0063    33.1563  -999.2500     2.0000  1230.0000
  928.0124    17.8281  1924.0000     -.0044    31.5000  -999.2500     2.0156  1205.0000
  928.1648    17.8281  1923.0000     -.0151    29.8281  -999.2500     2.0059  1195.0000
  928.3172    17.9063  1923.0000     -.0093    32.0625  -999.2500     2.0156  1200.0000
  928.4696    17.9688  1925.0000     -.0146    32.9063  -999.2500     2.0137  1200.0000
  928.6220    18.0000  1925.0000      .0054    30.8438  -999.2500     2.0391  1240.0000
  928.7744    18.0625  1926.0000      .0039    27.2656  -999.2500     2.0391  1210.0000
  928.9268    18.2344  1927.0000      .0161    27.9219  -999.2500     2.0449  1230.0000
  929.0792    18.3438  1929.0000      .0166    29.7500  -999.2500     2.0488  1225.0000
  929.2316    18.0625  1930.0000      .0146    30.1094  -999.2500     2.0527  1235.0000
  929.3840    18.5781  1930.0000      .0205    28.5781  -999.2500     2.0645  1230.0000
  929.5364    19.4688  1930.0000      .0142    26.8125  -999.2500     2.0527  1220.0000
  929.6888    19.6250  1929.0000      .0186    27.2969  -999.2500     2.0488  1210.0000
  929.8412    20.0313  1925.0000      .0098    26.1094  -999.2500     2.0371  1240.0000
  929.9936    20.1875  1923.0000      .0024    25.4844  -999.2500     2.0332  1185.0000
  930.1460    20.1563  1923.0000      .0063    23.6250  -999.2500     2.0449  1235.0000
  930.2984    20.2188  1923.0000     -.0005    22.0156  -999.2500     2.0449  1205.0000
  930.4508    20.3125  1924.0000     -.0010    21.7500  -999.2500     2.0527  1240.0000
  930.6032    20.1563  1925.0000      .0049    22.4219  -999.2500     2.0645  1245.0000
  930.7556    20.2500  1927.0000      .0195    23.8125  -999.2500     2.0879  1250.0000
  930.9080    20.2344  1928.0000      .0278    24.4844  -999.2500     2.0977  1225.0000
  931.0604    20.0625  1929.0000      .0073    26.1406  -999.2500     2.0723  1195.0000
  931.2128    20.2344  1927.0000     -.0054    28.2656  -999.2500     2.0508  1220.0000
  931.3652    20.2500  1926.0000     -.0103    29.5000  -999.2500     2.0449  1200.0000
  931.5176    20.3125  1923.0000     -.0029    28.0937  -999.2500     2.0566  1220.0000
  931.6700    20.4219  1923.0000      .0225    26.9844  -999.2500     2.0840  1225.0000
  931.8224    20.7188  1922.0000      .0205    25.3281  -999.2500     2.0781  1230.0000
  931.9748    20.7656  1923.0000      .0166    27.8594  -999.2500     2.0625  1230.0000
  932.1272    20.2344  1924.0000     -.0039    30.4531  -999.2500     2.0332  1225.0000
  932.2796    19.8906  1927.0000     -.0034    33.9375  -999.2500     2.0273  1205.0000
  932.4320    19.3906  1929.0000     -.0044    35.0625  -999.2500     2.0176  1215.0000
  932.5844    19.1719  1931.0000     -.0005    35.0625  -999.2500     2.0156  1205.0000
  932.7368    19.2031  1932.0000      .0190    36.3750  -999.2500     2.0410  1235.0000
  932.8892    19.2031  1933.0000      .0225    36.0938  -999.2500     2.0469  1215.0000
  933.0416    19.1719  1933.0000      .0234    37.0000  -999.2500     2.0605  1245.0000
  933.1940    19.4063  1930.0000      .0029    34.5625  -999.2500     2.0352  1235.0000
  933.3464    19.2813  1926.0000      .0029    31.2031  -999.2500     2.0332  1215.0000
  933.4988    18.9531  1925.0000      .0000    28.6875  -999.2500     2.0234  1200.0000
  933.6512    18.7656  1924.0000      .0059    26.8750  -999.2500     2.0254  1225.0000
  933.8036    18.3281  1925.0000      .0181    25.7500  -999.2500     2.0469  1170.0000
  933.9560    18.1250  1926.0000      .0132    26.1719  -999.2500     2.0391  1275.0000
  934.1084    18.2344  1926.0000      .0020    27.2656  -999.2500     2.0410  1210.0000
  934.2608    18.2344  1927.0000     -.0044    30.5313  -999.2500     2.0391  1210.0000
  934.4132    18.0625  1929.0000     -.0010    28.5313  -999.2500     2.0488  1215.0000
  934.5656    17.9063  1930.0000      .0210    28.3125  -999.2500     2.0742  1215.0000
  934.7180    17.9063  1929.0000      .0161    28.1094  -999.2500     2.0742  1215.0000
  934.8704    17.9688  1925.0000      .0220    29.8750  -999.2500     2.0820  1210.0000
  935.0228    17.9063  1922.0000      .0063    31.3438  -999.2500     2.0605  1230.0000
  935.1752    17.9063  1923.0000     -.0029    31.4063  -999.2500     2.0469  1230.0000
  935.3276    17.9063  1923.0000     -.0039    32.1562  -999.2500     2.0469  1230.0000
  935.4800    17.8750  1925.0000     -.0049    30.6094  -999.2500     2.0605  1225.0000
  935.6324    17.9375  1926.0000     -.0063    28.4844  -999.2500     2.0605  1215.0000
  935.7848    17.8281  1927.0000     -.0098    27.6719  -999.2500     2.0586  1220.0000
  935.9372    17.8750  1928.0000     -.0068    29.0000  -999.2500     2.0547  1230.0000
  936.0896    17.9844  1929.0000     -.0015    31.7969  -999.2500     2.0684  1220.0000
  936.2420    17.9375  1930.0000      .0024    32.0000  -999.2500     2.0742  1215.0000
  936.3944    17.8750  1930.0000      .0049    32.9375  -999.2500     2.0684  1220.0000
  936.5468    18.0781  1929.0000      .0146    30.4844  -999.2500     2.0742  1240.0000
  936.6992    18.2344  1926.0000      .0190    28.8125  -999.2500     2.0742  1215.0000
  936.8516    18.3281  1922.0000      .0132    29.1875  -999.2500     2.0684  1230.0000
  937.0040    18.3594  1922.0000      .0132    31.5000  -999.2500     2.0605  1220.0000
  937.1564    18.4219  1922.0000      .0190    31.3594  -999.2500     2.0645  1220.0000
