~VERSION INFORMATION
VERS.                                                 2.0:   CWLS Log ASCII Standard-VERSION 2.0
WRAP.                                                  NO:   One line per depth step
~Well Information Block
STRT.M                                           493.5200:   Top Depth
STOP.M                                          3752.7464:   Bottom Depth
STEP.M                                             .15240:   Depth Increment
NULL.                                            -999.250:   Null Value
FLD .                                            SLEIPNER:   Field Name
WELL.                                             15/9-12:   NAME
WBN .                                             15/9-12:   WELLBORE
NATI.                                                 NOR:   COUNTRY
BHT1.DEGF                                            74.0:   BH TEMP 1
BHT2.DEGF                                            74.0:   BH TEMP 2
BHT3.DEGF                                            76.0:   BH TEMP 3
BS1 .IN                                            12.250:   BIT SIZE 1
CTRY.                                                 NOR:   COUNTRY
CBD1.M                                              195.0:   CSG 1 DRILL DEP
CBL1.M                                              195.0:   CSG 1 LOG DEP
CS1 .IN                                              30.0:   CSG 1 SIZE
COMP.                                             STATOIL:   OPERATOR
PDAT.                                                 MSL:   PERM DATUM
PROV.                                           NORTH SEA:   PROVINCE
COUN.                                            NORDRAUG:   RIG NAME
SPUD.                                          1981/11/22:   SPUD DATE
LATI.                                       58 27 23.17 N:   SURF. LATITUDE
LONG.                                         1 43 4.01 E:   SURF. LONGITUDE
BTD1.                                             514.0 M:   TOTAL DEPTH 1
BTD2.                                             514.0 M:   TOTAL DEPTH 2
BTD3.                                             514.0 M:   TOTAL DEPTH 3
PBWE.                                             15/9-12:   PB WELL ID
APIN.                                             15/9-12:   PB WELLBORE ID
PBWS.                                                 all:   PB WELL NAME SET
~PARAMETER INFORMATION (log)
LNAM.                              FDC/CNL/GR  COMPOSITED:   NAME
LTYP.                                         DEPTH MATCH:   LOG TYPE
LSRV.                                            DEN/NEUT:   LOG SERVICE
LSOU.                                             SPT/NPD:   LOG SOURCE
LVSN.                                                   1:   LOG VERSION
BHIS.                                                   R:   BRIEF HISTORY
FHIS.                                             RAW-LIS:   FULL HISTORY
LCNM.                                                 SCH:   LOGGING CONTRACTOR
TOOL.                             FDC/CNL/GR (COMPOSITED):   TOOL STRING
~Curve Information Block
#MNEM.UNIT                                        API CODE    No Description
#=========                                        ========    == ===========
DEPT.M                                       00 001 00 00:     1  DEPTH
CALI.IN                                                  :     2  Caliper
CS.                                                      :     3  Cable Speed
DRHO.G/CC                                                :     4  Bulk density correction
GR.GAPI                                                  :     5  Gamma Ray
NPHI.%                                                   :     6  Neutron porosity
RHOB.G/CC                                                :     7  Bulk density
TENS.LB                                                  :     8  Cable Tension
~ASCII
  493.5200    19.4063  1969.0000     -.7075    41.3750  -999.2500     1.7891   865.0000
  493.6724    19.4063  1967.0000     -.7222    41.1563  -999.2500     1.7539   880.0000
  493.8248    19.4063  1969.0000     -.6196    41.0625  -999.2500     1.7783   850.0000
  493.9772    19.4531  1969.0000     -.6479    40.8125  -999.2500     1.6416   840.0000
  494.1296    19.4531  1966.0000     -.6846    41.3750  -999.2500     1.5635   865.0000
  494.2820    19.4688  1966.0000     -.7798    39.0312  -999.2500     1.4600   865.0000
  494.4344    19.4688  1963.0000     -.7534    41.0937  -999.2500     1.5215   860.0000
  494.5868    19.4688  1963.0000     -.6963    37.4063  -999.2500     1.5547   850.0000
  494.7392    19.4688  1964.0000     -.6895    36.3125  -999.2500     1.5459   830.0000
  494.8916    19.4688  1966.0000     -.6934    35.5937  -999.2500     1.5186   885.0000
  495.0440    19.4531  1967.0000     -.7544    40.7500  -999.2500     1.4658   890.0000
  495.1964    19.4531  1968.0000     -.7964    43.5625  -999.2500     1.4082   905.0000
  495.3488    19.4063  1970.0000     -.8428    40.8750  -999.2500     1.3457   885.0000
  495.5012    19.4063  1970.0000     -.8037    39.3437  -999.2500     1.3643   870.0000
  495.6536    19.4063  1971.0000     -.7598    38.6875  -999.2500     1.3916   840.0000
  495.8060    19.4063  1969.0000     -.7300    40.6875  -999.2500     1.4023   880.0000
  495.9584    19.4063  1968.0000     -.7393    41.9375  -999.2500     1.3906   855.0000
  496.1108    19.4063  1966.0000     -.7832    39.7188  -999.2500     1.3760   870.0000
  496.2632    19.4063  1963.0000     -.8203    41.3125  -999.2500     1.3721   895.0000
  496.4156    19.4063  1963.0000     -.8706    39.5625  -999.2500     1.3281   880.0000
  496.5680    19.4375  1963.0000     -.8042    40.3125  -999.2500     1.3701   855.0000
  496.7204    19.4375  1962.0000     -.7441    39.2500  -999.2500     1.4063   905.0000
  496.8728    19.4375  1963.0000     -.6895    39.6562  -999.2500     1.4209   870.0000
  497.0252    19.5000  1964.0000     -.7524    38.6250  -999.2500     1.2900   850.0000
  497.1776    19.5000  1966.0000     -.7725    36.8437  -999.2500     1.2285   840.0000
  497.3300    19.5000  1965.0000     -.8052    35.4375  -999.2500     1.1904   840.0000
  497.4824    19.5156  1966.0000     -.8232    35.3750  -999.2500     1.1943   910.0000
  497.6348    19.5156  1965.0000     -.8247    35.2812  -999.2500     1.1924   870.0000
  497.7872    19.5156  1964.0000     -.8359    34.3437  -999.2500     1.1689   875.0000
  497.9396    19.5156  1963.0000     -.7656    34.6875  -999.2500     1.2227   870.0000
  498.0920    19.5156  1962.0000     -.7510    35.9688  -999.2500     1.2207   850.0000
  498.2444    19.5156  1963.0000     -.6968    38.2188  -999.2500     1.2637   870.0000
  498.3968    19.5156  1963.0000     -.6772    37.4687  -999.2500     1.3027   900.0000
  498.5492    19.4688  1965.0000     -.6772    36.9063  -999.2500     1.3340   890.0000
  498.7016    19.4531  1966.0000     -.7349    36.2187  -999.2500     1.2998   850.0000
  498.8540    19.3750  1968.0000     -.7427    36.6875  -999.2500     1.2793   890.0000
  499.0064    19.3906  1968.0000     -.7388    36.9688  -999.2500     1.2705   885.0000
  499.1588    19.3906  1967.0000     -.6870    38.1563  -999.2500     1.3203   880.0000
  499.3112    19.4063  1968.0000     -.7139    40.0625  -999.2500     1.2998   875.0000
  499.4636    19.4375  1969.0000     -.7593    39.8125  -999.2500     1.2578   875.0000
  499.6160    19.4688  1967.0000     -.8438    39.0312  -999.2500     1.1797   830.0000
  499.7684    19.4688  1963.0000     -.8901    37.1250  -999.2500     1.1592   840.0000
  499.9208    19.5156  1963.0000     -.8818    37.0000  -999.2500     1.1924   895.0000
  500.0732    19.5000  1964.0000     -.8369    37.3750  -999.2500     1.2676   890.0000
  500.2256    19.5000  1965.0000     -.8213    36.7813  -999.2500     1.3037   860.0000
  500.3780    19.5156  1967.0000     -.8838    37.6875  -999.2500     1.3213   845.0000
  500.5304    19.5156  1968.0000    -1.1143    33.0625  -999.2500     1.2129   860.0000
  500.6828    19.5000  1969.0000    -1.3516    38.1250  -999.2500     1.1406   870.0000
  500.8352    19.4688  1969.0000    -1.2080    39.0312  -999.2500     1.4453   875.0000
  500.9876    19.3750  1969.0000     -.7690    43.7187  -999.2500     1.8545   860.0000
  501.1400    19.4688  1968.0000     -.1475    46.6875  -999.2500     2.3301   860.0000
  501.2924    19.2656  1965.0000     -.0132    53.8438  -999.2500     2.2461   870.0000
  501.4448    19.5000  1964.0000      .0542    61.9688  -999.2500     2.0898   840.0000
  501.5972    22.2656  1964.0000      .0244    65.6250  -999.2500     1.9570   865.0000
  501.7496    22.5000  1966.0000      .0093    67.2500  -999.2500     1.8369   860.0000
  501.9020    22.5000  1966.0000      .0254    63.7500  -999.2500     1.7773   880.0000
  502.0544    22.5000  1967.0000      .0400    58.2812  -999.2500     1.7012   835.0000
  502.2068    22.5000  1968.0000      .0361    51.5312  -999.2500     1.6338   820.0000
  502.3592    22.5000  1970.0000      .0298    53.1875  -999.2500     1.5938   895.0000
  502.5116    22.5000  1971.0000      .0234    53.9688  -999.2500     1.5664   930.0000
  502.6640    22.5000  1971.0000      .0200    54.7500  -999.2500     1.5586   850.0000
  502.8164    22.5000  1970.0000      .0049    54.0938  -999.2500     1.5371   860.0000
  502.9688    22.5000  1970.0000     -.0010    51.5625  -999.2500     1.5195   815.0000
  503.1212    22.5000  1967.0000     -.0015    50.3125  -999.2500     1.5098   855.0000
  503.2736    22.5000  1965.0000     -.0024    46.0000  -999.2500     1.4980   860.0000
  503.4260    22.5000  1963.0000     -.0063    46.1250  -999.2500     1.4785   860.0000
  503.5784    22.5000  1964.0000     -.0166    47.9687  -999.2500     1.4434   820.0000
  503.7308    22.5000  1964.0000     -.0181    46.3438  -999.2500     1.4160   830.0000
  503.8832    22.5000  1967.0000     -.0215    44.8437  -999.2500     1.3965   865.0000
  504.0356    22.5156  1968.0000     -.0239    43.8125  -999.2500     1.3799   850.0000
  504.1880    22.5000  1969.0000     -.0273    43.4375  -999.2500     1.3682   835.0000
  504.3404    22.5000  1971.0000     -.0308    43.8750  -999.2500     1.3535   845.0000
  504.4928    22.5000  1968.0000     -.0342    44.2813  -999.2500     1.3398   870.0000
  504.6452    22.5000  1968.0000     -.0342    45.9375  -999.2500     1.3340   890.0000
  504.7976    22.5000  1966.0000     -.0337    45.5625  -999.2500     1.3369   855.0000
  504.9500    22.5000  1964.0000     -.0317    44.8750  -999.2500     1.3389   860.0000
  505.1024    22.5000  1964.0000     -.0410    44.5312  -999.2500     1.3281   835.0000
  505.2548    22.5000  1963.0000     -.0488    42.2500  -999.2500     1.3135   825.0000
  505.4072    22.5000  1964.0000     -.0508    39.3437  -999.2500     1.3096   850.0000
  505.5596    22.5000  1966.0000     -.0483    38.7187  -999.2500     1.3145   875.0000
  505.7120    22.5000  1967.0000     -.0425    43.1250  -999.2500     1.3223   830.0000
  505.8644    22.5000  1968.0000     -.0483    42.1875  -999.2500     1.3154   835.0000
  506.0168    22.5000  1968.0000     -.0474    42.1562  -999.2500     1.3125   870.0000
  506.1692    22.5000  1968.0000     -.0537    39.7813  -999.2500     1.3037   890.0000
  506.3216    22.5000  1969.0000     -.0479    45.0313  -999.2500     1.3076   840.0000
  506.4740    22.5000  1969.0000     -.0454    45.8125  -999.2500     1.3076   850.0000
  506.6264    22.5000  1965.0000     -.0444    45.8125  -999.2500     1.3076   845.0000
  506.7788    22.5000  1964.0000     -.0488    42.8438  -999.2500     1.3037   850.0000
  506.9312    22.5000  1964.0000     -.0459    40.7500  -999.2500     1.3047   840.0000
  507.0836    22.5000  1965.0000     -.0420    41.6875  -999.2500     1.3057   810.0000
  507.2360    22.5000  1965.0000     -.0420    40.2188  -999.2500     1.3047   835.0000
