~VERSION INFORMATION
VERS.                                                 2.0:   CWLS Log ASCII Standard-VERSION 2.0
WRAP.                                                  NO:   One line per depth step
~Well Information Block
STRT.M                                           493.5200:   Top Depth
STOP.M                                          3752.7464:   Bottom Depth
STEP.M                                             .15240:   Depth Increment
NULL.                                            -999.250:   Null Value
FLD .                                            SLEIPNER:   Field Name
WELL.                                             15/9-12:   NAME
WBN .                                             15/9-12:   WELLBORE
NATI.                                                 NOR:   COUNTRY
BHT1.DEGF                                            74.0:   BH TEMP 1
BHT2.DEGF                                            74.0:   BH TEMP 2
BHT3.DEGF                                            76.0:   BH TEMP 3
BS1 .IN                                            12.250:   BIT SIZE 1
CTRY.                                                 NOR:   COUNTRY
CBD1.M                                              195.0:   CSG 1 DRILL DEP
CBL1.M                                              195.0:   CSG 1 LOG DEP
CS1 .IN                                              30.0:   CSG 1 SIZE
COMP.                                             STATOIL:   OPERATOR
PDAT.                                                 MSL:   PERM DATUM
PROV.                                           NORTH SEA:   PROVINCE
COUN.                                            NORDRAUG:   RIG NAME
SPUD.                                          1981/11/22:   SPUD DATE
LATI.                                       58 27 23.17 N:   SURF. LATITUDE
LONG.                                         1 43 4.01 E:   SURF. LONGITUDE
BTD1.                                             514.0 M:   TOTAL DEPTH 1
BTD2.                                             514.0 M:   TOTAL DEPTH 2
BTD3.                                             514.0 M:   TOTAL DEPTH 3
PBWE.                                             15/9-12:   PB WELL ID
APIN.                                             15/9-12:   PB WELLBORE ID
PBWS.                                                 all:   PB WELL NAME SET
~PARAMETER INFORMATION (log)
LNAM.                              FDC/CNL/GR  COMPOSITED:   NAME
LTYP.                                         DEPTH MATCH:   LOG TYPE
LSRV.                                            DEN/NEUT:   LOG SERVICE
LSOU.                                             SPT/NPD:   LOG SOURCE
LVSN.                                                   1:   LOG VERSION
BHIS.                                                   R:   BRIEF HISTORY
FHIS.                                             RAW-LIS:   FULL HISTORY
LCNM.                                                 SCH:   LOGGING CONTRACTOR
TOOL.                             FDC/CNL/GR (COMPOSITED):   TOOL STRING
~Curve Information Block
#MNEM.UNIT                                        API CODE    No Description
#=========                                        ========    == ===========
DEPT.M                                       00 001 00 00:     1  DEPTH
CALI.IN                                                  :     2  Caliper
CS.                                                      :     3  Cable Speed
DRHO.G/CC                                                :     4  Bulk density correction
GR.GAPI                                                  :     5  Gamma Ray
NPHI.%                                                   :     6  Neutron porosity
RHOB.G/CC                                                :     7  Bulk density
TENS.LB                                                  :     8  Cable Tension
~ASCII
# ...
  715.4144    17.6875  1971.0000      .0210   101.1875  -999.2500     2.0879  1055.0000
  715.5668    17.7344  1970.0000      .0337   104.5000  -999.2500     2.0859  1055.0000
  715.7192    17.7344  1967.0000      .0449   101.3125  -999.2500     2.0820  1035.0000
  715.8716    17.8750  1965.0000      .0684    97.4375  -999.2500     2.0859  1055.0000
  716.0240    17.9375  1962.0000      .0854    93.1250  -999.2500     2.0918  1040.0000
  716.1764    18.1094  1961.0000      .0869    90.9375  -999.2500     2.0664  1060.0000
  716.3288    18.1719  1961.0000      .0723    89.2500  -999.2500     2.0547  1030.0000
  716.4812    17.8594  1963.0000      .0332    86.5000  -999.2500     2.0254  1040.0000
  716.6336    17.7031  1965.0000      .0078    85.5625  -999.2500     2.0352  1050.0000
  716.7860    17.9688  1967.0000     -.0015    84.7500  -999.2500     2.0508  1055.0000
  716.9384    17.9375  1968.0000      .0190    88.8125  -999.2500     2.0820  1060.0000
  717.0908    17.8438  1969.0000      .0234    91.5000  -999.2500     2.0859  1015.0000
  717.2432    17.9531  1968.0000      .0308    97.6250  -999.2500     2.0918  1040.0000
  717.3956    17.8438  1967.0000      .0083    97.3125  -999.2500     2.0703  1040.0000
  717.5480    17.9063  1964.0000      .0200    95.9375  -999.2500     2.0781  1040.0000
  717.7004    17.9375  1961.0000      .0088    93.1875  -999.2500     2.0703  1045.0000
  717.8528    17.9063  1961.0000      .0264    94.5000  -999.2500     2.0918  1050.0000
  718.0052    17.6563  1963.0000      .0386    95.1875  -999.2500     2.0996  1035.0000
  718.1576    17.6250  1963.0000      .0586    96.0000  -999.2500     2.1152  1035.0000
  718.3100    17.8750  1964.0000      .0400    91.1250  -999.2500     2.0898  1035.0000
  718.4624    17.8125  1966.0000      .0171    92.4375  -999.2500     2.0801  1045.0000
  718.6148    18.0469  1969.0000     -.0029    89.0625  -999.2500     2.0664  1035.0000
  718.7672    18.0000  1971.0000      .0029    88.6250  -999.2500     2.0801  1030.0000
  718.9196    17.9375  1973.0000      .0186    86.9375  -999.2500     2.0957  1060.0000
  719.0720    17.9531  1974.0000      .0352    91.1250  -999.2500     2.1074  1020.0000
  719.2244    17.9688  1971.0000      .0327    91.5625  -999.2500     2.1035  1055.0000
  719.3768    18.0000  1966.0000      .0269    90.6250  -999.2500     2.0918  1035.0000
  719.5292    18.0313  1964.0000      .0264    88.5625  -999.2500     2.0996  1040.0000
  719.6816    18.0000  1963.0000      .0137    90.1875  -999.2500     2.0820  1040.0000
  719.8340    18.0781  1964.0000      .0088    89.9375  -999.2500     2.0742  1050.0000
  719.9864    17.9531  1965.0000      .0010    90.8750  -999.2500     2.0625  1020.0000
  720.1388    17.9531  1966.0000      .0122    93.3750  -999.2500     2.0723  1055.0000
  720.2912    17.9688  1967.0000      .0151    96.8125  -999.2500     2.0820  1030.0000
  720.4436    17.7969  1969.0000      .0195    95.3750  -999.2500     2.0879  1030.0000
  720.5960    17.8281  1969.0000      .0117    93.1875  -999.2500     2.0918  1020.0000
  720.7484    17.8438  1968.0000      .0054    92.3750  -999.2500     2.0801  1030.0000
  720.9008    17.7500  1968.0000     -.0005    92.0625  -999.2500     2.0762  1050.0000
  721.0532    17.7500  1965.0000      .0024    89.6250  -999.2500     2.0801  1025.0000
  721.2056    17.7500  1964.0000     -.0034    86.7500  -999.2500     2.0781  1050.0000
  721.3580    17.7188  1964.0000      .0015    85.0625  -999.2500     2.1016  1040.0000
  721.5104    17.8438  1965.0000      .0132    85.5000  -999.2500     2.1250  1000.0000
  721.6628    17.7344  1966.0000      .0332    83.8750  -999.2500     2.1523  1015.0000
  721.8152    17.7656  1966.0000      .0293    86.3750  -999.2500     2.1426   990.0000
  721.9676    17.7969  1969.0000      .0195    87.7500  -999.2500     2.1270  1055.0000
  722.1200    17.8750  1971.0000      .0127    87.7500  -999.2500     2.1152  1050.0000
  722.2724    17.9688  1972.0000      .0190    83.6250  -999.2500     2.1113  1020.0000
  722.4248    17.9375  1973.0000      .0342    81.5000  -999.2500     2.1211  1050.0000
  722.5772    18.1094  1973.0000      .0366    84.1875  -999.2500     2.1133  1055.0000
  722.7296    18.1094  1970.0000      .0278    86.0625  -999.2500     2.1035  1025.0000
  722.8820    18.0938  1964.0000      .0156    84.6250  -999.2500     2.0879  1055.0000
  723.0344    18.0938  1961.0000      .0234    83.4375  -999.2500     2.1094  1025.0000
  723.1868    18.1250  1960.0000      .0420    82.6250  -999.2500     2.1328  1050.0000
  723.3392    18.0625  1960.0000      .0444    81.6875  -999.2500     2.1289  1050.0000
  723.4916    18.1719  1961.0000      .0410    76.7500  -999.2500     2.1230  1020.0000
  723.6440    17.9531  1962.0000      .0400    74.8750  -999.2500     2.1191  1050.0000
  723.7964    18.0156  1963.0000      .0317    73.2500  -999.2500     2.1191  1045.0000
  723.9488    18.1719  1963.0000      .0581    73.1875  -999.2500     2.1328  1030.0000
  724.1012    18.1875  1964.0000      .0840    73.1875  -999.2500     2.1309  1105.0000
  724.2536    18.0156  1961.0000      .0820    74.0000  -999.2500     2.1113  1060.0000
  724.4060    17.7656  1960.0000      .0464    75.1250  -999.2500     2.0801  1070.0000
  724.5584    17.7813  1956.0000      .0186    72.6875  -999.2500     2.0781  1040.0000
  724.7108    17.8438  1954.0000      .0273    74.0625  -999.2500     2.1094  1060.0000
  724.8632    17.7969  1954.0000      .0308    70.2500  -999.2500     2.1230  1005.0000
  725.0156    17.6719  1956.0000      .0249    69.7500  -999.2500     2.1230  1040.0000
  725.1680    17.5781  1959.0000      .0151    69.3750  -999.2500     2.1152  1045.0000
  725.3204    17.6875  1960.0000      .0117    67.0625  -999.2500     2.1133  1070.0000
  725.4728    17.7969  1962.0000     -.0005    69.2500  -999.2500     2.0977  1045.0000
  725.6252    17.7656  1964.0000     -.0015    66.1250  -999.2500     2.0957  1110.0000
  725.7776    17.7656  1966.0000     -.0044    72.6250  -999.2500     2.0977  1090.0000
  725.9300    17.6875  1968.0000     -.0020    74.4375  -999.2500     2.1074  1045.0000
  726.0824    17.7188  1968.0000      .0000    74.3750  -999.2500     2.1055  1080.0000
  726.2348    17.8438  1965.0000      .0156    72.7500  -999.2500     2.1094  1080.0000
  726.3872    17.9063  1961.0000      .0210    70.8750  -999.2500     2.0898  1050.0000
  726.5396    17.8281  1959.0000      .0322    74.1875  -999.2500     2.0937  1075.0000
  726.6920    17.8750  1959.0000      .0186    78.8750  -999.2500     2.0820  1070.0000
  726.8444    18.1094  1959.0000      .0156    81.3125  -999.2500     2.0957  1050.0000
  726.9968    18.2344  1960.0000      .0146    83.1875  -999.2500     2.0898  1070.0000
  727.1492    17.8125  1960.0000      .0244    80.5625  -999.2500     2.0859  1085.0000
  727.3016    17.9531  1961.0000      .0195    82.1250  -999.2500     2.0645  1055.0000
  727.4540    17.7813  1962.0000      .0186    81.5625  -999.2500     2.0645  1070.0000
  727.6064    17.7656  1963.0000      .0200    79.8750  -999.2500     2.0605  1055.0000
  727.7588    17.7656  1963.0000      .0269    75.4375  -999.2500     2.0703  1050.0000
  727.9112    17.7031  1962.0000      .0215    73.8125  -999.2500     2.0742  1020.0000
  728.0636    17.7344  1959.0000      .0205    75.9375  -999.2500     2.0859  1060.0000
  728.2160    17.6719  1958.0000      .0259    77.5000  -999.2500     2.0898  1045.0000
  728.3684    17.8125  1959.0000      .0425    79.0625  -999.2500     2.0918  1060.0000
  728.5208    18.0469  1960.0000      .0332    80.0000  -999.2500     2.0703  1065.0000
  728.6732    17.8750  1960.0000      .0322    83.2500  -999.2500     2.0664  1110.0000
  728.8256    17.8750  1962.0000      .0190    80.6250  -999.2500     2.0430  1060.0000
  728.9780    17.9375  1964.0000      .0420    80.9375  -999.2500     2.0469  1050.0000
  729.1304    18.2656  1965.0000      .0400    79.8125  -999.2500     2.0410  1050.0000
