~VERSION INFORMATION
VERS.                                                 2.0:   CWLS Log ASCII Standard-VERSION 2.0
WRAP.                                                  NO:   One line per depth step
~Well Information Block
STRT.M                                           493.5200:   Top Depth
STOP.M                                          3752.7464:   Bottom Depth
STEP.M                                             .15240:   Depth Increment
NULL.                                            -999.250:   Null Value
FLD .                                            SLEIPNER:   Field Name
WELL.                                             15/9-12:   NAME
WBN .                                             15/9-12:   WELLBORE
NATI.                                                 NOR:   COUNTRY
BHT1.DEGF                                            74.0:   BH TEMP 1
BHT2.DEGF                                            74.0:   BH TEMP 2
BHT3.DEGF                                            76.0:   BH TEMP 3
BS1 .IN                                            12.250:   BIT SIZE 1
CTRY.                                                 NOR:   COUNTRY
CBD1.M                                              195.0:   CSG 1 DRILL DEP
CBL1.M                                              195.0:   CSG 1 LOG DEP
CS1 .IN                                              30.0:   CSG 1 SIZE
COMP.                                             STATOIL:   OPERATOR
PDAT.                                                 MSL:   PERM DATUM
PROV.                                           NORTH SEA:   PROVINCE
COUN.                                            NORDRAUG:   RIG NAME
SPUD.                                          1981/11/22:   SPUD DATE
LATI.                                       58 27 23.17 N:   SURF. LATITUDE
LONG.                                         1 43 4.01 E:   SURF. LONGITUDE
BTD1.                                             514.0 M:   TOTAL DEPTH 1
BTD2.                                             514.0 M:   TOTAL DEPTH 2
BTD3.                                             514.0 M:   TOTAL DEPTH 3
PBWE.                                             15/9-12:   PB WELL ID
APIN.                                             15/9-12:   PB WELLBORE ID
PBWS.                                                 all:   PB WELL NAME SET
~PARAMETER INFORMATION (log)
LNAM.                              FDC/CNL/GR  COMPOSITED:   NAME
LTYP.                                         DEPTH MATCH:   LOG TYPE
LSRV.                                            DEN/NEUT:   LOG SERVICE
LSOU.                                             SPT/NPD:   LOG SOURCE
LVSN.                                                   1:   LOG VERSION
BHIS.                                                   R:   BRIEF HISTORY
FHIS.                                             RAW-LIS:   FULL HISTORY
LCNM.                                                 SCH:   LOGGING CONTRACTOR
TOOL.                             FDC/CNL/GR (COMPOSITED):   TOOL STRING
~Curve Information Block
#MNEM.UNIT                                        API CODE    No Description
#=========                                        ========    == ===========
DEPT.M                                       00 001 00 00:     1  DEPTH
CALI.IN                                                  :     2  Caliper
CS.                                                      :     3  Cable Speed
DRHO.G/CC                                                :     4  Bulk density correction
GR.GAPI                                                  :     5  Gamma Ray
NPHI.%                                                   :     6  Neutron porosity
RHOB.G/CC                                                :     7  Bulk density
TENS.LB                                                  :     8  Cable Tension
~ASCII
# ...
 2656.9904    13.0625  2276.0000      .0537    76.5000    38.6230     2.2754  2900.0000
 2657.1428    13.2500  2276.0000      .0483    77.4375    40.5762     2.2852  2894.0000
 2657.2952    12.9766  2278.0000      .0337    76.3750    42.9199     2.2715  2890.0000
 2657.4476    13.1406  2278.0000      .0698    79.5625    41.7480     2.3359  2940.0000
 2657.6000    12.5625  2274.0000      .0830    74.2500    38.6230     2.3477  2950.0000
 2657.7524    12.2891  2270.0000      .0737    71.0625    34.6680     2.3535  2944.0000
 2657.9048    12.2031  2270.0000      .0229    68.4375    31.7871     2.3125  2950.0000
 2658.0572    12.3672  2272.0000      .0073    69.3125    31.9824     2.3105  2910.0000
 2658.2096    12.3125  2272.0000      .0200    69.3125    37.1094     2.3340  2890.0000
 2658.3620    12.5859  2274.0000      .0420    67.0000    38.3789     2.3496  2870.0000
 2658.5144    12.3594  2274.0000      .0381    62.5938    36.9141     2.3496  2860.0000
 2658.6668    12.3906  2276.0000      .0269    59.8125    33.7891     2.3340  2894.0000
 2658.8192    12.2812  2278.0000      .0093    57.5938    32.5684     2.3105  2920.0000
 2658.9716    12.1875  2278.0000      .0181    56.7813    32.9590     2.3086  2920.0000
 2659.1240    12.0156  2278.0000      .0269    56.9375    31.6895     2.2988  2920.0000
 2659.2764    12.0000  2274.0000      .0776    60.8125    30.8105     2.2988  2904.0000
 2659.4288    12.3047  2274.0000      .1074    65.0625    32.0801     2.2832  2880.0000
 2659.5812    12.3125  2276.0000      .0933    65.3125    37.6953     2.2578  2870.0000
 2659.7336    12.5625  2276.0000      .0449    62.9375    40.4297     2.2441  2850.0000
 2659.8860    12.3281  2276.0000      .0278    62.9375    39.8926     2.2734  2840.0000
 2660.0384    12.4297  2278.0000      .0249    62.6562    36.2793     2.3086  2850.0000
 2660.1908    12.4531  2278.0000      .0146    58.6875    34.4238     2.3008  2874.0000
 2660.3432    12.2266  2280.0000     -.0005    48.1875    36.2793     2.2754  2930.0000
 2660.4956    11.9844  2280.0000      .0049    39.3125    34.4238     2.2500  2900.0000
 2660.6480    11.9922  2278.0000      .0151    33.5000    34.0332     2.2422  2930.0000
 2660.8004    11.9922  2274.0000      .0293    32.3438    27.3438     2.2520  2920.0000
 2660.9528    11.9922  2276.0000      .0195    32.8750    26.4160     2.2383  2914.0000
 2661.1052    11.9922  2276.0000      .0005    33.2188    25.8789     2.2168  2894.0000
 2661.2576    12.0000  2276.0000     -.0107    36.2187    25.2930     2.2070  2880.0000
 2661.4100    12.0000  2276.0000     -.0117    38.4062    24.1699     2.2070  2854.0000
 2661.5624    12.0000  2278.0000     -.0024    39.6562    21.1426     2.2344  2860.0000
 2661.7148    11.9922  2278.0000      .0186    41.0313    22.5586     2.2441  2860.0000
 2661.8672    11.9687  2280.0000      .0547    47.1562    25.3906     2.2676  2864.0000
 2662.0196    12.2734  2278.0000      .1079    56.7813    29.9316     2.2656  2870.0000
 2662.1720    12.6563  2276.0000      .1621    64.6875    31.9824     2.2578  2870.0000
 2662.3244    13.2187  2272.0000      .1582    66.5000    35.0098     2.1660  2860.0000
 2662.4768    13.4297  2270.0000      .0947    69.0000    40.6250     2.0742  2830.0000
 2662.6292    12.8906  2270.0000      .0410    67.7500    44.8730     2.0547  2850.0000
 2662.7816    12.7109  2270.0000      .0322    69.7500    46.8262     2.1289  2910.0000
 2662.9340    12.6875  2272.0000      .0396    70.3125    41.1621     2.2168  2930.0000
 2663.0864    13.3437  2274.0000      .0913    71.8750    42.1875     2.2793  2960.0000
 2663.2388    13.4766  2276.0000      .1895    65.8750    36.3770     2.3711  2920.0000
 2663.3912    13.9531  2276.0000      .1934    59.9687    34.3750     2.3105  2904.0000
 2663.5436    13.9687  2276.0000      .1201    55.0313    27.3926     2.2051  2890.0000
 2663.6960    13.2656  2274.0000      .0244    60.0313    31.3477     2.1211  2904.0000
 2663.8484    12.5703  2270.0000      .0444    67.0625    37.9395     2.1973  2940.0000
 2664.0008    12.3438  2268.0000      .0664    74.6875    44.1406     2.2480  2964.0000
 2664.1532    12.4297  2268.0000      .0586    78.5625    44.8242     2.2227  2940.0000
 2664.3056    12.4609  2268.0000      .0264    79.9375    44.7754     2.1543  2930.0000
 2664.4580    12.6328  2270.0000     -.0034    79.0625    46.1426     2.1230  2900.0000
 2664.6104    12.9141  2270.0000     -.0093    77.0625    46.3867     2.1738  2900.0000
 2664.7628    12.7734  2270.0000      .0034    71.7500    44.2383     2.2695  2920.0000
 2664.9152    12.7734  2270.0000      .0508    68.6875    39.5996     2.3555  2940.0000
 2665.0676    12.7187  2270.0000      .0234    70.3125    39.6484     2.3320  2964.0000
 2665.2200    12.7578  2270.0000      .0312    72.0625    41.1621     2.3379  2930.0000
 2665.3724    12.9141  2268.0000      .0503    70.8750    42.8711     2.3398  2930.0000
 2665.5248    12.6719  2270.0000      .1074    68.8750    44.5801     2.3379  2914.0000
 2665.6772    12.7344  2270.0000      .0757    67.3125    43.6035     2.2637  2900.0000
 2665.8296    12.9062  2270.0000      .0449    70.8750    45.7031     2.2344  2930.0000
 2665.9820    12.8750  2270.0000      .0356    69.3750    42.9199     2.2500  2950.0000
 2666.1344    12.8906  2270.0000      .0342    71.0625    41.6992     2.2695  2940.0000
 2666.2868    12.7109  2272.0000      .0264    68.8750    41.4062     2.2793  2950.0000
 2666.4392    12.6875  2272.0000      .0244    69.4375    42.5293     2.2852  2930.0000
 2666.5916    12.9297  2272.0000      .0210    70.9375    42.2852     2.2930  2920.0000
 2666.7440    13.0234  2270.0000      .0107    71.0625    40.9180     2.2988  2910.0000
 2666.8964    12.9688  2266.0000      .0269    67.1250    38.9648     2.3223  2924.0000
 2667.0488    12.8828  2264.0000      .0317    58.9375    40.2344     2.3203  2970.0000
 2667.2012    12.6797  2264.0000      .0366    53.4688    41.0156     2.3027  3004.0000
 2667.3536    12.4609  2266.0000      .0269    57.3437    42.6270     2.2988  2954.0000
 2667.5060    12.6484  2266.0000      .0278    65.5625    42.4316     2.3027  2950.0000
 2667.6584    12.9062  2266.0000      .0376    76.0625    40.5273     2.3320  2954.0000
 2667.8108    12.9453  2266.0000      .0278    80.7500    38.5742     2.3027  2904.0000
 2667.9632    13.0781  2268.0000      .0566    91.0625    41.5527     2.3164  2900.0000
 2668.1156    12.8594  2268.0000      .1055    93.7500    45.1172     2.3125  2944.0000
 2668.2680    13.2266  2266.0000      .1279    93.6875    47.4609     2.2949  2980.0000
 2668.4204    12.9609  2262.0000      .0874    77.2500    39.4043     2.2187  2960.0000
 2668.5728    13.6562  2262.0000      .0532    67.1250    32.2266     2.1836  2924.0000
 2668.7252    12.7656  2264.0000      .0425    63.7813    30.6152     2.1914  2914.0000
 2668.8776    12.8203  2268.0000      .0532    72.1875    34.3750     2.2246  2900.0000
 2669.0300    12.6328  2270.0000      .0522    79.5625    40.1855     2.2578  2920.0000
 2669.1824    12.9766  2272.0000      .0410    82.9375    40.7227     2.2617  2960.0000
 2669.3348    13.1406  2274.0000      .0337    79.1250    43.8477     2.2754  2930.0000
 2669.4872    12.9062  2276.0000      .0586    77.1875    44.3848     2.2969  2950.0000
 2669.6396    13.0000  2276.0000      .0732    75.3125    42.1875     2.3164  2930.0000
 2669.7920    12.9297  2276.0000      .0815    74.6250    40.5762     2.3164  2934.0000
 2669.9444    12.8594  2272.0000      .0469    73.7500    36.8652     2.2793  2950.0000
 2670.0968    12.9062  2272.0000      .0347    77.6875    40.3809     2.2598  2960.0000
 2670.2492    12.6719  2272.0000      .0630    79.3125    40.6738     2.2773  2954.0000
 2670.4016    12.9062  2272.0000      .1167    77.7500    42.0898     2.3027  2934.0000
 2670.5540    13.2344  2274.0000      .1309    69.6250    39.4531     2.2832  2914.0000
 2670.7064    14.2891  2276.0000      .0864    66.8125    38.7207     2.2441  2920.0000
