~VERSION INFORMATION
VERS.                                                 2.0:   CWLS Log ASCII Standard-VERSION 2.0
WRAP.                                                  NO:   One line per depth step
~Well Information Block
STRT.M                                           493.5200:   Top Depth
STOP.M                                          3752.7464:   Bottom Depth
STEP.M                                             .15240:   Depth Increment
NULL.                                            -999.250:   Null Value
FLD .                                            SLEIPNER:   Field Name
WELL.                                             15/9-12:   NAME
WBN .                                             15/9-12:   WELLBORE
NATI.                                                 NOR:   COUNTRY
BHT1.DEGF                                            74.0:   BH TEMP 1
BHT2.DEGF                                            74.0:   BH TEMP 2
BHT3.DEGF                                            76.0:   BH TEMP 3
BS1 .IN                                            12.250:   BIT SIZE 1
CTRY.                                                 NOR:   COUNTRY
CBD1.M                                              195.0:   CSG 1 DRILL DEP
CBL1.M                                              195.0:   CSG 1 LOG DEP
CS1 .IN                                              30.0:   CSG 1 SIZE
COMP.                                             STATOIL:   OPERATOR
PDAT.                                                 MSL:   PERM DATUM
PROV.                                           NORTH SEA:   PROVINCE
COUN.                                            NORDRAUG:   RIG NAME
SPUD.                                          1981/11/22:   SPUD DATE
LATI.                                       58 27 23.17 N:   SURF. LATITUDE
LONG.                                         1 43 4.01 E:   SURF. LONGITUDE
BTD1.                                             514.0 M:   TOTAL DEPTH 1
BTD2.                                             514.0 M:   TOTAL DEPTH 2
BTD3.                                             514.0 M:   TOTAL DEPTH 3
PBWE.                                             15/9-12:   PB WELL ID
APIN.                                             15/9-12:   PB WELLBORE ID
PBWS.                                                 all:   PB WELL NAME SET
~PARAMETER INFORMATION (log)
LNAM.                              FDC/CNL/GR  COMPOSITED:   NAME
LTYP.                                         DEPTH MATCH:   LOG TYPE
LSRV.                                            DEN/NEUT:   LOG SERVICE
LSOU.                                             SPT/NPD:   LOG SOURCE
LVSN.                                                   1:   LOG VERSION
BHIS.                                                   R:   BRIEF HISTORY
FHIS.                                             RAW-LIS:   FULL HISTORY
LCNM.                                                 SCH:   LOGGING CONTRACTOR
TOOL.                             FDC/CNL/GR (COMPOSITED):   TOOL STRING
~Curve Information Block
#MNEM.UNIT                                        API CODE    No Description
#=========                                        ========    == ===========
DEPT.M                                       00 001 00 00:     1  DEPTH
CALI.IN                                                  :     2  Caliper
CS.                                                      :     3  Cable Speed
DRHO.G/CC                                                :     4  Bulk density correction
GR.GAPI                                                  :     5  Gamma Ray
NPHI.%                                                   :     6  Neutron porosity
RHOB.G/CC                                                :     7  Bulk density
TENS.LB                                                  :     8  Cable Tension
~ASCII
# ...
 3308.8052    14.3750  2388.0000     -.0142    27.1562    11.8164     2.5586  3450.0000
 3308.9576    14.3750  2386.0000     -.0171    26.5781    11.1328     2.5801  3450.0000
 3309.1100    14.3359  2388.0000     -.0024    27.1719    10.8398     2.6113  3464.0000
 3309.2624    14.3125  2390.0000      .0024    25.2500    11.4746     2.6348  3450.0000
 3309.4148    14.3125  2390.0000      .0093    24.8750    11.9141     2.6211  3460.0000
 3309.5672    14.3203  2392.0000      .0093    26.9375    12.3535     2.5840  3460.0000
 3309.7196    14.3437  2390.0000      .0166    29.6250    13.0371     2.5605  3464.0000
 3309.8720    14.3516  2388.0000      .0342    33.8438    14.1602     2.5625  3460.0000
 3310.0244    14.3672  2388.0000      .0342    33.8750    14.5996     2.5703  3444.0000
 3310.1768    14.2500  2388.0000      .0400    34.2188    14.9414     2.5898  3450.0000
 3310.3292    14.2109  2388.0000      .0098    31.8750    14.9414     2.5645  3454.0000
 3310.4816    14.0938  2390.0000     -.0015    31.2813    14.3555     2.5547  3460.0000
 3310.6340    14.0625  2392.0000     -.0068    30.3906    13.5742     2.5586  3470.0000
 3310.7864    14.1094  2392.0000      .0024    29.1250    11.9629     2.5918  3484.0000
 3310.9388    13.9297  2394.0000      .0264    26.9688    12.3535     2.6094  3460.0000
 3311.0912    14.0156  2394.0000      .0249    27.2344    14.0625     2.5957  3454.0000
 3311.2436    14.0000  2392.0000      .0239    31.8125    16.7480     2.5410  3460.0000
 3311.3960    14.0156  2390.0000      .0068    35.1875    17.0898     2.5293  3454.0000
 3311.5484    14.0156  2388.0000      .0127    38.9063    17.1387     2.5352  3450.0000
 3311.7008    14.1562  2388.0000      .0303    36.2500    16.0156     2.5664  3450.0000
 3311.8532    13.8984  2388.0000      .0190    36.8750    17.5293     2.5586  3460.0000
 3312.0056    13.9453  2388.0000      .0195    38.3438    17.0898     2.5371  3450.0000
 3312.1580    13.8594  2390.0000      .0127    40.0938    17.2363     2.5156  3454.0000
 3312.3104    13.8359  2392.0000      .0195    39.1250    17.3828     2.4883  3450.0000
 3312.4628    14.0078  2392.0000      .0146    33.2813    17.5781     2.4785  3450.0000
 3312.6152    13.8359  2390.0000     -.0068    32.0625    16.0645     2.4707  3450.0000
 3312.7676    13.5000  2388.0000      .0190    30.8906    14.1602     2.5137  3450.0000
 3312.9200    13.3828  2388.0000      .0112    31.5781    14.1113     2.5117  3470.0000
 3313.0724    13.6562  2388.0000      .0361    33.4688    15.3809     2.5371  3480.0000
 3313.2248    13.4297  2388.0000      .0024    32.2813    15.8203     2.5137  3474.0000
 3313.3772    13.4141  2390.0000      .0093    34.0312    14.8926     2.5176  3460.0000
 3313.5296    13.3516  2390.0000      .0303    33.9688    14.6484     2.5312  3460.0000
 3313.6820    13.4609  2392.0000      .0312    36.3125    16.7480     2.5273  3470.0000
 3313.8344    13.3437  2392.0000      .0459    36.2500    17.4805     2.5449  3444.0000
 3313.9868    13.2187  2392.0000      .0205    34.0938    17.4316     2.5312  3454.0000
 3314.1392    13.2344  2388.0000      .0288    33.8438    14.5020     2.5566  3460.0000
 3314.2916    13.1094  2388.0000      .0239    32.1250    14.1113     2.5723  3470.0000
 3314.4440    13.0547  2386.0000      .0269    30.7500    13.9648     2.5937  3474.0000
 3314.5964    12.9766  2388.0000      .0166    27.1719    13.7207     2.5957  3474.0000
 3314.7488    12.9453  2388.0000      .0215    27.7344    12.9395     2.6055  3480.0000
 3314.9012    12.8516  2390.0000      .0269    28.0000    13.1348     2.6133  3460.0000
 3315.0536    12.8516  2392.0000      .0317    31.2969    14.2090     2.6035  3470.0000
 3315.2060    12.7656  2392.0000      .0166    27.9063    14.2090     2.5918  3454.0000
 3315.3584    12.7109  2392.0000     -.0010    29.0469    13.0859     2.5762  3444.0000
 3315.5108    12.7109  2390.0000      .0073    28.6406    12.8906     2.5742  3444.0000
 3315.6632    12.7187  2388.0000      .0317    29.9063    13.1836     2.5879  3454.0000
 3315.8156    12.7500  2388.0000      .0435    28.7813    14.5996     2.5859  3450.0000
 3315.9680    12.6797  2388.0000      .0186    28.9219    14.7949     2.5645  3460.0000
 3316.1204    12.6797  2388.0000      .0073    28.6094    14.8926     2.5410  3470.0000
 3316.2728    12.6875  2390.0000      .0156    29.1719    14.0137     2.5781  3480.0000
 3316.4252    12.5859  2390.0000      .0107    30.9062    13.7695     2.5859  3474.0000
 3316.5776    12.4922  2392.0000      .0137    32.0938    14.3555     2.5957  3470.0000
 3316.7300    12.4609  2392.0000     -.0078    31.4688    15.0391     2.5391  3484.0000
 3316.8824    12.4062  2392.0000      .0029    29.6875    15.4297     2.5430  3460.0000
 3317.0348    12.3750  2388.0000     -.0073    30.6094    14.5508     2.5234  3450.0000
 3317.1872    12.3750  2386.0000     -.0029    31.8750    14.6973     2.5293  3440.0000
 3317.3396    12.3594  2386.0000     -.0068    31.6250    15.7715     2.5215  3470.0000
 3317.4920    12.3594  2386.0000     -.0068    31.6719    16.4551     2.5137  3470.0000
 3317.6444    12.3906  2386.0000     -.0015    30.7500    15.8203     2.5332  3470.0000
 3317.7968    12.2578  2386.0000     -.0010    31.9063    14.2090     2.5332  3470.0000
 3317.9492    12.1406  2388.0000      .0068    32.1562    13.3789     2.5566  3490.0000
 3318.1016    12.1172  2390.0000      .0249    33.5938    12.6953     2.5762  3470.0000
 3318.2540    12.1172  2390.0000      .0581    34.4375    13.6719     2.6211  3454.0000
 3318.4064    12.1172  2390.0000      .0596    32.9375    15.4785     2.6309  3460.0000
 3318.5588    12.2266  2388.0000      .0469    32.6875    16.5527     2.5977  3454.0000
 3318.7112    12.0078  2388.0000      .0352    28.2344    18.4570     2.5664  3454.0000
 3318.8636    12.0078  2388.0000      .0312    30.1250    16.5039     2.5430  3474.0000
 3319.0160    12.3828  2390.0000      .0146    30.1094    15.2832     2.5488  3470.0000
 3319.1684    11.7812  2390.0000     -.0010    31.5938    12.1094     2.5391  3480.0000
 3319.3208    11.7812  2392.0000     -.0078    30.3125    11.9629     2.5352  3474.0000
 3319.4732    11.7969  2392.0000     -.0107    26.9531    12.5488     2.5195  3484.0000
 3319.6256    11.7969  2392.0000     -.0171    27.5313    13.6719     2.5234  3500.0000
 3319.7780    11.7969  2390.0000     -.0073    27.7969    14.4531     2.5488  3460.0000
 3319.9304    11.7969  2388.0000      .0039    28.7813    14.9902     2.5664  3474.0000
 3320.0828    11.8047  2388.0000      .0103    31.0000    15.4785     2.5547  3490.0000
 3320.2352    11.8906  2388.0000      .0039    32.9375    15.9668     2.5215  3494.0000
 3320.3876    11.7109  2388.0000      .0054    34.1875    16.0645     2.5312  3484.0000
 3320.5400    11.7109  2388.0000      .0298    32.9375    15.3809     2.5684  3460.0000
 3320.6924    11.6484  2390.0000      .0483    31.0000    13.5742     2.6172  3454.0000
 3320.8448    11.6562  2390.0000      .0488    32.7188    12.0605     2.5840  3480.0000
 3320.9972    11.6562  2390.0000      .0156    32.0313    12.7930     2.5352  3454.0000
 3321.1496    11.6953  2388.0000      .0039    31.7188    14.9414     2.5195  3484.0000
 3321.3020    11.7109  2388.0000      .0054    32.3438    17.2852     2.5391  3474.0000
 3321.4544    11.7344  2386.0000      .0181    33.2813    17.4316     2.5605  3494.0000
 3321.6068    11.8281  2386.0000      .0244    35.5000    17.2363     2.5586  3504.0000
 3321.7592    11.7109  2386.0000      .0205    34.6562    16.3086     2.5801  3540.0000
 3321.9116    11.7109  2388.0000      .0044    37.3438    16.4063     2.5664  3500.0000
 3322.0640    11.7344  2390.0000      .0015    36.9688    16.9434     2.5723  3484.0000
 3322.2164    11.7812  2392.0000     -.0005    37.2188    18.3105     2.5566  3480.0000
 3322.3688    11.7656  2392.0000      .0078    36.6563    18.5059     2.5684  3480.0000
 3322.5212    11.7656  2392.0000      .0039    35.7500    17.6270     2.5527  3514.0000
