~VERSION INFORMATION
VERS.                                                 2.0:   CWLS Log ASCII Standard-VERSION 2.0
WRAP.                                                  NO:   One line per depth step
~Well Information Block
STRT.M                                          2747.9732:   Top Depth
STOP.M                                          3514.5452:   Bottom Depth
STEP.M                                             .15240:   Depth Increment
NULL.                                            -999.250:   Null Value
FLD .                                             WILDCAT:   Field Name
WELL.                                              15/6-4:   NAME
WBN .                                              15/6-4:   WELLBORE
NATI.                                                 NOR:   COUNTRY
BHT1.DEGF                                            95.0:   BH TEMP 1
BS1 .IN                                             17.50:   BIT SIZE 1
CTRY.                                                 NOR:   COUNTRY
CBD1.M                                       378.89996338:   CSG 1 DRILL DEP
CBL1.M                                              379.0:   CSG 1 LOG DEP
CS1 .IN                                              20.0:   CSG 1 SIZE
COMP.                ESSO EXP. AND PRODUCTION NORWAY INC.:   OPERATOR
PDAT.                                                 MSL:   PERM DATUM
PROV.                                           NORTH SEA:   PROVINCE
COUN.                                             NORJARL:   RIG NAME
SPUD.                                          1976/06/29:   SPUD DATE
LATI.                                       58 37 34.39 N:   SURF. LATITUDE
LONG.                                        1 48 19.94 E:   SURF. LONGITUDE
BTD1.                                      1016.1999512 M:   TOTAL DEPTH 1
PBWE.                                              15/6-4:   PB WELL ID
APIN.                                              15/6-4:   PB WELLBORE ID
PBWS.                                                 all:   PB WELL NAME SET
~PARAMETER INFORMATION (log)
LNAM.                              FDC/CNL/GR  COMPOSITED:   NAME
LTYP.                                         DEPTH MATCH:   LOG TYPE
LSRV.                                            DEN/NEUT:   LOG SERVICE
LSOU.                                             SPT/NPD:   LOG SOURCE
LVSN.                                                   1:   LOG VERSION
BHIS.                                                   R:   BRIEF HISTORY
FHIS.                                             RAW-LIS:   FULL HISTORY
LCNM.                                        SCHLUMBERGER:   LOGGING CONTRACTOR
TOOL.                             FDC/CNL/GR (COMPOSITED):   TOOL STRING
~Curve Information Block
#MNEM.UNIT                                        API CODE    No Description
#=========                                        ========    == ===========
DEPT.M                                       00 001 00 00:     1  DEPTH
CALI.IN                                                  :     2  Caliper
DRHO.G/CC                                                :     3  Bulk density correction
GR.GAPI                                                  :     4  Gamma Ray
NPHI.%                                                   :     5  Neutron porosity
RHOB.G/CC                                                :     6  Bulk density
~ASCII
# ...
 3491.6852     8.4886     -.0055    43.9867    20.9295     2.3952
 3491.8376     8.3902     -.0001    41.6890    20.2667     2.3915
 3491.9900     8.4016     -.0071    39.3950    19.2868     2.3732
 3492.1424     8.4527     -.0083    38.1051    18.2015     2.3757
 3492.2948     8.4755     -.0027    39.4870    17.1181     2.3879
 3492.4472     8.5057      .0141    43.0513    16.2889     2.4249
 3492.5996     8.5542      .0348    46.7364    15.7222     2.4912
 3492.7520     8.6250      .0533    51.4289    16.0302     2.5355
 3492.9044     8.6956      .0466    56.2829    16.8602     2.5321
 3493.0568     8.7411      .0188    61.1324    17.6318     2.5216
 3493.2092     8.7702      .0128    65.8672    17.6902     2.5324
 3493.3616     8.7201      .0135    67.0692    17.1569     2.5515
 3493.5140     8.6468      .0174    65.7572    16.6667     2.5460
 3493.6664     8.6139      .0021    66.0061    17.9583     2.5385
 3493.8188     8.6181     -.0016    70.7626    19.5586     2.5410
 3493.9712     8.6397      .0062    73.1229    20.0301     2.5589
 3494.1236     8.6618      .0130    67.9438    20.0238     2.5666
 3494.2760     8.6818      .0140    62.4506    19.8861     2.5683
 3494.4284     8.6953      .0177    61.3580    19.1036     2.5689
 3494.5808     8.6824      .0276    60.8968    18.4286     2.5773
 3494.7332     8.6482      .0394    64.1197    18.5183     2.5710
 3494.8856     8.6127      .0306    68.1467    18.9988     2.5542
 3495.0380     8.5716      .0181    72.1672    20.0614     2.5546
 3495.1904     8.5429      .0121    76.1358    21.0966     2.5603
 3495.3428     8.5475      .0121    77.6229    21.6163     2.5533
 3495.4952     8.5670      .0272    72.8124    21.4503     2.5580
 3495.6476     8.5837      .0207    64.7428    21.0686     2.5406
 3495.8000     8.5956      .0113    55.6729    20.1702     2.5246
 3495.9524     8.5867      .0085    48.9540    19.0369     2.5217
 3496.1048     8.5640      .0135    45.1731    17.9767     2.5263
 3496.2572     8.5525      .0307    43.7825    17.5539     2.5266
 3496.4096     8.5423      .0203    41.9780    17.3404     2.5070
 3496.5620     8.5319      .0167    38.7442    15.4349     2.5058
 3496.7144     8.5236      .0242    36.2590    13.2031     2.5336
 3496.8668     8.5173      .0254    36.8193    12.7850     2.5282
 3497.0192     8.5111      .0174    39.0791    14.0821     2.4981
 3497.1716     8.5106      .0149    41.4381    15.5821     2.4880
 3497.3240     8.5178      .0238    42.5898    16.1936     2.4771
 3497.4764     8.5134      .0132    39.7102    16.7565     2.4702
 3497.6288     8.5067      .0105    40.4851    17.1880     2.4837
 3497.7812     8.5851      .0044    40.6688    17.5109     2.4706
 3497.9336     8.6736      .0018    41.9326    17.8643     2.4496
 3498.0860     8.7014      .0050    43.4151    18.2260     2.4519
 3498.2384     8.7176      .0133    43.5041    18.6896     2.4648
 3498.3908     8.7478      .0204    42.2470    19.7858     2.4627
 3498.5432     8.7888      .0277    42.2643    22.0680     2.4413
 3498.6956     8.8197      .0086    43.4533    23.9292     2.4302
 3498.8480     8.8673      .0036    42.4621    22.4789     2.4466
 3499.0004     8.8842      .0220    41.3665    19.8850     2.4889
 3499.1528     8.7836      .0163    41.2796    18.3658     2.4772
 3499.3052     8.7065      .0197    43.1265    17.7528     2.4712
 3499.4576     8.7042      .0394    42.3163    17.2863     2.4928
 3499.6100     8.7025      .0311    42.5946    17.0066     2.4910
 3499.7624     8.6964      .0342    41.9527    16.9393     2.4925
 3499.9148     8.6878      .0318    40.7397    16.8728     2.4742
 3500.0672     8.6841      .0189    41.2236    16.8856     2.4559
 3500.2196     8.6833      .0095    40.3483    16.8730     2.4612
 3500.3720     8.6754      .0171    39.9350    16.7723     2.5036
 3500.5244     8.6635      .0132    38.6900    16.6714     2.5240
 3500.6768     8.6517      .0163    38.6793    16.6671     2.5346
 3500.8292     8.6456      .0196    38.2795    16.7615     2.5405
 3500.9816     8.6488      .0070    38.4806    16.9626     2.5368
 3501.1340     8.6524      .0073    40.0614    17.2494     2.5446
 3501.2864     8.6561      .0125    41.5645    17.5340     2.5529
 3501.4388     8.6598      .0214    42.8110    17.8139     2.5606
 3501.5912     8.6702      .0323    41.9870    17.9503     2.5630
 3501.7436     8.6902      .0312    44.0794    17.9515     2.5516
 3501.8960     8.7103      .0349    44.3685    17.5320     2.5528
 3502.0484     8.6964      .0413    44.1255    17.2213     2.5651
 3502.2008     8.6627      .0395    43.1105    16.9791     2.5610
 3502.3532     8.6741      .0328    42.0321    17.0116     2.5836
 3502.5056     8.7168      .0353    43.1851    17.2187     2.6010
 3502.6580     8.7276      .0242    43.8581    17.3255     2.6100
 3502.8104     8.7085      .0230    46.6430    17.3469     2.6086
 3502.9628     8.6927      .0230    49.3844    17.3488     2.6095
 3503.1152     8.6990      .0264    50.9375    17.3402     2.6095
 3503.2676     8.7288      .0209    52.4251    17.3146     2.5952
 3503.4200     8.7488      .0276    56.1699    17.3568     2.6037
 3503.5724     8.7469      .0213    60.6958    17.7926     2.5942
 3503.7248     8.7334      .0186    61.0296    18.5132     2.5944
 3503.8772     8.7230      .0212    61.0602    18.7366     2.5988
 3504.0296     8.7193      .0373    61.0908    18.6074     2.5954
 3504.1820     8.7191      .0267    61.1213    18.3745     2.5879
 3504.3344     8.7190      .0227    61.1519    18.5357     2.5806
 3504.4868     8.7188      .0201    61.0496    18.6899     2.5607
 3504.6392     8.7186      .0360    60.9710    18.4822     2.5499
 3504.7916     8.6630      .0409    60.9441    18.1377     2.5599
 3504.9440     8.5308      .0285    60.9171    18.0235     2.5530
 3505.0964     8.3883      .0353    60.8902    17.9605     2.5539
 3505.2488     8.2776      .0488    60.8633    17.7085     2.5485
 3505.4012     8.1862      .0559    60.8363    17.8062     2.5647
 3505.5536     8.1013      .0628    60.8126    18.0572     2.5865
 3505.7060     8.0281      .0535    60.8495    18.3464     2.5892
 3505.8584     7.9886      .0406    60.9078    18.6146     2.5653
 3506.0108     7.9773      .0366    60.9768    18.4405     2.5449
 3506.1632     7.9687      .0380    60.9940    18.2823     2.5376
 3506.3156     7.9589      .0534    60.9941    18.3019     2.5377
 3506.4680     7.9491      .0550    60.9931    18.3207     2.5474
 3506.6204     7.9393      .0577    60.9921    18.3102     2.5522
 3506.7728     7.9295      .0648    60.9912    18.2991     2.5604
 3506.9252     7.9197      .0718    60.9903    18.2880     2.5776
 3507.0776     7.9099      .0721    60.9893    18.2770     2.5802
 3507.2300     7.9029      .0687    60.9884    18.2686     2.5830
 3507.3824     7.9030      .0772    60.9874    18.2694     2.6019
 3507.5348     7.9065      .0645    60.9865    18.2703     2.5858
 3507.6872     7.9100      .0758    60.9855    18.2711     2.5906
 3507.8396     7.9139      .0613    60.9845    18.2718     2.5685
 3507.9920     7.9178      .0572    60.9836    18.2726     2.5628
 3508.1444     7.9216      .0641    60.9825    18.2733     2.5753
 3508.2968     7.9255      .0718    60.9809    18.2741     2.5936
 3508.4492     7.9294      .0758    61.0392    18.2749     2.6043
 3508.6016     7.9332      .0722    61.2690    18.2756     2.5945
 3508.7540     7.9361      .0693    61.2587    18.2764     2.5906
 3508.9064     7.9370      .0666    61.2225    18.2771     2.5891
 3509.0588     7.9368      .0588    61.2741    18.2778     2.5720
 3509.2112     7.9366      .0432    61.2738    18.2700     2.5520
 3509.3636     7.9364      .0758    61.1726    18.2478     2.5733
 3509.5160     7.9362      .0836    61.0051    18.2317     2.5981
 3509.6684     7.9360      .0966    61.0807    18.2356     2.6206
 3509.8208     7.9358      .0847    61.1917    18.2550     2.6006
 3509.9732     7.9356      .0504    61.4483    18.2253     2.5577
 3510.1256     7.9353      .0313    64.1971    17.9875     2.5493
