~VERSION INFORMATION
VERS.                                                 2.0:   CWLS Log ASCII Standard-VERSION 2.0
WRAP.                                                  NO:   One line per depth step
~Well Information Block
STRT.M                                          2747.9732:   Top Depth
STOP.M                                          3514.5452:   Bottom Depth
STEP.M                                             .15240:   Depth Increment
NULL.                                            -999.250:   Null Value
FLD .                                             WILDCAT:   Field Name
WELL.                                              15/6-4:   NAME
WBN .                                              15/6-4:   WELLBORE
NATI.                                                 NOR:   COUNTRY
BHT1.DEGF                                            95.0:   BH TEMP 1
BS1 .IN                                             17.50:   BIT SIZE 1
CTRY.                                                 NOR:   COUNTRY
CBD1.M                                       378.89996338:   CSG 1 DRILL DEP
CBL1.M                                              379.0:   CSG 1 LOG DEP
CS1 .IN                                              20.0:   CSG 1 SIZE
COMP.                ESSO EXP. AND PRODUCTION NORWAY INC.:   OPERATOR
PDAT.                                                 MSL:   PERM DATUM
PROV.                                           NORTH SEA:   PROVINCE
COUN.                                             NORJARL:   RIG NAME
SPUD.                                          1976/06/29:   SPUD DATE
LATI.                                       58 37 34.39 N:   SURF. LATITUDE
LONG.                                        1 48 19.94 E:   SURF. LONGITUDE
BTD1.                                      1016.1999512 M:   TOTAL DEPTH 1
PBWE.                                              15/6-4:   PB WELL ID
APIN.                                              15/6-4:   PB WELLBORE ID
PBWS.                                                 all:   PB WELL NAME SET
~PARAMETER INFORMATION (log)
LNAM.                              FDC/CNL/GR  COMPOSITED:   NAME
LTYP.                                         DEPTH MATCH:   LOG TYPE
LSRV.                                            DEN/NEUT:   LOG SERVICE
LSOU.                                             SPT/NPD:   LOG SOURCE
LVSN.                                                   1:   LOG VERSION
BHIS.                                                   R:   BRIEF HISTORY
FHIS.                                             RAW-LIS:   FULL HISTORY
LCNM.                                        SCHLUMBERGER:   LOGGING CONTRACTOR
TOOL.                             FDC/CNL/GR (COMPOSITED):   TOOL STRING
~Curve Information Block
#MNEM.UNIT                                        API CODE    No Description
#=========                                        ========    == ===========
DEPT.M                                       00 001 00 00:     1  DEPTH
CALI.IN                                                  :     2  Caliper
DRHO.G/CC                                                :     3  Bulk density correction
GR.GAPI                                                  :     4  Gamma Ray
NPHI.%                                                   :     5  Neutron porosity
RHOB.G/CC                                                :     6  Bulk density
~ASCII
# ...
 2840.9372     9.1863      .0113    17.8954    15.0197     2.5070
 2841.0896     9.1886      .0227    18.4854    15.7107     2.5100
 2841.2420     9.1936      .0346    20.0239    15.4705     2.5376
 2841.3944     9.1985      .0561    21.4596    15.5123     2.5963
 2841.5468     9.2030      .0682    21.7908    15.4847     2.6238
 2841.6992     9.2154      .0496    21.9698    15.1151     2.5921
 2841.8516     9.2376      .0531    22.6722    15.2309     2.5957
 2842.0040     9.2722      .0426    23.9511    16.8019     2.5706
 2842.1564     9.2876      .0246    24.0044    17.1724     2.5758
 2842.3088     9.2880      .0448    23.5638    16.8956     2.5954
 2842.4612     9.2863      .0187    23.2209    16.2855     2.5732
 2842.6136     9.2745      .0256    22.6240    15.9977     2.5566
 2842.7660     9.2586      .0272    21.9362    16.2146     2.5631
 2842.9184     9.2470      .0087    22.1285    16.9866     2.5341
 2843.0708     9.2389      .0258    22.9780    18.5604     2.5303
 2843.2232     9.2315      .0155    23.4225    18.9295     2.5259
 2843.3756     9.2240      .0324    22.9657    17.6747     2.5531
 2843.5280     9.2165      .0373    22.3608    17.7311     2.5823
 2843.6804     9.2206      .0108    22.0729    16.6615     2.5831
 2843.8328     9.2356      .0113    22.3268    16.0396     2.5637
 2843.9852     9.2514      .0110    23.9315    17.9694     2.5519
 2844.1376     9.2593      .0403    24.5987    17.8485     2.5634
 2844.2900     9.2659      .0333    24.3049    17.4695     2.5648
 2844.4424     9.2722     -.0002    23.6851    16.9022     2.5363
 2844.5948     9.2699      .0104    21.9072    14.6508     2.5427
 2844.7472     9.2645      .0062    21.4285    13.4317     2.5595
 2844.8996     9.2591      .0143    22.6693    14.9983     2.5731
 2845.0520     9.2599      .0226    23.7103    16.9156     2.5540
 2845.2044     9.2676      .0134    24.1556    18.1810     2.5219
 2845.3568     9.2830      .0049    24.5263    16.5288     2.4990
 2845.5092     9.3991     -.0104    24.6752    15.7368     2.4579
 2845.6616     9.4613     -.0146    24.2157    18.2088     2.4618
 2845.8140     9.5120     -.0083    22.9845    21.6539     2.4745
 2845.9664     9.4739     -.0025    20.6343    20.7497     2.5127
 2846.1188     9.4220      .0122    18.6879    19.2247     2.5705
 2846.2712     9.3699      .0186    18.4084    17.8690     2.5756
 2846.4236     9.3950      .0234    18.1601    18.9052     2.5158
 2846.5760     9.4320      .0322    17.7425    20.2835     2.4862
 2846.7284     9.4056      .0582    18.6583    20.9604     2.4912
 2846.8808     9.3042      .0823    19.9667    20.4299     2.5084
 2847.0332     9.3014      .0782    21.5317    20.6477     2.5143
 2847.1856     9.3018      .0193    22.7454    21.5178     2.4845
 2847.3380     9.2988     -.0053    23.2736    21.5243     2.4658
 2847.4904     9.2720     -.0131    22.6509    19.5355     2.4839
 2847.6428     9.2570     -.0027    21.5191    17.5206     2.5079
 2847.7952     9.3082      .0180    20.1660    15.0618     2.4914
 2847.9476     9.3143      .0269    17.3476    12.4477     2.5010
 2848.1000     9.2186      .0070    14.0111     9.8378     2.5591
 2848.2524     9.1101      .0108    12.8139     7.2237     2.5963
 2848.4048     9.0754      .0101    11.8293     5.9249     2.6168
 2848.5572     9.0781      .0081    11.4823     5.6152     2.6313
 2848.7096     9.0847      .0119    11.7296     5.5227     2.6469
 2848.8620     9.0778      .0275    11.9338     5.7835     2.6559
 2849.0144     9.0713      .0420    11.8885     6.1807     2.6577
 2849.1668     9.0683      .0421    11.4926     6.3996     2.6432
 2849.3192     9.0685      .0229    10.6313     6.3299     2.6187
 2849.4716     9.0655      .0101     9.9013     6.4048     2.5762
 2849.6240     9.0573      .0081     9.6343     6.5512     2.5658
 2849.7764     9.0481      .0134     9.5920     6.6462     2.5824
 2849.9288     9.0389      .0183    10.1176     6.3289     2.5989
 2850.0812     9.0262      .0231    10.4381     6.4603     2.6202
 2850.2336     9.0053      .0303    10.3807     6.8377     2.6220
 2850.3860     8.9854      .0304    10.6020     7.4801     2.6197
 2850.5384     8.9875      .0263    11.4874     8.1417     2.6359
 2850.6908     9.0162      .0246    12.9737     9.0300     2.6260
 2850.8432     9.0325      .0242    15.4159    10.6477     2.6067
 2850.9956     9.0338      .0389    18.9942    13.1871     2.6134
 2851.1480     9.0501      .0570    23.4623    16.8292     2.6180
 2851.3004     9.1334      .0751    28.3476    20.4073     2.5988
 2851.4528     9.2218      .0854    31.5372    22.9491     2.5855
 2851.6052     9.2447      .0390    31.6621    20.2902     2.5973
 2851.7576     9.2202      .0430    30.9827    16.7993     2.6638
 2851.9100     9.1716      .0459    30.7139    16.7133     2.6777
 2852.0624     9.1372      .0351    30.4311    17.5940     2.6518
 2852.2148     9.1283      .0231    29.6495    17.5453     2.6303
 2852.3672     9.1233      .0189    28.9848    17.6184     2.5955
 2852.5196     9.1197      .0049    28.4517    18.7879     2.5611
 2852.6720     9.1347     -.0101    26.7391    20.8768     2.5227
 2852.8244     9.1639     -.0190    24.1274    19.5411     2.4749
 2852.9768     9.1796     -.0241    21.6750    18.5607     2.4434
 2853.1292     9.1855     -.0247    20.3395    18.7200     2.4311
 2853.2816     9.1911     -.0169    19.7587    16.2185     2.4459
 2853.4340     9.1963     -.0125    19.6657    13.6811     2.4456
 2853.5864     9.1940     -.0147    20.0479    12.6260     2.4522
 2853.7388     9.1882     -.0149    20.8445    13.2211     2.4527
 2853.8912     9.1830     -.0159    21.7691    14.2390     2.4539
 2854.0436     9.1775     -.0215    22.6005    14.6198     2.4467
 2854.1960     9.1716     -.0227    23.5306    14.1263     2.4493
 2854.3484     9.1658     -.0226    24.6151    15.5220     2.4495
 2854.5008     9.1627     -.0174    25.5468    17.8954     2.4549
 2854.6532     9.1641     -.0072    25.9744    20.0142     2.4794
 2854.8056     9.1670      .0096    24.1389    18.4278     2.5094
 2854.9580     9.1698      .0114    21.5849    17.1147     2.5221
 2855.1104     9.1727      .0122    19.9718    18.6885     2.4882
 2855.2628     9.1756      .0249    19.1943    20.4843     2.4488
 2855.4152     9.1784      .0124    19.0831    18.3886     2.4609
 2855.5676     9.1812      .0056    18.4258    14.3509     2.5197
 2855.7200     9.1819      .0106    17.5679    12.8075     2.5169
 2855.8724     9.1775      .0084    17.4038    15.4036     2.4931
 2856.0248     9.1723     -.0026    17.9271    16.2826     2.5116
 2856.1772     9.1677      .0121    17.8004    13.7516     2.5783
 2856.3296     9.1626      .0284    17.4958    11.3183     2.6196
 2856.4820     9.1573      .0229    19.3968    11.6882     2.6011
 2856.6344     9.1520      .0131    21.6063    13.9702     2.5621
 2856.7868     9.1471      .0040    22.4449    15.0165     2.5497
 2856.9392     9.1469      .0054    23.4273    14.1230     2.5500
 2857.0916     9.1472      .0223    24.6956    14.6364     2.5529
 2857.2440     9.1476      .0364    25.9940    17.1792     2.5346
 2857.3964     9.1480      .0152    27.1851    18.4782     2.5338
 2857.5488     9.1483      .0284    27.0165    16.6439     2.5529
 2857.7012     9.1486      .0187    25.8077    17.7029     2.5357
 2857.8536     9.1450      .0103    23.2389    18.6188     2.5409
 2858.0060     9.1397      .0324    20.9031    16.4968     2.6055
 2858.1584     9.1344      .0490    20.1780    14.3442     2.6400
 2858.3108     9.1292      .0526    19.8237    12.8683     2.6687
 2858.4632     9.1247      .0496    19.5038    12.3952     2.6705
 2858.6156     9.1194      .0500    20.1923    12.4788     2.6715
 2858.7680     9.1144      .0543    20.9572    13.3540     2.6578
 2858.9204     9.1135      .0429    20.7179    14.5947     2.6388
 2859.0728     9.1166      .0331    19.5217    14.0765     2.6200
 2859.2252     9.1199      .0339    18.1532    13.5314     2.6086
 2859.3776     9.1231      .0227    18.3299    13.4364     2.5936
