~VERSION INFORMATION
VERS.                                                 2.0:   CWLS Log ASCII Standard-VERSION 2.0
WRAP.                                                  NO:   One line per depth step
~Well Information Block
STRT.M                                          2747.9732:   Top Depth
STOP.M                                          3514.5452:   Bottom Depth
STEP.M                                             .15240:   Depth Increment
NULL.                                            -999.250:   Null Value
FLD .                                             WILDCAT:   Field Name
WELL.                                              15/6-4:   NAME
WBN .                                              15/6-4:   WELLBORE
NATI.                                                 NOR:   COUNTRY
BHT1.DEGF                                            95.0:   BH TEMP 1
BS1 .IN                                             17.50:   BIT SIZE 1
CTRY.                                                 NOR:   COUNTRY
CBD1.M                                       378.89996338:   CSG 1 DRILL DEP
CBL1.M                                              379.0:   CSG 1 LOG DEP
CS1 .IN                                              20.0:   CSG 1 SIZE
COMP.                ESSO EXP. AND PRODUCTION NORWAY INC.:   OPERATOR
PDAT.                                                 MSL:   PERM DATUM
PROV.                                           NORTH SEA:   PROVINCE
COUN.                                             NORJARL:   RIG NAME
SPUD.                                          1976/06/29:   SPUD DATE
LATI.                                       58 37 34.39 N:   SURF. LATITUDE
LONG.                                        1 48 19.94 E:   SURF. LONGITUDE
BTD1.                                      1016.1999512 M:   TOTAL DEPTH 1
PBWE.                                              15/6-4:   PB WELL ID
APIN.                                              15/6-4:   PB WELLBORE ID
PBWS.                                                 all:   PB WELL NAME SET
~PARAMETER INFORMATION (log)
LNAM.                              FDC/CNL/GR  COMPOSITED:   NAME
LTYP.                                         DEPTH MATCH:   LOG TYPE
LSRV.                                            DEN/NEUT:   LOG SERVICE
LSOU.                                             SPT/NPD:   LOG SOURCE
LVSN.                                                   1:   LOG VERSION
BHIS.                                                   R:   BRIEF HISTORY
FHIS.                                             RAW-LIS:   FULL HISTORY
LCNM.                                        SCHLUMBERGER:   LOGGING CONTRACTOR
TOOL.                             FDC/CNL/GR (COMPOSITED):   TOOL STRING
~Curve Information Block
#MNEM.UNIT                                        API CODE    No Description
#=========                                        ========    == ===========
DEPT.M                                       00 001 00 00:     1  DEPTH
CALI.IN                                                  :     2  Caliper
DRHO.G/CC                                                :     3  Bulk density correction
GR.GAPI                                                  :     4  Gamma Ray
NPHI.%                                                   :     5  Neutron porosity
RHOB.G/CC                                                :     6  Bulk density
~ASCII
# ...
 3435.9068     8.7609      .0161    45.7509    17.2073     2.4924
 3436.0592     8.7713      .0151    41.9140    17.4540     2.4983
 3436.2116     8.7656      .0241    40.4162    16.9721     2.5143
 3436.3640     8.7524      .0266    39.5043    17.1147     2.5089
 3436.5164     8.7305      .0165    41.7468    17.6135     2.4872
 3436.6688     8.6462      .0149    44.2213    17.0594     2.4656
 3436.8212     8.5339      .0049    46.9376    16.4524     2.4498
 3436.9736     8.4028     -.0097    49.2562    16.7111     2.4586
 3437.1260     8.2964     -.0198    51.9478    17.8257     2.4527
 3437.2784     8.2117     -.0168    54.8546    18.9390     2.4505
 3437.4308     8.2914     -.0068    58.7937    19.9696     2.4528
 3437.5832     8.4378      .0022    59.6872    20.1531     2.4474
 3437.7356     8.4932      .0138    57.7090    19.8586     2.4563
 3437.8880     8.5008      .0107    54.6161    19.3353     2.4582
 3438.0404     8.5077      .0104    54.2302    18.8770     2.4654
 3438.1928     8.5295      .0107    56.3632    19.2294     2.4478
 3438.3452     8.5584      .0100    56.9989    20.5365     2.4340
 3438.4976     8.5770      .0074    59.1927    21.7333     2.4433
 3438.6500     8.5332      .0019    58.5863    20.8502     2.4390
 3438.8024     8.3685     -.0085    56.0428    18.4220     2.4434
 3438.9548     8.1445     -.0129    55.2615    16.2669     2.4623
 3439.1072     8.1024     -.0033    57.3344    16.2606     2.4804
 3439.2596     8.1635      .0028    61.1383    17.1017     2.4798
 3439.4120     8.2539      .0135    64.9162    18.0608     2.5031
 3439.5644     8.3659      .0225    65.0269    18.9656     2.4966
 3439.7168     8.4622      .0186    61.9028    19.0194     2.4775
 3439.8692     8.5103      .0050    56.5921    18.5615     2.4615
 3440.0216     8.4827     -.0051    51.4802    17.3115     2.4715
 3440.1740     8.3646      .0005    50.9001    15.3870     2.5021
 3440.3264     8.2649      .0125    55.7315    14.0158     2.5337
 3440.4788     8.3306      .0323    60.5298    14.9738     2.5642
 3440.6312     8.5008      .0387    66.5019    17.9462     2.5648
 3440.7836     8.6775      .0248    69.3223    21.1391     2.5617
 3440.9360     8.7725      .0432    67.7425    22.5672     2.5663
 3441.0884     8.7977      .0433    63.2067    21.5694     2.5671
 3441.2408     8.8073      .0622    57.4800    19.8114     2.5858
 3441.3932     8.8169      .0699    54.5645    18.0728     2.5984
 3441.5456     8.8241      .0848    58.0386    17.2551     2.6181
 3441.6980     8.8265      .0699    61.3198    17.8132     2.6211
 3441.8504     8.8268      .0584    61.1913    18.0811     2.6295
 3442.0028     8.8271      .0370    65.3951    17.4871     2.6001
 3442.1552     8.8274      .0269    66.2324    18.1534     2.5691
 3442.3076     8.8277      .0218    62.5729    19.1318     2.5446
 3442.4600     8.8280      .0185    60.7407    20.1097     2.5331
 3442.6124     8.8284      .0281    59.9203    20.7967     2.5410
 3442.7648     8.8287      .0288    60.7807    20.5375     2.5432
 3442.9172     8.8290      .0293    61.3051    19.7537     2.5427
 3443.0696     8.8293      .0338    59.5482    19.2066     2.5505
 3443.2220     8.8296      .0216    56.3683    19.1057     2.5245
 3443.3744     8.8299      .0115    52.3406    18.2462     2.5111
 3443.5268     8.8302      .0152    49.0202    17.6906     2.5061
 3443.6792     8.8304      .0271    47.5230    17.3822     2.5260
 3443.8316     8.8307      .0330    46.0562    17.0318     2.5407
 3443.9840     8.8310      .0343    43.1570    16.8555     2.5359
 3444.1364     8.8237      .0354    41.3439    17.3699     2.5283
 3444.2888     8.8073      .0397    41.7463    17.9164     2.5235
 3444.4412     8.7895      .0392    41.3900    18.0442     2.5150
 3444.5936     8.7674      .0366    42.1089    17.3622     2.5179
 3444.7460     8.7379      .0267    42.4400    16.3523     2.5041
 3444.8984     8.6827      .0144    41.5018    14.8550     2.4921
 3445.0508     8.5994      .0016    42.0019    13.6082     2.4955
 3445.2032     8.5747      .0076    45.6220    13.5821     2.5267
 3445.3556     8.6270      .0209    53.1206    14.2071     2.5354
 3445.5080     8.6714      .0285    58.0681    15.2985     2.5410
 3445.6604     8.6867      .0262    59.5438    16.9209     2.5310
 3445.8128     8.6656      .0157    57.1587    18.4913     2.5253
 3445.9652     8.5835      .0105    57.9754    18.9421     2.5138
 3446.1176     8.4572      .0150    61.9451    18.4768     2.5157
 3446.2700     8.4212      .0240    65.1361    18.4088     2.5287
 3446.4224     8.5879      .0176    64.6644    20.0928     2.5097
 3446.5748     8.7608      .0209    59.1381    19.7087     2.5116
 3446.7272     8.7237      .0232    53.6038    18.4548     2.5155
 3446.8796     8.1008      .0084    48.0602    16.9403     2.4960
 3447.0320     8.3292      .0042    42.6188    15.3291     2.5107
 3447.1844     8.3159      .0045    42.5021    15.5981     2.5292
 3447.3368     8.2887      .0055    43.3966    16.2554     2.5005
 3447.4892     8.4171      .0124    44.1106    15.6177     2.4838
 3447.6416     8.5416      .0278    46.7111    15.8487     2.4918
 3447.7940     8.6448      .0461    49.4685    17.3497     2.5481
 3447.9464     8.7317      .0420    56.6193    18.2202     2.5568
 3448.0988     8.7772      .0467    61.1961    18.9609     2.5681
 3448.2512     8.7799      .0328    64.9742    19.6906     2.5620
 3448.4036     8.7802      .0395    65.4042    19.6259     2.5546
 3448.5560     8.7805      .0342    62.5876    18.1661     2.5469
 3448.7084     8.7808      .0541    60.3269    17.9643     2.5584
 3448.8608     8.7811      .0746    59.7616    18.7333     2.5933
 3449.0132     8.7833      .0689    58.7386    19.3508     2.5785
 3449.1656     8.7871      .0414    56.3104    18.8792     2.5456
 3449.3180     8.7910      .0263    52.3363    17.7638     2.5563
 3449.4704     8.7945      .0355    48.9375    16.6282     2.5591
 3449.6228     8.7980      .0468    47.3392    16.0566     2.5839
 3449.7752     8.8013      .0394    46.9387    16.2710     2.5865
 3449.9276     8.8028      .0422    47.4958    16.8331     2.5734
 3450.0800     8.8029      .0369    48.9570    17.4236     2.5402
 3450.2324     8.7948      .0272    51.0158    18.0144     2.5123
 3450.3848     8.7369      .0109    52.7932    17.7564     2.4937
 3450.5372     8.5856     -.0077    55.9485    16.6888     2.4762
 3450.6896     8.3866     -.0165    59.3986    15.5780     2.4742
 3450.8420     8.2940     -.0003    60.2438    15.1279     2.4924
 3450.9944     8.3968      .0171    58.5055    16.4329     2.5267
 3451.1468     8.5069      .0185    54.0814    17.9187     2.5299
 3451.2992     8.5312      .0066    51.7999    18.1025     2.5060
 3451.4516     8.5168      .0106    49.4219    17.1800     2.5034
 3451.6040     8.5207      .0105    46.3475    16.2207     2.5128
 3451.7564     8.5868      .0157    44.8173    15.2789     2.5224
 3451.9088     8.6930      .0182    45.5215    15.0604     2.5292
 3452.0612     8.7662      .0139    47.9727    15.6033     2.5474
 3452.2136     8.8024      .0294    51.8913    16.3055     2.5751
 3452.3660     8.8213      .0236    54.2946    16.9162     2.5579
 3452.5184     8.8220      .0302    55.8915    16.9822     2.5555
 3452.6708     8.8224      .0247    57.8413    16.8443     2.5365
 3452.8232     8.8252      .0234    55.1735    17.2191     2.5083
 3452.9756     8.8322      .0205    51.4519    17.1561     2.4876
 3453.1280     8.8373      .0099    50.0826    17.1673     2.4702
 3453.2804     8.8315      .0175    50.7093    17.3186     2.4792
 3453.4328     8.8162      .0197    52.3109    16.7554     2.4893
 3453.5852     8.8091      .0091    52.7072    17.0558     2.5004
 3453.7376     8.8394      .0072    53.5132    17.3461     2.5008
 3453.8900     8.8734      .0144    52.8233    17.2371     2.5023
 3454.0424     8.8844      .0231    50.8199    16.8741     2.5193
 3454.1948     8.8233      .0298    49.3612    17.2544     2.5364
 3454.3472     8.7631      .0276    49.5499    17.7963     2.5264
