~VERSION INFORMATION
VERS.                                                 2.0:   CWLS Log ASCII Standard-VERSION 2.0
WRAP.                                                  NO:   One line per depth step
~Well Information Block
STRT.M                                          2747.9732:   Top Depth
STOP.M                                          3514.5452:   Bottom Depth
STEP.M                                             .15240:   Depth Increment
NULL.                                            -999.250:   Null Value
FLD .                                             WILDCAT:   Field Name
WELL.                                              15/6-4:   NAME
WBN .                                              15/6-4:   WELLBORE
NATI.                                                 NOR:   COUNTRY
BHT1.DEGF                                            95.0:   BH TEMP 1
BS1 .IN                                             17.50:   BIT SIZE 1
CTRY.                                                 NOR:   COUNTRY
CBD1.M                                       378.89996338:   CSG 1 DRILL DEP
CBL1.M                                              379.0:   CSG 1 LOG DEP
CS1 .IN                                              20.0:   CSG 1 SIZE
COMP.                ESSO EXP. AND PRODUCTION NORWAY INC.:   OPERATOR
PDAT.                                                 MSL:   PERM DATUM
PROV.                                           NORTH SEA:   PROVINCE
COUN.                                             NORJARL:   RIG NAME
SPUD.                                          1976/06/29:   SPUD DATE
LATI.                                       58 37 34.39 N:   SURF. LATITUDE
LONG.                                        1 48 19.94 E:   SURF. LONGITUDE
BTD1.                                      1016.1999512 M:   TOTAL DEPTH 1
PBWE.                                              15/6-4:   PB WELL ID
APIN.                                              15/6-4:   PB WELLBORE ID
PBWS.                                                 all:   PB WELL NAME SET
~PARAMETER INFORMATION (log)
LNAM.                              FDC/CNL/GR  COMPOSITED:   NAME
LTYP.                                         DEPTH MATCH:   LOG TYPE
LSRV.                                            DEN/NEUT:   LOG SERVICE
LSOU.                                             SPT/NPD:   LOG SOURCE
LVSN.                                                   1:   LOG VERSION
BHIS.                                                   R:   BRIEF HISTORY
FHIS.                                             RAW-LIS:   FULL HISTORY
LCNM.                                        SCHLUMBERGER:   LOGGING CONTRACTOR
TOOL.                             FDC/CNL/GR (COMPOSITED):   TOOL STRING
~Curve Information Block
#MNEM.UNIT                                        API CODE    No Description
#=========                                        ========    == ===========
DEPT.M                                       00 001 00 00:     1  DEPTH
CALI.IN                                                  :     2  Caliper
DRHO.G/CC                                                :     3  Bulk density correction
GR.GAPI                                                  :     4  Gamma Ray
NPHI.%                                                   :     5  Neutron porosity
RHOB.G/CC                                                :     6  Bulk density
~ASCII
# ...
 2952.4940     9.0031      .0138    10.5440     8.8689     2.5689
 2952.6464     9.0048      .0162    10.5464    10.1688     2.5535
 2952.7988     9.0064      .0146    10.5457    11.1526     2.5221
 2952.9512     9.0044      .0171    10.5722    13.1418     2.4887
 2953.1036     9.0020      .0234    10.6484    14.3520     2.4640
 2953.2560     8.9996      .0275    10.7263    14.8599     2.4711
 2953.4084     8.9973      .0353    10.8466    14.9063     2.4913
 2953.5608     8.9949      .0356    10.9827    14.2600     2.5064
 2953.7132     8.9925      .0431    11.1143    13.7642     2.5380
 2953.8656     8.9902      .0337    11.1919    13.4186     2.5479
 2954.0180     8.9879      .0239    11.2682    13.1885     2.5509
 2954.1704     8.9870      .0158    11.3117    13.0601     2.5398
 2954.3228     8.9934      .0096    11.1671    12.9833     2.5262
 2954.4752     8.9989      .0088    11.0123    12.9341     2.5269
 2954.6276     9.0057      .0096    10.8318    12.8270     2.5118
 2954.7800     9.0752      .0146    10.6266    12.4308     2.4925
 2954.9324     9.2006      .0695    10.0197    12.5928     2.5087
 2955.0848     9.5586      .0961     9.0167    11.7526     2.5326
 2955.2372     9.7897      .0791     7.8105    10.5307     2.5569
 2955.3896     9.8175      .0829     7.6615     9.6732     2.5700
 2955.5420     9.7686      .0740     7.5865     9.0920     2.5747
 2955.6944     9.5073      .0773     7.8747     8.7941     2.6137
 2955.8468     9.1649      .0301     8.3643     8.6449     2.6242
 2955.9992     9.0447      .0309     9.0917     8.5799     2.6212
 2956.1516     9.0446      .0466     9.9050     8.4120     2.6209
 2956.3040     9.0445      .0580    10.3151     8.2149     2.6102
 2956.4564     9.0433      .0460     9.8478     8.3248     2.6072
 2956.6088     9.0285      .0451     9.4521     8.3462     2.5987
 2956.7612     8.9861      .0460     9.2232     8.2211     2.6008
 2956.9136     8.9561      .0413     9.0600     7.9036     2.6149
 2957.0660     8.9464      .0240     8.9360     7.8189     2.6353
 2957.2184     8.9491      .0210     8.9349     7.7796     2.6563
 2957.3708     8.9524      .0241     9.0705     7.7404     2.6504
 2957.5232     8.9556      .0340     9.2056     7.8543     2.6436
 2957.6756     8.9589      .0282     9.2956     7.8424     2.6385
 2957.8280     8.9621      .0402     8.9677     7.6391     2.6587
 2957.9804     8.9640      .0410     8.6463     7.1558     2.6963
 2958.1328     8.9639      .0325     8.4070     6.5980     2.6823
 2958.2852     8.9640      .0271     9.2083     6.1586     2.6649
 2958.4376     8.9667      .0310    10.4232     6.2763     2.6494
 2958.5900     8.9704      .0335    11.9862     6.7164     2.6440
 2958.7424     8.9736      .0873    14.3222     7.3856     2.6387
 2958.8948     8.9772      .0405    17.0171     8.0293     2.6205
 2959.0472     8.9808      .0607    21.1353     8.4167     2.6093
 2959.1996     8.9957      .1169    22.2563     8.4205     2.6615
 2959.3520     9.0331      .1070    20.3946     8.6352     2.6494
 2959.5044     9.0714      .0616    19.0054     8.5842     2.6278
 2959.6568     9.0826      .0384    19.6757     8.0801     2.6239
 2959.8092     9.0131      .0290    20.1686     7.6525     2.6230
 2959.9616     8.9199      .0280    20.0676     7.2538     2.6206
 2960.1140     8.9294      .0281    19.5274     6.8372     2.6215
 2960.2664     8.9989      .0423    19.0238     7.0824     2.6243
 2960.4188     8.9579      .0323    19.2963     7.2769     2.6250
 2960.5712     8.9241      .0458    19.5846     6.7572     2.6306
 2960.7236     8.9296      .0676    19.8272     6.3387     2.6828
 2960.8760     8.9350      .0800    20.0687     6.1774     2.7047
 2961.0284     8.9398      .0753    20.9306     6.1812     2.6968
 2961.1808     8.9453      .0512    22.7547     6.3943     2.6755
 2961.3332     8.9508      .0272    23.8811     6.6639     2.6543
 2961.4856     8.9563      .0226    23.5303     6.6516     2.6474
 2961.6380     8.9618      .0337    22.3384     6.4829     2.6733
 2961.7904     8.9673      .0251    21.0378     6.7016     2.6727
 2961.9428     8.9728      .0175    20.3869     6.5952     2.6523
 2962.0952     8.9783      .0114    19.9962     6.2321     2.6564
 2962.2476     8.9863      .0148    19.6719     5.9485     2.6651
 2962.4000     8.9985      .0290    19.7006     5.9332     2.6806
 2962.5524     9.0107      .0230    20.3750     6.5070     2.6734
 2962.7048     9.0229      .0106    20.9456     6.4447     2.6520
 2962.8572     9.0350      .0096    21.4286     6.3057     2.6436
 2963.0096     9.0456      .0120    21.6501     6.3166     2.6560
 2963.1620     9.0577      .0149    21.8097     6.7274     2.6695
 2963.3144     9.0738      .0181    21.2042     7.1375     2.6690
 2963.4668     9.0912      .0132    20.4531     7.7452     2.6557
 2963.6192     9.1087      .0201    20.4533     8.4754     2.6524
 2963.7716     9.1288      .0290    20.4525    11.0819     2.6537
 2963.9240     9.1538      .0359    20.4517    13.7538     2.6427
 2964.0764     9.1790      .0295    20.4509    15.7029     2.6486
 2964.2288     9.2041      .0399    20.2482    16.3043     2.6788
 2964.3812     9.2293      .0579    19.4510    16.9873     2.7057
 2964.5336     9.2544      .0646    18.6361    17.8183     2.7029
 2964.6860     9.2807      .0485    18.3529    17.7210     2.6819
 2964.8384     9.3233      .0574    18.6212    17.2358     2.6551
 2964.9908     9.3611      .0500    19.1820    16.6411     2.6431
 2965.1432     9.3710      .0381    19.7883    16.9312     2.6312
 2965.2956     9.3614      .0279    20.3851    16.3859     2.6312
 2965.4480     9.3506      .0187    20.6020    15.9994     2.6066
 2965.6004     9.3398      .0180    20.1709    16.4376     2.5853
 2965.7528     9.2402      .0224    18.3838    16.3728     2.5826
 2965.9052     9.0643      .0200    16.7904    15.8925     2.5829
 2966.0576     8.9129      .0131    16.0715    15.4554     2.5599
 2966.2100     9.0460      .0144    16.3317    15.4191     2.4930
 2966.3624     9.3272      .0321    16.9492    16.3448     2.4650
 2966.5148     9.5941      .0418    17.4523    17.5370     2.4565
 2966.6672     9.5965      .0301    17.7994    16.9698     2.4524
 2966.8196     9.5964      .0269    16.8898    15.9092     2.4537
 2966.9720     9.5965      .0243    16.4553    14.7881     2.4276
 2967.1244     9.5964      .0130    16.4499    14.3680     2.4266
 2967.2768     9.5975      .0274    16.0241    14.4081     2.4456
 2967.4292     9.5987      .0615    15.3324    14.9587     2.4815
 2967.5816     9.5999      .0568    14.9637    15.5293     2.4696
 2967.7340     9.6011      .0457    14.5413    16.0552     2.4500
 2967.8864     9.6022      .0407    14.9247    16.3944     2.4699
 2968.0388     9.6034      .0540    15.3031    16.5114     2.4852
 2968.1912     9.6046      .0251    15.6176    16.0096     2.4616
 2968.3436     9.6058      .0122    15.6424    15.1934     2.4340
 2968.4960     9.6069      .0051    15.1291    15.0410     2.4228
 2968.6484     9.6081      .0013    14.8787    15.0981     2.4122
 2968.8008     9.6093     -.0029    14.6982    14.8092     2.4053
 2968.9532     9.6105      .0110    14.5217    14.7961     2.4161
 2969.1056     9.6116      .0041    14.4554    14.9831     2.4365
 2969.2580     9.6127      .0096    14.4560    15.4399     2.4308
 2969.4104     9.6139      .0043    14.7366    15.8633     2.4233
 2969.5628     9.6140      .0091    15.2265    15.4526     2.4262
 2969.7152     9.6083      .0046    14.8699    14.4299     2.4191
 2969.8676     9.6024      .0127    14.4390    13.8092     2.4292
 2970.0200     9.5965      .0193    14.3220    14.8996     2.4434
 2970.1724     9.5970      .0054    14.4317    16.3686     2.4464
 2970.3248     9.6001      .0031    14.5279    15.8237     2.4340
 2970.4772     9.6033      .0009    14.6376    13.8255     2.4183
 2970.6296     9.6064     -.0009    14.7588    11.8989     2.4123
 2970.7820     9.6095     -.0020    15.3227    11.2016     2.4084
 2970.9344     9.6127     -.0020    16.5530    11.2064     2.4109
