~VERSION INFORMATION
VERS.                                                 2.0:   CWLS Log ASCII Standard-VERSION 2.0
WRAP.                                                  NO:   One line per depth step
~Well Information Block
STRT.M                                          2747.9732:   Top Depth
STOP.M                                          3514.5452:   Bottom Depth
STEP.M                                             .15240:   Depth Increment
NULL.                                            -999.250:   Null Value
FLD .                                             WILDCAT:   Field Name
WELL.                                              15/6-4:   NAME
WBN .                                              15/6-4:   WELLBORE
NATI.                                                 NOR:   COUNTRY
BHT1.DEGF                                            95.0:   BH TEMP 1
BS1 .IN                                             17.50:   BIT SIZE 1
CTRY.                                                 NOR:   COUNTRY
CBD1.M                                       378.89996338:   CSG 1 DRILL DEP
CBL1.M                                              379.0:   CSG 1 LOG DEP
CS1 .IN                                              20.0:   CSG 1 SIZE
COMP.                ESSO EXP. AND PRODUCTION NORWAY INC.:   OPERATOR
PDAT.                                                 MSL:   PERM DATUM
PROV.                                           NORTH SEA:   PROVINCE
COUN.                                             NORJARL:   RIG NAME
SPUD.                                          1976/06/29:   SPUD DATE
LATI.                                       58 37 34.39 N:   SURF. LATITUDE
LONG.                                        1 48 19.94 E:   SURF. LONGITUDE
BTD1.                                      1016.1999512 M:   TOTAL DEPTH 1
PBWE.                                              15/6-4:   PB WELL ID
APIN.                                              15/6-4:   PB WELLBORE ID
PBWS.                                                 all:   PB WELL NAME SET
~PARAMETER INFORMATION (log)
LNAM.                              FDC/CNL/GR  COMPOSITED:   NAME
LTYP.                                         DEPTH MATCH:   LOG TYPE
LSRV.                                            DEN/NEUT:   LOG SERVICE
LSOU.                                             SPT/NPD:   LOG SOURCE
LVSN.                                                   1:   LOG VERSION
BHIS.                                                   R:   BRIEF HISTORY
FHIS.                                             RAW-LIS:   FULL HISTORY
LCNM.                                        SCHLUMBERGER:   LOGGING CONTRACTOR
TOOL.                             FDC/CNL/GR (COMPOSITED):   TOOL STRING
~Curve Information Block
#MNEM.UNIT                                        API CODE    No Description
#=========                                        ========    == ===========
DEPT.M                                       00 001 00 00:     1  DEPTH
CALI.IN                                                  :     2  Caliper
DRHO.G/CC                                                :     3  Bulk density correction
GR.GAPI                                                  :     4  Gamma Ray
NPHI.%                                                   :     5  Neutron porosity
RHOB.G/CC                                                :     6  Bulk density
~ASCII
# ...
 2989.6796     9.4250      .0508    23.9068    18.6852     2.5718
 2989.8320     9.4249      .0639    24.9798    19.6180     2.5892
 2989.9844     9.4248      .0519    24.7914    18.3071     2.5965
 2990.1368     9.4248      .0353    23.7437    17.9239     2.5523
 2990.2892     9.4247      .0439    23.4787    19.4631     2.5561
 2990.4416     9.4246      .0325    23.2771    21.1214     2.5561
 2990.5940     9.4246      .0324    22.8369    21.5511     2.5560
 2990.7464     9.4268      .0524    21.6563    19.9314     2.5586
 2990.8988     9.4291      .0504    21.7051    17.9132     2.5498
 2991.0512     9.4316      .0413    21.2466    17.7454     2.5428
 2991.2036     9.4341      .0293    20.4176    16.7488     2.5336
 2991.3560     9.4367      .0371    19.9791    15.2542     2.5324
 2991.5084     9.4393      .0260    19.9852    16.2633     2.5197
 2991.6608     9.4418      .0413    19.3690    19.0187     2.5333
 2991.8132     9.4443      .0491    18.0224    17.9787     2.5351
 2991.9656     9.4469      .0411    17.1626    16.5093     2.5342
 2992.1180     9.4495      .0553    16.3714    15.8066     2.5639
 2992.2704     9.4520      .0522    15.6995    15.9328     2.5769
 2992.4228     9.4546      .0200    15.7717    15.8952     2.5721
 2992.5752     9.4571      .0162    15.1115    16.9636     2.5668
 2992.7276     9.4597      .0312    14.9326    16.5324     2.5792
 2992.8800     9.4622      .0337    15.9239    16.4926     2.5894
 2993.0324     9.4645      .0180    17.3142    15.6941     2.5659
 2993.1848     9.4671      .0075    18.7046    14.9617     2.5574
 2993.3372     9.4698      .0132    19.1328    14.8965     2.5604
 2993.4896     9.4724      .0227    18.6121    15.4449     2.5734
 2993.6420     9.4750      .0314    18.2761    16.3150     2.5761
 2993.7944     9.4777      .0338    18.1540    16.4860     2.5845
 2993.9468     9.4803      .0401    18.5570    16.5061     2.5741
 2994.0992     9.5928      .0296    19.3656    17.0222     2.5604
 2994.2516    10.0553      .0178    20.4492    17.3537     2.5443
 2994.4040    10.3215      .0145    20.8295    16.5647     2.5281
 2994.5564    10.3307      .0130    20.6500    17.5542     2.5251
 2994.7088    10.3370      .0168    20.3458    20.3132     2.5420
 2994.8612    10.3351      .0213    20.0759    21.7809     2.5626
 2995.0136    10.2893      .0146    18.5208    21.0036     2.5554
 2995.1660    10.0148      .0132    17.7869    20.4158     2.5447
 2995.3184     9.7668      .0149    17.9923    18.3340     2.5583
 2995.4708     9.5721      .0219    17.2198    17.0727     2.5671
 2995.6232     9.5507      .0301    16.2874    16.3812     2.5863
 2995.7756     9.5599      .0442    16.9310    16.0172     2.5881
 2995.9280     9.5480      .0393    17.3924    16.0436     2.5681
 2996.0804     9.5334      .0303    16.5654    16.8260     2.5330
 2996.2328     9.5215      .0198    15.7000    17.2178     2.5257
 2996.3852     9.5251      .0126    16.5225    15.9398     2.5231
 2996.5376     9.5288      .0184    16.6532    16.5200     2.5282
 2996.6900     9.5325      .0173    15.5137    17.4597     2.5148
 2996.8424     9.5361      .0123    13.6903    17.5814     2.5173
 2996.9948     9.5398      .0216    12.6438    17.4831     2.5386
 2997.1472     9.5434      .0261    13.1053    17.5128     2.5237
 2997.2996     9.5467      .0294    14.4148    18.7665     2.5352
 2997.4520     9.5503      .0297    16.0180    18.1593     2.5280
 2997.6044     9.5540      .0277    16.6355    17.8606     2.5166
 2997.7568     9.5576      .0226    16.2741    17.7679     2.4984
 2997.9092     9.5613      .0176    16.5657    17.1097     2.4803
 2998.0616     9.5650      .0177    16.2179    17.8321     2.4833
 2998.2140     9.5686      .0199    16.2118    19.1954     2.4975
 2998.3664     9.5723      .0221    17.0318    19.2308     2.4972
 2998.5188     9.5760      .0187    16.2340    18.4183     2.4863
 2998.6712     9.5795      .0132    16.3636    17.5974     2.4628
 2998.8236     9.5816      .0146    15.8937    18.3209     2.4751
 2998.9760     9.5837      .0211    14.0676    17.4842     2.4918
 2999.1284     9.5858      .0251    12.6409    17.0622     2.4942
 2999.2808     9.5879      .0256    13.6571    16.8497     2.5183
 2999.4332     9.5900      .0313    14.4836    16.8963     2.5509
 2999.5856     9.5918      .0259    15.0679    16.3741     2.5530
 2999.7380     9.5939      .0277    15.3905    16.1012     2.5577
 2999.8904     9.5960      .0358    15.4086    16.6229     2.5763
 3000.0428     9.5981      .0437    15.8542    17.2732     2.5920
 3000.1952     9.5995      .0422    16.3386    17.8295     2.5841
 3000.3476     9.6008      .0268    16.8982    17.7241     2.5755
 3000.5000     9.6021      .0422    17.6384    18.7976     2.5798
 3000.6524     9.6034      .0547    18.3877    19.7406     2.5871
 3000.8048     9.6046      .0591    19.1474    19.8739     2.5944
 3000.9572     9.6059      .0453    19.2626    20.7069     2.5832
 3001.1096     9.6072      .0413    19.2571    21.0592     2.5936
 3001.2620     9.6085      .0313    18.9524    21.2872     2.5763
 3001.4144     9.6098      .0234    17.5702    21.0638     2.5750
 3001.5668     9.6110      .0174    18.1134    20.9175     2.5524
 3001.7192     9.6123      .0175    19.1487    21.1741     2.5373
 3001.8716     9.6134      .0196    19.7449    20.7038     2.5296
 3002.0240     9.6110      .0398    19.0794    20.6296     2.5412
 3002.1764     9.6075      .0316    18.5790    20.4082     2.5265
 3002.3288     9.6040      .0133    18.4120    20.0190     2.5261
 3002.4812     9.6005      .0127    17.9637    20.0636     2.5391
 3002.6336     9.5970      .0181    16.6685    19.2845     2.5403
 3002.7860     9.5929      .0290    16.1625    19.7284     2.5462
 3002.9384     9.5821      .0241    15.7690    20.5314     2.5161
 3003.0908     9.5560      .0157    14.8472    20.2775     2.5265
 3003.2432     9.5693      .0218    14.3687    20.7481     2.5341
 3003.3956     9.5903      .0158    14.5344    20.5915     2.5313
 3003.5480     9.6083      .0177    14.2526    19.8950     2.5433
 3003.7004     9.6028      .0248    14.3277    19.1235     2.5607
 3003.8528     9.5960      .0323    13.8687    19.2275     2.5363
 3004.0052     9.5892      .0188    13.2227    18.7563     2.5022
 3004.1576     9.5824      .0135    13.3538    17.6588     2.4696
 3004.3100     9.5756      .0223    13.9466    17.9714     2.4718
 3004.4624     9.5688      .0250    14.2595    19.1789     2.4914
 3004.6148     9.5563      .0447    14.4025    19.2087     2.5110
 3004.7672     9.5431      .0485    14.1036    18.4879     2.5158
 3004.9196     9.5300      .0520    14.2845    17.8287     2.5044
 3005.0720     9.5285      .0285    14.1958    18.2023     2.4998
 3005.2244     9.5303      .0164    14.3913    18.7330     2.5037
 3005.3768     9.5321      .0238    14.5305    18.6394     2.5192
 3005.5292     9.5339      .0235    14.9912    19.7072     2.5289
 3005.6816     9.5357      .0405    15.4599    20.3816     2.5305
 3005.8340     9.5375      .0378    15.8816    19.7379     2.5126
 3005.9864     9.5393      .0306    16.2738    19.6826     2.5198
 3006.1388     9.5412      .0197    16.5648    19.9018     2.5206
 3006.2912     9.5434      .0342    16.8280    18.7823     2.5385
 3006.4436     9.5523      .0344    18.0805    18.8878     2.5542
 3006.5960     9.5637      .0430    18.7744    18.4444     2.5521
 3006.7484     9.5767      .0233    19.4446    19.3850     2.5520
 3006.9008     9.5899      .0029    19.8479    19.3475     2.5263
 3007.0532     9.6031      .0002    20.2729    19.7497     2.5113
 3007.2056     9.6163      .0153    20.6786    19.9066     2.5275
 3007.3580     9.6320      .0323    20.4737    19.4856     2.5398
 3007.5104     9.6218      .0268    19.5447    20.2483     2.5288
 3007.6628     9.5875      .0198    17.5103    20.6781     2.5004
 3007.8152     9.5758      .0472    17.6284    21.3294     2.4951
 3007.9676     9.6343      .0772    17.9695    22.0233     2.4914
 3008.1200     9.6463      .0801    18.0949    22.3237     2.4720
