~VERSION INFORMATION
VERS.                                                 2.0:   CWLS Log ASCII Standard-VERSION 2.0
WRAP.                                                  NO:   One line per depth step
~Well Information Block
STRT.M                                          2747.9732:   Top Depth
STOP.M                                          3514.5452:   Bottom Depth
STEP.M                                             .15240:   Depth Increment
NULL.                                            -999.250:   Null Value
FLD .                                             WILDCAT:   Field Name
WELL.                                              15/6-4:   NAME
WBN .                                              15/6-4:   WELLBORE
NATI.                                                 NOR:   COUNTRY
BHT1.DEGF                                            95.0:   BH TEMP 1
BS1 .IN                                             17.50:   BIT SIZE 1
CTRY.                                                 NOR:   COUNTRY
CBD1.M                                       378.89996338:   CSG 1 DRILL DEP
CBL1.M                                              379.0:   CSG 1 LOG DEP
CS1 .IN                                              20.0:   CSG 1 SIZE
COMP.                ESSO EXP. AND PRODUCTION NORWAY INC.:   OPERATOR
PDAT.                                                 MSL:   PERM DATUM
PROV.                                           NORTH SEA:   PROVINCE
COUN.                                             NORJARL:   RIG NAME
SPUD.                                          1976/06/29:   SPUD DATE
LATI.                                       58 37 34.39 N:   SURF. LATITUDE
LONG.                                        1 48 19.94 E:   SURF. LONGITUDE
BTD1.                                      1016.1999512 M:   TOTAL DEPTH 1
PBWE.                                              15/6-4:   PB WELL ID
APIN.                                              15/6-4:   PB WELLBORE ID
PBWS.                                                 all:   PB WELL NAME SET
~PARAMETER INFORMATION (log)
LNAM.                              FDC/CNL/GR  COMPOSITED:   NAME
LTYP.                                         DEPTH MATCH:   LOG TYPE
LSRV.                                            DEN/NEUT:   LOG SERVICE
LSOU.                                             SPT/NPD:   LOG SOURCE
LVSN.                                                   1:   LOG VERSION
BHIS.                                                   R:   BRIEF HISTORY
FHIS.                                             RAW-LIS:   FULL HISTORY
LCNM.                                        SCHLUMBERGER:   LOGGING CONTRACTOR
TOOL.                             FDC/CNL/GR (COMPOSITED):   TOOL STRING
~Curve Information Block
#MNEM.UNIT                                        API CODE    No Description
#=========                                        ========    == ===========
DEPT.M                                       00 001 00 00:     1  DEPTH
CALI.IN                                                  :     2  Caliper
DRHO.G/CC                                                :     3  Bulk density correction
GR.GAPI                                                  :     4  Gamma Ray
NPHI.%                                                   :     5  Neutron porosity
RHOB.G/CC                                                :     6  Bulk density
~ASCII
# ...
 3045.4580     9.1144      .0462    13.9912     9.5866     2.6581
 3045.6104     9.1111      .0386    12.7900     9.1438     2.6474
 3045.7628     9.1107      .0320    12.2675     8.6900     2.6367
 3045.9152     9.1103      .0283    12.8686     8.2951     2.6246
 3046.0676     9.1276      .0300    13.3680     8.3195     2.6225
 3046.2200     9.1589      .0324    14.1531     8.7939     2.6149
 3046.3724     9.1919      .0397    15.2122     8.9272     2.6203
 3046.5248     9.2249      .0547    15.8018     8.9226     2.6367
 3046.6772     9.2584      .0786    16.0333     9.0221     2.6513
 3046.8296     9.2922      .0796    14.8410     9.3962     2.6327
 3046.9820     9.3414      .0602    12.8233     9.5843     2.6014
 3047.1344     9.4321      .0494    11.4493     9.6676     2.5606
 3047.2868     9.4912      .0565    10.6867    10.2796     2.5472
 3047.4392     9.4450      .0605    10.0449    11.4095     2.5271
 3047.5916     9.3152      .0490     9.2372    11.8220     2.5141
 3047.7440     9.2429      .0500     9.2668    10.6032     2.5618
 3047.8964     9.2382      .0616     9.5447     9.3504     2.5881
 3048.0488     9.2526      .0609     9.8386     9.3458     2.5973
 3048.2012     9.2707      .0442    10.5299     9.8696     2.5689
 3048.3536     9.2891      .0384    11.1551     9.6803     2.5484
 3048.5060     9.3066      .0458    11.7002     9.2294     2.5684
 3048.6584     9.3064      .0352    12.2849     9.2276     2.5881
 3048.8108     9.2754      .0337    12.3165     9.2469     2.5777
 3048.9632     9.2452      .0481    11.1185     8.9400     2.5342
 3049.1156     9.2819      .0617    10.2355     8.5913     2.4816
 3049.2680     9.3574      .0430    10.3158     8.7947     2.4470
 3049.4204     9.4326      .0205    10.6565     9.6667     2.4503
 3049.5728     9.4405      .0254    10.4848    10.7057     2.4627
 3049.7252     9.3947      .0386    10.1464    11.1025     2.4813
 3049.8776     9.3663      .0516     9.9780    10.8537     2.4770
 3050.0300     9.3520      .0516    10.8804    10.2410     2.4637
 3050.1824     9.3425      .0317    11.1709     9.9289     2.4636
 3050.3348     9.3457      .0094    10.9521     9.5915     2.4935
 3050.4872     9.3544      .0137    10.2528     9.3323     2.5294
 3050.6396     9.3630      .0282    10.8476     9.1183     2.5523
 3050.7920     9.3716      .0228    10.8838     8.9147     2.5402
 3050.9444     9.3803      .0045    10.2311     8.7119     2.5329
 3051.0968     9.3889      .0038    10.5760     8.5634     2.5503
 3051.2492     9.3976      .0151    10.7253     8.5688     2.5638
 3051.4016     9.4056      .0313     9.4939     8.6477     2.5703
 3051.5540     9.4138      .0408     9.5369     8.6095     2.5546
 3051.7064     9.4226      .0261     9.9431     8.4288     2.5365
 3051.8588     9.4314      .0144    10.2873     8.0787     2.5302
 3052.0112     9.4402      .0241    10.6313     7.7240     2.5471
 3052.1636     9.4489      .0442    10.9107     7.6386     2.5663
 3052.3160     9.4577      .0529    10.9583     7.7095     2.5830
 3052.4684     9.4665      .0352     9.9315     7.9152     2.5909
 3052.6208     9.4753      .0182    10.8014     8.3450     2.5823
 3052.7732     9.4855      .0170    10.5067     9.7530     2.5721
 3052.9256     9.4995      .0166    10.1463    11.8056     2.5690
 3053.0780     9.5152      .0168    11.2963    14.7481     2.5627
 3053.2304     9.5551      .0274    13.3885    18.7230     2.5551
 3053.3828     9.6106      .0374    15.8981    23.9987     2.5161
 3053.5352     9.6699      .0393    18.8028    25.5635     2.4670
 3053.6876     9.8359      .0498    22.1140    24.9532     2.4079
 3053.8400    10.5366      .0252    26.2806    24.7273     2.3682
 3053.9924    11.1958      .0178    30.1799    24.9487     2.3845
 3054.1448    10.8969      .0390    31.2632    25.3391     2.4382
 3054.2972    11.1077      .0615    30.9968    26.3012     2.4825
 3054.4496    10.6767      .0606    32.2294    26.7202     2.4852
 3054.6020    10.7287      .0430    33.5791    27.3624     2.5373
 3054.7544    10.4691      .0256    32.8668    26.4549     2.5715
 3054.9068    10.3003      .0188    31.4879    21.8305     2.5517
 3055.0592    10.2600      .0193    31.4305    21.5557     2.5444
 3055.2116    10.2469      .0199    32.1871    23.0993     2.5395
 3055.3640    10.2398      .0202    32.2076    24.6447     2.5360
 3055.5164    10.2342      .0290    32.0408    25.7681     2.5313
 3055.6688    10.2285      .0358    31.0867    26.1075     2.5192
 3055.8212    10.2104      .0342    30.2305    25.2909     2.5065
 3055.9736    10.1815      .0444    30.3843    23.8060     2.5050
 3056.1260    10.1530      .0532    31.2634    22.4739     2.5122
 3056.2784    10.1524      .0307    31.4512    23.1221     2.5004
 3056.4308    10.1633      .0234    30.6383    23.8915     2.5084
 3056.5832    10.1740      .0287    29.2982    22.3941     2.5303
 3056.7356    10.1817      .0257    28.6281    20.5427     2.5225
 3056.8880    10.1861      .0215    28.4418    21.2735     2.4969
 3057.0404    10.1898      .0180    28.8667    23.5381     2.4866
 3057.1928    10.1938      .0093    29.5279    24.4725     2.4864
 3057.3452    10.1982      .0039    30.3986    23.0158     2.5007
 3057.4976    10.2040      .0159    31.4189    22.7515     2.5228
 3057.6500    10.2104      .0220    31.6183    24.7576     2.5257
 3057.8024    10.2495      .0221    30.3534    25.5608     2.4965
 3057.9548    10.3215      .0175    30.3895    24.0871     2.4806
 3058.1072    10.3927      .0191    29.5024    22.5039     2.4969
 3058.2596    10.0451      .0192    28.4511    21.9999     2.4966
 3058.4120    10.3215      .0141    29.1046    21.5079     2.4963
 3058.5644    10.5403      .0131    29.8055    20.9854     2.4943
 3058.7168    10.5093      .0152    29.9988    21.2648     2.5110
 3058.8692    10.5104      .0131    29.8025    22.4751     2.5093
 3059.0216    10.5328      .0091    29.2042    22.7404     2.5015
 3059.1740    10.4503      .0078    28.0776    21.2370     2.5176
 3059.3264    10.0616      .0052    26.7121    19.1955     2.5144
 3059.4788     9.6645      .0026    26.2081    18.2462     2.4774
 3059.6312     9.5738      .0000    26.7621    18.5939     2.4390
 3059.7836    10.1256     -.0040    27.7548    19.8742     2.4273
 3059.9360    10.4588     -.0025    28.5811    21.1541     2.4308
 3060.0884    10.4499     -.0024    28.3316    22.4078     2.4405
 3060.2408    10.2640     -.0043    27.3077    22.4462     2.4572
 3060.3932     9.8274      .0035    26.3504    20.5570     2.4887
 3060.5456     9.5311      .0185    25.4590    18.6154     2.5397
 3060.6980     9.4492      .0239    24.7628    18.2445     2.5598
 3060.8504     9.4216      .0148    24.0452    18.8368     2.5636
 3061.0028     9.4215      .0227    23.1110    18.8843     2.5655
 3061.1552     9.4470      .0354    22.1541    18.3123     2.5772
 3061.3076     9.4613      .0403    21.4203    17.3691     2.5825
 3061.4600     9.4573      .0416    21.4490    15.8937     2.5983
 3061.6124     9.4238      .0395    21.9422    15.6021     2.5985
 3061.7648     9.3944      .0430    22.8157    16.1413     2.5976
 3061.9172     9.3993      .0505    24.2968    16.6295     2.5902
 3062.0696     9.4163      .0373    25.4328    16.6824     2.5683
 3062.2220     9.4393      .0250    26.0545    17.1000     2.5252
 3062.3744     9.4648      .0306    26.1447    18.0944     2.4802
 3062.5268     9.4975      .0250    26.3059    19.1910     2.4677
 3062.6792     9.5629      .0188    26.7229    20.2891     2.5048
 3062.8316     9.5310      .0338    27.2145    21.3857     2.5498
 3062.9840     9.3566      .0296    27.2213    21.6113     2.5608
 3063.1364     9.2935      .0267    26.4665    19.6584     2.5766
 3063.2888     9.3035      .0169    25.6270    19.1112     2.5673
 3063.4412     9.3135      .0188    25.1111    19.0729     2.5594
 3063.5936     9.3235      .0200    25.2033    18.5749     2.5614
 3063.7460     9.3393      .0190    25.6599    17.9920     2.5713
 3063.8984     9.3387      .0249    26.2562    17.8889     2.5764
