~VERSION INFORMATION
VERS.                                                 2.0:   CWLS Log ASCII Standard-VERSION 2.0
WRAP.                                                  NO:   One line per depth step
~Well Information Block
STRT.M                                          2747.9732:   Top Depth
STOP.M                                          3514.5452:   Bottom Depth
STEP.M                                             .15240:   Depth Increment
NULL.                                            -999.250:   Null Value
FLD .                                             WILDCAT:   Field Name
WELL.                                              15/6-4:   NAME
WBN .                                              15/6-4:   WELLBORE
NATI.                                                 NOR:   COUNTRY
BHT1.DEGF                                            95.0:   BH TEMP 1
BS1 .IN                                             17.50:   BIT SIZE 1
CTRY.                                                 NOR:   COUNTRY
CBD1.M                                       378.89996338:   CSG 1 DRILL DEP
CBL1.M                                              379.0:   CSG 1 LOG DEP
CS1 .IN                                              20.0:   CSG 1 SIZE
COMP.                ESSO EXP. AND PRODUCTION NORWAY INC.:   OPERATOR
PDAT.                                                 MSL:   PERM DATUM
PROV.                                           NORTH SEA:   PROVINCE
COUN.                                             NORJARL:   RIG NAME
SPUD.                                          1976/06/29:   SPUD DATE
LATI.                                       58 37 34.39 N:   SURF. LATITUDE
LONG.                                        1 48 19.94 E:   SURF. LONGITUDE
BTD1.                                      1016.1999512 M:   TOTAL DEPTH 1
PBWE.                                              15/6-4:   PB WELL ID
APIN.                                              15/6-4:   PB WELLBORE ID
PBWS.                                                 all:   PB WELL NAME SET
~PARAMETER INFORMATION (log)
LNAM.                              FDC/CNL/GR  COMPOSITED:   NAME
LTYP.                                         DEPTH MATCH:   LOG TYPE
LSRV.                                            DEN/NEUT:   LOG SERVICE
LSOU.                                             SPT/NPD:   LOG SOURCE
LVSN.                                                   1:   LOG VERSION
BHIS.                                                   R:   BRIEF HISTORY
FHIS.                                             RAW-LIS:   FULL HISTORY
LCNM.                                        SCHLUMBERGER:   LOGGING CONTRACTOR
TOOL.                             FDC/CNL/GR (COMPOSITED):   TOOL STRING
~Curve Information Block
#MNEM.UNIT                                        API CODE    No Description
#=========                                        ========    == ===========
DEPT.M                                       00 001 00 00:     1  DEPTH
CALI.IN                                                  :     2  Caliper
DRHO.G/CC                                                :     3  Bulk density correction
GR.GAPI                                                  :     4  Gamma Ray
NPHI.%                                                   :     5  Neutron porosity
RHOB.G/CC                                                :     6  Bulk density
~ASCII
# ...
 3342.9428     9.0645      .0210    62.9376    15.4501     2.5511
 3343.0952     9.0648      .0317    61.6828    15.6467     2.5580
 3343.2476     9.0650      .0279    61.7733    16.0004     2.5522
 3343.4000     9.0653      .0232    59.1754    16.0593     2.5476
 3343.5524     9.0655      .0289    57.2552    15.8727     2.5535
 3343.7048     9.0658      .0265    55.5599    15.5186     2.5488
 3343.8572     9.0688      .0312    54.9053    15.0101     2.5723
 3344.0096     9.0764      .0337    56.0232    14.6422     2.5820
 3344.1620     9.0846      .0319    57.1281    14.5841     2.5625
 3344.3144     9.0929      .0260    57.3537    14.8361     2.5627
 3344.4668     9.1011      .0241    58.3389    15.1275     2.5669
 3344.6192     9.1093      .0343    58.8943    15.3893     2.5709
 3344.7716     9.1176      .0270    57.3940    15.5574     2.5535
 3344.9240     9.1258      .0299    57.5611    15.3184     2.5627
 3345.0764     9.1341      .0380    59.3937    14.9942     2.5762
 3345.2288     9.1423      .0323    58.4763    14.8669     2.5796
 3345.3812     9.1505      .0372    55.8549    14.7700     2.5783
 3345.5336     9.1587      .0470    54.0507    14.6732     2.5930
 3345.6860     9.1665      .0484    52.8835    14.5763     2.5948
 3345.8384     9.1671      .0497    50.2122    14.4725     2.5992
 3345.9908     9.1660      .0532    50.0227    14.1495     2.5791
 3346.1432     9.1648      .0411    53.3127    14.0203     2.5639
 3346.2956     9.1635      .0290    55.7145    14.4379     2.5578
 3346.4480     9.1623      .0184    57.8740    14.7868     2.5401
 3346.6004     9.1610      .0121    57.0405    15.0008     2.5304
 3346.7528     9.1598      .0063    57.1067    15.2077     2.5348
 3346.9052     9.1585      .0058    57.2688    15.0122     2.5499
 3347.0576     9.1573      .0063    56.5705    14.7630     2.5439
 3347.2100     9.1560      .0164    57.4605    14.4524     2.5533
 3347.3624     9.1548      .0333    56.9074    14.3597     2.5620
 3347.5148     9.1535      .0276    54.4924    14.1073     2.5536
 3347.6672     9.1523      .0231    54.0176    13.8759     2.5562
 3347.8196     9.1518      .0231    52.6986    13.6169     2.5455
 3347.9720     9.1519      .0215    52.7451    13.0909     2.5461
 3348.1244     9.1522      .0199    52.4362    12.9409     2.5463
 3348.2768     9.1524      .0196    54.0592    13.0692     2.5386
 3348.4292     9.1527      .0199    57.1645    13.3807     2.5357
 3348.5816     9.1528      .0203    61.3307    13.7417     2.5440
 3348.7340     9.1531      .0211    62.5645    14.0993     2.5558
 3348.8864     9.1533      .0111    61.3704    14.2939     2.5586
 3349.0388     9.1536      .0142    63.0125    14.2770     2.5728
 3349.1912     9.1538      .0154    63.2342    14.2804     2.5671
 3349.3436     9.1540      .0137    63.9283    14.3397     2.5600
 3349.4960     9.1533      .0122    62.5059    14.6532     2.5570
 3349.6484     9.1523      .0170    62.9207    14.4600     2.5647
 3349.8008     9.1513      .0173    61.8634    14.0659     2.5731
 3349.9532     9.1503      .0134    60.1129    13.8018     2.5726
 3350.1056     9.1493      .0098    58.3607    13.7134     2.5808
 3350.2580     9.1483      .0104    57.7242    13.6413     2.5845
 3350.4104     9.1473      .0134    58.5643    13.2419     2.5839
 3350.5628     9.1464      .0176    61.0167    12.9000     2.5909
 3350.7152     9.1454      .0253    60.7512    12.8354     2.6071
 3350.8676     9.1444      .0388    60.7609    13.5959     2.6288
 3351.0200     9.1434      .0324    61.8897    14.8375     2.6241
 3351.1724     9.1424      .0211    63.8473    15.2082     2.5852
 3351.3248     9.1414      .0181    63.0494    15.2634     2.5822
 3351.4772     9.1404      .0188    59.2815    15.0371     2.5893
 3351.6296     9.1395      .0206    56.4263    14.7527     2.5913
 3351.7820     9.1385      .0221    55.6232    14.5352     2.5848
 3351.9344     9.1374      .0217    56.2285    13.6942     2.5769
 3352.0868     9.1364      .0225    54.7723    12.4947     2.5795
 3352.2392     9.1354      .0269    51.3555    11.2300     2.6052
 3352.3916     9.1343      .0390    49.8083    10.8653     2.6312
 3352.5440     9.1333      .0323    52.0551    11.1002     2.6270
 3352.6964     9.1322      .0211    54.1495    11.4633     2.5820
 3352.8488     9.1312      .0379    52.8837    11.7767     2.5769
 3353.0012     9.1301      .0422    51.5292    11.9295     2.5966
 3353.1536     9.1291      .0347    52.7855    12.0756     2.5916
 3353.3060     9.1280      .0287    55.5198    12.3363     2.5971
 3353.4584     9.1270      .0209    55.9790    12.6437     2.5997
 3353.6108     9.1260      .0167    55.0700    12.9065     2.6025
 3353.7632     9.1253      .0224    53.7511    12.8996     2.6146
 3353.9156     9.1255      .0295    53.2579    12.8503     2.6268
 3354.0680     9.1258      .0409    54.2800    12.8032     2.6321
 3354.2204     9.1262      .0521    55.9374    12.8543     2.6293
 3354.3728     9.1266      .0557    58.7495    13.0535     2.6255
 3354.5252     9.1270      .0561    61.5395    13.5927     2.6294
 3354.6776     9.1274      .0431    61.4416    14.0466     2.6141
 3354.8300     9.1278      .0268    61.0866    13.9873     2.6063
 3354.9824     9.1281      .0182    62.8062    13.8476     2.5895
 3355.1348     9.1290      .0214    62.2041    13.8671     2.5773
 3355.2872     9.1307      .0366    62.2435    13.9769     2.5851
 3355.4396     9.1325      .0352    59.9207    13.7277     2.5850
 3355.5920     9.1343      .0347    58.3971    13.6395     2.5941
 3355.7444     9.1361      .0418    57.3614    14.1757     2.6065
 3355.8968     9.1379      .0337    56.5927    14.5689     2.5889
 3356.0492     9.1398      .0312    54.7350    14.4442     2.5839
 3356.2016     9.1416      .0344    52.7529    14.1180     2.5887
 3356.3540     9.1434      .0431    54.5799    13.7680     2.6085
 3356.5064     9.1452      .0492    55.2018    13.5701     2.6074
 3356.6588     9.1470      .0483    54.2841    13.3646     2.6133
 3356.8112     9.1489      .0595    54.9658    13.1210     2.6227
 3356.9636     9.1507      .0462    56.2030    13.1878     2.6054
 3357.1160     9.1525      .0299    54.9104    13.6084     2.6056
 3357.2684     9.1530      .0333    54.7115    13.7230     2.5995
 3357.4208     9.1526      .0252    56.3913    13.1978     2.5753
 3357.5732     9.1519      .0112    55.0807    12.9905     2.5530
 3357.7256     9.1513      .0031    57.6022    13.5074     2.5550
 3357.8780     9.1506      .0107    63.4146    14.3138     2.5638
 3358.0304     9.1499      .0131    67.3809    15.1521     2.5727
 3358.1828     9.1493      .0059    67.4569    15.3528     2.5771
 3358.3352     9.1487      .0071    66.6687    15.0622     2.5827
 3358.4876     9.1480      .0149    66.6301    14.8373     2.5865
 3358.6400     9.1473      .0256    67.1417    14.9685     2.5903
 3358.7924     9.1467      .0413    69.1351    14.7723     2.6040
 3358.9448     9.1460      .0527    71.1318    14.3928     2.6006
 3359.0972     9.1454      .0367    73.0186    14.3687     2.5771
 3359.2496     9.1447      .0201    73.2838    14.7445     2.5721
 3359.4020     9.1440      .0109    71.6246    14.4406     2.5663
 3359.5544     9.1434      .0111    68.1658    13.8629     2.5744
 3359.7068     9.1427      .0205    65.0163    13.6838     2.5916
 3359.8592     9.1420      .0341    62.3013    13.5816     2.6103
 3360.0116     9.1414      .0376    62.7978    13.4304     2.6160
 3360.1640     9.1395      .0263    62.9441    13.2508     2.5934
 3360.3164     9.1363      .0177    60.0574    13.0407     2.5892
 3360.4688     9.1329      .0293    56.7460    12.5799     2.5983
 3360.6212     9.1295      .0252    53.4519    11.6175     2.5919
 3360.7736     9.1260      .0247    50.3685    10.5870     2.6001
 3360.9260     9.1226      .0277    47.5701    10.2254     2.6033
 3361.0784     9.1191      .0273    48.4120    10.7535     2.5812
 3361.2308     9.1157      .0269    51.1622    11.5925     2.5647
 3361.3832     9.1126      .0258    51.1285    11.6839     2.5776
