~VERSION INFORMATION
VERS.                                                 2.0:   CWLS Log ASCII Standard-VERSION 2.0
WRAP.                                                  NO:   One line per depth step
~Well Information Block
STRT.M                                          2747.9732:   Top Depth
STOP.M                                          3514.5452:   Bottom Depth
STEP.M                                             .15240:   Depth Increment
NULL.                                            -999.250:   Null Value
FLD .                                             WILDCAT:   Field Name
WELL.                                              15/6-4:   NAME
WBN .                                              15/6-4:   WELLBORE
NATI.                                                 NOR:   COUNTRY
BHT1.DEGF                                            95.0:   BH TEMP 1
BS1 .IN                                             17.50:   BIT SIZE 1
CTRY.                                                 NOR:   COUNTRY
CBD1.M                                       378.89996338:   CSG 1 DRILL DEP
CBL1.M                                              379.0:   CSG 1 LOG DEP
CS1 .IN                                              20.0:   CSG 1 SIZE
COMP.                ESSO EXP. AND PRODUCTION NORWAY INC.:   OPERATOR
PDAT.                                                 MSL:   PERM DATUM
PROV.                                           NORTH SEA:   PROVINCE
COUN.                                             NORJARL:   RIG NAME
SPUD.                                          1976/06/29:   SPUD DATE
LATI.                                       58 37 34.39 N:   SURF. LATITUDE
LONG.                                        1 48 19.94 E:   SURF. LONGITUDE
BTD1.                                      1016.1999512 M:   TOTAL DEPTH 1
PBWE.                                              15/6-4:   PB WELL ID
APIN.                                              15/6-4:   PB WELLBORE ID
PBWS.                                                 all:   PB WELL NAME SET
~PARAMETER INFORMATION (log)
LNAM.                              FDC/CNL/GR  COMPOSITED:   NAME
LTYP.                                         DEPTH MATCH:   LOG TYPE
LSRV.                                            DEN/NEUT:   LOG SERVICE
LSOU.                                             SPT/NPD:   LOG SOURCE
LVSN.                                                   1:   LOG VERSION
BHIS.                                                   R:   BRIEF HISTORY
FHIS.                                             RAW-LIS:   FULL HISTORY
LCNM.                                        SCHLUMBERGER:   LOGGING CONTRACTOR
TOOL.                             FDC/CNL/GR (COMPOSITED):   TOOL STRING
~Curve Information Block
#MNEM.UNIT                                        API CODE    No Description
#=========                                        ========    == ===========
DEPT.M                                       00 001 00 00:     1  DEPTH
CALI.IN                                                  :     2  Caliper
DRHO.G/CC                                                :     3  Bulk density correction
GR.GAPI                                                  :     4  Gamma Ray
NPHI.%                                                   :     5  Neutron porosity
RHOB.G/CC                                                :     6  Bulk density
~ASCII
# ...
 3398.7212     8.8865      .0407    82.1266    19.6229     2.5679
 3398.8736     8.8795      .0494    83.1383    20.1799     2.5808
 3399.0260     8.8734      .0262    80.6465    19.6626     2.5403
 3399.1784     8.8674      .0139    78.1910    18.4804     2.5374
 3399.3308     8.8604      .0127    74.0334    17.6353     2.5442
 3399.4832     8.8503      .0167    72.0315    17.4089     2.5514
 3399.6356     8.8394      .0272    74.9319    17.7530     2.5937
 3399.7880     8.8284      .0365    78.6836    18.4239     2.5971
 3399.9404     8.8178      .0299    80.9246    19.1335     2.6003
 3400.0928     8.8081      .0306    80.4323    19.8442     2.6125
 3400.2452     8.7972      .0344    77.4970    19.7476     2.6171
 3400.3976     8.7875      .0313    70.5645    16.8717     2.6091
 3400.5500     8.7847      .0309    66.5264    15.5383     2.5954
 3400.7024     8.7849      .0327    65.4054    16.3805     2.5742
 3400.8548     8.7852      .0322    67.6310    17.9808     2.5671
 3401.0072     8.7855      .0180    69.2010    19.3052     2.5462
 3401.1596     8.7776      .0093    65.1399    19.6797     2.5172
 3401.3120     8.7064      .0020    57.8890    18.6192     2.5083
 3401.4644     8.5387     -.0068    48.7832    16.8525     2.4922
 3401.6168     8.4203     -.0170    41.0826    15.6353     2.4801
 3401.7692     8.2892     -.0301    38.8865    15.4337     2.4645
 3401.9216     8.2147     -.0272    38.3597    14.9801     2.4652
 3402.0740     8.1981     -.0272    40.5130    14.1147     2.4706
 3402.2264     8.2360     -.0239    42.6614    13.8214     2.4758
 3402.3788     8.3705     -.0035    44.0746    14.1084     2.5001
 3402.5312     8.4677      .0019    43.5401    14.7443     2.4993
 3402.6836     8.4269     -.0094    43.1039    15.3813     2.4791
 3402.8360     8.3888     -.0129    44.9347    15.4429     2.4755
 3402.9884     8.4318     -.0126    45.8472    14.8482     2.4979
 3403.1408     8.5054     -.0051    46.4536    13.9183     2.5313
 3403.2932     8.5009      .0054    49.0875    12.9874     2.5597
 3403.4456     8.5040      .0126    53.6780    12.9648     2.5592
 3403.5980     8.5545      .0175    58.3985    14.6838     2.5444
 3403.7504     8.5794      .0212    60.0698    16.4008     2.5315
 3403.9028     8.5513      .0194    57.9593    17.5145     2.5392
 3404.0552     8.5253      .0212    52.4426    17.2751     2.5570
 3404.2076     8.5018      .0114    48.7386    15.7743     2.5484
 3404.3600     8.4940      .0094    50.4804    16.7775     2.5569
 3404.5124     8.4942      .0130    51.0449    17.5758     2.5524
 3404.6648     8.4827      .0179    47.7098    16.4478     2.5264
 3404.8172     8.4079      .0195    43.8576    14.7966     2.5044
 3404.9696     8.3534      .0175    40.6816    13.9147     2.4959
 3405.1220     8.3461      .0114    41.9732    14.3224     2.4781
 3405.2744     8.3396      .0033    43.1522    14.8300     2.4566
 3405.4268     8.3371      .0085    42.8068    14.5842     2.4555
 3405.5792     8.3374      .0200    39.5263    14.3680     2.4562
 3405.7316     8.3370      .0234    36.2458    14.4075     2.4445
 3405.8840     8.3310      .0133    34.8486    14.7095     2.4442
 3406.0364     8.3227      .0097    36.9253    15.1513     2.4335
 3406.1888     8.3141      .0119    38.7177    15.4781     2.4308
 3406.3412     8.3055      .0081    39.1309    15.5691     2.4358
 3406.4936     8.3022      .0038    40.4623    15.6040     2.4323
 3406.6460     8.3089      .0005    39.4195    15.5671     2.4394
 3406.7984     8.3160      .0006    40.6704    15.5023     2.4374
 3406.9508     8.3241     -.0032    42.9710    15.5004     2.4253
 3407.1032     8.3340     -.0050    45.2272    15.5015     2.4234
 3407.2556     8.3470     -.0089    46.7023    15.1723     2.4290
 3407.4080     8.3697     -.0014    47.5228    14.6065     2.4547
 3407.5604     8.3958     -.0029    47.0280    14.6537     2.4801
 3407.7128     8.4254     -.0020    46.4432    15.1605     2.4710
 3407.8652     8.4456     -.0024    48.3492    15.5369     2.4795
 3408.0176     8.4540      .0055    50.8574    15.3428     2.4927
 3408.1700     8.4644      .0100    51.5878    14.6409     2.5071
 3408.3224     8.4879      .0126    51.4915    13.8106     2.5223
 3408.4748     8.5126      .0149    51.5029    12.9949     2.5436
 3408.6272     8.5423      .0149    53.0930    12.3263     2.5635
 3408.7796     8.6030      .0300    55.0556    11.6752     2.5907
 3408.9320     8.7176      .0288    60.1528    11.4887     2.6057
 3409.0844     8.8822      .0118    67.0470    12.2831     2.5823
 3409.2368     9.0368      .0347    73.9285    14.0770     2.5446
 3409.3892     9.1467      .0479    79.2173    16.8287     2.5201
 3409.5416     9.2685      .0562    77.5046    20.1064     2.5069
 3409.6940     9.1798      .0407    74.0522    21.7264     2.5066
 3409.8464     8.7850      .0195    70.5050    19.8004     2.5367
 3409.9988     8.7560     -.0013    61.2379    17.4297     2.5544
 3410.1512     8.7548     -.0100    51.6223    15.1772     2.5352
 3410.3036     8.7722     -.0050    48.4807    15.5184     2.5206
 3410.4560     8.7871      .0005    49.8118    17.0867     2.4887
 3410.6084     8.7954      .0059    52.2005    17.1808     2.4730
 3410.7608     8.8029      .0111    54.0862    14.2691     2.5362
 3410.9132     8.7987      .0131    54.3679    12.7454     2.6035
 3411.0656     8.7916      .0151    58.5082    13.0266     2.6133
 3411.2180     8.7871      .0171    62.5831    13.5845     2.5552
 3411.3704     8.7921      .0210    63.3916    14.0828     2.5430
 3411.5228     8.7970      .0229    62.0348    14.3371     2.5486
 3411.6752     8.8012      .0162    62.0221    14.4554     2.5478
 3411.8276     8.8056      .0105    63.7117    14.4561     2.5480
 3411.9800     8.7953      .0225    62.1997    14.2202     2.5682
 3412.1324     8.7815      .0510    58.5610    13.7933     2.5934
 3412.2848     8.7666      .0390    59.5408    13.5284     2.5890
 3412.4372     8.7492      .0255    59.7095    13.4429     2.5712
 3412.5896     8.7489      .0346    58.4700    13.7160     2.5666
 3412.7420     8.7492      .0193    57.6629    13.7534     2.5731
 3412.8944     8.7490      .0154    55.1608    13.4811     2.5711
 3413.0468     8.7283      .0137    55.4549    13.8294     2.5585
 3413.1992     8.6936      .0219    56.0314    14.3882     2.5405
 3413.3516     8.6482      .0191    55.6183    14.7828     2.5413
 3413.5040     8.5791      .0193    52.4332    14.7381     2.5460
 3413.6564     8.5108      .0146    47.2805    14.3322     2.5543
 3413.8088     8.4579      .0099    42.6637    13.7622     2.5458
 3413.9612     8.4228      .0050    40.4756    13.6610     2.5441
 3414.1136     8.3881     -.0049    40.1992    13.7573     2.5398
 3414.2660     8.3658     -.0168    42.9910    14.2748     2.5156
 3414.4184     8.3434     -.0036    48.1289    15.3423     2.4935
 3414.5708     8.3212      .0134    55.1867    15.5984     2.5050
 3414.7232     8.3841      .0217    61.9514    16.6477     2.5171
 3414.8756     8.5041      .0279    68.6857    18.2420     2.5382
 3415.0280     8.6441      .0198    71.8791    19.3267     2.5677
 3415.1804     8.7727      .0410    65.3165    18.7303     2.5849
 3415.3328     8.8026      .0252    62.7470    17.5365     2.5570
 3415.4852     8.7986      .0093    58.4880    16.3415     2.5390
 3415.6376     8.7855      .0075    53.8224    16.0517     2.5288
 3415.7900     8.7725      .0173    52.7508    16.2041     2.5294
 3415.9424     8.7412      .0248    52.6791    15.6419     2.5120
 3416.0948     8.7556      .0178    53.3207    15.8103     2.5032
 3416.2472     8.7709      .0255    54.0137    16.2991     2.5113
 3416.3996     8.7711      .0174    53.6152    16.2304     2.5081
 3416.5520     8.7639      .0075    50.5146    15.8574     2.5054
 3416.7044     8.7514      .0013    48.0785    15.4207     2.5122
 3416.8568     8.6788      .0043    46.1188    14.9900     2.5182
 3417.0092     8.6092      .0061    43.8419    14.3135     2.5162
 3417.1616     8.6153      .0037    42.2859    13.6301     2.5023
