~VERSION INFORMATION
VERS.                                                 2.0:   CWLS Log ASCII Standard-VERSION 2.0
WRAP.                                                  NO:   One line per depth step
~Well Information Block
STRT.M                                          2747.9732:   Top Depth
STOP.M                                          3514.5452:   Bottom Depth
STEP.M                                             .15240:   Depth Increment
NULL.                                            -999.250:   Null Value
FLD .                                             WILDCAT:   Field Name
WELL.                                              15/6-4:   NAME
WBN .                                              15/6-4:   WELLBORE
NATI.                                                 NOR:   COUNTRY
BHT1.DEGF                                            95.0:   BH TEMP 1
BS1 .IN                                             17.50:   BIT SIZE 1
CTRY.                                                 NOR:   COUNTRY
CBD1.M                                       378.89996338:   CSG 1 DRILL DEP
CBL1.M                                              379.0:   CSG 1 LOG DEP
CS1 .IN                                              20.0:   CSG 1 SIZE
COMP.                ESSO EXP. AND PRODUCTION NORWAY INC.:   OPERATOR
PDAT.                                                 MSL:   PERM DATUM
PROV.                                           NORTH SEA:   PROVINCE
COUN.                                             NORJARL:   RIG NAME
SPUD.                                          1976/06/29:   SPUD DATE
LATI.                                       58 37 34.39 N:   SURF. LATITUDE
LONG.                                        1 48 19.94 E:   SURF. LONGITUDE
BTD1.                                      1016.1999512 M:   TOTAL DEPTH 1
PBWE.                                              15/6-4:   PB WELL ID
APIN.                                              15/6-4:   PB WELLBORE ID
PBWS.                                                 all:   PB WELL NAME SET
~PARAMETER INFORMATION (log)
LNAM.                              FDC/CNL/GR  COMPOSITED:   NAME
LTYP.                                         DEPTH MATCH:   LOG TYPE
LSRV.                                            DEN/NEUT:   LOG SERVICE
LSOU.                                             SPT/NPD:   LOG SOURCE
LVSN.                                                   1:   LOG VERSION
BHIS.                                                   R:   BRIEF HISTORY
FHIS.                                             RAW-LIS:   FULL HISTORY
LCNM.                                        SCHLUMBERGER:   LOGGING CONTRACTOR
TOOL.                             FDC/CNL/GR (COMPOSITED):   TOOL STRING
~Curve Information Block
#MNEM.UNIT                                        API CODE    No Description
#=========                                        ========    == ===========
DEPT.M                                       00 001 00 00:     1  DEPTH
CALI.IN                                                  :     2  Caliper
DRHO.G/CC                                                :     3  Bulk density correction
GR.GAPI                                                  :     4  Gamma Ray
NPHI.%                                                   :     5  Neutron porosity
RHOB.G/CC                                                :     6  Bulk density
~ASCII
# ...
 2896.7156     9.0523      .0508    17.3057     9.8547     2.6572
 2896.8680     9.0542      .0502    18.5750     9.8116     2.6683
 2897.0204     9.0561      .0533    18.9045    10.1494     2.6792
 2897.1728     9.0580      .0522    17.8891    10.5918     2.6761
 2897.3252     9.0599      .0488    16.8129    10.6282     2.6617
 2897.4776     9.0617      .0406    15.6929    10.3253     2.6409
 2897.6300     9.0603      .0318    15.2513    10.5890     2.6259
 2897.7824     9.0581      .0521    16.0592    10.9383     2.6378
 2897.9348     9.0555      .0523    16.8319    11.4784     2.6470
 2898.0872     9.0528      .0585    16.9014    12.0631     2.6603
 2898.2396     9.0501      .0965    17.3920    11.8845     2.7035
 2898.3920     9.0474      .0899    17.5042    11.3433     2.6757
 2898.5444     9.0447      .0546    17.2108    11.4540     2.6543
 2898.6968     9.0420      .0514    17.7898    12.0971     2.6633
 2898.8492     9.0392      .0336    18.5964    12.0448     2.6412
 2899.0016     9.0365      .0188    18.9771    11.4087     2.6338
 2899.1540     9.0338      .0202    18.9296    11.1959     2.6337
 2899.3064     9.0311      .0252    18.5745    11.8832     2.6292
 2899.4588     9.0284      .0320    17.9536    12.2621     2.6335
 2899.6112     9.0297      .0245    17.1891    12.4791     2.6264
 2899.7636     9.0342      .0160    18.0784    12.1382     2.6159
 2899.9160     9.0387      .0258    17.3149    11.6869     2.6282
 2900.0684     9.0432      .0297    17.1241    11.0999     2.6268
 2900.2208     9.0477      .0179    17.7910    10.5899     2.6078
 2900.3732     9.0520      .0145    17.7930    10.4389     2.6099
 2900.5256     9.0561      .0217    18.6899    11.0621     2.6242
 2900.6780     9.0606      .0141    20.1446    11.9441     2.6126
 2900.8304     9.0651      .0229    21.6646    12.5886     2.6215
 2900.9828     9.0664      .0498    23.1157    14.0918     2.6430
 2901.1352     9.0567      .0473    24.1919    16.5277     2.6290
 2901.2876     9.0457      .0357    24.6695    18.9120     2.6272
 2901.4400     9.0387      .0217    24.7188    20.5631     2.6161
 2901.5924     9.0588      .0188    24.7970    20.7046     2.6156
 2901.7448     9.1067      .0231    25.6269    20.1465     2.6129
 2901.8972     9.1491      .0313    28.3695    19.4132     2.6036
 2902.0496     9.1839      .0457    30.9371    18.7614     2.6012
 2902.2020     9.1899      .0593    31.3241    18.9574     2.5860
 2902.3544     9.1921      .0615    30.8681    18.9057     2.5581
 2902.5068     9.2468      .0514    31.1482    19.3842     2.5229
 2902.6592     9.3034      .0336    31.7681    20.3778     2.4770
 2902.8116     9.3597      .0263    32.3050    21.3891     2.4377
 2902.9640     9.4045      .0202    31.2914    22.6443     2.4053
 2903.1164     9.4375      .0115    31.1077    22.7301     2.4162
 2903.2688     9.3751      .0120    30.6856    21.3031     2.4735
 2903.4212     9.2083      .0278    30.1731    20.2721     2.5514
 2903.5736     9.1538      .0323    29.9231    20.9437     2.5655
 2903.7260     9.2367      .0399    31.0678    21.8943     2.5476
 2903.8784     9.3189      .0422    32.4023    23.0528     2.5199
 2904.0308     9.4704      .0376    32.8210    24.2684     2.5042
 2904.1832     9.5404      .0145    30.5173    24.6049     2.5439
 2904.3356     9.1413      .0024    27.4646    22.4147     2.5850
 2904.4880     9.0604      .0113    24.6594    18.6371     2.6044
 2904.6404     9.0389      .0244    21.8551    15.7974     2.6270
 2904.7928     9.0244      .0341    19.0505    13.9562     2.6244
 2904.9452     9.0183      .0421    17.3631    13.5561     2.6130
 2905.0976     9.0215      .0468    16.6947    13.6246     2.6568
 2905.2500     9.0274      .0463    15.7499    13.7876     2.6659
 2905.4024     9.0338      .0508    14.3946    13.9449     2.6682
 2905.5548     9.0401      .0364    12.8826    13.8373     2.6312
 2905.7072     9.0465      .0207    11.5554    13.3933     2.5865
 2905.8596     9.0529      .0096    11.7739    13.2673     2.5274
 2906.0120     9.0593      .0079    13.8857    13.0865     2.4584
 2906.1644     9.0657      .0174    14.5884    13.1727     2.4114
 2906.3168     9.0721      .0136    14.3880    13.6012     2.3862
 2906.4692     9.0785      .0057    15.9957    13.7761     2.3921
 2906.6216     9.0848      .0110    16.8526    13.5553     2.4148
 2906.7740     9.0909      .0111    17.3721    13.1722     2.4494
 2906.9264     9.0928      .0318    16.5717    12.9604     2.4928
 2907.0788     9.0824      .0433    15.6307    12.9546     2.5401
 2907.2312     9.0718      .0247    15.1934    13.0879     2.5245
 2907.3836     9.0613      .0182    15.9286    13.1957     2.5268
 2907.5360     9.0507      .0125    14.8932    13.1043     2.5057
 2907.6884     9.0403      .0115    15.4637    12.6974     2.4899
 2907.8408     9.0374      .0099    17.2707    12.4041     2.4920
 2907.9932     9.0374      .0124    18.7598    12.9356     2.5092
 2908.1456     9.0375      .0178    18.8413    13.8733     2.5137
 2908.2980     9.0377      .0202    17.7351    14.5818     2.4883
 2908.4504     9.0379      .0204    16.9287    13.8660     2.4718
 2908.6028     9.0381      .0281    17.9981    12.8858     2.4766
 2908.7552     9.0382      .0326    19.1876    12.8610     2.4818
 2908.9076     9.0384      .0246    19.6012    13.2245     2.4772
 2909.0600     9.0386      .0218    19.8130    13.4649     2.4848
 2909.2124     9.0388      .0350    20.0372    13.6900     2.5123
 2909.3648     9.0389      .0290    20.8996    13.9193     2.5354
 2909.5172     9.0391      .0148    21.9180    14.4016     2.5445
 2909.6696     9.0393      .0157    22.1755    15.0320     2.5628
 2909.8220     9.0395      .0389    22.0096    15.6624     2.5803
 2909.9744     9.0398      .0326    22.4359    16.5693     2.5800
 2910.1268     9.0400      .0335    22.9623    17.0637     2.5746
 2910.2792     9.0403      .0549    23.1799    17.5799     2.5820
 2910.4316     9.0416      .0229    22.3819    17.1143     2.5709
 2910.5840     9.0430      .0304    21.5316    16.7477     2.5709
 2910.7364     9.0444      .0387    20.6682    16.6389     2.5974
 2910.8888     9.0459      .0442    20.6732    15.9981     2.5973
 2911.0412     9.0473      .0264    20.6781    16.1567     2.5815
 2911.1936     9.0487      .0521    20.3009    16.5241     2.6158
 2911.3460     9.0501      .0761    19.5390    16.3238     2.6230
 2911.4984     9.0515      .0574    19.0742    16.5906     2.6117
 2911.6508     9.0529      .0261    19.1246    16.2719     2.6079
 2911.8032     9.0543      .0141    19.8160    15.9063     2.6003
 2911.9556     9.0557      .0189    20.5913    15.8610     2.5939
 2912.1080     9.0571      .0192    20.9123    16.1498     2.5792
 2912.2604     9.0585      .0268    21.0886    16.7698     2.5752
 2912.4128     9.0599      .0393    21.4548    17.7681     2.5682
 2912.5652     9.0613      .0240    20.9212    18.0156     2.5537
 2912.7176     9.0627      .0307    20.1875    18.4097     2.5647
 2912.8700     9.0619      .0218    19.9407    19.7192     2.5831
 2913.0224     9.0606      .0270    20.7468    20.7527     2.5824
 2913.1748     9.0593      .0296    21.7322    20.6028     2.5985
 2913.3272     9.0580      .0216    20.7796    19.4015     2.5973
 2913.4796     9.0567      .0231    21.0097    17.7563     2.5980
 2913.6320     9.0555      .0138    22.3961    16.6333     2.5920
 2913.7844     9.0542      .0135    22.5425    15.9934     2.6013
 2913.9368     9.0529      .0117    22.0476    15.7035     2.5998
 2914.0892     9.0519      .0155    21.5975    15.5587     2.5944
 2914.2416     9.0506      .0188    22.1761    15.4964     2.5972
 2914.3940     9.0493      .0179    23.0867    15.4063     2.5884
 2914.5464     9.0480      .0119    22.9153    15.1686     2.5741
 2914.6988     9.0468      .0169    21.9813    14.7532     2.5698
 2914.8512     9.0459      .0331    20.5669    14.3550     2.5888
 2915.0036     9.0479      .0374    19.1526    14.8290     2.5992
 2915.1560     9.0500      .0231    19.1273    14.8990     2.5856
