~VERSION INFORMATION
VERS.                                                 2.0:   CWLS Log ASCII Standard-VERSION 2.0
WRAP.                                                  NO:   One line per depth step
~Well Information Block
STRT.M                                          2747.9732:   Top Depth
STOP.M                                          3514.5452:   Bottom Depth
STEP.M                                             .15240:   Depth Increment
NULL.                                            -999.250:   Null Value
FLD .                                             WILDCAT:   Field Name
WELL.                                              15/6-4:   NAME
WBN .                                              15/6-4:   WELLBORE
NATI.                                                 NOR:   COUNTRY
BHT1.DEGF                                            95.0:   BH TEMP 1
BS1 .IN                                             17.50:   BIT SIZE 1
CTRY.                                                 NOR:   COUNTRY
CBD1.M                                       378.89996338:   CSG 1 DRILL DEP
CBL1.M                                              379.0:   CSG 1 LOG DEP
CS1 .IN                                              20.0:   CSG 1 SIZE
COMP.                ESSO EXP. AND PRODUCTION NORWAY INC.:   OPERATOR
PDAT.                                                 MSL:   PERM DATUM
PROV.                                           NORTH SEA:   PROVINCE
COUN.                                             NORJARL:   RIG NAME
SPUD.                                          1976/06/29:   SPUD DATE
LATI.                                       58 37 34.39 N:   SURF. LATITUDE
LONG.                                        1 48 19.94 E:   SURF. LONGITUDE
BTD1.                                      1016.1999512 M:   TOTAL DEPTH 1
PBWE.                                              15/6-4:   PB WELL ID
APIN.                                              15/6-4:   PB WELLBORE ID
PBWS.                                                 all:   PB WELL NAME SET
~PARAMETER INFORMATION (log)
LNAM.                              FDC/CNL/GR  COMPOSITED:   NAME
LTYP.                                         DEPTH MATCH:   LOG TYPE
LSRV.                                            DEN/NEUT:   LOG SERVICE
LSOU.                                             SPT/NPD:   LOG SOURCE
LVSN.                                                   1:   LOG VERSION
BHIS.                                                   R:   BRIEF HISTORY
FHIS.                                             RAW-LIS:   FULL HISTORY
LCNM.                                        SCHLUMBERGER:   LOGGING CONTRACTOR
TOOL.                             FDC/CNL/GR (COMPOSITED):   TOOL STRING
~Curve Information Block
#MNEM.UNIT                                        API CODE    No Description
#=========                                        ========    == ===========
DEPT.M                                       00 001 00 00:     1  DEPTH
CALI.IN                                                  :     2  Caliper
DRHO.G/CC                                                :     3  Bulk density correction
GR.GAPI                                                  :     4  Gamma Ray
NPHI.%                                                   :     5  Neutron porosity
RHOB.G/CC                                                :     6  Bulk density
~ASCII
# ...
 3249.9788     8.4310      .0044    45.5944    20.9674     2.3888
 3250.1312     8.5843      .0243    46.5805    22.2947     2.4165
 3250.2836     8.6926      .0177    47.7617    23.6061     2.3924
 3250.4360     8.4123      .0092    49.6371    23.8926     2.3569
 3250.5884     8.0840      .0331    54.3162    23.7784     2.3716
 3250.7408     8.5682      .0520    63.0549    25.3862     2.3987
 3250.8932     9.0907      .0527    69.3788    27.2168     2.4257
 3251.0456     9.4315      .0585    72.0299    29.0402     2.4403
 3251.1980     9.5950      .0259    69.4112    29.7982     2.4053
 3251.3504     9.4027      .0100    66.8469    28.6776     2.3982
 3251.5028     9.2382      .0122    65.1192    27.2026     2.4171
 3251.6552     9.1979      .0214    61.8233    25.7309     2.4452
 3251.8076     9.2557      .0304    59.2119    24.2618     2.4535
 3251.9600     9.2444      .0249    57.9328    23.7141     2.4451
 3252.1124     9.1115      .0284    55.4314    24.4008     2.4359
 3252.2648     8.9778      .0266    53.7470    24.7894     2.4143
 3252.4172     8.8404      .0141    52.8523    24.2943     2.3907
 3252.5696     8.6960     -.0004    50.8714    23.8916     2.3446
 3252.7220     8.6649     -.0061    48.1879    25.5253     2.3229
 3252.8744     8.4201     -.0157    45.8686    26.3359     2.2821
 3253.0268     8.2225     -.0055    46.1306    25.3954     2.2958
 3253.1792     8.3101     -.0038    50.5370    24.0588     2.3281
 3253.3316     8.5007      .0014    55.7195    23.2504     2.3919
 3253.4840     8.7957      .0105    56.5805    24.2074     2.4130
 3253.6364     9.0438      .0026    54.1005    25.0259     2.3906
 3253.7888     8.9071     -.0073    51.4449    25.1194     2.3548
 3253.9412     8.6009     -.0153    48.7935    25.6571     2.3363
 3254.0936     8.4611     -.0055    48.5158    25.1638     2.3551
 3254.2460     8.5647      .0025    48.1941    24.5145     2.3791
 3254.3984     8.3402     -.0049    49.1248    24.9506     2.3632
 3254.5508     8.5068      .0034    49.4374    24.1032     2.3823
 3254.7032     8.5547      .0164    48.9044    23.5809     2.4335
 3254.8556     8.6240      .0094    51.3989    23.1251     2.4746
 3255.0080     8.6500      .0238    51.1521    23.0307     2.4980
 3255.1604     8.5817      .0521    52.4700    23.3046     2.5255
 3255.3128     8.7395      .0575    53.0420    22.6258     2.5107
 3255.4652     8.5872      .0288    50.8343    23.2666     2.4699
 3255.6176     8.5797     -.0014    46.1505    23.9344     2.4071
 3255.7700     8.4324     -.0100    41.5738    23.8897     2.3772
 3255.9224     8.2002     -.0196    39.2176    23.2898     2.3654
 3256.0748     8.1281     -.0133    38.2431    23.3454     2.3625
 3256.2272     8.1257     -.0185    38.8329    24.2096     2.3450
 3256.3796     8.1315     -.0236    40.4146    23.6941     2.3248
 3256.5320     8.2439     -.0152    42.3389    23.2303     2.3400
 3256.6844     8.3090     -.0135    40.6954    24.1674     2.3513
 3256.8368     8.1770     -.0250    38.5878    25.4347     2.3207
 3256.9892     8.0997     -.0362    39.1433    26.5742     2.2887
 3257.1416     8.0699     -.0373    38.1000    26.5716     2.2924
 3257.2940     8.0469     -.0291    39.2913    25.8542     2.2947
 3257.4464     8.0277     -.0226    40.0212    25.0148     2.3107
 3257.5988     8.0206     -.0235    42.3733    24.9065     2.3078
 3257.7512     8.0150     -.0337    46.2598    25.0359     2.2949
 3257.9036     8.0095     -.0470    49.7171    25.4075     2.2817
 3258.0560     8.0039     -.0543    51.7235    26.0932     2.2869
 3258.2084     7.9984     -.0548    51.3894    25.8976     2.3076
 3258.3608     7.9928     -.0527    52.1498    24.7607     2.3291
 3258.5132     7.9919     -.0409    52.2427    23.9120     2.3451
 3258.6656     8.0167     -.0454    54.4703    24.1779     2.3333
 3258.8180     8.0436     -.0442    56.3745    24.5491     2.3250
 3258.9704     8.0656     -.0341    57.2557    24.1600     2.3339
 3259.1228     8.0682     -.0426    57.9471    23.4217     2.3377
 3259.2752     8.0879     -.0318    57.8633    23.2486     2.3581
 3259.4276     8.2252     -.0181    55.5835    23.7236     2.3976
 3259.5800     8.3746     -.0234    51.3931    23.4371     2.4378
 3259.7324     8.3971     -.0262    47.3520    23.9629     2.4779
 3259.8848     8.3425     -.0215    45.4063    24.3879     2.5172
 3260.0372     8.2680     -.0248    45.9319    23.7233     2.5185
 3260.1896     8.2336     -.0222    44.0828    22.7888     2.5088
 3260.3420     8.1564     -.0177    41.8715    21.8491     2.5167
 3260.4944     8.1183     -.0015    42.6442    21.1017     2.5347
 3260.6468     8.1976      .0222    43.2494    21.1015     2.5414
 3260.7992     8.3065      .0080    44.0719    21.4621     2.5211
 3260.9516     8.3848     -.0042    45.5757    22.0791     2.4709
 3261.1040     8.2351     -.0125    46.5873    23.0095     2.4460
 3261.2564     8.0735     -.0152    48.1743    24.5996     2.4309
 3261.4088     8.0719     -.0109    49.9530    25.6642     2.4186
 3261.5612     8.0947     -.0055    50.9218    26.5479     2.4106
 3261.7136     8.1802     -.0032    51.0733    26.3670     2.4208
 3261.8660     8.3285     -.0120    48.5782    25.1998     2.4114
 3262.0184     8.4108     -.0260    45.7064    24.1167     2.3695
 3262.1708     8.2443     -.0308    45.7000    24.5655     2.3421
 3262.3232     8.1316     -.0304    45.3902    25.0546     2.3598
 3262.4756     8.1431     -.0312    43.2390    24.3067     2.3618
 3262.6280     8.1478     -.0399    41.7729    23.4612     2.3313
 3262.7804     8.1479     -.0474    43.5864    22.6157     2.3030
 3262.9328     8.1428     -.0449    44.5390    22.3526     2.3202
 3263.0852     8.1341     -.0388    44.6328    22.1537     2.3466
 3263.2376     8.1769     -.0267    45.3434    21.1817     2.4006
 3263.3900     8.2732     -.0020    46.0767    20.2084     2.4652
 3263.5424     8.4382      .0276    45.6337    19.5918     2.5299
 3263.6948     8.7108      .0303    45.0530    19.2284     2.5897
 3263.8472     8.9755      .0441    44.3690    18.6656     2.6025
 3263.9996     9.0841      .0394    44.5896    17.7982     2.5718
 3264.1520     9.0867      .0344    47.1027    17.0070     2.5755
 3264.3044     9.0725      .0207    49.5509    16.6547     2.5571
 3264.4568     9.0557      .0189    51.6676    17.3050     2.5500
 3264.6092     9.0343      .0246    52.7675    17.3304     2.5649
 3264.7616     9.0120      .0346    53.0169    16.5995     2.5981
 3264.9140     8.9896      .0511    52.7308    15.3930     2.6381
 3265.0664     8.9672      .0373    49.3040    15.3362     2.6478
 3265.2188     8.9747      .0544    47.4960    15.4933     2.6630
 3265.3712     8.9896      .0830    46.1174    15.4433     2.6813
 3265.5236     9.0007      .1024    44.3040    14.5139     2.6962
 3265.6760     9.0024      .1154    41.8234    13.4904     2.6997
 3265.8284     9.0025      .1187    40.9295    14.3119     2.6965
 3265.9808     9.0026      .1244    41.9467    16.5296     2.6804
 3266.1332     9.0045      .1143    44.3217    18.7474     2.6339
 3266.2856     9.0097      .0776    48.1450    20.9641     2.5885
 3266.4380     9.0156      .0396    51.0545    23.1882     2.5241
 3266.5904     9.0206      .0183    50.7323    25.6244     2.4478
 3266.7428     9.0063     -.0053    49.1184    27.7095     2.3909
 3266.8952     8.8988     -.0434    47.0497    27.5969     2.3210
 3267.0476     8.4710     -.0567    46.4539    27.5177     2.2849
 3267.2000     8.1987     -.0555    47.6838    27.7710     2.2777
 3267.3524     8.1211     -.0471    46.3061    27.4324     2.2796
 3267.5048     8.1183     -.0487    44.0665    26.3760     2.2871
 3267.6572     8.1277     -.0535    42.7417    25.3184     2.2966
 3267.8096     8.1371     -.0500    43.3995    24.9632     2.2999
 3267.9620     8.1464     -.0507    43.1830    25.3613     2.2956
 3268.1144     8.1584     -.0659    43.0514    24.3328     2.2942
 3268.2668     8.1718     -.0556    44.7177    23.1577     2.3102
 3268.4192     8.1853     -.0412    46.4775    22.6147     2.3307
