~VERSION INFORMATION
VERS.                                                 2.0:   CWLS Log ASCII Standard-VERSION 2.0
WRAP.                                                  NO:   One line per depth step
~Well Information Block
STRT.M                                          2747.9732:   Top Depth
STOP.M                                          3514.5452:   Bottom Depth
STEP.M                                             .15240:   Depth Increment
NULL.                                            -999.250:   Null Value
FLD .                                             WILDCAT:   Field Name
WELL.                                              15/6-4:   NAME
WBN .                                              15/6-4:   WELLBORE
NATI.                                                 NOR:   COUNTRY
BHT1.DEGF                                            95.0:   BH TEMP 1
BS1 .IN                                             17.50:   BIT SIZE 1
CTRY.                                                 NOR:   COUNTRY
CBD1.M                                       378.89996338:   CSG 1 DRILL DEP
CBL1.M                                              379.0:   CSG 1 LOG DEP
CS1 .IN                                              20.0:   CSG 1 SIZE
COMP.                ESSO EXP. AND PRODUCTION NORWAY INC.:   OPERATOR
PDAT.                                                 MSL:   PERM DATUM
PROV.                                           NORTH SEA:   PROVINCE
COUN.                                             NORJARL:   RIG NAME
SPUD.                                          1976/06/29:   SPUD DATE
LATI.                                       58 37 34.39 N:   SURF. LATITUDE
LONG.                                        1 48 19.94 E:   SURF. LONGITUDE
BTD1.                                      1016.1999512 M:   TOTAL DEPTH 1
PBWE.                                              15/6-4:   PB WELL ID
APIN.                                              15/6-4:   PB WELLBORE ID
PBWS.                                                 all:   PB WELL NAME SET
~PARAMETER INFORMATION (log)
LNAM.                              FDC/CNL/GR  COMPOSITED:   NAME
LTYP.                                         DEPTH MATCH:   LOG TYPE
LSRV.                                            DEN/NEUT:   LOG SERVICE
LSOU.                                             SPT/NPD:   LOG SOURCE
LVSN.                                                   1:   LOG VERSION
BHIS.                                                   R:   BRIEF HISTORY
FHIS.                                             RAW-LIS:   FULL HISTORY
LCNM.                                        SCHLUMBERGER:   LOGGING CONTRACTOR
TOOL.                             FDC/CNL/GR (COMPOSITED):   TOOL STRING
~Curve Information Block
#MNEM.UNIT                                        API CODE    No Description
#=========                                        ========    == ===========
DEPT.M                                       00 001 00 00:     1  DEPTH
CALI.IN                                                  :     2  Caliper
DRHO.G/CC                                                :     3  Bulk density correction
GR.GAPI                                                  :     4  Gamma Ray
NPHI.%                                                   :     5  Neutron porosity
RHOB.G/CC                                                :     6  Bulk density
~ASCII
# ...
 3194.2004    11.2684      .0054    69.5523    44.0863     2.3534
 3194.3528    12.2090      .0017    68.0290    45.4959     2.3218
 3194.5052    12.7149     -.0003    65.7364    44.8388     2.2883
 3194.6576    12.6243      .0016    64.9030    43.8561     2.2691
 3194.8100    12.4647      .0083    65.9191    44.6892     2.3284
 3194.9624    12.2176      .0258    63.6295    44.5464     2.3542
 3195.1148    11.3988      .0184    62.7603    43.6759     2.3547
 3195.2672    11.1576      .0044    63.7352    41.8370     2.3233
 3195.4196    11.4738     -.0080    61.5291    40.9484     2.2845
 3195.5720    11.7859     -.0160    58.6545    42.7585     2.2475
 3195.7244    12.2303     -.0153    56.9951    40.9175     2.2419
 3195.8768    10.8066     -.0028    54.3484    38.3391     2.2707
 3196.0292    11.6306      .0050    54.5824    37.3836     2.3085
 3196.1816    11.9674      .0060    59.4115    40.4069     2.3432
 3196.3340    12.0468      .0061    60.5791    43.1558     2.3515
 3196.4864    12.0401      .0065    59.7300    44.5662     2.3498
 3196.6388    12.0335      .0083    59.6204    44.7253     2.3563
 3196.7912    11.5380      .0132    60.3851    36.7845     2.4211
 3196.9436     9.8024      .0219    59.4491    28.1256     2.4856
 3197.0960     9.8976      .0323    58.7024    24.3194     2.4399
 3197.2484    10.1772      .0337    67.0594    29.7162     2.3933
 3197.4008    10.4572      .0242    72.7636    34.6533     2.4193
 3197.5532    10.6863      .0169    75.8822    36.6490     2.4385
 3197.7056    10.6804      .0203    74.7669    35.1133     2.4458
 3197.8580    10.5917      .0304    75.9191    35.9645     2.4608
 3198.0104    10.4914      .0268    76.4689    36.7379     2.4505
 3198.1628    10.4966      .0102    73.8817    36.8915     2.4208
 3198.3152    10.5501      .0066    68.7557    38.2317     2.3942
 3198.4676    10.8965      .0073    63.6185    40.9516     2.3444
 3198.6200    11.4808      .0004    60.1399    43.5125     2.2999
 3198.7724    12.2042     -.0101    57.9220    44.7918     2.3099
 3198.9248    12.8431     -.0246    55.7589    46.0536     2.3256
 3199.0772    12.9413     -.0159    56.3180    45.3146     2.3387
 3199.2296    12.9236     -.0039    56.1860    43.6787     2.3500
 3199.3820    12.8756     -.0099    55.0316    42.0455     2.3624
 3199.5344    12.8943     -.0087    54.8533    40.5992     2.3529
 3199.6868    12.9452     -.0023    56.3882    38.6167     2.3220
 3199.8392    12.8590      .0014    57.0530    38.9897     2.3268
 3199.9916    12.3867      .0060    54.7437    37.5302     2.3614
 3200.1440    11.4574      .0157    52.8562    35.2553     2.4183
 3200.2964    10.1857      .0215    50.3072    32.9804     2.4709
 3200.4488     9.9411      .0201    47.0654    30.7056     2.5018
 3200.6012    10.2591      .0290    49.7484    30.1060     2.5214
 3200.7536    10.6869      .0054    54.3356    33.6022     2.5287
 3200.9060    10.3018      .0080    58.9081    37.2780     2.5378
 3201.0584    10.4485      .0209    60.8613    40.6290     2.5252
 3201.2108    10.8233      .0199    61.1088    40.3852     2.4388
 3201.3632    11.3617      .0085    62.4026    39.5297     2.3278
 3201.5156    11.0128      .0047    63.9340    38.6756     2.3285
 3201.6680    10.9726      .0102    67.1854    38.3349     2.3767
 3201.8204    11.1151      .0135    68.5005    39.5193     2.3932
 3201.9728    11.4505      .0170    68.4679    38.8775     2.4044
 3202.1252    11.8719      .0186    68.0157    38.1974     2.4038
 3202.2776    12.0793      .0124    67.2660    38.3533     2.3894
 3202.4300    11.5615      .0066    66.4782    39.7100     2.3718
 3202.5824    11.3063      .0287    66.4740    40.3640     2.3524
 3202.7348    11.0244      .0201    65.3061    41.7265     2.3308
 3202.8872    10.9465      .0118    65.5442    41.5995     2.3110
 3203.0396    10.8208      .0190    65.5329    39.5774     2.2917
 3203.1920    10.6263      .0244    66.2542    40.1121     2.2721
 3203.3444    10.6472      .0288    64.6806    41.8522     2.2962
 3203.4968    11.0083      .0098    62.6776    43.1899     2.3273
 3203.6492    11.0317      .0169    62.6365    43.6080     2.3371
 3203.8016    11.0318      .0151    62.9456    44.3348     2.3232
 3203.9540    11.0766      .0018    64.0489    43.8024     2.3116
 3204.1064    11.1377      .0036    65.5232    43.9931     2.3267
 3204.2588    11.1212      .0137    67.9007    43.2797     2.3496
 3204.4112    10.9404      .0188    69.0407    41.3346     2.3538
 3204.5636    10.7190      .0211    69.1262    39.1866     2.3622
 3204.7160    10.7815      .0448    68.3121    39.4003     2.3902
 3204.8684    10.9877      .0375    67.2377    40.5108     2.4046
 3205.0208    11.1967      .0303    65.4690    41.0612     2.4099
 3205.1732    11.3049      .0389    64.5137    40.5040     2.4238
 3205.3256    11.2347      .0436    65.6264    39.9433     2.3995
 3205.4780    11.4961      .0328    65.6495    40.4860     2.3543
 3205.6304    11.8742      .0309    66.8928    41.0090     2.3481
 3205.7828    10.8338      .0430    68.6692    40.5341     2.4072
 3205.9352    10.2913      .0447    70.3142    41.0420     2.3845
 3206.0876    10.5425      .0349    70.4026    42.6513     2.3325
 3206.2400    10.9037      .0208    68.9991    43.3296     2.3041
 3206.3924    10.8043      .0092    66.7361    42.4486     2.2794
 3206.5448    10.8397      .0017    64.1027    41.2930     2.2267
 3206.6972    11.4558     -.0198    59.9051    42.0010     2.1334
 3206.8496    12.1336     -.0417    54.9988    43.5306     2.0799
 3207.0020    12.8103     -.0474    52.8585    45.2634     2.0521
 3207.1544    13.4881     -.0444    54.2890    45.7143     2.0566
 3207.3068    14.1648     -.0371    59.1265    42.8304     2.1141
 3207.4592    13.9454     -.0235    64.0694    38.4044     2.2044
 3207.6116    11.1600     -.0059    71.0564    34.9072     2.3486
 3207.7640     9.9773      .0095    75.5886    32.8186     2.4627
 3207.9164     9.9344      .0153    77.5866    32.5222     2.4800
 3208.0688     9.9353      .0167    79.3328    32.8633     2.4720
 3208.2212     9.9522      .0194    79.3731    31.7939     2.4786
 3208.3736     9.9354      .0217    78.3587    30.4739     2.4921
 3208.5260     9.8352      .0205    77.1488    29.1560     2.5087
 3208.6784     9.7611      .0167    76.1779    28.7192     2.5053
 3208.8308     9.7923      .0145    74.7774    29.9371     2.4941
 3208.9832     9.8242      .0100    73.1629    31.0356     2.4880
 3209.1356     9.9054      .0071    72.6417    31.0024     2.4934
 3209.2880     9.9500      .0124    71.5791    30.6026     2.4981
 3209.4404     9.8933      .0188    71.4650    29.8702     2.4976
 3209.5928     9.8768      .0136    71.3260    28.9439     2.5016
 3209.7452     9.8967      .0047    72.0913    28.0206     2.4971
 3209.8976     9.8937      .0105    72.6909    27.6051     2.4916
 3210.0500     9.8581      .0194    74.8956    28.4091     2.5065
 3210.2024     9.8368      .0215    78.3311    28.5138     2.4909
 3210.3548     9.8363      .0209    76.5311    28.0668     2.4786
 3210.5072     9.8727      .0246    72.7470    27.2026     2.4867
 3210.6596     9.9485      .0320    68.2032    25.9251     2.4792
 3210.8120     9.9936      .0309    66.6729    25.7413     2.4765
 3210.9644     9.9710      .0246    63.6086    26.3256     2.4724
 3211.1168     9.9616      .0281    60.4968    27.0982     2.4815
 3211.2692     9.9647      .0326    58.7936    27.5489     2.4875
 3211.4216     9.9477      .0349    56.7474    26.9610     2.5129
 3211.5740     9.9085      .0342    54.6839    25.0679     2.5427
 3211.7264     9.7496      .0156    50.6448    22.6375     2.5772
 3211.8788     9.5352     -.0015    44.9713    20.2109     2.6330
 3212.0312     9.4107     -.0076    40.1403    17.7845     2.6829
 3212.1836     9.3724     -.0011    36.1736    15.5157     2.7186
 3212.3360     9.3719      .0082    34.1486    14.7796     2.7304
 3212.4884     9.3777      .0022    35.0282    14.0525     2.7120
 3212.6408     9.3913      .0014    37.9840    14.3052     2.6794
