~VERSION INFORMATION
VERS.                                                 2.0:   CWLS Log ASCII Standard-VERSION 2.0
WRAP.                                                  NO:   One line per depth step
~Well Information Block
STRT.M                                          2747.9732:   Top Depth
STOP.M                                          3514.5452:   Bottom Depth
STEP.M                                             .15240:   Depth Increment
NULL.                                            -999.250:   Null Value
FLD .                                             WILDCAT:   Field Name
WELL.                                              15/6-4:   NAME
WBN .                                              15/6-4:   WELLBORE
NATI.                                                 NOR:   COUNTRY
BHT1.DEGF                                            95.0:   BH TEMP 1
BS1 .IN                                             17.50:   BIT SIZE 1
CTRY.                                                 NOR:   COUNTRY
CBD1.M                                       378.89996338:   CSG 1 DRILL DEP
CBL1.M                                              379.0:   CSG 1 LOG DEP
CS1 .IN                                              20.0:   CSG 1 SIZE
COMP.                ESSO EXP. AND PRODUCTION NORWAY INC.:   OPERATOR
PDAT.                                                 MSL:   PERM DATUM
PROV.                                           NORTH SEA:   PROVINCE
COUN.                                             NORJARL:   RIG NAME
SPUD.                                          1976/06/29:   SPUD DATE
LATI.                                       58 37 34.39 N:   SURF. LATITUDE
LONG.                                        1 48 19.94 E:   SURF. LONGITUDE
BTD1.                                      1016.1999512 M:   TOTAL DEPTH 1
PBWE.                                              15/6-4:   PB WELL ID
APIN.                                              15/6-4:   PB WELLBORE ID
PBWS.                                                 all:   PB WELL NAME SET
~PARAMETER INFORMATION (log)
LNAM.                              FDC/CNL/GR  COMPOSITED:   NAME
LTYP.                                         DEPTH MATCH:   LOG TYPE
LSRV.                                            DEN/NEUT:   LOG SERVICE
LSOU.                                             SPT/NPD:   LOG SOURCE
LVSN.                                                   1:   LOG VERSION
BHIS.                                                   R:   BRIEF HISTORY
FHIS.                                             RAW-LIS:   FULL HISTORY
LCNM.                                        SCHLUMBERGER:   LOGGING CONTRACTOR
TOOL.                             FDC/CNL/GR (COMPOSITED):   TOOL STRING
~Curve Information Block
#MNEM.UNIT                                        API CODE    No Description
#=========                                        ========    == ===========
DEPT.M                                       00 001 00 00:     1  DEPTH
CALI.IN                                                  :     2  Caliper
DRHO.G/CC                                                :     3  Bulk density correction
GR.GAPI                                                  :     4  Gamma Ray
NPHI.%                                                   :     5  Neutron porosity
RHOB.G/CC                                                :     6  Bulk density
~ASCII
# ...
 3138.4220     9.4791      .0248    19.7580    12.3809     2.4658
 3138.5744     9.5239      .0250    19.9046    13.5342     2.4605
 3138.7268     9.6001      .0235    18.6806    13.4760     2.4777
 3138.8792     9.6759      .0177    16.5564    12.0894     2.4894
 3139.0316     9.7499      .0115    14.6864    11.2042     2.4939
 3139.1840     9.8219      .0096    15.3986    11.2182     2.4807
 3139.3364     9.8921      .0112    16.8724    11.5646     2.4816
 3139.4888     9.9481      .0188    18.6348    12.1710     2.4751
 3139.6412     9.9533      .0301    19.4881    12.7774     2.4913
 3139.7936     9.9463      .0332    19.4469    13.3849     2.5010
 3139.9460     9.9474      .0397    17.8592    13.7853     2.5067
 3140.0984    10.0177      .0370    16.7825    13.7229     2.4941
 3140.2508    10.0967      .0475    17.6530    13.9626     2.4673
 3140.4032    10.1779      .0191    18.8071    14.6822     2.4366
 3140.5556    10.2663      .0146    18.9723    15.1700     2.4175
 3140.7080    10.3531      .0226    18.8189    15.7646     2.4265
 3140.8604    10.4260      .0197    19.9594    16.7444     2.4298
 3141.0128    10.4659      .0218    21.1689    17.9340     2.4303
 3141.1652    10.5010      .0307    21.2211    18.1901     2.4250
 3141.3176    10.5257      .0364    20.2657    15.6881     2.4406
 3141.4700    10.5514      .0350    19.3060    13.6848     2.4631
 3141.6224    10.5572      .0373    19.3265    13.9080     2.4870
 3141.7748    10.5405      .0478    21.0639    15.3934     2.5094
 3141.9272    10.5401      .0578    22.3485    16.8764     2.5095
 3142.0796    10.5708      .0612    20.5678    18.1486     2.4975
 3142.2320    10.5982      .0439    17.8708    16.6560     2.4928
 3142.3844    10.5769      .0188    16.6521    14.4300     2.4595
 3142.5368    10.4379      .0132    15.6917    13.9035     2.4583
 3142.6892    10.3607      .0168    14.7314    14.1928     2.4676
 3142.8416    10.3278      .0101    13.8854    14.3181     2.4495
 3142.9940    10.3026      .0046    14.8370    14.2834     2.4541
 3143.1464    10.2503      .0140    16.1975    14.1824     2.4767
 3143.2988    10.0767      .0251    16.3824    13.8973     2.4964
 3143.4512    10.0233      .0234    18.5253    13.8349     2.4859
 3143.6036     9.9721      .0265    20.6716    13.9894     2.4967
 3143.7560     9.9027      .0232    22.8145    13.7430     2.5044
 3143.9084     9.7699      .0257    24.9172    13.3506     2.4961
 3144.0608     9.6821      .0264    26.1649    13.6133     2.4723
 3144.2132     9.4693      .0231    26.2526    13.2867     2.4604
 3144.3656     9.2771      .0176    25.9484    12.5609     2.4599
 3144.5180     9.1465      .0139    25.9337    12.9879     2.4518
 3144.6704     9.0711      .0165    26.0381    14.1410     2.4396
 3144.8228     9.0280      .0322    26.0373    15.2940     2.4565
 3144.9752     9.0096      .0364    25.9678    16.2690     2.4459
 3145.1276     8.9898      .0372    25.8730    16.4868     2.4385
 3145.2800     8.9789      .0261    25.5684    16.3349     2.4306
 3145.4324     8.9742      .0166    25.0116    16.0157     2.4379
 3145.5848     8.9698      .0201    23.9326    15.7343     2.4553
 3145.7372     8.9654      .0257    23.3870    15.8031     2.4632
 3145.8896     8.9610      .0186    23.2277    15.6284     2.4565
 3146.0420     8.9566      .0136    23.0305    14.5488     2.4494
 3146.1944     8.9522      .0214    22.7470    13.3428     2.4494
 3146.3468     8.9478      .0254    22.4506    12.1129     2.4494
 3146.4992     8.9434      .0181    23.4143    10.8849     2.4594
 3146.6516     8.9390      .0068    24.2444     9.6544     2.4687
 3146.8040     8.9357      .0043    24.6227     8.4251     2.4680
 3146.9564     8.9371      .0050    24.3102     7.6024     2.4611
 3147.1088     8.9397      .0061    24.1800     7.5517     2.4577
 3147.2612     8.9423      .0089    24.5174     7.7394     2.4527
 3147.4136     8.9447      .0123    24.8147     8.0242     2.4468
 3147.5660     8.9473      .0115    24.4597     8.2458     2.4398
 3147.7184     8.9499      .0109    24.0708     8.3250     2.4479
 3147.8708     8.9526      .0130    24.0661     8.1211     2.4657
 3148.0232     8.9552      .0186    24.5781     7.8810     2.4792
 3148.1756     8.9579      .0240    24.9541     7.7080     2.4737
 3148.3280     8.9605      .0267    24.7320     7.5600     2.4549
 3148.4804     8.9631      .0217    24.3639     7.4700     2.4480
 3148.6328     8.9657      .0208    24.5457     7.3498     2.4743
 3148.7852     8.9679      .0360    25.3392     7.2878     2.5003
 3148.9376     8.9699      .0571    25.9666     7.3873     2.4727
 3149.0900     8.9720      .0499    25.8958     7.4867     2.4119
 3149.2424     8.9740      .0369    25.8249     7.6639     2.3938
 3149.3948     8.9760      .0300    25.1549     7.8996     2.4074
 3149.5472     8.9781      .0230    23.7992     8.2389     2.4040
 3149.6996     8.9794      .0159    22.0089     8.6168     2.3962
 3149.8520     8.9774      .0136    19.5397     8.9942     2.3960
 3150.0044     8.9693      .0198    19.4716     9.6694     2.3989
 3150.1568     8.9607      .0343    21.1681    11.0706     2.4254
 3150.3092     8.9521      .0390    22.4980    12.4239     2.4362
 3150.4616     8.9438      .0275    23.3460    13.3722     2.4439
 3150.6140     8.9376      .0311    24.0878    14.2395     2.4695
 3150.7664     8.9367      .0367    24.3682    14.9781     2.4851
 3150.9188     8.9380      .0428    23.4865    15.2122     2.5195
 3151.0712     8.9651      .0532    22.8542    15.5014     2.5498
 3151.2236     9.0977      .0434    23.1271    15.4859     2.5729
 3151.3760     9.3308      .0435    24.3957    15.1664     2.5829
 3151.5284     9.3920      .0400    25.3528    14.8414     2.5819
 3151.6808     9.3932      .0599    24.5331    14.4153     2.6027
 3151.8332     9.3944      .0658    23.2986    13.9531     2.6139
 3151.9856     9.3957      .0582    22.3170    13.0800     2.6004
 3152.1380     9.3969      .0622    21.3336    11.3358     2.6088
 3152.2904     9.3981      .0694    20.3428     9.5908     2.6185
 3152.4428     9.3993      .0666    19.4919     8.3683     2.6026
 3152.5952     9.4006      .0588    19.3610     7.8558     2.5872
 3152.7476     9.4018      .0454    19.3946     7.0598     2.5728
 3152.9000     9.4030      .0453    18.6698     6.6757     2.5793
 3153.0524     9.4056      .0621    18.3273     6.5673     2.6060
 3153.2048     9.4091      .0727    20.4375     6.6430     2.6058
 3153.3572     9.4127      .0473    23.2493     6.8746     2.5768
 3153.5096     9.4163      .0459    28.4247     8.4678     2.5724
 3153.6620     9.4193      .0584    34.1781    10.8964     2.5953
 3153.8144     9.4191      .0537    39.3255    13.3193     2.5900
 3153.9668     9.4184      .0357    41.6792    15.4011     2.5870
 3154.1192     9.4176      .0380    42.8672    16.2341     2.5879
 3154.2716     9.4169      .0379    41.8081    15.7701     2.5819
 3154.4240     9.4165      .0518    40.4932    15.8622     2.5920
 3154.5764     9.4179      .0470    39.4816    15.8094     2.6024
 3154.7288     9.4212      .0401    38.7775    15.0564     2.6049
 3154.8812     9.4246      .0327    38.0242    14.0949     2.5918
 3155.0336     9.4279      .0276    36.5810    13.2003     2.5731
 3155.1860     9.4386      .0372    33.5228    12.8134     2.5611
 3155.3384     9.4831      .0361    31.1274    12.5268     2.5375
 3155.4908     9.5538      .0450    29.5422    11.5897     2.5352
 3155.6432     9.6197      .0471    28.6721    10.4987     2.5402
 3155.7956     9.6705      .0505    28.7351    10.6590     2.5527
 3155.9480     9.6758      .0568    30.7912    11.4806     2.5622
 3156.1004     9.6764      .0348    31.1048    12.1754     2.5465
 3156.2528     9.6830      .0193    32.0425    11.9833     2.5469
 3156.4052     9.6897      .0165    33.5363    11.5342     2.5378
 3156.5576     9.7362      .0051    35.2615    11.6288     2.5096
 3156.7100     9.8047      .0036    40.9796    12.0151     2.4944
 3156.8624     9.8952      .0059    47.9987    13.0155     2.4396
