~VERSION INFORMATION
VERS.                                                 2.0:   CWLS Log ASCII Standard-VERSION 2.0
WRAP.                                                  NO:   One line per depth step
~Well Information Block
STRT.M                                          2747.9732:   Top Depth
STOP.M                                          3514.5452:   Bottom Depth
STEP.M                                             .15240:   Depth Increment
NULL.                                            -999.250:   Null Value
FLD .                                             WILDCAT:   Field Name
WELL.                                              15/6-4:   NAME
WBN .                                              15/6-4:   WELLBORE
NATI.                                                 NOR:   COUNTRY
BHT1.DEGF                                            95.0:   BH TEMP 1
BS1 .IN                                             17.50:   BIT SIZE 1
CTRY.                                                 NOR:   COUNTRY
CBD1.M                                       378.89996338:   CSG 1 DRILL DEP
CBL1.M                                              379.0:   CSG 1 LOG DEP
CS1 .IN                                              20.0:   CSG 1 SIZE
COMP.                ESSO EXP. AND PRODUCTION NORWAY INC.:   OPERATOR
PDAT.                                                 MSL:   PERM DATUM
PROV.                                           NORTH SEA:   PROVINCE
COUN.                                             NORJARL:   RIG NAME
SPUD.                                          1976/06/29:   SPUD DATE
LATI.                                       58 37 34.39 N:   SURF. LATITUDE
LONG.                                        1 48 19.94 E:   SURF. LONGITUDE
BTD1.                                      1016.1999512 M:   TOTAL DEPTH 1
PBWE.                                              15/6-4:   PB WELL ID
APIN.                                              15/6-4:   PB WELLBORE ID
PBWS.                                                 all:   PB WELL NAME SET
~PARAMETER INFORMATION (log)
LNAM.                              FDC/CNL/GR  COMPOSITED:   NAME
LTYP.                                         DEPTH MATCH:   LOG TYPE
LSRV.                                            DEN/NEUT:   LOG SERVICE
LSOU.                                             SPT/NPD:   LOG SOURCE
LVSN.                                                   1:   LOG VERSION
BHIS.                                                   R:   BRIEF HISTORY
FHIS.                                             RAW-LIS:   FULL HISTORY
LCNM.                                        SCHLUMBERGER:   LOGGING CONTRACTOR
TOOL.                             FDC/CNL/GR (COMPOSITED):   TOOL STRING
~Curve Information Block
#MNEM.UNIT                                        API CODE    No Description
#=========                                        ========    == ===========
DEPT.M                                       00 001 00 00:     1  DEPTH
CALI.IN                                                  :     2  Caliper
DRHO.G/CC                                                :     3  Bulk density correction
GR.GAPI                                                  :     4  Gamma Ray
NPHI.%                                                   :     5  Neutron porosity
RHOB.G/CC                                                :     6  Bulk density
~ASCII
# ...
 3287.1644     7.8419     -.0610    37.4773    19.3460     2.4228
 3287.3168     7.8296     -.0680    36.9049    20.1487     2.3997
 3287.4692     7.8172     -.0601    35.6983    21.3077     2.3849
 3287.6216     7.8049     -.0532    34.4922    21.0401     2.3938
 3287.7740     7.7925     -.0573    33.2877    21.1270     2.4019
 3287.9264     7.7837     -.0567    32.2394    21.2168     2.4027
 3288.0788     7.7811     -.0632    31.8177    20.8243     2.4009
 3288.2312     7.7812     -.0676    31.9855    20.3257     2.4006
 3288.3836     7.7813     -.0692    32.2251    19.8280     2.4146
 3288.5360     7.7869     -.0672    32.2812    19.3824     2.4285
 3288.6884     7.7988     -.0644    32.1945    19.3763     2.4445
 3288.8408     7.8123     -.0542    33.0406    20.0041     2.4589
 3288.9932     7.8258     -.0440    36.4007    20.8338     2.4285
 3289.1456     7.8394     -.0533    35.8034    21.4122     2.4061
 3289.2980     7.8536     -.0461    37.7519    21.1878     2.3851
 3289.4504     7.9324     -.0389    39.7034    20.9941     2.3918
 3289.6028     8.0287     -.0289    41.6519    20.9534     2.4240
 3289.7552     8.0783     -.0010    43.1371    21.8525     2.4593
 3289.9076     8.1830      .0027    42.5597    22.4297     2.4644
 3290.0600     8.2472     -.0128    39.8575    20.9981     2.4687
 3290.2124     8.1539     -.0120    37.1592    19.9673     2.4875
 3290.3648     8.0819     -.0059    36.0778    19.2253     2.5201
 3290.5172     8.0681     -.0045    35.7113    18.4844     2.5150
 3290.6696     8.0760     -.0059    36.0099    17.7424     2.5119
 3290.8220     8.0845     -.0108    36.8158    17.0003     2.4979
 3290.9744     8.0938     -.0031    35.3240    16.1610     2.5016
 3291.1268     8.1608      .0084    34.5079    14.9734     2.5196
 3291.2792     8.2559      .0144    34.5412    14.6245     2.5338
 3291.4316     8.3161     -.0000    35.9243    15.3058     2.5184
 3291.5840     8.3761     -.0165    37.9337    16.2742     2.4978
 3291.7364     8.4355     -.0102    39.3173    17.2410     2.5121
 3291.8888     8.4353     -.0066    40.7210    18.2572     2.5102
 3292.0412     8.4311     -.0020    43.2508    19.4288     2.4904
 3292.1936     8.5172      .0067    43.7272    20.4150     2.4851
 3292.3460     8.6262      .0129    44.1425    19.5554     2.4884
 3292.4984     8.7006      .0100    45.4045    20.1168     2.4688
 3292.6508     8.6842      .0039    46.6653    20.7851     2.4493
 3292.8032     8.5616     -.0107    46.3747    21.2466     2.4380
 3292.9556     8.4008     -.0285    44.7432    20.6934     2.4296
 3293.1080     8.2405     -.0399    43.1170    19.2582     2.4212
 3293.2604     8.0795     -.0468    41.5000    17.8160     2.4204
 3293.4128     7.9347     -.0389    39.8871    16.9922     2.4490
 3293.5652     7.9291     -.0328    39.3645    16.3604     2.4877
 3293.7176     7.9236     -.0328    39.6040    16.0544     2.5035
 3293.8700     7.9181     -.0310    39.6555    15.9465     2.5026
 3294.0224     7.9473     -.0243    39.5603    15.5469     2.5116
 3294.1748     8.0172      .0019    38.3298    15.5358     2.5130
 3294.3272     8.1573     -.0113    36.5760    16.0502     2.4941
 3294.4796     8.2734     -.0277    37.0512    16.5931     2.4695
 3294.6320     8.0581     -.0194    40.0594    17.8438     2.4630
 3294.7844     8.0165     -.0056    43.1944    19.4780     2.4771
 3294.9368     8.1945     -.0115    41.0390    20.5338     2.4568
 3295.0892     8.3292     -.0247    37.4077    20.1484     2.4356
 3295.2416     8.2828     -.0123    35.0496    19.3205     2.4360
 3295.3940     8.2418      .0055    34.8165    19.3061     2.4407
 3295.5464     8.3019      .0251    36.0773    19.3066     2.4635
 3295.6988     8.4497      .0435    37.6164    19.2927     2.4988
 3295.8512     8.6690      .0413    38.0220    19.0981     2.4868
 3296.0036     8.6183      .0244    36.9779    19.2119     2.4756
 3296.1560     8.4503      .0054    36.7761    18.8575     2.4671
 3296.3084     8.2909     -.0133    39.0440    18.1414     2.4676
 3296.4608     8.2456     -.0147    42.2657    18.1021     2.4676
 3296.6132     8.2990     -.0084    44.4853    19.1899     2.4733
 3296.7656     8.3307     -.0102    44.4990    20.5429     2.4508
 3296.9180     8.3479     -.0163    42.5160    20.2156     2.4444
 3297.0704     8.3225     -.0290    41.0737    19.2967     2.4329
 3297.2228     8.2324     -.0262    42.7407    18.4100     2.4474
 3297.3752     8.2027     -.0064    47.2540    17.8753     2.4803
 3297.5276     8.3263      .0271    50.9138    17.3406     2.5207
 3297.6800     8.4894      .0487    50.0255    16.6204     2.5638
 3297.8324     8.6242      .0575    46.4792    15.5141     2.5992
 3297.9848     8.7144      .0496    44.5452    14.3584     2.6073
 3298.1372     8.7609      .0397    44.9867    13.7710     2.5993
 3298.2896     8.7665      .0377    46.5313    13.8500     2.5889
 3298.4420     8.7721      .0275    48.6778    14.3774     2.5712
 3298.5944     8.7738      .0156    50.7622    15.3723     2.5479
 3298.7468     8.7683      .0080    50.7346    16.4128     2.5312
 3298.8992     8.7432      .0004    47.7651    17.1997     2.5150
 3299.0516     8.6571     -.0045    45.1977    18.0218     2.4990
 3299.2040     8.4548     -.0083    43.1357    18.7564     2.4900
 3299.3564     8.1511     -.0191    41.5219    18.7600     2.4758
 3299.5088     7.9308     -.0310    40.7750    17.6839     2.4727
 3299.6612     7.8445     -.0405    41.3290    16.0092     2.4557
 3299.8136     7.8646     -.0308    42.8796    15.0447     2.4675
 3299.9660     7.9664     -.0132    44.2268    15.2045     2.4928
 3300.1184     8.0277      .0038    45.7786    15.5559     2.5129
 3300.2708     8.1057      .0208    46.2348    16.0338     2.5324
 3300.4232     8.2126      .0335    44.7957    16.3632     2.5343
 3300.5756     8.3223      .0318    42.6913    16.4045     2.5243
 3300.7280     8.4391      .0201    41.3834    16.5984     2.5116
 3300.8804     8.5579      .0078    41.6261    17.2160     2.4946
 3301.0328     8.5111     -.0045    43.3841    18.1281     2.4723
 3301.1852     8.2458     -.0168    44.2809    19.4032     2.4388
 3301.3376     8.0459     -.0292    43.7837    20.4105     2.4220
 3301.4900     7.9399     -.0280    42.7499    20.7030     2.4262
 3301.6424     7.9273     -.0196    42.0757    20.7482     2.4551
 3301.7948     7.9357     -.0182    42.4000    20.7109     2.4895
 3301.9472     7.9164     -.0336    43.3493    20.4939     2.4855
 3302.0996     7.8485     -.0493    44.1908    20.4462     2.4567
 3302.2520     7.7897     -.0536    44.4741    20.6520     2.4428
 3302.4044     7.7684     -.0559    44.5001    20.9198     2.4366
 3302.5568     7.7758     -.0572    44.8662    20.9483     2.4191
 3302.7092     7.8210     -.0488    44.9670    20.3913     2.4305
 3302.8616     7.8678     -.0398    43.6047    19.6949     2.4439
 3303.0140     7.8998     -.0446    41.3243    19.2298     2.4308
 3303.1664     7.8990     -.0512    39.2980    19.3434     2.4210
 3303.3188     7.8775     -.0410    37.1781    19.0698     2.4231
 3303.4712     7.8490     -.0287    39.5883    18.3780     2.4392
 3303.6236     7.8797     -.0218    39.7615    17.6593     2.4651
 3303.7760     7.9689      .0001    39.7382    17.0756     2.4935
 3303.9284     8.0321     -.0079    40.4767    17.2442     2.4908
 3304.0808     7.9300     -.0495    42.0593    18.7080     2.4555
 3304.2332     7.7282     -.0602    42.5394    19.6647     2.4403
 3304.3856     7.7144     -.0630    41.0992    19.2465     2.4576
 3304.5380     7.8165     -.0617    40.4356    18.8144     2.4655
 3304.6904     7.9302     -.0610    39.0308    18.5210     2.4720
 3304.8428     7.8736     -.0641    37.5002    17.6998     2.4593
 3304.9952     7.7975     -.0606    36.4226    16.7967     2.4558
 3305.1476     7.7817     -.0450    36.5507    15.8932     2.4653
 3305.3000     7.8136     -.0409    38.1395    15.7102     2.4757
 3305.4524     7.8882     -.0446    40.3094    16.0343     2.4682
 3305.6048     7.9694     -.0324    41.7925    16.1047     2.4807
