~VERSION INFORMATION
VERS.                                                 2.0:   CWLS Log ASCII Standard-VERSION 2.0
WRAP.                                                  NO:   One line per depth step
~Well Information Block
STRT.M                                          2747.9732:   Top Depth
STOP.M                                          3514.5452:   Bottom Depth
STEP.M                                             .15240:   Depth Increment
NULL.                                            -999.250:   Null Value
FLD .                                             WILDCAT:   Field Name
WELL.                                              15/6-4:   NAME
WBN .                                              15/6-4:   WELLBORE
NATI.                                                 NOR:   COUNTRY
BHT1.DEGF                                            95.0:   BH TEMP 1
BS1 .IN                                             17.50:   BIT SIZE 1
CTRY.                                                 NOR:   COUNTRY
CBD1.M                                       378.89996338:   CSG 1 DRILL DEP
CBL1.M                                              379.0:   CSG 1 LOG DEP
CS1 .IN                                              20.0:   CSG 1 SIZE
COMP.                ESSO EXP. AND PRODUCTION NORWAY INC.:   OPERATOR
PDAT.                                                 MSL:   PERM DATUM
PROV.                                           NORTH SEA:   PROVINCE
COUN.                                             NORJARL:   RIG NAME
SPUD.                                          1976/06/29:   SPUD DATE
LATI.                                       58 37 34.39 N:   SURF. LATITUDE
LONG.                                        1 48 19.94 E:   SURF. LONGITUDE
BTD1.                                      1016.1999512 M:   TOTAL DEPTH 1
PBWE.                                              15/6-4:   PB WELL ID
APIN.                                              15/6-4:   PB WELLBORE ID
PBWS.                                                 all:   PB WELL NAME SET
~PARAMETER INFORMATION (log)
LNAM.                              FDC/CNL/GR  COMPOSITED:   NAME
LTYP.                                         DEPTH MATCH:   LOG TYPE
LSRV.                                            DEN/NEUT:   LOG SERVICE
LSOU.                                             SPT/NPD:   LOG SOURCE
LVSN.                                                   1:   LOG VERSION
BHIS.                                                   R:   BRIEF HISTORY
FHIS.                                             RAW-LIS:   FULL HISTORY
LCNM.                                        SCHLUMBERGER:   LOGGING CONTRACTOR
TOOL.                             FDC/CNL/GR (COMPOSITED):   TOOL STRING
~Curve Information Block
#MNEM.UNIT                                        API CODE    No Description
#=========                                        ========    == ===========
DEPT.M                                       00 001 00 00:     1  DEPTH
CALI.IN                                                  :     2  Caliper
DRHO.G/CC                                                :     3  Bulk density correction
GR.GAPI                                                  :     4  Gamma Ray
NPHI.%                                                   :     5  Neutron porosity
RHOB.G/CC                                                :     6  Bulk density
~ASCII
# ...
 2803.7516     8.3667      .0120     8.8614    17.8291     2.4425
 2803.9040     8.3651      .0195     8.7941    17.3730     2.4401
 2804.0564     8.3644      .0194     8.7305    17.5991     2.4441
 2804.2088     8.3665      .0126     8.7605    17.5771     2.4358
 2804.3612     8.3701     -.0016     8.7257    16.9401     2.4399
 2804.5136     8.3736     -.0088     8.2782    16.2722     2.4558
 2804.6660     8.3769     -.0035     8.3009    15.0943     2.4862
 2804.8184     8.3803      .0094     8.7508    13.6223     2.5306
 2804.9708     8.3839      .0240     9.1884    12.3993     2.5706
 2805.1232     8.3653      .0194     9.5121    12.0344     2.5820
 2805.2756     8.3242      .0061     9.0085    11.8807     2.5754
 2805.4280     8.2797      .0039     8.8305    12.1044     2.5719
 2805.5804     8.2410      .0020     9.0824    12.6353     2.5688
 2805.7328     8.2091     -.0077     9.3075    13.0837     2.5439
 2805.8852     8.1790     -.0046     9.4603    12.9136     2.5388
 2806.0376     8.1894      .0005     9.4331    12.2666     2.5366
 2806.1900     8.3762      .0062     9.1974    12.0491     2.5449
 2806.3424     8.5960      .0002     8.9630    12.3635     2.5483
 2806.4948     8.6581      .0061     9.5527    12.1333     2.5593
 2806.6472     8.6679      .0192     9.9145    11.4507     2.5805
 2806.7996     8.6778      .0154     9.7069    10.8907     2.5689
 2806.9520     8.6874      .0123     9.1714    10.7775     2.5583
 2807.1044     8.6774      .0107     8.5404    10.8489     2.5811
 2807.2568     8.6607      .0124     9.0472    11.0922     2.5795
 2807.4092     8.6429      .0159     9.7663    11.7941     2.5796
 2807.5616     8.5977      .0262     9.3985    12.5540     2.5739
 2807.7140     8.5148      .0340     9.5917    13.2945     2.5703
 2807.8664     8.4299      .0269    10.0974    13.6856     2.5590
 2808.0188     8.4432      .0119    10.5207    14.0201     2.5409
 2808.1712     8.4736      .0036    10.8361    14.5755     2.5454
 2808.3236     8.4608     -.0002    10.7300    15.3694     2.5213
 2808.4760     8.3934     -.0005    10.2993    16.2703     2.5093
 2808.6284     8.2540      .0008    10.4862    16.4149     2.5013
 2808.7808     8.1716      .0041    10.7479    16.6575     2.4994
 2808.9332     8.1773      .0082    10.0429    16.3830     2.4960
 2809.0856     8.2015      .0152     9.3788    15.5813     2.4970
 2809.2380     8.2279      .0210     9.1483    14.7705     2.5032
 2809.3904     8.2887      .0214     9.3689    14.1349     2.5093
 2809.5428     8.2709      .0315     9.8145    14.0361     2.5471
 2809.6952     8.2064      .0237     9.6743    14.0600     2.5337
 2809.8476     8.2919      .0126     9.3785    13.3883     2.5136
 2810.0000     8.3919      .0079     9.7815    12.5482     2.5201
 2810.1524     8.4858      .0178     9.6601    12.0457     2.5461
 2810.3048     8.4466      .0386     9.2696    11.6294     2.5882
 2810.4572     8.3272      .0278     8.8581    11.0971     2.5720
 2810.6096     8.2197      .0125     8.3300    10.2318     2.5424
 2810.7620     8.1980      .0192     7.8928     9.3800     2.5538
 2810.9144     8.2636      .0122     7.8589     9.1566     2.5573
 2811.0668     8.5268      .0081     8.2825     9.7856     2.5737
 2811.2192     8.4596      .0151     8.7919    10.4961     2.5982
 2811.3716     8.3777      .0089     9.2907    11.6963     2.6004
 2811.5240     8.2907      .0123     9.5074    13.0096     2.5972
 2811.6764     8.3305      .0112     8.6525    13.9308     2.5619
 2811.8288     8.2102      .0080     8.1282    14.2313     2.5301
 2811.9812     8.2272      .0138     8.2510    14.2435     2.5339
 2812.1336     8.3348      .0192     8.5794    14.4065     2.5241
 2812.2860     8.4135      .0110     9.0225    14.0628     2.5151
 2812.4384     8.4510      .0003     9.6424    12.9971     2.4976
 2812.5908     8.4637     -.0021    10.2629    11.7668     2.4975
 2812.7432     8.4683     -.0003    10.9064    10.5346     2.4980
 2812.8956     8.4740     -.0098    11.6175    10.1586     2.4942
 2813.0480     8.4881     -.0079    12.4130    11.1846     2.5207
 2813.2004     8.4988     -.0108    13.7262    12.6611     2.5347
 2813.3528     8.5069     -.0229    15.9556    16.1511     2.4938
 2813.5052     8.5355     -.0285    19.2051    20.0110     2.4768
 2813.6576     8.7257      .0026    24.9620    23.7931     2.4623
 2813.8100     9.1968      .0446    31.0762    27.0123     2.4321
 2813.9624     9.6898      .0417    32.8840    28.6016     2.3926
 2814.1148     9.7373      .0232    31.1952    26.6968     2.4065
 2814.2672     9.2538      .0299    28.6553    22.9274     2.4735
 2814.4196     8.9197      .0233    26.7645    19.3730     2.5256
 2814.5720     8.9662      .0599    26.3597    20.4613     2.5386
 2814.7244     9.0562      .0554    25.9542    22.3393     2.5043
 2814.8768     9.3779      .0247    24.6005    21.3519     2.4804
 2815.0292     9.6664      .0133    23.9603    18.1048     2.4816
 2815.1816     9.0959      .0389    24.4986    16.2338     2.5185
 2815.3340     8.9819      .0723    25.4472    16.7406     2.5217
 2815.4864     9.0063      .0870    25.7398    17.6372     2.4997
 2815.6388     9.0131      .1175    26.0890    18.5365     2.5177
 2815.7912     9.1190      .0908    26.1797    19.0654     2.5054
 2815.9436     9.1019      .0471    25.4805    17.9291     2.5157
 2816.0960     9.0828      .0561    24.6353    16.5998     2.5680
 2816.2484     9.1924      .0949    23.8531    15.6056     2.5972
 2816.4008     9.3557      .1269    23.6073    17.1154     2.5797
 2816.5532     9.4819      .0939    23.9883    17.9975     2.5386
 2816.7056     9.0448      .0679    24.2673    16.3743     2.5549
 2816.8580     9.1990      .0813    24.3793    15.1037     2.5521
 2817.0104     9.5922      .0764    24.7260    16.5954     2.5027
 2817.1628     9.9854      .0515    25.2731    18.4362     2.4721
 2817.3152    10.3094      .0388    24.8589    18.5319     2.4260
 2817.4676    10.4482      .0314    23.8221    16.9290     2.4019
 2817.6200    10.5507      .0340    23.0607    15.3260     2.3893
 2817.7724    10.1398      .0178    22.5291    14.3199     2.4034
 2817.9248     9.7607      .0035    22.7545    14.5111     2.4218
 2818.0772     9.2917      .0064    23.7382    14.9364     2.3998
 2818.2296     9.1119      .0165    25.1674    14.7751     2.3688
 2818.3820     9.3192      .0026    25.8584    15.8413     2.3770
 2818.5344     9.6329     -.0011    26.0328    17.4053     2.4182
 2818.6868     9.9461      .0028    24.4072    17.9721     2.4811
 2818.8392    10.0193      .0021    23.1302    17.0217     2.4915
 2818.9916     9.1947      .0077    23.8480    18.7341     2.4563
 2819.1440     9.4000      .0134    20.4445    20.8308     2.4486
 2819.2964     9.3536      .0144    15.9828    19.9560     2.5209
 2819.4488     9.0573      .0034    12.4430    14.6174     2.6171
 2819.6012     8.9964      .0075    12.1011     9.7684     2.6306
 2819.7536     9.0209      .0220    13.4107     9.2852     2.6261
 2819.9060     9.0519      .0416    16.2770    11.2848     2.6223
 2820.0584     9.0731      .0424    18.8570    13.5480     2.6030
 2820.2108     9.0959      .0142    18.9953    15.5747     2.5624
 2820.3632     9.0880      .0096    16.7716    16.6184     2.5201
 2820.5156     9.0765      .0167    15.7632    16.8235     2.5128
 2820.6680     9.1011      .0135    14.2864    15.6449     2.5414
 2820.8204     9.0904      .0126    12.9668    12.8102     2.5768
 2820.9728     9.0720      .0042    12.8188     9.9356     2.6044
 2821.1252     9.0817      .0070    13.7485    10.0699     2.6000
 2821.2776     9.0940      .0235    16.4606    12.6063     2.5826
 2821.4300     9.1047      .0417    19.6963    15.4957     2.5494
 2821.5824     9.1248      .0209    22.2852    18.2956     2.4832
 2821.7348     9.1466      .0399    23.8721    19.4842     2.4848
 2821.8872     9.1242      .0458    23.9124    20.6539     2.5045
 2822.0396     9.0839      .0285    20.9382    20.6948     2.5219
 2822.1920     9.0333      .0445    17.3690    18.0265     2.5486
