~VERSION INFORMATION
VERS.                                                 2.0:   CWLS Log ASCII Standard-VERSION 2.0
WRAP.                                                  NO:   One line per depth step
~Well Information Block
STRT.M                                          2747.9732:   Top Depth
STOP.M                                          3514.5452:   Bottom Depth
STEP.M                                             .15240:   Depth Increment
NULL.                                            -999.250:   Null Value
FLD .                                             WILDCAT:   Field Name
WELL.                                              15/6-4:   NAME
WBN .                                              15/6-4:   WELLBORE
NATI.                                                 NOR:   COUNTRY
BHT1.DEGF                                            95.0:   BH TEMP 1
BS1 .IN                                             17.50:   BIT SIZE 1
CTRY.                                                 NOR:   COUNTRY
CBD1.M                                       378.89996338:   CSG 1 DRILL DEP
CBL1.M                                              379.0:   CSG 1 LOG DEP
CS1 .IN                                              20.0:   CSG 1 SIZE
COMP.                ESSO EXP. AND PRODUCTION NORWAY INC.:   OPERATOR
PDAT.                                                 MSL:   PERM DATUM
PROV.                                           NORTH SEA:   PROVINCE
COUN.                                             NORJARL:   RIG NAME
SPUD.                                          1976/06/29:   SPUD DATE
LATI.                                       58 37 34.39 N:   SURF. LATITUDE
LONG.                                        1 48 19.94 E:   SURF. LONGITUDE
BTD1.                                      1016.1999512 M:   TOTAL DEPTH 1
PBWE.                                              15/6-4:   PB WELL ID
APIN.                                              15/6-4:   PB WELLBORE ID
PBWS.                                                 all:   PB WELL NAME SET
~PARAMETER INFORMATION (log)
LNAM.                              FDC/CNL/GR  COMPOSITED:   NAME
LTYP.                                         DEPTH MATCH:   LOG TYPE
LSRV.                                            DEN/NEUT:   LOG SERVICE
LSOU.                                             SPT/NPD:   LOG SOURCE
LVSN.                                                   1:   LOG VERSION
BHIS.                                                   R:   BRIEF HISTORY
FHIS.                                             RAW-LIS:   FULL HISTORY
LCNM.                                        SCHLUMBERGER:   LOGGING CONTRACTOR
TOOL.                             FDC/CNL/GR (COMPOSITED):   TOOL STRING
~Curve Information Block
#MNEM.UNIT                                        API CODE    No Description
#=========                                        ========    == ===========
DEPT.M                                       00 001 00 00:     1  DEPTH
CALI.IN                                                  :     2  Caliper
DRHO.G/CC                                                :     3  Bulk density correction
GR.GAPI                                                  :     4  Gamma Ray
NPHI.%                                                   :     5  Neutron porosity
RHOB.G/CC                                                :     6  Bulk density
~ASCII
# ...
 3101.2364     9.1738      .0645    16.7574    10.4479     2.6335
 3101.3888     9.1731      .0581    16.8907     8.7824     2.6195
 3101.5412     9.1724      .0504    17.1675     8.6543     2.6270
 3101.6936     9.1717      .0391    17.9311     9.1485     2.5973
 3101.8460     9.1710      .0202    18.8824    10.1081     2.5690
 3101.9984     9.1704      .0194    20.0004    10.9096     2.5566
 3102.1508     9.1697      .0179    21.6720    11.9390     2.5578
 3102.3032     9.1692      .0094    23.1679    13.0064     2.5409
 3102.4556     9.1685      .0117    24.1480    13.7938     2.5411
 3102.6080     9.1678      .0146    23.6095    14.1231     2.5673
 3102.7604     9.1679      .0176    22.0373    13.9919     2.5815
 3102.9128     9.1713      .0219    20.5321    13.1530     2.5960
 3103.0652     9.1753      .0261    19.6772    11.6063     2.6137
 3103.2176     9.1792      .0265    20.0666    11.8552     2.6189
 3103.3700     9.1831      .0343    22.3728    12.8435     2.6354
 3103.5224     9.1870      .0501    25.1548    13.4523     2.6470
 3103.6748     9.1910      .0363    25.1092    12.7777     2.6400
 3103.8272     9.1949      .0220    23.9473    11.9643     2.6213
 3103.9796     9.1988      .0226    23.2905    11.4268     2.6085
 3104.1320     9.2027      .0276    25.3929    12.0573     2.6049
 3104.2844     9.2067      .0256    27.8484    13.3415     2.5998
 3104.4368     9.2106      .0152    28.4399    14.4354     2.5942
 3104.5892     9.2140      .0130    26.1927    15.1427     2.5918
 3104.7416     9.2173      .0119    25.6548    15.8390     2.5831
 3104.8940     9.2139      .0206    25.7590    16.3601     2.5893
 3105.0464     9.2093      .0348    24.0521    16.0228     2.5978
 3105.1988     9.2048      .0384    22.0878    14.9234     2.5987
 3105.3512     9.2003      .0298    20.1266    13.7196     2.5976
 3105.5036     9.1958      .0205    18.7191    12.5139     2.5856
 3105.6560     9.1913      .0265    19.1069    12.2074     2.5943
 3105.8084     9.1868      .0272    20.3243    12.4447     2.5856
 3105.9608     9.1822      .0211    21.6397    12.8152     2.5741
 3106.1132     9.1777      .0316    22.3614    12.9007     2.5759
 3106.2656     9.1732      .0501    22.8867    12.4725     2.5874
 3106.4180     9.1687      .0507    23.3603    12.8409     2.5902
 3106.5704     9.1642      .0320    23.1868    12.6348     2.5718
 3106.7228     9.1596      .0295    21.3463    12.0383     2.5781
 3106.8752     9.1552      .0236    19.5168    11.4395     2.5702
 3107.0276     9.1513      .0293    19.9579    11.1746     2.5807
 3107.1800     9.1481      .0426    19.4493    11.2621     2.5913
 3107.3324     9.1472      .0476    16.4477    10.6555     2.5599
 3107.4848     9.1465      .0105    15.8975    10.0708     2.5458
 3107.6372     9.1458      .0127    17.0041    10.1230     2.5418
 3107.7896     9.1451      .0076    18.1086    10.3981     2.5319
 3107.9420     9.1444      .0104    17.5767     9.6806     2.5633
 3108.0944     9.1438      .0335    17.6441     8.9456     2.5887
 3108.2468     9.1431      .0338    17.4058     8.8702     2.5955
 3108.3992     9.1424      .0267    17.7875     9.3047     2.6017
 3108.5516     9.1417      .0227    19.5575    10.1173     2.5978
 3108.7040     9.1410      .0198    20.5344     9.8887     2.5863
 3108.8564     9.1404      .0087    20.9623     9.6547     2.5853
 3109.0088     9.1397      .0222    21.4109    10.4604     2.5768
 3109.1612     9.1390      .0492    22.3121    11.7698     2.5879
 3109.3136     9.1383      .0649    23.2354    13.0771     2.5555
 3109.4660     9.1378      .0227    22.5141    13.1476     2.5172
 3109.6184     9.1372      .0159    20.4063    12.3044     2.5032
 3109.7708     9.1365      .0187    20.8078    12.9501     2.5058
 3109.9232     9.1358      .0287    22.3165    13.6491     2.5129
 3110.0756     9.1351      .0338    22.0076    12.5925     2.5236
 3110.2280     9.1344      .0230    21.1885    11.5945     2.5303
 3110.3804     9.1338      .0146    21.4104    12.0291     2.5369
 3110.5328     9.1331      .0169    21.2340    11.9683     2.5209
 3110.6852     9.1324      .0288    20.5716    12.2400     2.4980
 3110.8376     9.1317      .0345    20.7719    13.3617     2.4899
 3110.9900     9.1310      .0239    20.6837    13.5675     2.4799
 3111.1424     9.1310      .0218    20.7470    12.7493     2.4796
 3111.2948     9.1449      .0219    23.2608    12.0919     2.4986
 3111.4472     9.1611      .0279    23.4308    12.3094     2.5215
 3111.5996     9.1689      .0281    22.0639    12.4147     2.5336
 3111.7520     9.1701      .0096    21.9890    13.5264     2.4953
 3111.9044     9.1711      .0072    23.1855    14.5387     2.4697
 3112.0568     9.1721      .0149    24.5159    14.9656     2.4703
 3112.2092     9.1731      .0233    25.2729    15.1495     2.4695
 3112.3616     9.1741      .0218    25.9772    15.2419     2.4760
 3112.5140     9.1752      .0127    25.5483    14.2049     2.4648
 3112.6664     9.1762      .0203    24.3348    13.6912     2.4557
 3112.8188     9.1772      .0156    22.6200    14.0776     2.4633
 3112.9712     9.1783      .0205    21.4559    13.6502     2.4835
 3113.1236     9.1793      .0281    19.7048    12.6334     2.5038
 3113.2760     9.1802      .0365    19.9529    12.8992     2.5153
 3113.4284     9.1764      .0309    19.8727    13.5590     2.4991
 3113.5808     9.1712      .0102    18.7934    12.4914     2.4852
 3113.7332     9.1660      .0166    18.2264    11.3807     2.5055
 3113.8856     9.1608      .0176    18.2313    11.5969     2.5188
 3114.0380     9.1556      .0336    18.2363    11.7589     2.5473
 3114.1904     9.1512      .0334    17.7774    10.7009     2.5761
 3114.3428     9.1460      .0446    17.8252    10.5172     2.5792
 3114.4952     9.1408      .0357    19.6725    10.8734     2.5713
 3114.6476     9.1356      .0340    20.6618    10.7971     2.5731
 3114.8000     9.1398      .0190    20.0669    10.8369     2.5492
 3114.9524     9.1452      .0136    20.2080    11.1937     2.5358
 3115.1048     9.1506      .0191    21.2900    11.7949     2.5295
 3115.2572     9.1561      .0271    20.5332    12.3569     2.5339
 3115.4096     9.1616      .0213    19.2725    12.0215     2.5355
 3115.5620     9.1670      .0191    18.0083    10.8272     2.5343
 3115.7144     9.1700      .0263    16.7461    10.5865     2.5374
 3115.8668     9.1693      .0236    16.2345    11.0769     2.5313
 3116.0192     9.1686      .0254    16.6992    11.0215     2.5231
 3116.1716     9.1680      .0143    19.2633    11.7537     2.5238
 3116.3240     9.1673      .0248    21.2618    12.4991     2.5309
 3116.4764     9.1668      .0233    22.3473    12.8277     2.5061
 3116.6288     9.1661      .0291    23.6436    12.4083     2.5051
 3116.7812     9.1654      .0456    25.5520    12.4553     2.5210
 3116.9336     9.1648      .0305    25.9675    13.5908     2.4959
 3117.0860     9.1641      .0155    25.7450    14.1587     2.4596
 3117.2384     9.1634      .0113    24.8730    14.1735     2.4338
 3117.3908     9.1627      .0095    23.4319    13.8531     2.4541
 3117.5432     9.1620      .0135    21.5625    13.0405     2.4776
 3117.6956     9.1614      .0237    19.6271    12.4292     2.4840
 3117.8480     9.1607      .0328    18.5611    12.0619     2.4862
 3118.0004     9.1600      .0232    18.6110    11.9101     2.4723
 3118.1528     9.1593      .0209    19.3270    11.9893     2.4867
 3118.3052     9.1586      .0388    20.3763    12.5806     2.5086
 3118.4576     9.1580      .0406    21.0101    13.1698     2.5113
 3118.6100     9.1573      .0215    20.2272    13.1384     2.5059
 3118.7624     9.1566      .0134    18.3667    12.4687     2.4880
 3118.9148     9.1561      .0170    17.6376    12.0456     2.4703
 3119.0672     9.1554      .0225    18.7934    12.0398     2.4744
 3119.2196     9.1548      .0233    18.9819    11.7724     2.4899
 3119.3720     9.1541      .0299    18.7868    11.7439     2.5027
 3119.5244     9.1534      .0410    20.3771    12.4910     2.5175
 3119.6768     9.1527      .0381    21.1359    13.2267     2.5152
