~VERSION INFORMATION
VERS.                                                 2.0:   CWLS Log ASCII Standard-VERSION 2.0
WRAP.                                                  NO:   One line per depth step
~Well Information Block
STRT.M                                          2747.9732:   Top Depth
STOP.M                                          3514.5452:   Bottom Depth
STEP.M                                             .15240:   Depth Increment
NULL.                                            -999.250:   Null Value
FLD .                                             WILDCAT:   Field Name
WELL.                                              15/6-4:   NAME
WBN .                                              15/6-4:   WELLBORE
NATI.                                                 NOR:   COUNTRY
BHT1.DEGF                                            95.0:   BH TEMP 1
BS1 .IN                                             17.50:   BIT SIZE 1
CTRY.                                                 NOR:   COUNTRY
CBD1.M                                       378.89996338:   CSG 1 DRILL DEP
CBL1.M                                              379.0:   CSG 1 LOG DEP
CS1 .IN                                              20.0:   CSG 1 SIZE
COMP.                ESSO EXP. AND PRODUCTION NORWAY INC.:   OPERATOR
PDAT.                                                 MSL:   PERM DATUM
PROV.                                           NORTH SEA:   PROVINCE
COUN.                                             NORJARL:   RIG NAME
SPUD.                                          1976/06/29:   SPUD DATE
LATI.                                       58 37 34.39 N:   SURF. LATITUDE
LONG.                                        1 48 19.94 E:   SURF. LONGITUDE
BTD1.                                      1016.1999512 M:   TOTAL DEPTH 1
PBWE.                                              15/6-4:   PB WELL ID
APIN.                                              15/6-4:   PB WELLBORE ID
PBWS.                                                 all:   PB WELL NAME SET
~PARAMETER INFORMATION (log)
LNAM.                              FDC/CNL/GR  COMPOSITED:   NAME
LTYP.                                         DEPTH MATCH:   LOG TYPE
LSRV.                                            DEN/NEUT:   LOG SERVICE
LSOU.                                             SPT/NPD:   LOG SOURCE
LVSN.                                                   1:   LOG VERSION
BHIS.                                                   R:   BRIEF HISTORY
FHIS.                                             RAW-LIS:   FULL HISTORY
LCNM.                                        SCHLUMBERGER:   LOGGING CONTRACTOR
TOOL.                             FDC/CNL/GR (COMPOSITED):   TOOL STRING
~Curve Information Block
#MNEM.UNIT                                        API CODE    No Description
#=========                                        ========    == ===========
DEPT.M                                       00 001 00 00:     1  DEPTH
CALI.IN                                                  :     2  Caliper
DRHO.G/CC                                                :     3  Bulk density correction
GR.GAPI                                                  :     4  Gamma Ray
NPHI.%                                                   :     5  Neutron porosity
RHOB.G/CC                                                :     6  Bulk density
~ASCII
 2747.9732  -999.2500     -.7497      .3235  -999.2500     2.5011
 2748.1256     6.0563     -.7492      .3302     -.2948     2.5013
 2748.2780     6.0597     -.7487      .3369     -.2968     2.5015
 2748.4304     6.0632     -.7481      .3435     -.2987     2.5017
 2748.5828     6.0667     -.7476      .3502     -.3007     2.5019
 2748.7352     6.0701     -.7475      .3568     -.3027     2.5021
 2748.8876     6.0736     -.7479      .3635     -.3046     2.5023
 2749.0400     6.0771     -.7484      .3702     -.3066     2.5025
 2749.1924     6.0805     -.7489      .3768     -.3086     2.5027
 2749.3448     6.0840     -.7495      .3835     -.3105     2.5029
 2749.4972     6.0875     -.7500      .3901     -.3125     2.5031
 2749.6496     6.0909     -.7507      .3968     -.3145     2.5033
 2749.8020     6.0944     -.7514      .4035     -.3164     2.5034
 2749.9544     6.0979     -.7522      .4034     -.3184     2.5035
 2750.1068     6.0989     -.7527      .3971     -.3203     2.5036
 2750.2592     6.0952     -.7529      .3889     -.3223     2.5037
 2750.4116     6.0878     -.7528      .3793     -.3243     2.5038
 2750.5640     6.0804     -.7528      .3698     -.3260     2.5038
 2750.7164     6.0729     -.7528      .3602     -.3234     2.5039
 2750.8688     6.0655     -.7528      .3506     -.3183     2.5040
 2751.0212     6.0580     -.7527      .3411     -.3133     2.5041
 2751.1736     6.0506     -.7527      .3315     -.3077     2.5042
 2751.3260     6.0523     -.7525      .3219     -.3020     2.5043
 2751.4784     6.0633     -.7520      .3124     -.2963     2.5044
 2751.6308     6.0746     -.7516      .3028     -.2907     2.5045
 2751.7832     6.1229     -.7513      .2962     -.2850     2.5046
 2751.9356     6.3746     -.7510      .2980     -.2794     2.5047
 2752.0880     6.7338     -.7507      .3047     -.2737     2.5047
 2752.2404     7.0973     -.7504      .3113     -.2681     2.5048
 2752.3928     7.4931     -.7501      .3180     -.2624     2.5049
 2752.5452     7.8925     -.7499      .3247     -.2568     2.5047
 2752.6976     8.2812     -.7496      .3314     -.2511     2.5045
 2752.8500     8.6764     -.7496      .3381     -.2454     2.5043
 2753.0024     8.9138     -.7501      .3447     -.2390     2.5040
 2753.1548     8.9341     -.7506      .3514     -.2285     2.5038
 2753.3072     8.9388     -.7511      .3581     -.2152     2.5036
 2753.4596     8.9388     -.7516      .3647     -.2020     2.5034
 2753.6120     8.9371     -.7519      .3714     -.1887     2.5034
 2753.7644     8.9345     -.7519      .3780     -.1766     2.5038
 2753.9168     8.9319     -.7516      .3099     -.1646     2.5043
 2754.0692     8.9293     -.7514     2.4498     -.1514     2.5048
 2754.2216     8.9267     -.7480    55.1943     -.1398     2.5044
 2754.3740     8.9247     -.7408    99.4292     -.1356     2.5024
 2754.5264     8.9244     -.7274    99.4365      .6797     2.3498
 2754.6788     8.9251     -.6646    99.4438     4.5644     2.1585
 2754.8312     8.9258     -.5970    99.4510    11.3428     2.1028
 2754.9836     8.9265     -.5981    99.4583    21.7381     2.1029
 2755.1360     8.9271     -.5988    99.4656    29.9478     2.1030
 2755.2884     8.9278     -.5990    99.4729    29.9459     2.1032
 2755.4408     8.9304     -.5990    99.4801    29.9440     2.1033
 2755.5932     8.9380     -.5989    99.4874    29.9422     2.1035
 2755.7456     8.9488     -.5989    99.4946    29.9403     2.1037
 2755.8980     8.9596     -.5989    99.5019    29.9384     2.1039
 2756.0504     8.9667     -.5989    99.5092    29.9365     2.1039
 2756.2028     8.9649     -.5988    99.5164    29.9427     2.1038
 2756.3552     8.9584     -.5988    99.5023    29.9567     2.1035
 2756.5076     8.9462     -.5988    99.4386    29.9708     2.1032
 2756.6600     8.9255     -.5987    99.3474    29.9848     2.1029
 2756.8124     8.8120     -.5987    99.2561    29.9989     2.1026
 2756.9648     8.3512     -.5987    99.1647    30.0130     2.1024
 2757.1172     8.0368     -.5986    99.0736    30.0270     2.1023
 2757.2696     8.0337     -.5986    98.9581    30.0431     2.1023
 2757.4220     8.0306     -.5986    98.7742    30.0665     2.1023
 2757.5744     8.0275     -.5985    98.5500    30.0979     2.1024
 2757.7268     8.0251     -.5985    98.3264    30.1293     2.1024
 2757.8792     8.0239     -.5985    97.7595    30.1218     2.1024
 2758.0316     8.0236     -.5986    96.8778    30.0534     2.1025
 2758.1840     8.0233     -.5988    95.6687    29.9696     2.1025
 2758.3364     8.0231     -.5990    94.1286    29.8037     2.1025
 2758.4888     8.0228     -.5992    91.7569    29.4972     2.1026
 2758.6412     8.0225     -.5991    88.6759    28.9558     2.1026
 2758.7936     8.0222     -.5987    84.0796    28.2443     2.1028
 2758.9460     8.0219     -.5984    78.0478    27.2972     2.1030
 2759.0984     8.0216     -.5982    70.3461    25.8629     2.1033
 2759.2508     8.0213     -.5986    58.1556    23.0767     2.1035
 2759.4032     8.0210     -.6003    37.2580    18.2967     2.1037
 2759.5556     8.0207     -.6438    15.1046     7.0651     2.1038
 2759.7080     8.0204     -.7216     2.3517    -1.2135     2.1036
 2759.8604     8.0201     -.7519      .0230    -2.7269     2.1033
 2760.0128     8.0198     -.7518      .0013    -1.7708     2.1043
 2760.1652     8.0196     -.7517     -.0205     -.4290     2.1267
 2760.3176     8.0194     -.7516     -.0409     -.1946     2.3294
 2760.4700     8.0191     -.7515     -.0590     -.1838     2.5050
 2760.6224     8.0188     -.7513     -.0771     -.1729     2.5054
 2760.7748     8.0185     -.7512     -.0966     -.1620     2.5049
 2760.9272     8.0185     -.7511     -.1040     -.1511     2.5047
 2761.0796     8.0190     -.7510     -.0973     -.1403     2.5045
 2761.2320     8.0197     -.7509     -.0907     -.1294     2.5044
 2761.3844     8.0204     -.7508     -.0840     -.1185     2.5042
 2761.5368     8.0211     -.7507     -.0773     -.1076     2.5041
 2761.6892     8.0217     -.7506     -.0707     -.0968     2.5040
 2761.8416     8.0224     -.7505     -.0640     -.0859     2.5039
 2761.9940     8.0231     -.7504     -.0573     -.0751     2.5040
 2762.1464     8.0238     -.7503     -.0506     -.0642     2.5040
 2762.2988     8.0245     -.7502     -.0440     -.0533     2.5040
 2762.4512     8.0251     -.7501     -.0490     -.0435     2.5041
 2762.6036     8.0258     -.7500     -.0641     -.0337     2.5041
 2762.7560     8.0273     -.7499     -.0791     -.0228     2.5043
 2762.9084     8.0303     -.7497     -.0942     -.0136     2.5047
 2763.0608     8.0340     -.7496     -.1074     -.0279     2.5050
 2763.2132     8.0376     -.7495     -.1207     -.0684     2.5052
 2763.3656     8.0413     -.7494     -.1357     -.1089     2.5053
 2763.5180     8.0449     -.7492     -.1508     -.1495     2.5053
 2763.6704     8.0486     -.7488     -.1659     -.1901     2.5046
 2763.8228     8.0492     -.7478     -.1832     -.2306     2.5023
 2763.9752     8.0465     -.6618     -.2039     -.2469     2.4932
 2764.1276     8.0432     -.4115     -.2255     -.2333     2.4772
 2764.2800     8.0400     -.2424     -.2472     -.2137     2.4614
 2764.4324     8.0367     -.2920     -.2688     -.1942     2.4628
 2764.5848     8.1034     -.2930     -.2904     -.1746     2.4815
 2764.7372     8.3068     -.2939     -.3121     -.1528     2.4979
 2764.8896     8.5903     -.2943     -.2473     -.1178     2.4994
 2765.0420     8.8298     -.2942     -.0665     -.0742     2.4832
 2765.1944     8.9136     -.2942     8.7602      .5265     2.4777
 2765.3468     8.9153     -.2942    19.8175     4.2394     2.4874
 2765.4992     8.9170     -.2941    21.5853    23.9098     2.4831
 2765.6516     8.9187     -.2941    22.1702    35.3087     2.4877
 2765.8040     8.9204     -.2943    21.6428    30.1515     2.4877
 2765.9564     8.9221     -.2945    20.5145    29.0024     2.4751
 2766.1088     8.9238     -.2948    19.6316    27.2920     2.5036
 2766.2612     8.9254     -.2948    19.5872    25.9201     2.5072
 2766.4136     8.9271     -.2947    20.1708    27.1828     2.5157
