~VERSION INFORMATION
VERS.                                                 2.0:   CWLS Log ASCII Standard-VERSION 2.0
WRAP.                                                  NO:   One line per depth step
~Well Information Block
STRT.M                                           494.1296:   Top Depth
STOP.M                                          3282.7448:   Bottom Depth
STEP.M                                             .15240:   Depth Increment
NULL.                                            -999.250:   Null Value
FLD .                                      SLEIPNER GAMMA:   Field Name
WELL.                                             15/9-13:   NAME
WBN .                                             15/9-13:   WELLBORE
NATI.                                                 NOR:   COUNTRY
CTRY.                                                 NOR:   COUNTRY
COMP.                                             STATOIL:   OPERATOR
PROV.                                           NORTH SEA:   PROVINCE
COUN.                                            ROSS RIG:   RIG NAME
SPUD.                                          1982/03/21:   SPUD DATE
LATI.                                       58 22 25.96 N:   SURF. LATITUDE
LONG.                                         1 56 2.86 E:   SURF. LONGITUDE
PBWE.                                             15/9-13:   PB WELL ID
APIN.                                             15/9-13:   PB WELLBORE ID
PBWS.                                                 all:   PB WELL NAME SET
~PARAMETER INFORMATION (log)
LNAM.                              LDT/CNL/GR  COMPOSITED:   NAME
LTYP.                                         DEPTH MATCH:   LOG TYPE
LSRV.                                           LATEROLOG:   LOG SERVICE
LSOU.                                             SPT/NPD:   LOG SOURCE
LVSN.                                                   1:   LOG VERSION
BHIS.                                                   R:   BRIEF HISTORY
FHIS.                                             RAW-LIS:   FULL HISTORY
LCNM.                                        SCHLUMBERGER:   LOGGING CONTRACTOR
TOOL.                             LDT/CNL/GR (COMPOSITED):   TOOL STRING
~Curve Information Block
#MNEM.UNIT                                        API CODE    No Description
#=========                                        ========    == ===========
DEPT.M                                       00 001 00 00:     1  DEPTH
CALI.IN                                                  :     2  Caliper
CS.                                                      :     3  Cable Speed
DRHO.G/CC                                                :     4  Bulk density correction
GR.GAPI                                                  :     5  Gamma Ray
NPHI.%                                                   :     6  Neutron porosity
PEF.B/E                                                  :     7  Photo-electric factor
RHOB.G/CC                                                :     8  Bulk density
TENS.LB                                                  :     9  Cable Tension
~ASCII
# ...
 1605.1256    15.1458  3122.0000     -.0151    71.0209    48.5669     3.0026     2.0528  1830.0000
 1605.2780    14.9685  3120.0000     -.0120    67.3065    51.6330     2.7940     2.0645  1830.0000
 1605.4304    14.8202  3120.0000     -.0120    66.8559    50.2241     2.6041     2.0573  1850.0000
 1605.5828    14.8099  3122.0000     -.0098    68.7296    51.4497     2.5827     2.0488  1860.0000
 1605.7352    14.7108  3122.0000     -.0122    71.6069    53.3209     2.6309     2.0364  1830.0000
 1605.8876    14.6406  3122.0000     -.0158    70.7909    52.3921     2.7461     2.0234  1820.0000
 1606.0400    14.5546  3122.0000     -.0173    66.8923    51.1222     2.7323     2.0143  1840.0000
 1606.1924    14.7866  3122.0000     -.0143    62.4571    48.9576     2.7038     2.0130  1860.0000
 1606.3448    15.0053  3122.0000     -.0065    61.6154    49.5135     2.6647     2.0228  1870.0000
 1606.4972    15.0260  3122.0000      .0011    65.8974    44.8058     2.6667     2.0273  1850.0000
 1606.6496    14.9843  3120.0000      .0021    71.9632    40.3951     2.7168     2.0221  1850.0000
 1606.8020    15.1617  3120.0000      .0008    74.8761    43.0054     2.7337     2.0156  1830.0000
 1606.9544    15.3048  3120.0000     -.0024    71.3447    44.9876     2.6854     2.0150  1820.0000
 1607.1068    15.5994  3120.0000     -.0026    68.2482    44.9868     2.6582     2.0195  1835.0000
 1607.2592    15.4107  3122.0000     -.0049    68.8987    42.9641     2.6158     2.0215  1865.0000
 1607.4116    15.6047  3122.0000     -.0080    73.1725    44.9592     2.5579     2.0241  1865.0000
 1607.5640    15.4423  3122.0000     -.0098    76.1263    45.6534     2.4582     2.0202  1850.0000
 1607.7164    15.2734  3124.0000     -.0070    77.6064    44.9700     2.4754     2.0189  1825.0000
 1607.8688    15.4978  3122.0000     -.0063    78.5216    42.7701     2.5769     2.0169  1830.0000
 1608.0212    15.6616  3120.0000     -.0075    76.4528    43.9995     2.6707     2.0156  1845.0000
 1608.1736    15.5571  3116.0000     -.0107    75.2290    42.6067     2.6262     2.0104  1865.0000
 1608.3260    15.9360  3114.0000     -.0145    72.7233    43.4784     2.5559     2.0039  1845.0000
 1608.4784    15.5720  3112.0000     -.0137    76.5915    43.3575     2.5078     2.0085  1850.0000
 1608.6308    15.2499  3114.0000     -.0101    75.9507    43.9481     2.5235     2.0130  1845.0000
 1608.7832    15.4222  3114.0000     -.0026    73.8325    46.5853     2.5443     2.0254  1830.0000
 1608.9356    14.7847  3114.0000     -.0011    68.7593    46.7590     2.5665     2.0326  1870.0000
 1609.0880    14.3906  3114.0000     -.0046    66.3750    47.4138     2.5071     2.0371  1865.0000
 1609.2404    14.4690  3114.0000     -.0101    68.2545    44.6536     2.4805     2.0378  1815.0000
 1609.3928    14.4322  3116.0000     -.0109    70.3143    45.8867     2.4674     2.0371  1785.0000
 1609.5452    14.1351  3114.0000     -.0112    73.4614    48.3574     2.5111     2.0306  1815.0000
 1609.6976    14.2008  3112.0000     -.0098    76.1689    49.9529     2.4862     2.0286  1885.0000
 1609.8500    14.3960  3112.0000     -.0091    79.2529    50.4557     2.4935     2.0267  1900.0000
 1610.0024    14.2992  3114.0000     -.0080    84.5274    48.7440     2.4680     2.0319  1840.0000
 1610.1548    14.3726  3114.0000     -.0112    84.4349    49.2366     2.5020     2.0312  1835.0000
 1610.3072    14.4610  3116.0000     -.0177    84.8774    52.6737     2.5371     2.0267  1860.0000
 1610.4596    14.7451  3116.0000     -.0177    83.3723    54.2483     2.6675     2.0306  1870.0000
 1610.6120    14.8515  3118.0000     -.0091    82.5006    51.1153     2.7579     2.0384  1840.0000
 1610.7644    14.9142  3120.0000     -.0002    79.8706    45.8600     2.8758     2.0567  1830.0000
 1610.9168    15.0419  3120.0000     -.0015    70.7314    40.9431     2.9303     2.0762  1860.0000
 1611.0692    15.2424  3118.0000     -.0021    66.5411    40.5128     2.9864     2.1016  1845.0000
 1611.2216    15.4665  3116.0000      .0031    67.2103    42.5328     2.8858     2.1048  1845.0000
 1611.3740    15.4399  3114.0000      .0080    72.2157    46.3591     2.7401     2.0833  1855.0000
 1611.5264    15.4376  3114.0000      .0034    75.3343    46.4990     2.6510     2.0534  1865.0000
 1611.6788    15.2314  3114.0000     -.0038    77.2107    45.2465     2.6126     2.0364  1870.0000
 1611.8312    15.1485  3112.0000     -.0036    78.5632    44.9381     2.6237     2.0371  1830.0000
 1611.9836    15.0493  3112.0000     -.0018    79.2089    45.8348     2.6354     2.0391  1815.0000
 1612.1360    14.9088  3112.0000      .0002    78.4572    45.6046     2.7892     2.0443  1850.0000
 1612.2884    14.7994  3114.0000     -.0036    77.5827    44.0573     3.0100     2.0508  1865.0000
 1612.4408    14.8908  3114.0000     -.0052    74.7468    42.1860     2.9699     2.0566  1840.0000
 1612.5932    14.8905  3114.0000     -.0059    72.8532    41.1941     2.8332     2.0534  1835.0000
 1612.7456    14.9324  3112.0000     -.0041    72.8545    42.1237     2.6509     2.0377  1840.0000
 1612.8980    14.9166  3110.0000     -.0062    75.7544    42.9366     2.6818     2.0130  1835.0000
 1613.0504    15.1774  3110.0000     -.0075    78.5851    45.8041     2.7116     1.9961  1855.0000
 1613.2028    15.0751  3112.0000     -.0083    75.4313    47.2332     2.6986     1.9883  1850.0000
 1613.3552    15.0574  3112.0000     -.0039    74.0006    48.2108     2.6164     1.9941  1820.0000
 1613.5076    15.1250  3112.0000     -.0015    70.9127    45.5529     2.4745     1.9980  1820.0000
 1613.6600    15.0702  3110.0000     -.0002    74.0493    43.2768     2.3860     2.0007  1835.0000
 1613.8124    14.9973  3114.0000      .0028    74.3517    42.4962     2.4245     2.0046  1860.0000
 1613.9648    15.1018  3116.0000      .0052    73.5212    43.6219     2.5549     2.0124  1875.0000
 1614.1172    15.0650  3118.0000      .0094    71.3723    46.0144     2.7345     2.0195  1870.0000
 1614.2696    15.2660  3116.0000      .0057    72.2115    47.3967     2.7545     2.0189  1855.0000
 1614.4220    15.3906  3114.0000      .0029    76.7751    47.3629     2.7429     2.0163  1845.0000
 1614.5744    15.6723  3114.0000     -.0003    78.2286    46.1409     2.6659     2.0156  1855.0000
 1614.7268    15.5518  3112.0000     -.0020    77.8956    47.3654     2.6081     2.0156  1860.0000
 1614.8792    14.8272  3112.0000     -.0033    77.3534    48.1770     2.5892     2.0130  1865.0000
 1615.0316    14.4530  3110.0000     -.0068    78.2931    50.4911     2.6140     2.0065  1845.0000
 1615.1840    14.4297  3110.0000     -.0073    75.3694    49.2148     2.6824     2.0052  1840.0000
 1615.3364    14.6878  3110.0000     -.0072    70.9968    50.9638     2.6256     2.0111  1830.0000
 1615.4888    14.4842  3112.0000     -.0041    71.3965    51.5296     2.5788     2.0202  1875.0000
 1615.6412    14.3099  3110.0000     -.0044    75.1284    51.0742     2.5397     2.0234  1885.0000
 1615.7936    14.2578  3110.0000     -.0090    79.8972    48.6644     2.5397     2.0182  1880.0000
 1615.9460    14.5473  3110.0000     -.0137    82.2717    45.9291     2.4915     2.0130  1840.0000
 1616.0984    14.5729  3110.0000     -.0125    82.5833    44.3193     2.4759     2.0091  1810.0000
 1616.2508    14.7268  3110.0000     -.0096    82.6042    42.3973     2.4968     2.0104  1830.0000
 1616.4032    14.6847  3108.0000     -.0072    81.1649    43.1496     2.5117     2.0130  1885.0000
 1616.5556    14.7920  3108.0000     -.0080    81.6060    45.5593     2.4817     2.0137  1885.0000
 1616.7080    15.0184  3108.0000     -.0107    79.6428    47.1363     2.4453     2.0072  1840.0000
 1616.8604    14.9399  3108.0000     -.0107    80.7955    45.5535     2.4329     2.0026  1840.0000
 1617.0128    14.7577  3112.0000     -.0096    84.3779    42.8202     2.4655     2.0046  1840.0000
 1617.1652    14.6406  3112.0000     -.0057    86.5212    40.9338     2.5723     2.0111  1850.0000
 1617.3176    14.5937  3112.0000     -.0013    83.3289    39.8430     2.6524     2.0215  1865.0000
