~VERSION INFORMATION
VERS.                                                 2.0:   CWLS Log ASCII Standard-VERSION 2.0
WRAP.                                                  NO:   One line per depth step
~Well Information Block
STRT.M                                           494.1296:   Top Depth
STOP.M                                          3282.7448:   Bottom Depth
STEP.M                                             .15240:   Depth Increment
NULL.                                            -999.250:   Null Value
FLD .                                      SLEIPNER GAMMA:   Field Name
WELL.                                             15/9-13:   NAME
WBN .                                             15/9-13:   WELLBORE
NATI.                                                 NOR:   COUNTRY
CTRY.                                                 NOR:   COUNTRY
COMP.                                             STATOIL:   OPERATOR
PROV.                                           NORTH SEA:   PROVINCE
COUN.                                            ROSS RIG:   RIG NAME
SPUD.                                          1982/03/21:   SPUD DATE
LATI.                                       58 22 25.96 N:   SURF. LATITUDE
LONG.                                         1 56 2.86 E:   SURF. LONGITUDE
PBWE.                                             15/9-13:   PB WELL ID
APIN.                                             15/9-13:   PB WELLBORE ID
PBWS.                                                 all:   PB WELL NAME SET
~PARAMETER INFORMATION (log)
LNAM.                              LDT/CNL/GR  COMPOSITED:   NAME
LTYP.                                         DEPTH MATCH:   LOG TYPE
LSRV.                                           LATEROLOG:   LOG SERVICE
LSOU.                                             SPT/NPD:   LOG SOURCE
LVSN.                                                   1:   LOG VERSION
BHIS.                                                   R:   BRIEF HISTORY
FHIS.                                             RAW-LIS:   FULL HISTORY
LCNM.                                        SCHLUMBERGER:   LOGGING CONTRACTOR
TOOL.                             LDT/CNL/GR (COMPOSITED):   TOOL STRING
~Curve Information Block
#MNEM.UNIT                                        API CODE    No Description
#=========                                        ========    == ===========
DEPT.M                                       00 001 00 00:     1  DEPTH
CALI.IN                                                  :     2  Caliper
CS.                                                      :     3  Cable Speed
DRHO.G/CC                                                :     4  Bulk density correction
GR.GAPI                                                  :     5  Gamma Ray
NPHI.%                                                   :     6  Neutron porosity
PEF.B/E                                                  :     7  Photo-electric factor
RHOB.G/CC                                                :     8  Bulk density
TENS.LB                                                  :     9  Cable Tension
~ASCII
# ...
 1975.4576    13.1094  3052.0000     -.0122    67.9339    51.9463     2.7467     2.0944  2150.0000
 1975.6100    13.1328  3052.0000     -.0072    65.2260    51.4826     2.8230     2.0924  2164.0000
 1975.7624    13.1563  3054.0000     -.0091    67.0066    50.8763     2.7837     2.0827  2144.0000
 1975.9148    13.1693  3058.0000     -.0060    68.3333    52.8523     2.6881     2.0768  2170.0000
 1976.0672    13.2136  3058.0000     -.0044    65.4306    52.8290     2.6497     2.0762  2194.0000
 1976.2196    13.3178  3058.0000     -.0029    63.1027    50.3388     2.6758     2.0827  2214.0000
 1976.3720    13.3124  3060.0000     -.0039    62.2386    49.7730     2.7018     2.0899  2194.0000
 1976.5244    13.1899  3060.0000     -.0094    65.3490    49.9838     2.7527     2.0892  2174.0000
 1976.6768    13.1563  3058.0000     -.0134    66.2482    49.3800     2.8472     2.0840  2160.0000
 1976.8292    13.2632  3058.0000     -.0119    66.2923    50.0504     2.9598     2.0820  2150.0000
 1976.9816    13.1404  3056.0000     -.0065    63.9970    54.4155     2.9785     2.0807  2174.0000
 1977.1340    13.0495  3056.0000     -.0044    62.7709    56.3477     2.8748     2.0749  2180.0000
 1977.2864    13.0938  3058.0000     -.0080    60.9249    55.3047     2.7603     2.0605  2170.0000
 1977.4388    12.9920  3060.0000     -.0140    63.3804    51.6878     2.7500     2.0534  2160.0000
 1977.5912    12.8254  3060.0000     -.0135    66.6060    52.2323     2.7800     2.0579  2164.0000
 1977.7436    12.9560  3060.0000     -.0119    67.4585    53.1737     2.8269     2.0671  2170.0000
 1977.8960    13.2502  3058.0000     -.0140    64.0375    50.4525     2.8079     2.0729  2174.0000
 1978.0484    13.8367  3060.0000     -.0184    61.7282    51.1099     2.8464     2.0768  2164.0000
 1978.2008    14.2763  3058.0000     -.0230    60.3737    52.3603     2.8972     2.0768  2174.0000
 1978.3532    14.8188  3058.0000     -.0208    57.2124    54.0239     2.8808     2.0736  2180.0000
 1978.5056    14.6426  3056.0000     -.0203    53.5066    50.6770     2.8450     2.0644  2144.0000
 1978.6580    13.8188  3056.0000     -.0197    55.9671    48.2412     2.7987     2.0592  2164.0000
 1978.8104    13.5078  3056.0000     -.0210    60.2435    48.3729     2.7917     2.0521  2184.0000
 1978.9628    13.6382  3058.0000     -.0223    60.5927    48.7959     2.7682     2.0488  2200.0000
 1979.1152    14.1465  3062.0000     -.0218    56.8176    47.3608     2.7030     2.0488  2200.0000
 1979.2676    14.5758  3062.0000     -.0208    55.6777    48.8308     2.6178     2.0488  2190.0000
 1979.4200    14.8884  3062.0000     -.0179    58.3580    49.2339     2.6792     2.0540  2194.0000
 1979.5724    14.1787  3062.0000     -.0156    59.2079    49.4962     2.7833     2.0632  2160.0000
 1979.7248    14.1438  3060.0000     -.0112    57.4245    46.7399     2.9025     2.0781  2160.0000
 1979.8772    14.6201  3058.0000     -.0148    56.1870    46.4207     2.8273     2.0775  2174.0000
 1980.0296    14.0405  3056.0000     -.0199    57.7424    49.6624     2.7311     2.0664  2184.0000
 1980.1820    14.1229  3054.0000     -.0223    60.7734    50.5203     2.6803     2.0651  2200.0000
 1980.3344    13.8064  3054.0000     -.0190    63.2209    49.8365     2.6836     2.0703  2190.0000
 1980.4868    13.1688  3054.0000     -.0174    61.6118    48.7946     2.7625     2.0710  2180.0000
 1980.6392    12.7340  3056.0000     -.0199    59.3837    48.2256     2.8243     2.0573  2180.0000
 1980.7916    12.5937  3056.0000     -.0207    57.4254    47.8186     2.8887     2.0482  2210.0000
 1980.9440    12.7579  3056.0000     -.0173    58.0943    46.4839     2.9206     2.0521  2190.0000
 1981.0964    13.0263  3054.0000     -.0117    57.5506    46.3873     2.9942     2.0638  2184.0000
 1981.2488    13.1641  3054.0000     -.0104    56.7498    45.1968     3.0671     2.0631  2150.0000
 1981.4012    13.3023  3054.0000     -.0120    55.5503    45.8844     3.0468     2.0501  2160.0000
 1981.5536    13.5888  3052.0000     -.0127    53.2270    49.3849     3.0273     2.0293  2164.0000
 1981.7060    14.4439  3052.0000     -.0088    51.5091    51.0747     3.0691     2.0202  2184.0000
 1981.8584    14.0668  3052.0000     -.0065    51.7195    52.1984     3.0716     2.0247  2200.0000
 1982.0108    13.2623  3054.0000     -.0070    55.9333    50.4685     3.0560     2.0443  2200.0000
 1982.1632    13.3285  3054.0000     -.0109    58.4382    52.4940     2.8885     2.0553  2214.0000
 1982.3156    13.2236  3054.0000     -.0107    58.9274    55.2265     2.7858     2.0514  2164.0000
 1982.4680    13.7482  3056.0000     -.0091    57.5086    56.1690     2.7637     2.0423  2140.0000
 1982.6204    14.0547  3058.0000     -.0049    55.8527    53.3155     2.8321     2.0417  2140.0000
 1982.7728    13.3794  3058.0000     -.0033    55.3854    50.6659     2.9004     2.0495  2184.0000
 1982.9252    12.8489  3056.0000     -.0044    54.0828    50.8792     2.9056     2.0540  2210.0000
 1983.0776    12.8230  3054.0000     -.0091    55.1479    51.4977     2.8691     2.0547  2200.0000
 1983.2300    13.1876  3052.0000     -.0138    54.3118    50.4715     2.8262     2.0495  2180.0000
 1983.3824    13.3724  3054.0000     -.0151    54.8037    48.2728     2.7890     2.0443  2174.0000
 1983.5348    13.2838  3052.0000     -.0096    54.0307    49.5777     2.7669     2.0456  2174.0000
 1983.6872    13.2500  3052.0000     -.0062    55.8572    50.9607     2.8269     2.0508  2184.0000
 1983.8396    13.2265  3052.0000     -.0059    59.1050    51.4487     2.8854     2.0553  2204.0000
 1983.9920    13.6020  3052.0000     -.0088    63.3268    50.4054     2.8893     2.0553  2190.0000
 1984.1444    13.7604  3054.0000     -.0090    64.5620    55.9970     2.8743     2.0586  2174.0000
 1984.2968    13.5440  3054.0000     -.0112    63.2482    58.8538     2.9552     2.0619  2160.0000
 1984.4492    13.3827  3054.0000     -.0153    60.5599    60.0113     3.1245     2.0612  2164.0000
 1984.6016    13.5707  3052.0000     -.0205    61.2319    51.8088     3.1914     2.0501  2170.0000
 1984.7540    13.7058  3052.0000     -.0215    61.0508    48.3247     3.0434     2.0436  2160.0000
 1984.9064    13.4113  3052.0000     -.0194    60.5729    44.1876     2.9153     2.0417  2174.0000
 1985.0588    13.4142  3052.0000     -.0186    58.4245    43.7522     2.8404     2.0436  2180.0000
 1985.2112    13.3671  3054.0000     -.0176    58.2191    47.0875     2.8242     2.0397  2190.0000
 1985.3636    13.4611  3054.0000     -.0217    59.2194    52.4301     2.7942     2.0371  2190.0000
 1985.5160    13.5495  3058.0000     -.0216    59.6876    54.7853     2.9271     2.0436  2190.0000
 1985.6684    13.5130  3060.0000     -.0225    61.0745    52.9436     3.0724     2.0547  2184.0000
 1985.8208    13.4453  3062.0000     -.0192    63.5320    51.6275     3.2181     2.0703  2204.0000
 1985.9732    13.5001  3060.0000     -.0099    64.7295    53.4855     3.1353     2.0892  2194.0000
 1986.1256    13.5078  3058.0000     -.0024    62.4137    53.8078     3.1016     2.1022  2194.0000
 1986.2780    13.5235  3056.0000     -.0005    61.8558    54.4783     2.9925     2.0976  2174.0000
 1986.4304    13.6590  3054.0000     -.0067    58.5567    49.3399     3.0092     2.0768  2160.0000
 1986.5828    13.5517  3054.0000     -.0111    59.2560    45.3585     2.9392     2.0631  2174.0000
 1986.7352    13.4792  3052.0000     -.0101    56.5562    44.4493     2.9069     2.0619  2164.0000
 1986.8876    13.4009  3052.0000     -.0083    57.6391    52.0764     2.8541     2.0664  2174.0000
 1987.0400    13.4168  3052.0000     -.0081    57.4229    54.9129     2.8901     2.0657  2170.0000
 1987.1924    13.4140  3054.0000     -.0148    57.9188    52.3731     2.9212     2.0540  2180.0000
 1987.3448    13.3358  3054.0000     -.0181    57.7375    48.5283     2.9408     2.0423  2170.0000
 1987.4972    13.3882  3052.0000     -.0161    56.2066    50.3796     3.0386     2.0430  2174.0000
 1987.6496    13.6542  3050.0000     -.0080    51.2290    55.7218     3.1094     2.0580  2174.0000
