~VERSION INFORMATION
VERS.                                                 2.0:   CWLS Log ASCII Standard-VERSION 2.0
WRAP.                                                  NO:   One line per depth step
~Well Information Block
STRT.M                                           494.1296:   Top Depth
STOP.M                                          3282.7448:   Bottom Depth
STEP.M                                             .15240:   Depth Increment
NULL.                                            -999.250:   Null Value
FLD .                                      SLEIPNER GAMMA:   Field Name
WELL.                                             15/9-13:   NAME
WBN .                                             15/9-13:   WELLBORE
NATI.                                                 NOR:   COUNTRY
CTRY.                                                 NOR:   COUNTRY
COMP.                                             STATOIL:   OPERATOR
PROV.                                           NORTH SEA:   PROVINCE
COUN.                                            ROSS RIG:   RIG NAME
SPUD.                                          1982/03/21:   SPUD DATE
LATI.                                       58 22 25.96 N:   SURF. LATITUDE
LONG.                                         1 56 2.86 E:   SURF. LONGITUDE
PBWE.                                             15/9-13:   PB WELL ID
APIN.                                             15/9-13:   PB WELLBORE ID
PBWS.                                                 all:   PB WELL NAME SET
~PARAMETER INFORMATION (log)
LNAM.                              LDT/CNL/GR  COMPOSITED:   NAME
LTYP.                                         DEPTH MATCH:   LOG TYPE
LSRV.                                           LATEROLOG:   LOG SERVICE
LSOU.                                             SPT/NPD:   LOG SOURCE
LVSN.                                                   1:   LOG VERSION
BHIS.                                                   R:   BRIEF HISTORY
FHIS.                                             RAW-LIS:   FULL HISTORY
LCNM.                                        SCHLUMBERGER:   LOGGING CONTRACTOR
TOOL.                             LDT/CNL/GR (COMPOSITED):   TOOL STRING
~Curve Information Block
#MNEM.UNIT                                        API CODE    No Description
#=========                                        ========    == ===========
DEPT.M                                       00 001 00 00:     1  DEPTH
CALI.IN                                                  :     2  Caliper
CS.                                                      :     3  Cable Speed
DRHO.G/CC                                                :     4  Bulk density correction
GR.GAPI                                                  :     5  Gamma Ray
NPHI.%                                                   :     6  Neutron porosity
PEF.B/E                                                  :     7  Photo-electric factor
RHOB.G/CC                                                :     8  Bulk density
TENS.LB                                                  :     9  Cable Tension
~ASCII
# ...
 1234.7936    13.1405  2990.0000     -.0057    71.7681    51.6264     2.2675     1.8682  1520.0000
 1234.9460    13.1276  3002.0000     -.0072    71.7101    48.5799     2.2552     1.8708  1540.0000
 1235.0984    13.3179  3018.0000     -.0054    69.8304    44.3486     2.2096     1.8731  1550.0000
 1235.2508    13.1089  3036.0000     -.0094    68.5833    45.6751     2.2442     1.8607  1540.0000
 1235.4032    12.7628  3052.0000     -.0086    65.7258    52.0242     2.3536     1.8561  1550.0000
 1235.5556    13.2431  3070.0000     -.0101    68.2354    57.1331     2.5113     1.8535  1540.0000
 1235.7080    13.5990  3090.0000     -.0101    72.7739    60.5331     2.5860     1.8548  1565.0000
 1235.8604    13.0433  3110.0000     -.0132    73.6869    58.7357     2.4998     1.8473  1520.0000
 1236.0128    12.7448  3128.0000     -.0125    72.3319    55.8250     2.4870     1.8389  1505.0000
 1236.1652    12.4973  3146.0000     -.0122    70.9997    51.1377     2.4844     1.8369  1565.0000
 1236.3176    12.3437  3158.0000     -.0117    71.5011    49.8869     2.5085     1.8454  1575.0000
 1236.4700    12.4740  3168.0000     -.0112    71.0205    50.5372     2.6101     1.8509  1550.0000
 1236.6224    12.6825  3172.0000     -.0073    68.1012    49.5429     2.7892     1.8516  1565.0000
 1236.7748    12.8073  3176.0000     -.0050    69.4177    50.9611     2.7949     1.8444  1560.0000
 1236.9272    13.0132  3176.0000     -.0062    70.1452    51.5294     2.6151     1.8389  1535.0000
 1237.0796    12.8982  3176.0000     -.0085    72.3780    51.7420     2.6049     1.8281  1560.0000
 1237.2320    13.1360  3178.0000     -.0060    71.3714    50.2251     2.6954     1.8232  1545.0000
 1237.3844    13.1326  3178.0000      .0002    71.4181    49.4304     2.9306     1.8278  1530.0000
 1237.5368    12.9686  3180.0000      .0054    69.2456    50.9953     2.7541     1.8438  1530.0000
 1237.6892    13.0705  3182.0000      .0019    67.6247    54.4629     2.5853     1.8506  1535.0000
 1237.8416    13.0311  3184.0000     -.0034    65.2047    54.1151     2.4190     1.8506  1535.0000
 1237.9940    12.5803  3182.0000     -.0055    64.3545    53.8255     2.4780     1.8480  1555.0000
 1238.1464    12.5235  3182.0000     -.0016    64.1665    49.1191     2.5475     1.8525  1560.0000
 1238.2988    12.8336  3182.0000      .0057    62.8319    46.7938     2.5045     1.8594  1530.0000
 1238.4512    12.9062  3182.0000      .0109    59.0195    44.6606     2.4902     1.8704  1525.0000
 1238.6036    12.5752  3182.0000      .0129    59.1166    47.6938     2.5033     1.8828  1525.0000
 1238.7560    12.5313  3182.0000      .0103    62.3447    49.6907     2.5221     1.8919  1555.0000
 1238.9084    12.8362  3180.0000      .0036    65.3459    51.8092     2.3846     1.8835  1550.0000
 1239.0608    12.6379  3182.0000     -.0023    62.5610    51.5457     2.3047     1.8675  1525.0000
 1239.2132    12.3358  3182.0000     -.0078    61.8451    54.3336     2.2578     1.8532  1525.0000
 1239.3656    12.3594  3184.0000     -.0098    62.3646    57.5201     2.3275     1.8376  1545.0000
 1239.5180    12.3750  3184.0000     -.0039    60.5499    57.4698     2.4109     1.8242  1550.0000
 1239.6704    12.6199  3184.0000      .0010    58.1765    54.7354     2.4805     1.8086  1535.0000
 1239.8228    12.5936  3182.0000      .0049    62.1098    52.0978     2.4224     1.8106  1520.0000
 1239.9752    12.5156  3182.0000      .0037    68.7760    52.5731     2.3522     1.8268  1565.0000
 1240.1276    12.8699  3180.0000      .0034    72.3130    55.6488     2.3118     1.8486  1560.0000
 1240.2800    12.9113  3180.0000      .0010    71.2062    54.7011     2.3171     1.8604  1525.0000
 1240.4324    12.6458  3178.0000      .0002    68.6035    53.7110     2.3548     1.8669  1535.0000
 1240.5848    12.6981  3178.0000      .0005    66.9991    52.0976     2.3717     1.8731  1525.0000
 1240.7372    12.5702  3176.0000      .0028    65.5829    55.5681     2.3887     1.8770  1525.0000
 1240.8896    12.3280  3176.0000      .0042    68.2330    58.3993     2.4043     1.8701  1565.0000
 1241.0420    12.4454  3178.0000      .0060    70.0209    56.5909     2.5007     1.8571  1550.0000
 1241.1944    12.4452  3180.0000      .0062    68.9152    51.3133     2.7163     1.8382  1520.0000
 1241.3468    12.4662  3180.0000      .0078    67.7289    50.0980     2.8346     1.8271  1540.0000
 1241.4992    12.4061  3180.0000      .0085    70.1074    51.2867     2.8268     1.8232  1550.0000
 1241.6516    12.3125  3178.0000      .0103    71.7710    55.4377     2.6451     1.8294  1535.0000
 1241.8040    12.3673  3180.0000      .0103    74.3988    55.3687     2.4836     1.8337  1540.0000
 1241.9564    12.3697  3180.0000      .0088    74.4152    53.7101     2.4192     1.8333  1540.0000
 1242.1088    12.3046  3178.0000      .0034    77.0247    48.9041     2.4115     1.8350  1535.0000
 1242.2612    12.4117  3180.0000     -.0016    80.0022    42.7020     2.4336     1.8412  1530.0000
 1242.4136    12.1950  3180.0000     -.0081    79.7697    42.2218     2.5450     1.8451  1535.0000
 1242.5660    12.1434  3180.0000     -.0072    76.9337    49.9460     2.6035     1.8522  1560.0000
 1242.7184    12.2188  3184.0000     -.0047    71.9538    56.9378     2.5813     1.8600  1560.0000
 1242.8708    12.2396  3186.0000     -.0034    70.7308    56.9294     2.4117     1.8682  1525.0000
 1243.0232    12.2578  3184.0000     -.0042    71.6885    50.4142     2.3040     1.8659  1535.0000
 1243.1756    12.3596  3182.0000     -.0075    71.0394    50.3484     2.3622     1.8561  1550.0000
 1243.3280    12.3593  3182.0000     -.0068    67.2656    55.9801     2.5745     1.8454  1520.0000
 1243.4804    12.4090  3180.0000     -.0032    64.1005    56.7350     2.7678     1.8451  1530.0000
 1243.6328    12.4036  3182.0000      .0023    60.7980    53.3159     2.7316     1.8552  1530.0000
 1243.7852    12.3515  3180.0000      .0047    61.0975    48.7553     2.5400     1.8737  1540.0000
 1243.9376    12.4924  3180.0000      .0016    60.4769    47.1028     2.4994     1.8848  1545.0000
 1244.0900    12.6172  3180.0000     -.0010    61.4291    50.2643     2.7216     1.8809  1525.0000
 1244.2424    12.3537  3182.0000      .0047    64.4201    53.3553     3.2611     1.8727  1525.0000
 1244.3948    12.2474  3186.0000      .0179    69.0042    55.8615     3.4603     1.8734  1550.0000
 1244.5472    12.3387  3186.0000      .0259    72.2941    55.3363     3.4642     1.8809  1535.0000
 1244.6996    12.2498  3184.0000      .0179    71.6858    55.0949     3.2452     1.8851  1530.0000
 1244.8520    12.1875  3184.0000      .0070    73.5457    58.4849     3.1824     1.8897  1535.0000
 1245.0044    12.1406  3186.0000     -.0023    71.2249    60.5475     2.8720     1.8890  1540.0000
 1245.1568    12.1381  3184.0000     -.0077    70.2304    60.7584     2.4951     1.8851  1550.0000
 1245.3092    12.0546  3184.0000     -.0098    67.2459    56.2446     2.3215     1.8747  1535.0000
 1245.4616    12.0965  3184.0000     -.0050    68.3169    51.6238     2.3406     1.8766  1520.0000
 1245.6140    12.4535  3182.0000      .0064    69.1869    50.3417     2.5445     1.8942  1550.0000
 1245.7664    12.7293  3184.0000      .0225    70.2724    52.4114     2.6745     1.9261  1555.0000
 1245.9188    12.6117  3186.0000      .0313    69.7690    56.7598     2.7331     1.9430  1535.0000
 1246.0712    12.3826  3186.0000      .0187    69.5212    60.7450     2.9397     1.9199  1525.0000
 1246.2236    12.1664  3186.0000      .0098    67.9764    60.4795     3.0736     1.8916  1550.0000
 1246.3760    12.1720  3184.0000      .0111    68.8354    59.7330     3.5331     1.8629  1570.0000
 1246.5284    12.3257  3186.0000      .0266    69.0198    60.1406     3.6711     1.8591  1520.0000
 1246.6808    12.7478  3186.0000      .0291    67.1440    60.9056     3.7443     1.8571  1510.0000
 1246.8332    12.9453  3184.0000      .0184    67.2097    57.5626     3.5491     1.8656  1530.0000
 1246.9856    12.6924  3184.0000      .0086    66.2901    53.8714     3.1044     1.8796  1580.0000
