~VERSION INFORMATION
VERS.                                                 2.0:   CWLS Log ASCII Standard-VERSION 2.0
WRAP.                                                  NO:   One line per depth step
~Well Information Block
STRT.M                                           494.1296:   Top Depth
STOP.M                                          3282.7448:   Bottom Depth
STEP.M                                             .15240:   Depth Increment
NULL.                                            -999.250:   Null Value
FLD .                                      SLEIPNER GAMMA:   Field Name
WELL.                                             15/9-13:   NAME
WBN .                                             15/9-13:   WELLBORE
NATI.                                                 NOR:   COUNTRY
CTRY.                                                 NOR:   COUNTRY
COMP.                                             STATOIL:   OPERATOR
PROV.                                           NORTH SEA:   PROVINCE
COUN.                                            ROSS RIG:   RIG NAME
SPUD.                                          1982/03/21:   SPUD DATE
LATI.                                       58 22 25.96 N:   SURF. LATITUDE
LONG.                                         1 56 2.86 E:   SURF. LONGITUDE
PBWE.                                             15/9-13:   PB WELL ID
APIN.                                             15/9-13:   PB WELLBORE ID
PBWS.                                                 all:   PB WELL NAME SET
~PARAMETER INFORMATION (log)
LNAM.                              LDT/CNL/GR  COMPOSITED:   NAME
LTYP.                                         DEPTH MATCH:   LOG TYPE
LSRV.                                           LATEROLOG:   LOG SERVICE
LSOU.                                             SPT/NPD:   LOG SOURCE
LVSN.                                                   1:   LOG VERSION
BHIS.                                                   R:   BRIEF HISTORY
FHIS.                                             RAW-LIS:   FULL HISTORY
LCNM.                                        SCHLUMBERGER:   LOGGING CONTRACTOR
TOOL.                             LDT/CNL/GR (COMPOSITED):   TOOL STRING
~Curve Information Block
#MNEM.UNIT                                        API CODE    No Description
#=========                                        ========    == ===========
DEPT.M                                       00 001 00 00:     1  DEPTH
CALI.IN                                                  :     2  Caliper
CS.                                                      :     3  Cable Speed
DRHO.G/CC                                                :     4  Bulk density correction
GR.GAPI                                                  :     5  Gamma Ray
NPHI.%                                                   :     6  Neutron porosity
PEF.B/E                                                  :     7  Photo-electric factor
RHOB.G/CC                                                :     8  Bulk density
TENS.LB                                                  :     9  Cable Tension
~ASCII
# ...
 3271.6196     8.5625  3674.0000      .0049    54.1250    18.5059  -999.2500     2.6504  3760.0000
 3271.7720     8.5859  3664.0000      .0088    53.7813    17.1387  -999.2500     2.6973  3720.0000
 3271.9244     8.4219  3650.0000      .0107    52.1250    17.6270  -999.2500     2.7598  3710.0000
 3272.0768     8.4297  3638.0000      .0127    49.7188    17.6758  -999.2500     2.8105  3690.0000
 3272.2292     8.2812  3624.0000      .0205    50.0625    18.0664  -999.2500     2.8437  3660.0000
 3272.3816     8.3516  3612.0000      .0356    53.8125    17.8223  -999.2500     2.8945  3690.0000
 3272.5340     8.4062  3596.0000      .0317    55.9062    19.0430  -999.2500     2.9121  3710.0000
 3272.6864     8.4141  3582.0000      .0376    58.8750    20.2637  -999.2500     2.9102  3760.0000
 3272.8388     8.4062  3564.0000      .0493    58.8750    20.2637  -999.2500     2.8867  3794.0000
 3272.9912     8.3828  3546.0000      .0806    58.8750    19.6777  -999.2500     2.9043  3860.0000
 3273.1436     8.3672  3528.0000      .0933    58.8750    19.7266  -999.2500     2.9004  3864.0000
 3273.2960     8.3594  3510.0000      .0977    58.8750    19.6777  -999.2500     2.8828  3850.0000
 3273.4484     8.3594  3494.0000      .0991    58.8750    19.1895  -999.2500     2.8809  3804.0000
 3273.6008     8.3594  3476.0000      .1060    58.8750    18.1641  -999.2500     2.8867  3764.0000
 3273.7532     8.3594  3458.0000      .1133    58.8750    18.6523  -999.2500     2.8965  3720.0000
 3273.9056     8.3594  3438.0000      .1147    58.8750    18.6035  -999.2500     2.8828  3664.0000
 3274.0580     8.3594  3416.0000      .1128    58.8750    18.3594  -999.2500     2.8906  3620.0000
 3274.2104     8.3516  3392.0000      .1074    58.8750    17.0410  -999.2500     2.8789  3574.0000
 3274.3628     8.3516  3368.0000      .1104    58.8750    17.7734  -999.2500     2.8945  3524.0000
 3274.5152     8.3594  3342.0000      .1123    58.8750    17.6758  -999.2500     2.8867  3474.0000
 3274.6676     8.3516  3316.0000      .1104    58.8750    18.7988  -999.2500     2.8848  3434.0000
 3274.8200     8.3516  3292.0000      .1143    58.8750    18.3594  -999.2500     2.8965  3394.0000
 3274.9724     8.3516  3266.0000      .1113    58.8750    18.7988  -999.2500     2.8965  3344.0000
 3275.1248     8.3516  3238.0000      .1226    58.8750    18.5059  -999.2500     2.9277  3294.0000
 3275.2772     8.3516  3210.0000      .1177    58.8750    18.7012  -999.2500     2.9297  3244.0000
 3275.4296     8.3516  3182.0000      .1216    58.8750    18.7012  -999.2500     2.9316  3194.0000
 3275.5820     8.3516  3152.0000      .1206    58.8750    18.7012  -999.2500     2.9180  3144.0000
 3275.7344     8.3516  3122.0000      .1299    58.8750    18.7012  -999.2500     2.9180  3090.0000
 3275.8868     8.3516  3094.0000      .1270    58.8750    18.7012  -999.2500     2.9180  3014.0000
 3276.0392     8.3516  3068.0000      .1338    58.8750    18.7012  -999.2500     2.9219  2974.0000
 3276.1916     8.3516  3042.0000      .1143    58.8750    18.7012  -999.2500     2.8906  2960.0000
 3276.3440     8.3516  3024.0000      .1079    58.8750    18.7012  -999.2500     2.8887  2940.0000
 3276.4964     8.3516  3034.0000      .0874    58.8750    18.7012  -999.2500     2.8828  2934.0000
 3276.6488     8.3516  3054.0000      .0952    58.8750    18.7012  -999.2500     2.8945  2934.0000
 3276.8012     8.3516  3074.0000      .0923    58.8750    18.7012  -999.2500     2.8848  2930.0000
 3276.9536     8.3516  3098.0000      .1050    58.8750    18.7012  -999.2500     2.9004  2914.0000
 3277.1060     8.3516  3126.0000      .1050    58.8750    18.7012  -999.2500     2.8926  2914.0000
 3277.2584     8.3516  3156.0000      .1021    58.8750    18.7012  -999.2500     2.8945  2904.0000
 3277.4108     8.3516  3192.0000      .1123    58.8750    18.7012  -999.2500     2.9004  2920.0000
 3277.5632     8.3516  3232.0000      .1094    58.8750    18.7012  -999.2500     2.9102  2904.0000
 3277.7156     8.3516  3250.0000      .1313    58.8750    18.7012  -999.2500     2.9355  2914.0000
 3277.8680     8.3516  3244.0000      .1099    58.8750    18.7012  -999.2500     2.9141  2904.0000
 3278.0204     8.3516  3234.0000      .1123    58.8750    18.7012  -999.2500     2.9258  2920.0000
 3278.1728     8.3516  3222.0000      .0830    58.8750    18.7012  -999.2500     2.8848  2924.0000
 3278.3252     8.3516  3206.0000      .0815    58.8750    18.7012  -999.2500     2.8789  2934.0000
 3278.4776     8.3516  3186.0000      .0830    58.8750    18.7012  -999.2500     2.8691  2934.0000
 3278.6300     8.3516  3166.0000      .0840    58.8750    18.7012  -999.2500     2.8652  2944.0000
 3278.7824     8.3516  3144.0000      .0908    58.8750    18.7012  -999.2500     2.8867  2940.0000
 3278.9348     8.3516  3120.0000      .0796    58.8750    18.7012  -999.2500     2.8750  2930.0000
 3279.0872     8.3516  3096.0000      .0850    58.8750    18.7012  -999.2500     2.8965  2910.0000
 3279.2396     8.3516  3070.0000      .0845    58.8750    18.7012  -999.2500     2.8906  2900.0000
 3279.3920     8.3516  3042.0000      .0908    58.8750    18.7012  -999.2500     2.9023  2890.0000
 3279.5444     8.3516  3012.0000      .1143    58.8750    18.7012  -999.2500     2.9219  2914.0000
 3279.6968     8.3516  2980.0000      .1191    58.8750    18.7012  -999.2500     2.9277  2924.0000
 3279.8492     8.3516  2944.0000      .1260    58.8750    18.7012  -999.2500     2.9316  2930.0000
 3280.0016     8.3516  2908.0000      .1055    58.8750    18.7012  -999.2500     2.9062  2934.0000
 3280.1540     8.3516  2866.0000      .1035    58.8750    18.7012  -999.2500     2.9102  2910.0000
 3280.3064     8.3516  2826.0000      .1006    58.8750    18.7012  -999.2500     2.9160  2894.0000
 3280.4588     8.3516  2778.0000      .1104    58.8750    18.7012  -999.2500     2.9297  2890.0000
 3280.6112     8.3516  2732.0000      .1143    58.8750    18.7012  -999.2500     2.9258  2874.0000
 3280.7636     8.3516  2682.0000      .1157    58.8750    18.7012  -999.2500     2.9238  2874.0000
 3280.9160     8.3594  2630.0000      .1045    58.8750    18.7012  -999.2500     2.9082  2884.0000
 3281.0684     8.3594  2572.0000      .1069    58.8750    18.7012  -999.2500     2.9160  2910.0000
 3281.2208     8.3594  2512.0000      .1089    58.8750    18.7012  -999.2500     2.9219  2904.0000
 3281.3732     8.3594  2450.0000      .1240    58.8750    18.7012  -999.2500     2.9434  2904.0000
 3281.5256     8.3516  2392.0000      .1216    58.8750    18.7012  -999.2500     2.9336  2890.0000
 3281.6780     8.3594  2336.0000      .1177    58.8750    18.7012  -999.2500     2.9238  2874.0000
 3281.8304     8.3594  2284.0000      .1113    58.8750    18.7012  -999.2500     2.9180  2884.0000
 3281.9828     8.3594  2228.0000      .1089    58.8750    18.7012  -999.2500     2.9160  2890.0000
 3282.1352     8.3594  2174.0000      .1089    58.8750    18.7012  -999.2500     2.9160  2890.0000
 3282.2876     8.3594  2130.0000      .1089    58.8750    18.7012  -999.2500     2.9160  2890.0000
 3282.4400     8.3594  2104.0000      .1089    58.8750    18.7012  -999.2500     2.9160  2870.0000
 3282.5924     8.3594   628.5000      .1089    58.8750    18.7012  -999.2500     2.9160  2810.0000
 3282.7448  -999.2500  -999.2500  -999.2500    58.8750  -999.2500  -999.2500  -999.2500  -999.2500
