~VERSION INFORMATION
VERS.                                                 2.0:   CWLS Log ASCII Standard-VERSION 2.0
WRAP.                                                  NO:   One line per depth step
~Well Information Block
STRT.M                                           494.1296:   Top Depth
STOP.M                                          3282.7448:   Bottom Depth
STEP.M                                             .15240:   Depth Increment
NULL.                                            -999.250:   Null Value
FLD .                                      SLEIPNER GAMMA:   Field Name
WELL.                                             15/9-13:   NAME
WBN .                                             15/9-13:   WELLBORE
NATI.                                                 NOR:   COUNTRY
CTRY.                                                 NOR:   COUNTRY
COMP.                                             STATOIL:   OPERATOR
PROV.                                           NORTH SEA:   PROVINCE
COUN.                                            ROSS RIG:   RIG NAME
SPUD.                                          1982/03/21:   SPUD DATE
LATI.                                       58 22 25.96 N:   SURF. LATITUDE
LONG.                                         1 56 2.86 E:   SURF. LONGITUDE
PBWE.                                             15/9-13:   PB WELL ID
APIN.                                             15/9-13:   PB WELLBORE ID
PBWS.                                                 all:   PB WELL NAME SET
~PARAMETER INFORMATION (log)
LNAM.                              LDT/CNL/GR  COMPOSITED:   NAME
LTYP.                                         DEPTH MATCH:   LOG TYPE
LSRV.                                           LATEROLOG:   LOG SERVICE
LSOU.                                             SPT/NPD:   LOG SOURCE
LVSN.                                                   1:   LOG VERSION
BHIS.                                                   R:   BRIEF HISTORY
FHIS.                                             RAW-LIS:   FULL HISTORY
LCNM.                                        SCHLUMBERGER:   LOGGING CONTRACTOR
TOOL.                             LDT/CNL/GR (COMPOSITED):   TOOL STRING
~Curve Information Block
#MNEM.UNIT                                        API CODE    No Description
#=========                                        ========    == ===========
DEPT.M                                       00 001 00 00:     1  DEPTH
CALI.IN                                                  :     2  Caliper
CS.                                                      :     3  Cable Speed
DRHO.G/CC                                                :     4  Bulk density correction
GR.GAPI                                                  :     5  Gamma Ray
NPHI.%                                                   :     6  Neutron porosity
PEF.B/E                                                  :     7  Photo-electric factor
RHOB.G/CC                                                :     8  Bulk density
TENS.LB                                                  :     9  Cable Tension
~ASCII
  494.1296    19.5000  2084.0000     -.5996    38.8125  -999.2500    28.3750     1.8994  -999.2500
  494.2820    19.5000  2084.0000     -.5815    40.4063  -999.2500    32.3125     1.9160  1100.0000
  494.4344    19.5000  2084.0000     -.5815    35.0313  -999.2500    23.7656     1.8848  1095.0000
  494.5868    19.4688  2082.0000     -.5708    38.7187  -999.2500    19.1250     1.8838  1105.0000
  494.7392    19.4688  2082.0000     -.5698    37.1250  -999.2500    19.5469     1.8936  1095.0000
  494.8916    19.4688  2082.0000     -.5771    41.0937  -999.2500    24.5469     1.8984  1090.0000
  495.0440    19.4531  2084.0000     -.5923    40.7500  -999.2500    37.1562     1.8877  1095.0000
  495.1964    19.4531  2084.0000     -.6016    40.7500  -999.2500    39.3750     1.8750  1085.0000
  495.3488    19.4531  2082.0000     -.6016    39.8125  -999.2500    46.5000     1.8828  1100.0000
  495.5012    19.4688  2082.0000     -.5962    40.1562  -999.2500    39.3750     1.8760  1090.0000
  495.6536    19.4688  2084.0000     -.6060    38.9063  -999.2500    40.3125     1.8623  1100.0000
  495.8060    19.4688  2086.0000     -.6201    37.1875  -999.2500    38.3750     1.8369  1100.0000
  495.9584    19.4688  2086.0000     -.6230    37.1875  -999.2500    37.4063     1.8359  1100.0000
  496.1108    19.4688  2086.0000     -.6040    37.2188  -999.2500    35.5000     1.8516  1095.0000
  496.2632    19.4688  2084.0000     -.5913    37.5625  -999.2500    38.5625     1.8662  1080.0000
  496.4156    19.4688  2086.0000     -.5942    37.5625  -999.2500    36.4688     1.8633  1100.0000
  496.5680    19.4688  2086.0000     -.6006    36.8437  -999.2500    40.3438     1.8584  1110.0000
  496.7204    19.4531  2086.0000     -.6035    36.8437  -999.2500    28.8594     1.8594  1095.0000
  496.8728    19.4844  2086.0000     -.6001    34.5313  -999.2500    31.4375     1.8662  1080.0000
  497.0252    19.5000  2084.0000     -.5894    36.2500  -999.2500    28.2813     1.8887  1110.0000
  497.1776    19.5000  2084.0000     -.5947    39.5313  -999.2500    38.9063     1.8906  1100.0000
  497.3300    19.5000  2084.0000     -.6001    42.8438  -999.2500    48.6563     1.8984  1085.0000
  497.4824    19.5000  2084.0000     -.6299    49.3750  -999.2500    66.8750     1.8691  1080.0000
  497.6348    19.5000  2084.0000     -.6255    45.7188  -999.2500    45.5937     1.8740  1090.0000
  497.7872    19.5000  2084.0000     -.6128    43.7813  -999.2500    48.1563     1.8789  1105.0000
  497.9396    19.5000  2084.0000     -.6055    37.8438  -999.2500    27.2656     1.8945  1095.0000
  498.0920    19.5156  2084.0000     -.6045    40.4687  -999.2500    32.4063     1.9121  1095.0000
  498.2444    19.5156  2084.0000     -.6025    42.3437  -999.2500    39.2813     1.9336  1105.0000
  498.3968    19.5156  2082.0000     -.6104    42.0312  -999.2500    70.3125     1.9092  1090.0000
  498.5492    19.5156  2082.0000     -.6196    39.1250  -999.2500    62.4687     1.8750  1115.0000
  498.7016    19.5000  2082.0000     -.6182    34.8750  -999.2500    37.6875     1.8594  1105.0000
  498.8540    19.5000  2084.0000     -.6084    35.2500  -999.2500    39.9687     1.8672  1100.0000
  499.0064    19.5000  2084.0000     -.6133    34.8438  -999.2500    31.4375     1.8799  1110.0000
  499.1588    19.4688  2084.0000     -.6406    35.5000  -999.2500    27.9375     1.8486  1095.0000
  499.3112    19.5000  2084.0000     -.6465    34.1875  -999.2500    24.6562     1.8535  1095.0000
  499.4636    19.5000  2084.0000     -.6333    34.2500  -999.2500    36.3438     1.8594  1110.0000
  499.6160    19.5000  2086.0000     -.6299    35.2500  -999.2500    36.4375     1.8682  1095.0000
  499.7684    19.5000  2086.0000     -.6328    36.5000  -999.2500    52.2188     1.8711  1100.0000
  499.9208    19.5000  2086.0000     -.6382    37.8438  -999.2500    36.0000     1.8730  1115.0000
  500.0732    19.5000  2084.0000     -.6489    38.1875  -999.2500    39.3437     1.8633  1100.0000
  500.2256    19.5000  2084.0000     -.6567    36.1563  -999.2500    24.6094     1.8516  1100.0000
  500.3780    19.5000  2084.0000     -.6621    32.5000  -999.2500    28.8125     1.8398  1110.0000
  500.5304    19.5000  2084.0000     -.6538    31.8281  -999.2500    29.6719     1.8545  1100.0000
  500.6828    19.5000  2084.0000     -.6567    34.1875  -999.2500    32.5000     1.8516  1095.0000
  500.8352    19.4531  2082.0000     -.6475    34.5625  -999.2500    19.2344     1.9141  1100.0000
  500.9876    19.4375  2084.0000     -.6685    32.8750  -999.2500    15.9766     1.9824  1110.0000
  501.1400    19.4375  2084.0000     -.6895    30.8125  -999.2500    19.2969     2.0840  1105.0000
  501.2924    19.4063  2084.0000     -.6182    35.7500  -999.2500    13.8906     2.2148  1120.0000
  501.4448    19.4375  2082.0000     -.5698    40.7500  -999.2500     5.4414     2.0098  1110.0000
  501.5972    19.6563  2082.0000     -.2881    44.8125  -999.2500     4.1094     1.9795  1105.0000
  501.7496    19.7500  2082.0000     -.1509    46.7813  -999.2500     3.5547     1.7842  1100.0000
  501.9020    20.2969  2082.0000     -.0381    48.0313  -999.2500     3.5918     1.7314  1110.0000
  502.0544    21.7500  2084.0000     -.0151    48.6563  -999.2500     3.5957     1.6592  1080.0000
  502.2068    22.7969  2082.0000     -.0039    45.4375  -999.2500     2.5937     1.6514  1110.0000
  502.3592    21.7500  2082.0000      .0098    44.5312  -999.2500     1.7031     1.6318  1130.0000
  502.5116    23.0937  2084.0000      .0049    44.5938  -999.2500     1.2744     1.5654  1090.0000
  502.6640    23.2500  2086.0000     -.0029    47.1562  -999.2500     1.1104     1.4922  1120.0000
  502.8164    23.0000  2084.0000     -.0186    48.5000  -999.2500     1.0977     1.4316  1105.0000
  502.9688    23.2656  2086.0000     -.0225    46.4375  -999.2500     1.0918     1.4121  1120.0000
  503.1212    23.2656  2086.0000     -.0171    46.8125  -999.2500     1.0898     1.4160  1115.0000
  503.2736    23.2656  2086.0000     -.0171    43.8125  -999.2500     1.0869     1.4150  1105.0000
  503.4260    23.2656  2088.0000     -.0142    46.4375  -999.2500     1.0947     1.4180  1100.0000
  503.5784    23.2656  2086.0000     -.0161    48.7500  -999.2500     1.0938     1.4170  1120.0000
  503.7308    23.2656  2086.0000     -.0156    49.1563  -999.2500     1.1016     1.4180  1075.0000
  503.8832    23.2656  2086.0000     -.0181    48.5313  -999.2500     1.1104     1.4160  1170.0000
  504.0356    23.2656  2086.0000     -.0161    47.5000  -999.2500     1.1162     1.4170  1075.0000
  504.1880    23.2656  2088.0000     -.0122    50.0938  -999.2500     1.1270     1.4219  1065.0000
  504.3404    23.2656  2086.0000     -.0059    53.6250  -999.2500     1.1182     1.4297  1075.0000
  504.4928    23.2656  2086.0000     -.0029    51.9375  -999.2500     1.1250     1.4346  1055.0000
  504.6452    23.2656  2086.0000     -.0020    53.9688  -999.2500     1.1172     1.4355  1060.0000
  504.7976    23.2656  2086.0000     -.0059    53.7187  -999.2500     1.1172     1.4326  1070.0000
  504.9500    23.2656  2086.0000     -.0093    50.7500  -999.2500     1.1084     1.4297  1070.0000
  505.1024    23.2656  2086.0000     -.0117    50.0000  -999.2500     1.1006     1.4258  1055.0000
  505.2548    23.2656  2084.0000     -.0078    47.2813  -999.2500     1.0967     1.4287  1075.0000
  505.4072    23.2656  2084.0000     -.0112    48.0625  -999.2500     1.1025     1.4238  1075.0000
  505.5596    23.2656  2084.0000     -.0112    44.1563  -999.2500     1.1104     1.4238  1060.0000
  505.7120    23.2656  2086.0000     -.0161    43.9062  -999.2500     1.1133     1.4180  1070.0000
  505.8644    23.2656  2086.0000     -.0137    47.1562  -999.2500     1.1094     1.4209  1075.0000
  506.0168    23.2656  2084.0000     -.0132    50.1562  -999.2500     1.1172     1.4229  1060.0000
  506.1692    23.2656  2084.0000     -.0146    51.4062  -999.2500     1.1133     1.4219  1070.0000
  506.3216    23.2656  2086.0000     -.0161    50.1250  -999.2500     1.1045     1.4209  1060.0000
