~VERSION INFORMATION
VERS.                                                 2.0:   CWLS Log ASCII Standard-VERSION 2.0
WRAP.                                                  NO:   One line per depth step
~Well Information Block
STRT.M                                           494.1296:   Top Depth
STOP.M                                          3282.7448:   Bottom Depth
STEP.M                                             .15240:   Depth Increment
NULL.                                            -999.250:   Null Value
FLD .                                      SLEIPNER GAMMA:   Field Name
WELL.                                             15/9-13:   NAME
WBN .                                             15/9-13:   WELLBORE
NATI.                                                 NOR:   COUNTRY
CTRY.                                                 NOR:   COUNTRY
COMP.                                             STATOIL:   OPERATOR
PROV.                                           NORTH SEA:   PROVINCE
COUN.                                            ROSS RIG:   RIG NAME
SPUD.                                          1982/03/21:   SPUD DATE
LATI.                                       58 22 25.96 N:   SURF. LATITUDE
LONG.                                         1 56 2.86 E:   SURF. LONGITUDE
PBWE.                                             15/9-13:   PB WELL ID
APIN.                                             15/9-13:   PB WELLBORE ID
PBWS.                                                 all:   PB WELL NAME SET
~PARAMETER INFORMATION (log)
LNAM.                              LDT/CNL/GR  COMPOSITED:   NAME
LTYP.                                         DEPTH MATCH:   LOG TYPE
LSRV.                                           LATEROLOG:   LOG SERVICE
LSOU.                                             SPT/NPD:   LOG SOURCE
LVSN.                                                   1:   LOG VERSION
BHIS.                                                   R:   BRIEF HISTORY
FHIS.                                             RAW-LIS:   FULL HISTORY
LCNM.                                        SCHLUMBERGER:   LOGGING CONTRACTOR
TOOL.                             LDT/CNL/GR (COMPOSITED):   TOOL STRING
~Curve Information Block
#MNEM.UNIT                                        API CODE    No Description
#=========                                        ========    == ===========
DEPT.M                                       00 001 00 00:     1  DEPTH
CALI.IN                                                  :     2  Caliper
CS.                                                      :     3  Cable Speed
DRHO.G/CC                                                :     4  Bulk density correction
GR.GAPI                                                  :     5  Gamma Ray
NPHI.%                                                   :     6  Neutron porosity
PEF.B/E                                                  :     7  Photo-electric factor
RHOB.G/CC                                                :     8  Bulk density
TENS.LB                                                  :     9  Cable Tension
~ASCII
# ...
 2716.1216     9.4531  3504.0000     -.0067    30.2649    17.7734     7.3021     2.3978  2674.0000
 2716.2740     9.4531  3502.0000     -.0083    31.3229    17.8060     7.2826     2.3880  2884.0000
 2716.4264     9.4531  3500.0000     -.0117    33.7435    17.0391     6.8701     2.3802  3570.0000
 2716.5788     9.4531  3500.0000     -.0140    36.5015    19.3218     6.7214     2.3776  3764.0000
 2716.7312     9.4531  3502.0000     -.0169    40.0521    25.7650     6.7956     2.3887  3710.0000
 2716.8836     9.4531  3506.0000     -.0171    44.9063    30.0781     6.4844     2.3945  3644.0000
 2717.0360     9.4531  3508.0000     -.0156    46.0192    29.4560     6.7993     2.3750  3590.0000
 2717.1884     9.5158  3508.0000     -.0047    45.3951    25.7416     6.6971     2.3156  3524.0000
 2717.3408     9.4895  3506.0000      .0080    42.3310    25.5707     6.4309     2.2780  3460.0000
 2717.4932     9.7943  3506.0000      .0260    43.4167    27.8809     6.4740     2.2741  3410.0000
 2717.6456     9.5694  3508.0000      .0534    43.3092    30.0814     6.6788     2.3132  3324.0000
 2717.7980     9.7666  3510.0000      .0426    42.3326    29.8154     7.1650     2.3216  3250.0000
 2717.9504    10.2580  3512.0000      .0163    41.5203    30.8769     7.0075     2.2995  3204.0000
 2718.1028     9.6458  3512.0000     -.0041    40.9583    32.3893     6.0859     2.2936  3174.0000
 2718.2552     9.4427  3516.0000     -.0122    40.5104    30.1595     5.4102     2.3223  3020.0000
 2718.4076     9.3329  3514.0000     -.0060    37.8586    23.6692     4.6418     2.4129  3010.0000
 2718.5600     9.2031  3516.0000     -.0067    40.1487    19.2694     5.1100     2.4655  3004.0000
 2718.7124     9.1875  3514.0000      .0065    49.3437    21.5495     5.7122     2.4557  3004.0000
 2718.8648     9.2344  3512.0000      .0229    53.3542    26.5951     7.1510     2.4082  3070.0000
 2719.0172     9.2369  3512.0000      .0365    47.6944    28.8098     6.6234     2.4148  3014.0000
 2719.1696     9.1587  3510.0000      .0224    38.2551    25.6592     5.7806     2.4460  3014.0000
 2719.3220     9.1250  3514.0000      .0001    36.2739    19.9611     5.4840     2.4864  3010.0000
 2719.4744     9.1250  3516.0000     -.0077    39.7001    19.2393     6.3862     2.4186  2984.0000
 2719.6268     9.1668  3516.0000     -.0021    37.0006    25.8444     7.2130     2.3365  3014.0000
 2719.7792     9.3859  3518.0000      .0062    32.7342    31.8106     6.4235     2.3177  3020.0000
 2719.9316     9.2442  3518.0000     -.0000    30.4555    30.6904     5.0826     2.3954  3000.0000
 2720.0840     9.1250  3518.0000     -.0073    32.3810    23.8800     4.7489     2.4728  2990.0000
 2720.2364     9.1406  3516.0000      .0026    33.6875    20.1652     4.9976     2.4948  2994.0000
 2720.3888     9.1484  3514.0000      .0377    32.6746    20.3303     4.8210     2.4987  2984.0000
 2720.5412     9.1484  3510.0000      .0774    34.1402    19.9038     4.7332     2.5235  2994.0000
 2720.6936     9.1484  3512.0000      .0882    36.9210    18.5197     4.9875     2.5312  2980.0000
 2720.8460     9.1484  3512.0000      .0920    44.2343    19.2555     5.4873     2.5228  2994.0000
 2720.9984     9.1902  3514.0000      .0740    47.0198    21.9940     5.7789     2.5000  3030.0000
 2721.1508     9.1639  3514.0000      .0548    49.1932    22.8185     6.4024     2.4641  3044.0000
 2721.3032     9.1824  3516.0000      .0369    47.8481    21.4978     8.6819     2.4629  3050.0000
 2721.4556     9.3022  3514.0000      .0146    46.3852    20.7681    11.4441     2.3945  3054.0000
 2721.6080     9.1845  3514.0000      .0068    43.3576    22.1389    13.0590     2.3013  3024.0000
 2721.7604     8.9710  3514.0000      .0052    37.7296    24.6462    12.7275     2.2069  2964.0000
 2721.9128     8.9323  3512.0000      .0103    33.9883    22.8657    10.9598     2.1699  2904.0000
 2722.0652     8.9870  3510.0000      .0106    31.5000    19.1243     8.7865     2.1810  2824.0000
 2722.2176     9.1484  3512.0000      .0099    30.6719    14.6973     6.7760     2.2135  2664.0000
 2722.3700     9.5159  3512.0000      .0086    30.0151    12.3041     5.8318     2.2565  2724.0000
 2722.5224     9.9245  3510.0000      .0088    31.3542    11.8490     5.5339     2.2949  2830.0000
 2722.6748    10.1016  3510.0000      .0070    34.0625    12.3047     6.2839     2.3132  3074.0000
 2722.8272    10.1615  3506.0000      .0075    35.7292    15.1855     6.2891     2.3112  3620.0000
 2722.9796    10.2110  3506.0000      .0109    37.0753    21.1374     6.6759     2.2825  3574.0000
 2723.1320     9.8252  3506.0000      .0360    46.5905    30.7350     6.4657     2.2734  3510.0000
 2723.2844     9.7031  3506.0000      .0628    59.9063    36.1328     7.0846     2.2845  3450.0000
 2723.4368     9.7109  3506.0000      .0837    74.2708    37.7930     6.9023     2.3398  3370.0000
 2723.5892     9.4134  3506.0000      .0756    72.0661    38.2162     6.9279     2.3639  3310.0000
 2723.7416     9.5653  3508.0000      .0765    58.9507    40.5455     6.9217     2.3985  3254.0000
 2723.8940     9.4557  3510.0000      .0653    43.7917    40.9831     7.1250     2.3743  3220.0000
 2724.0464     9.2969  3512.0000      .0658    38.6354    37.9883     7.0482     2.3236  3160.0000
 2724.1988     9.4635  3514.0000      .0614    39.3437    36.6374     7.2344     2.2487  3010.0000
 2724.3512     9.8153  3516.0000      .0744    40.7300    36.6211     6.4367     2.2513  3010.0000
 2724.5036     9.6849  3514.0000      .0570    41.5833    36.1003     5.9857     2.2533  3030.0000
 2724.6560     9.4089  3516.0000      .0452    41.1667    33.5286     5.6810     2.2565  3000.0000
 2724.8084     9.4453  3512.0000      .0212    39.5417    28.3366     6.0521     2.2187  3004.0000
 2724.9608     9.8863  3512.0000      .0055    36.3690    24.2953     5.7604     2.2573  2990.0000
 2725.1132     9.4829  3512.0000     -.0059    36.9210    22.3774     4.7039     2.3719  2984.0000
 2725.2656     9.1875  3514.0000     -.0065    36.2696    22.8686     4.2851     2.5105  2990.0000
 2725.4180     9.1719  3516.0000     -.0018    35.6875    24.5768     4.2331     2.5794  3010.0000
 2725.5704     9.1588  3518.0000      .0002    35.5724    24.9343     4.4393     2.5898  3014.0000
 2725.7228     9.1771  3518.0000     -.0083    37.7033    22.8142     4.8275     2.5481  3020.0000
 2725.8752     9.1927  3520.0000     -.0029    39.4808    22.1525     5.2520     2.4973  3070.0000
 2726.0276     9.2005  3516.0000      .0059    38.1862    21.6955     5.5587     2.4577  3090.0000
 2726.1800     9.2708  3518.0000      .0127    35.4583    22.1354     5.0260     2.4674  3004.0000
 2726.3324     9.2316  3516.0000      .0063    34.2494    19.6057     4.5621     2.5046  3030.0000
 2726.4848     9.1953  3514.0000     -.0003    35.0439    17.4462     4.4217     2.5359  3000.0000
 2726.6372     9.2005  3512.0000     -.0031    35.1664    16.7641     4.4115     2.5462  3024.0000
 2726.7896     9.2292  3514.0000     -.0020    32.6875    16.9271     4.4062     2.5586  3034.0000
 2726.9420     9.2161  3516.0000     -.0023    30.2574    16.6656     4.5968     2.5866  3024.0000
 2727.0944     9.2031  3516.0000     -.0020    29.0298    16.7814     4.7710     2.6055  3024.0000
 2727.2468     9.2083  3516.0000     -.0103    29.1618    17.1388     4.9102     2.5989  3024.0000
 2727.3992     9.2057  3516.0000     -.0163    29.3958    17.2689     4.8880     2.5898  3010.0000
 2727.5516     9.2083  3516.0000     -.0158    28.0906    17.1546     4.8020     2.5944  3004.0000
 2727.7040     9.2109  3514.0000     -.0155    31.5724    16.2088     5.0514     2.5964  2990.0000
 2727.8564     9.2318  3514.0000     -.0208    37.4884    16.4893     5.6678     2.5761  2984.0000
 2728.0088     9.2422  3514.0000     -.0228    42.0167    19.9456     6.5745     2.5064  2980.0000
 2728.1612     9.2578  3514.0000     -.0045    41.9156    27.9348     7.5865     2.4466  2984.0000
 2728.3136     9.5684  3514.0000      .0122    38.9633    34.1217     7.2236     2.3155  3004.0000
