~VERSION INFORMATION
VERS.                                                 2.0:   CWLS Log ASCII Standard-VERSION 2.0
WRAP.                                                  NO:   One line per depth step
~Well Information Block
STRT.M                                           494.1296:   Top Depth
STOP.M                                          3282.7448:   Bottom Depth
STEP.M                                             .15240:   Depth Increment
NULL.                                            -999.250:   Null Value
FLD .                                      SLEIPNER GAMMA:   Field Name
WELL.                                             15/9-13:   NAME
WBN .                                             15/9-13:   WELLBORE
NATI.                                                 NOR:   COUNTRY
CTRY.                                                 NOR:   COUNTRY
COMP.                                             STATOIL:   OPERATOR
PROV.                                           NORTH SEA:   PROVINCE
COUN.                                            ROSS RIG:   RIG NAME
SPUD.                                          1982/03/21:   SPUD DATE
LATI.                                       58 22 25.96 N:   SURF. LATITUDE
LONG.                                         1 56 2.86 E:   SURF. LONGITUDE
PBWE.                                             15/9-13:   PB WELL ID
APIN.                                             15/9-13:   PB WELLBORE ID
PBWS.                                                 all:   PB WELL NAME SET
~PARAMETER INFORMATION (log)
LNAM.                              LDT/CNL/GR  COMPOSITED:   NAME
LTYP.                                         DEPTH MATCH:   LOG TYPE
LSRV.                                           LATEROLOG:   LOG SERVICE
LSOU.                                             SPT/NPD:   LOG SOURCE
LVSN.                                                   1:   LOG VERSION
BHIS.                                                   R:   BRIEF HISTORY
FHIS.                                             RAW-LIS:   FULL HISTORY
LCNM.                                        SCHLUMBERGER:   LOGGING CONTRACTOR
TOOL.                             LDT/CNL/GR (COMPOSITED):   TOOL STRING
~Curve Information Block
#MNEM.UNIT                                        API CODE    No Description
#=========                                        ========    == ===========
DEPT.M                                       00 001 00 00:     1  DEPTH
CALI.IN                                                  :     2  Caliper
CS.                                                      :     3  Cable Speed
DRHO.G/CC                                                :     4  Bulk density correction
GR.GAPI                                                  :     5  Gamma Ray
NPHI.%                                                   :     6  Neutron porosity
PEF.B/E                                                  :     7  Photo-electric factor
RHOB.G/CC                                                :     8  Bulk density
TENS.LB                                                  :     9  Cable Tension
~ASCII
# ...
 1790.2916    12.2413  3038.0000      .0042    74.7069    49.6108     2.5911     2.0202  2064.0000
 1790.4440    11.9844  3036.0000      .0041    73.0402    50.3421     2.6563     2.0078  2035.0000
 1790.5964    12.0287  3036.0000      .0047    70.2674    52.6728     2.9796     1.9870  2025.0000
 1790.7488    12.0677  3034.0000      .0106    67.3102    52.1628     3.4281     1.9629  2010.0000
 1790.9012    12.1981  3034.0000      .0135    65.4151    56.7469     3.7040     1.9323  1990.0000
 1791.0536    12.3882  3036.0000      .0195    62.9977    57.7943     3.5909     1.9202  1990.0000
 1791.2060    12.7713  3034.0000      .0127    64.2640    58.4496     3.3983     1.9127  2000.0000
 1791.3584    12.9610  3034.0000      .0072    66.4596    53.4110     3.3066     1.9281  2005.0000
 1791.5108    12.5905  3036.0000      .0019    70.3804    49.1025     3.1867     1.9512  2000.0000
 1791.6632    12.0803  3036.0000     -.0028    72.0208    49.2035     2.9894     1.9723  2005.0000
 1791.8156    12.2140  3038.0000     -.0068    73.1685    49.8376     2.8586     1.9821  2025.0000
 1791.9680    12.7713  3034.0000     -.0096    72.7905    50.0815     2.8131     1.9860  2030.0000
 1792.1204    12.7522  3034.0000     -.0086    74.3992    49.9183     2.7747     1.9984  2030.0000
 1792.2728    13.4124  3036.0000     -.0062    76.0632    54.0089     2.7793     2.0065  2054.0000
 1792.4252    14.3231  3036.0000     -.0005    78.9594    56.2012     2.7865     2.0156  2040.0000
 1792.5776    14.2261  3034.0000     -.0000    80.1248    57.0974     2.9260     2.0156  2015.0000
 1792.7300    13.2236  3034.0000      .0020    77.5198    52.6348     3.0560     2.0085  2005.0000
 1792.8824    11.9938  3034.0000      .0018    73.7470    52.8678     3.1094     1.9883  2025.0000
 1793.0348    11.6172  3038.0000      .0072    69.7467    53.4822     3.1068     1.9736  2045.0000
 1793.1872    12.1180  3038.0000      .0125    69.7939    54.0053     3.2144     1.9759  2020.0000
 1793.3396    12.5732  3038.0000      .0319    67.6215    52.9442     3.4292     2.0111  2030.0000
 1793.4920    12.4606  3040.0000      .0290    66.0623    51.9364     3.5652     2.0143  2054.0000
 1793.6444    12.3203  3040.0000      .0321    67.5018    51.4481     3.4908     2.0078  2064.0000
 1793.7968    12.2786  3040.0000      .0340    69.7941    50.0306     3.3716     1.9993  2040.0000
 1793.9492    12.1248  3040.0000      .0389    72.3980    51.8258     3.1606     2.0127  2020.0000
 1794.1016    12.0547  3038.0000      .0276    71.7684    54.6249     3.0983     2.0202  1980.0000
 1794.2540    12.0860  3038.0000      .0124    73.7116    53.2363     3.0331     2.0221  2005.0000
 1794.4064    12.2058  3038.0000      .0054    72.7282    52.1159     3.0332     2.0273  2025.0000
 1794.5588    12.4195  3040.0000      .0010    69.9355    51.8389     2.9354     2.0241  2120.0000
 1794.7112    12.3385  3040.0000     -.0041    66.6657    56.7891     2.8288     2.0150  2090.0000
 1794.8636    12.3047  3042.0000     -.0072    65.3958    56.2626     2.7682     2.0078  2090.0000
 1795.0160    12.1770  3044.0000     -.0065    64.7914    55.7458     2.8386     2.0033  2015.0000
 1795.1684    12.2371  3042.0000     -.0016    66.2521    56.5759     3.1201     1.9961  1990.0000
 1795.3208    12.4141  3042.0000      .0041    68.5005    55.5008     3.3412     1.9867  2000.0000
 1795.4732    12.4844  3042.0000      .0085    72.6500    57.9464     3.3743     1.9827  2000.0000
 1795.6256    12.4818  3040.0000      .0107    73.4163    58.6911     3.0487     1.9941  2020.0000
 1795.7780    12.5339  3038.0000      .0083    76.2748    60.9407     2.7668     2.0039  2045.0000
 1795.9304    12.9640  3038.0000      .0046    82.2343    57.0413     2.6334     2.0085  2030.0000
 1796.0828    12.7681  3038.0000      .0018    81.6239    55.3877     2.6498     2.0072  2010.0000
 1796.2352    12.4452  3040.0000      .0026    78.6648    59.1837     2.7527     2.0124  2000.0000
 1796.3876    13.0029  3040.0000      .0050    72.9564    60.2537     2.9369     2.0234  2000.0000
 1796.5400    12.5616  3042.0000      .0150    70.4166    59.4721     3.0984     2.0404  2045.0000
 1796.6924    12.2657  3042.0000      .0260    63.9349    58.2841     3.1608     2.0573  2054.0000
 1796.8448    12.2734  3040.0000      .0231    60.8648    58.1710     3.0291     2.0521  2040.0000
 1796.9972    12.3255  3040.0000      .0138    61.6461    55.5816     2.7883     2.0365  2040.0000
 1797.1496    12.4011  3040.0000      .0068    63.9607    51.3638     2.7331     2.0221  2050.0000
 1797.3020    12.4688  3038.0000      .0029    64.4790    49.5930     2.7272     2.0124  2025.0000
 1797.4544    12.7581  3040.0000     -.0062    64.1666    53.2598     2.8067     1.9993  2005.0000
 1797.6068    12.7656  3040.0000     -.0080    64.1667    54.8827     2.8815     1.9941  1990.0000
 1797.7592    12.8543  3040.0000     -.0013    62.2060    52.0639     2.9160     1.9967  2005.0000
 1797.9116    12.6533  3040.0000      .0083    60.6347    48.1251     3.1174     1.9967  2030.0000
 1798.0640    12.2184  3042.0000      .0107    60.5315    46.9239     3.2416     1.9876  2025.0000
 1798.2164    12.1538  3042.0000      .0063    60.8963    50.2331     3.3380     1.9749  1995.0000
 1798.3688    12.2110  3042.0000      .0047    64.5563    53.9413     3.2433     1.9714  2015.0000
 1798.5212    12.2292  3042.0000      .0046    62.8069    54.2958     3.0975     1.9717  2035.0000
 1798.6736    12.7663  3040.0000      .0057    58.3300    53.4010     2.9282     1.9736  2040.0000
 1798.8260    12.7806  3040.0000      .0034    56.6973    49.5683     2.8842     1.9727  2020.0000
 1798.9784    12.3745  3040.0000      .0023    60.7150    49.3025     2.9637     1.9762  2005.0000
 1799.1308    12.1926  3040.0000     -.0028    64.3893    50.0815     3.1990     1.9772  2010.0000
 1799.2832    12.0623  3038.0000     -.0037    62.7878    50.4563     3.2754     1.9857  2020.0000
 1799.4356    11.7885  3038.0000     -.0046    62.1785    48.5791     3.1462     1.9896  2025.0000
 1799.5880    11.6849  3040.0000     -.0047    60.7994    47.1999     2.9692     1.9886  2010.0000
 1799.7404    11.7032  3042.0000     -.0103    60.4491    47.6415     2.8697     1.9811  2005.0000
 1799.8928    11.8048  3042.0000     -.0135    62.8159    50.0685     2.8822     1.9749  2030.0000
 1800.0452    11.8307  3042.0000     -.0058    70.0074    51.1230     2.9050     1.9828  2060.0000
 1800.1976    11.7577  3040.0000      .0013    73.4381    52.1012     2.9147     1.9860  2045.0000
 1800.3500    11.7422  3040.0000      .0078    70.3294    51.9035     2.8893     1.9906  2010.0000
 1800.5024    12.6316  3040.0000      .0093    62.0728    49.1824     2.9063     1.9886  1980.0000
 1800.6548    13.6178  3038.0000      .0225    58.4475    49.1713     2.9453     2.0033  2010.0000
 1800.8072    13.6663  3038.0000      .0316    58.3021    46.9519     2.8605     2.0143  2050.0000
 1800.9596    12.9602  3040.0000      .0275    63.3185    48.4898     2.7030     2.0130  2040.0000
 1801.1120    12.1476  3042.0000      .0135    67.1897    49.1361     2.6393     2.0065  2015.0000
 1801.2644    11.9219  3044.0000      .0029    68.3339    48.7305     2.6595     2.0052  2005.0000
 1801.4168    11.9688  3044.0000     -.0028    70.4405    51.9583     2.7175     1.9987  2015.0000
 1801.5692    12.0887  3044.0000     -.0050    70.2904    53.1734     2.6633     1.9866  2045.0000
 1801.7216    12.2868  3044.0000     -.0064    70.0424    56.8615     2.6420     1.9792  2080.0000
 1801.8740    12.4168  3044.0000     -.0062    66.9740    54.1593     2.6334     1.9880  2040.0000
 1802.0264    12.7113  3044.0000     -.0065    67.2522    51.1059     2.6876     2.0016  2054.0000
 1802.1788    13.2767  3044.0000     -.0065    66.2678    51.0911     2.7044     2.0124  2045.0000
 1802.3312    13.1376  3044.0000     -.0090    64.7702    50.1614     2.7038     2.0169  2010.0000
 1802.4836    12.2515  3044.0000     -.0103    60.3684    52.1199     2.6862     2.0189  2035.0000
