~VERSION INFORMATION
VERS.                                                 2.0:   CWLS Log ASCII Standard-VERSION 2.0
WRAP.                                                  NO:   One line per depth step
~Well Information Block
STRT.M                                           494.1296:   Top Depth
STOP.M                                          3282.7448:   Bottom Depth
STEP.M                                             .15240:   Depth Increment
NULL.                                            -999.250:   Null Value
FLD .                                      SLEIPNER GAMMA:   Field Name
WELL.                                             15/9-13:   NAME
WBN .                                             15/9-13:   WELLBORE
NATI.                                                 NOR:   COUNTRY
CTRY.                                                 NOR:   COUNTRY
COMP.                                             STATOIL:   OPERATOR
PROV.                                           NORTH SEA:   PROVINCE
COUN.                                            ROSS RIG:   RIG NAME
SPUD.                                          1982/03/21:   SPUD DATE
LATI.                                       58 22 25.96 N:   SURF. LATITUDE
LONG.                                         1 56 2.86 E:   SURF. LONGITUDE
PBWE.                                             15/9-13:   PB WELL ID
APIN.                                             15/9-13:   PB WELLBORE ID
PBWS.                                                 all:   PB WELL NAME SET
~PARAMETER INFORMATION (log)
LNAM.                              LDT/CNL/GR  COMPOSITED:   NAME
LTYP.                                         DEPTH MATCH:   LOG TYPE
LSRV.                                           LATEROLOG:   LOG SERVICE
LSOU.                                             SPT/NPD:   LOG SOURCE
LVSN.                                                   1:   LOG VERSION
BHIS.                                                   R:   BRIEF HISTORY
FHIS.                                             RAW-LIS:   FULL HISTORY
LCNM.                                        SCHLUMBERGER:   LOGGING CONTRACTOR
TOOL.                             LDT/CNL/GR (COMPOSITED):   TOOL STRING
~Curve Information Block
#MNEM.UNIT                                        API CODE    No Description
#=========                                        ========    == ===========
DEPT.M                                       00 001 00 00:     1  DEPTH
CALI.IN                                                  :     2  Caliper
CS.                                                      :     3  Cable Speed
DRHO.G/CC                                                :     4  Bulk density correction
GR.GAPI                                                  :     5  Gamma Ray
NPHI.%                                                   :     6  Neutron porosity
PEF.B/E                                                  :     7  Photo-electric factor
RHOB.G/CC                                                :     8  Bulk density
TENS.LB                                                  :     9  Cable Tension
~ASCII
# ...
 2345.7896    19.4688  2812.0000      .0540    35.7083    56.6081     5.8086     1.9063  2534.0000
 2345.9420    20.4381  2812.0000      .0542    34.1445    56.0988     5.6545     1.9017  2484.0000
 2346.0944    16.9810  2812.0000      .0610    33.3111    57.7374     5.7661     1.8886  2490.0000
 2346.2468    16.1951  2812.0000      .0490    35.8087    59.8163     6.0956     1.8009  2454.0000
 2346.3992    17.1670  2816.0000      .0172    38.1883    62.8439     6.1301     1.7311  2480.0000
 2346.5516    18.2396  2816.0000     -.0091    41.5625    57.7474     4.6875     1.7438  2504.0000
 2346.7040    18.9695  2816.0000     -.0184    43.5847    46.2203     3.7096     1.8988  2510.0000
 2346.8564    15.5174  2818.0000     -.0071    42.1208    38.9247     4.0121     2.0379  2480.0000
 2347.0088    14.0810  2818.0000      .0065    41.2500    40.7742     5.6561     2.0671  2460.0000
 2347.1612    14.3984  2818.0000      .0116    39.4583    44.2708     6.7161     2.0358  2480.0000
 2347.3136    14.4165  2816.0000      .0200    40.3585    49.9953     6.7705     1.9941  2560.0000
 2347.4660    15.3513  2814.0000      .0308    42.2106    50.2390     6.2828     1.9537  2514.0000
 2347.6184    16.4119  2814.0000      .0642    44.4389    51.5807     5.9999     1.9294  2490.0000
 2347.7708    16.8385  2816.0000      .0872    45.0417    51.4160     5.7174     1.9349  2494.0000
 2347.9232    16.5721  2818.0000      .0913    44.6765    51.1240     5.2831     1.9581  2454.0000
 2348.0756    15.7641  2820.0000      .0717    46.3794    50.7963     4.2531     1.9981  2434.0000
 2348.2280    15.0851  2818.0000      .0486    50.0796    47.1762     3.4686     2.0607  2424.0000
 2348.3804    14.6609  2818.0000      .0498    50.7169    43.7458     3.1983     2.1558  2464.0000
 2348.5328    14.6433  2818.0000      .0612    49.5723    44.1091     3.3315     2.2175  2544.0000
 2348.6852    15.0190  2818.0000      .0542    45.9088    45.4444     3.5889     2.2083  2620.0000
 2348.8376    14.6889  2818.0000      .0433    44.5319    44.2019     3.5126     2.1920  2610.0000
 2348.9900    14.4923  2818.0000      .0134    44.3430    39.8841     3.6724     2.1412  2540.0000
 2349.1424    15.6538  2820.0000      .0023    46.1714    38.0695     3.7492     2.0937  2454.0000
 2349.2948    14.7557  2818.0000      .0024    47.6161    38.5923     4.0538     2.0389  2474.0000
 2349.4472    15.0180  2820.0000      .0365    46.3610    43.6312     4.1287     2.0306  2470.0000
 2349.5996    14.6829  2820.0000      .0550    43.6620    49.4549     4.5349     2.0345  2474.0000
 2349.7520    16.0015  2820.0000      .0717    43.4811    52.1508     4.9301     2.0541  2460.0000
 2349.9044    15.3546  2820.0000      .0776    45.9441    50.7753     5.1776     2.0566  2464.0000
 2350.0568    15.0270  2820.0000      .0917    48.2635    52.1376     5.1952     2.0410  2480.0000
 2350.2092    16.1324  2818.0000      .0939    47.6532    53.7936     4.6707     2.0234  2510.0000
 2350.3616    15.5809  2816.0000      .0786    43.6899    51.8665     4.6137     2.0071  2450.0000
 2350.5140    16.0607  2816.0000      .0511    43.7618    46.5461     4.7227     1.9550  2470.0000
 2350.6664    16.5155  2814.0000      .0200    44.7712    48.1535     4.8036     1.8651  2470.0000
 2350.8188    16.5626  2816.0000      .0163    45.0944    54.4704     4.5214     1.8549  2510.0000
 2350.9712    16.8022  2816.0000      .0407    42.9669    55.7447     4.0167     1.9346  2510.0000
 2351.1236    15.0937  2816.0000      .0854    41.6146    51.7253     4.2187     2.0547  2490.0000
 2351.2760    14.3076  2816.0000      .0911    43.3169    45.3177     4.4741     2.0402  2540.0000
 2351.4284    14.7112  2816.0000      .0604    43.3848    45.3306     4.8310     1.9655  2474.0000
 2351.5808    14.7943  2814.0000      .0407    44.5312    48.5677     4.8516     1.9014  2510.0000
 2351.7332    15.3438  2814.0000      .0394    44.0625    51.7253     4.8385     1.8646  2504.0000
 2351.8856    15.2073  2812.0000      .0513    43.4793    51.7064     5.0708     1.8349  2454.0000
 2352.0380    16.1042  2812.0000      .0563    41.4325    53.6191     5.2737     1.8203  2460.0000
 2352.1904    17.1567  2812.0000      .0724    41.3862    53.7915     4.8994     1.8627  2490.0000
 2352.3428    17.7500  2812.0000      .0815    42.6250    52.8158     4.6484     1.9401  2554.0000
 2352.4952    17.7344  2812.0000      .0726    44.7708    53.8900     4.8607     1.9684  2544.0000
 2352.6476    15.6880  2814.0000      .0489    45.2177    59.6313     6.0729     1.9257  2500.0000
 2352.8000    15.4433  2812.0000      .0207    47.3143    58.7049     7.0238     1.8965  2424.0000
 2352.9524    15.7891  2814.0000     -.0008    51.5938    49.1374     5.9089     1.9518  2434.0000
 2353.1048    16.5521  2814.0000     -.0111    53.9271    38.3789     4.1055     2.0758  2554.0000
 2353.2572    16.9375  2812.0000     -.0099    51.2426    33.7536     3.1351     2.1766  2590.0000
 2353.4096    14.9776  2812.0000     -.0015    45.6321    35.0438     3.2294     2.2122  2584.0000
 2353.5620    14.0625  2810.0000      .0081    44.5729    37.8092     3.7331     2.2025  2474.0000
 2353.7144    14.0469  2810.0000      .0233    44.5208    38.2975     4.1790     2.1055  2444.0000
 2353.8668    15.2034  2812.0000      .0639    44.5006    40.3048     4.3673     2.0488  2444.0000
 2354.0192    16.2955  2812.0000      .1039    42.8290    40.6558     4.5459     2.0312  2484.0000
 2354.1716    16.5886  2812.0000      .1391    42.9817    46.1567     5.0544     2.0606  2540.0000
 2354.3240    16.6198  2812.0000      .1418    42.4783    46.4334     5.8194     2.0325  2550.0000
 2354.4764    17.7813  2812.0000      .1160    39.6354    50.5208     6.2187     1.9303  2480.0000
 2354.6288    19.1321  2810.0000      .0908    39.5129    50.5143     5.8114     1.8573  2420.0000
 2354.7812    18.7221  2810.0000      .0678    41.3678    51.2583     5.2179     1.8349  2350.0000
 2354.9336    18.0880  2808.0000      .0467    45.1638    50.5329     4.5118     1.8745  2410.0000
 2355.0860    15.9411  2806.0000      .0224    45.1341    48.1922     4.3412     1.9313  2590.0000
 2355.2384    14.9558  2808.0000      .0130    44.0305    44.2632     4.5199     1.9949  2714.0000
 2355.3908    14.7234  2810.0000      .0209    42.5385    38.4665     4.9462     1.9908  2670.0000
 2355.5432    15.8076  2812.0000      .0216    40.3296    43.7514     5.5113     1.8725  2594.0000
 2355.6956    16.0831  2814.0000      .0112    38.3115    54.4490     6.0706     1.7747  2510.0000
 2355.8480    16.3709  2814.0000     -.0052    37.4578    57.7958     7.3555     1.7996  2500.0000
 2356.0004    17.4186  2814.0000     -.0142    40.2048    50.8625     6.5084     1.9583  2520.0000
 2356.1528    15.1968  2814.0000     -.0052    43.2121    46.0578     5.4823     2.0698  2490.0000
 2356.3052    14.5682  2814.0000      .0088    43.5204    47.0228     4.9724     2.0214  2460.0000
 2356.4576    16.6667  2812.0000      .0298    42.7396    49.4466     5.2565     1.9010  2470.0000
 2356.6100    17.6513  2810.0000      .0338    41.3828    49.4936     5.7350     1.7977  2480.0000
 2356.7624    18.4954  2812.0000      .0324    41.0314    50.5545     6.0627     1.7519  2490.0000
 2356.9148    19.4531  2812.0000      .0317    40.6250    53.1575     6.0937     1.7318  2490.0000
 2357.0672    18.7344  2814.0000      .0290    39.8542    56.4453     6.0716     1.7497  2494.0000
 2357.2196    16.1963  2816.0000      .0203    41.6787    54.0987     5.2128     1.8015  2500.0000
 2357.3720    15.6172  2816.0000      .0078    43.9479    50.7161     4.0221     1.9124  2510.0000
 2357.5244    17.2474  2814.0000      .0347    45.0833    44.8242     3.5462     2.0785  2510.0000
 2357.6768    15.8750  2814.0000      .0659    41.2604    45.6706     4.0488     2.1439  2490.0000
 2357.8292    14.7472  2812.0000      .0845    36.9425    49.5495     4.4704     2.0479  2514.0000
 2357.9816    15.4381  2810.0000      .0494    35.1036    53.9577     5.2545     1.8648  2530.0000
