~VERSION INFORMATION
VERS.                                                 2.0:   CWLS Log ASCII Standard-VERSION 2.0
WRAP.                                                  NO:   One line per depth step
~Well Information Block
STRT.M                                           494.1296:   Top Depth
STOP.M                                          3282.7448:   Bottom Depth
STEP.M                                             .15240:   Depth Increment
NULL.                                            -999.250:   Null Value
FLD .                                      SLEIPNER GAMMA:   Field Name
WELL.                                             15/9-13:   NAME
WBN .                                             15/9-13:   WELLBORE
NATI.                                                 NOR:   COUNTRY
CTRY.                                                 NOR:   COUNTRY
COMP.                                             STATOIL:   OPERATOR
PROV.                                           NORTH SEA:   PROVINCE
COUN.                                            ROSS RIG:   RIG NAME
SPUD.                                          1982/03/21:   SPUD DATE
LATI.                                       58 22 25.96 N:   SURF. LATITUDE
LONG.                                         1 56 2.86 E:   SURF. LONGITUDE
PBWE.                                             15/9-13:   PB WELL ID
APIN.                                             15/9-13:   PB WELLBORE ID
PBWS.                                                 all:   PB WELL NAME SET
~PARAMETER INFORMATION (log)
LNAM.                              LDT/CNL/GR  COMPOSITED:   NAME
LTYP.                                         DEPTH MATCH:   LOG TYPE
LSRV.                                           LATEROLOG:   LOG SERVICE
LSOU.                                             SPT/NPD:   LOG SOURCE
LVSN.                                                   1:   LOG VERSION
BHIS.                                                   R:   BRIEF HISTORY
FHIS.                                             RAW-LIS:   FULL HISTORY
LCNM.                                        SCHLUMBERGER:   LOGGING CONTRACTOR
TOOL.                             LDT/CNL/GR (COMPOSITED):   TOOL STRING
~Curve Information Block
#MNEM.UNIT                                        API CODE    No Description
#=========                                        ========    == ===========
DEPT.M                                       00 001 00 00:     1  DEPTH
CALI.IN                                                  :     2  Caliper
CS.                                                      :     3  Cable Speed
DRHO.G/CC                                                :     4  Bulk density correction
GR.GAPI                                                  :     5  Gamma Ray
NPHI.%                                                   :     6  Neutron porosity
PEF.B/E                                                  :     7  Photo-electric factor
RHOB.G/CC                                                :     8  Bulk density
TENS.LB                                                  :     9  Cable Tension
~ASCII
# ...
 1049.6276    23.2656  2000.0000     -.0078    28.2656  -999.2500     1.0488     1.4219  1590.0000
 1049.7800    23.2656  2001.0000     -.0088    32.9375  -999.2500     1.0488     1.4209  1610.0000
 1049.9324    23.2656  2000.0000     -.0107    35.1875  -999.2500     1.0469     1.4180  1605.0000
 1050.0848    23.2656  1999.0000     -.0112    36.1875  -999.2500     1.0459     1.4180  1600.0000
 1050.2372    23.2656  1999.0000     -.0098    34.3750  -999.2500     1.0479     1.4199  1610.0000
 1050.3896    23.2656  1998.0000     -.0093    31.5938  -999.2500     1.0459     1.4209  1600.0000
 1050.5420    23.2656  1999.0000     -.0039    31.2813  -999.2500     1.0469     1.4268  1595.0000
 1050.6944    23.2656  2000.0000     -.0117    31.5312  -999.2500     1.0449     1.4199  1605.0000
 1050.8468    23.2656  1999.0000     -.0176    31.8437  -999.2500     1.0439     1.4141  1595.0000
 1050.9992    23.2656  1999.0000     -.0220    33.4375  -999.2500     1.0449     1.4102  1605.0000
 1051.1516    23.2656  2001.0000     -.0195    31.2656  -999.2500     1.0459     1.4131  1590.0000
 1051.3040    23.2656  2003.0000     -.0181    34.3437  -999.2500     1.0488     1.4131  1600.0000
 1051.4564    23.2656  2004.0000     -.0186    32.9688  -999.2500     1.0498     1.4121  1605.0000
 1051.6088    23.2656  2003.0000     -.0146    33.9375  -999.2500     1.0488     1.4150  1605.0000
 1051.7612    23.2656  2003.0000     -.0151    33.0313  -999.2500     1.0449     1.4141  1605.0000
 1051.9136    23.2656  2002.0000     -.0161    34.3437  -999.2500     1.0430     1.4131  1605.0000
 1052.0660    23.2656  2002.0000     -.0205    35.8750  -999.2500     1.0410     1.4102  1615.0000
 1052.2184    23.2656  2001.0000     -.0210    34.0000  -999.2500     1.0410     1.4102  1595.0000
 1052.3708    23.2656  2000.0000     -.0200    34.3125  -999.2500     1.0410     1.4111  1605.0000
 1052.5232    23.2656  1999.0000     -.0181    33.4062  -999.2500     1.0439     1.4131  1600.0000
 1052.6756    23.2656  2000.0000     -.0161    35.8750  -999.2500     1.0449     1.4150  1610.0000
 1052.8280    23.2656  2001.0000     -.0161    39.7188  -999.2500     1.0479     1.4150  1600.0000
 1052.9804    23.2656  2001.0000     -.0171    47.2188  -999.2500     1.0879     1.4170  1610.0000
 1053.1328    23.2656  2000.0000     -.0122    49.4063  -999.2500     1.1465     1.4365  1600.0000
 1053.2852    23.2656  2000.0000      .0020    48.7813  -999.2500     1.1592     1.4727  1610.0000
 1053.4376    23.2656  2000.0000      .0073    49.9063  -999.2500     1.1016     1.4922  1595.0000
 1053.5900    23.2656  2000.0000      .0063    51.5625  -999.2500     1.0615     1.4893  1610.0000
 1053.7424    23.2656  1999.0000     -.0020    53.0937  -999.2500     1.0947     1.4785  1600.0000
 1053.8948    23.2656  1998.0000     -.0005    51.9063  -999.2500     1.2295     1.4932  1595.0000
 1054.0472    23.2656  1997.0000      .0107    52.3125  -999.2500     1.4258     1.5674  1615.0000
 1054.1996    23.2656  1998.0000      .0181    51.0937  -999.2500     1.5879     1.6748  1600.0000
 1054.3520    23.0469  1999.0000      .0342    50.6875  -999.2500     1.5488     1.7988  1610.0000
 1054.5044    18.3906  2000.0000      .0337    48.0000  -999.2500     1.4248     1.8174  1605.0000
 1054.6568    18.6875  2001.0000      .0459    51.4688  -999.2500     1.3066     1.7686  1600.0000
 1054.8092    18.4375  2001.0000      .0454    51.7187  -999.2500     1.2402     1.6924  1620.0000
 1054.9616    19.4375  2001.0000      .0571    50.8125  -999.2500     1.2520     1.6533  1625.0000
 1055.1140    22.5469  2000.0000      .0464    49.2187  -999.2500     1.3154     1.6230  1620.0000
 1055.2664    23.2656  2000.0000      .0576    51.2187  -999.2500     1.3867     1.6367  1620.0000
 1055.4188    23.2656  1998.0000      .0571    57.4375  -999.2500     1.5000     1.6602  1620.0000
 1055.5712    23.2656  1997.0000      .0596    59.6562  -999.2500     1.5850     1.6885  1670.0000
 1055.7236    23.2656  1997.0000      .0542    59.3750  -999.2500     1.6963     1.7217  1640.0000
 1055.8760    19.7656  1996.0000      .0098    60.4063  -999.2500     1.6367     1.6934  1660.0000
 1056.0284    20.3906  1997.0000      .0005    57.8438  -999.2500     1.5557     1.6748  1675.0000
 1056.1808    21.0313  1997.0000      .0088    55.5625  -999.2500     1.4160     1.6523  1690.0000
 1056.3332    21.3906  1998.0000      .0425    50.7500  -999.2500     1.3369     1.6514  1615.0000
 1056.4856    21.7813  1998.0000      .0547    49.4688  -999.2500     1.2061     1.6309  1610.0000
 1056.6380    21.5625  1997.0000      .0269    46.5312  -999.2500     1.1758     1.5771  1650.0000
 1056.7904    20.7969  1998.0000      .0176    51.1250  -999.2500     1.1504     1.5332  1600.0000
 1056.9428    19.2500  1997.0000      .0117    54.3750  -999.2500     1.2158     1.5254  1660.0000
 1057.0952    18.8750  1997.0000      .0078    59.9063  -999.2500     1.2666     1.5273  1650.0000
 1057.2476    18.2969  1996.0000      .0220    59.2500  -999.2500     1.3604     1.5898  1670.0000
 1057.4000    18.1719  1998.0000      .0410    63.0937  -999.2500     1.5137     1.6680  1690.0000
 1057.5524    18.1094  1997.0000      .0483    63.7500  -999.2500     1.6406     1.7617  1650.0000
 1057.7048    18.4375  1998.0000      .0269    66.6250  -999.2500     1.7441     1.8359  1635.0000
 1057.8572    18.2656  1999.0000      .0244    70.3750  -999.2500     1.7627     1.8848  1625.0000
 1058.0096    18.0000  2000.0000      .0352    73.4375  -999.2500     1.7959     1.9189  1670.0000
 1058.1620    18.5000  2001.0000      .0366    76.1250  -999.2500     1.7813     1.8975  1635.0000
 1058.3144    18.8281  2001.0000      .0806    71.6875  -999.2500     1.7373     1.9180  1660.0000
 1058.4668    18.8125  2000.0000      .1050    71.3750  -999.2500     1.7256     1.9170  1655.0000
 1058.6192    18.8594  1999.0000      .1016    71.8750  -999.2500     1.7061     1.8945  1645.0000
 1058.7716    18.8281  1998.0000      .0581    71.5625  -999.2500     1.7100     1.8438  1665.0000
 1058.9240    18.9219  1999.0000      .0371    77.5625  -999.2500     1.6836     1.8105  1625.0000
 1059.0764    18.7031  1998.0000      .0557    73.3750  -999.2500     1.7246     1.8408  1665.0000
 1059.2288    18.7500  1997.0000      .0801    74.6250  -999.2500     1.7676     1.9053  1660.0000
 1059.3812    18.7031  1996.0000      .0962    70.8125  -999.2500     1.7529     1.9600  1650.0000
 1059.5336    18.6719  1997.0000      .1133    74.6250  -999.2500     1.6807     1.9736  1655.0000
 1059.6860    19.0469  1998.0000      .0894    75.4375  -999.2500     1.5674     1.9014  1650.0000
 1059.8384    19.1875  1997.0000      .0684    74.1250  -999.2500     1.5176     1.8193  1665.0000
 1059.9908    18.7656  1997.0000      .0444    70.3750  -999.2500     1.5059     1.7559  1635.0000
 1060.1432    18.5000  1997.0000      .0581    65.0625  -999.2500     1.5518     1.7617  1670.0000
 1060.2956    18.4219  1998.0000      .0576    62.0312  -999.2500     1.5596     1.7813  1630.0000
 1060.4480    18.4531  1997.0000      .0396    66.1875  -999.2500     1.5781     1.8008  1650.0000
 1060.6004    18.2656  1997.0000      .0156    69.4375  -999.2500     1.5361     1.8008  1625.0000
 1060.7528    17.9531  1997.0000      .0239    70.4375  -999.2500     1.5078     1.8008  1690.0000
 1060.9052    17.7344  1997.0000      .0518    68.5000  -999.2500     1.4600     1.8076  1620.0000
 1061.0576    18.0781  1997.0000      .0737    74.1875  -999.2500     1.5029     1.8184  1650.0000
 1061.2100    18.5781  1998.0000      .0942    79.7500  -999.2500     1.5986     1.8379  1645.0000
 1061.3624    17.2813  2000.0000      .1006    82.7500  -999.2500     1.7910     1.8828  1675.0000
 1061.5148    17.4063  2000.0000      .0981    82.4375  -999.2500     1.8174     1.9189  1645.0000
 1061.6672    17.7188  1999.0000      .1074    79.3125  -999.2500     1.8711     1.9932  1650.0000
 1061.8196    17.5000  2000.0000      .0986    75.6250  -999.2500     1.8799     2.0254  1630.0000
