~VERSION INFORMATION
VERS.                                                 2.0:   CWLS Log ASCII Standard-VERSION 2.0
WRAP.                                                  NO:   One line per depth step
~Well Information Block
STRT.M                                           494.1296:   Top Depth
STOP.M                                          3282.7448:   Bottom Depth
STEP.M                                             .15240:   Depth Increment
NULL.                                            -999.250:   Null Value
FLD .                                      SLEIPNER GAMMA:   Field Name
WELL.                                             15/9-13:   NAME
WBN .                                             15/9-13:   WELLBORE
NATI.                                                 NOR:   COUNTRY
CTRY.                                                 NOR:   COUNTRY
COMP.                                             STATOIL:   OPERATOR
PROV.                                           NORTH SEA:   PROVINCE
COUN.                                            ROSS RIG:   RIG NAME
SPUD.                                          1982/03/21:   SPUD DATE
LATI.                                       58 22 25.96 N:   SURF. LATITUDE
LONG.                                         1 56 2.86 E:   SURF. LONGITUDE
PBWE.                                             15/9-13:   PB WELL ID
APIN.                                             15/9-13:   PB WELLBORE ID
PBWS.                                                 all:   PB WELL NAME SET
~PARAMETER INFORMATION (log)
LNAM.                              LDT/CNL/GR  COMPOSITED:   NAME
LTYP.                                         DEPTH MATCH:   LOG TYPE
LSRV.                                           LATEROLOG:   LOG SERVICE
LSOU.                                             SPT/NPD:   LOG SOURCE
LVSN.                                                   1:   LOG VERSION
BHIS.                                                   R:   BRIEF HISTORY
FHIS.                                             RAW-LIS:   FULL HISTORY
LCNM.                                        SCHLUMBERGER:   LOGGING CONTRACTOR
TOOL.                             LDT/CNL/GR (COMPOSITED):   TOOL STRING
~Curve Information Block
#MNEM.UNIT                                        API CODE    No Description
#=========                                        ========    == ===========
DEPT.M                                       00 001 00 00:     1  DEPTH
CALI.IN                                                  :     2  Caliper
CS.                                                      :     3  Cable Speed
DRHO.G/CC                                                :     4  Bulk density correction
GR.GAPI                                                  :     5  Gamma Ray
NPHI.%                                                   :     6  Neutron porosity
PEF.B/E                                                  :     7  Photo-electric factor
RHOB.G/CC                                                :     8  Bulk density
TENS.LB                                                  :     9  Cable Tension
~ASCII
# ...
 2530.9556    12.3828  3154.0000     -.0057    13.2157    17.8873     4.9075     2.5710  2664.0000
 2531.1080    12.3750  3156.0000     -.0052    13.1881    17.8549     5.0733     2.5697  2654.0000
 2531.2604    12.3959  3158.0000     -.0072    11.8794    18.6216     5.0479     2.5631  2640.0000
 2531.4128    12.3906  3160.0000     -.0138    11.7645    18.7984     5.0836     2.5423  2640.0000
 2531.5652    12.3933  3158.0000     -.0137    10.9296    19.7127     4.9070     2.5332  2634.0000
 2531.7176    12.4037  3154.0000     -.0116    11.5296    20.0194     4.9115     2.5202  2634.0000
 2531.8700    12.4376  3152.0000     -.0060    12.0885    22.3365     4.6529     2.5176  2630.0000
 2532.0224    12.4688  3150.0000     -.0080    12.3548    24.9383     4.5822     2.4960  2660.0000
 2532.1748    12.4922  3150.0000     -.0125    11.3227    27.1684     4.5389     2.4713  2694.0000
 2532.3272    12.5261  3150.0000     -.0179    12.1756    26.6917     4.5977     2.4453  2670.0000
 2532.4796    12.5391  3150.0000     -.0128    13.4597    25.3890     4.5753     2.4395  2640.0000
 2532.6320    12.5443  3152.0000     -.0044    15.7522    24.5920     4.5808     2.4597  2634.0000
 2532.7844    12.4999  3154.0000     -.0010    14.7452    24.4958     4.7060     2.4844  2650.0000
 2532.9368    12.4922  3154.0000     -.0031    13.1818    23.9416     4.9898     2.4987  2644.0000
 2533.0892    12.4844  3152.0000     -.0047    12.3672    24.8698     5.2305     2.5007  2634.0000
 2533.2416    12.4766  3150.0000     -.0059    11.8301    25.6188     5.2147     2.5013  2640.0000
 2533.3940    12.4713  3148.0000     -.0067    11.7057    24.4782     4.9803     2.5111  2634.0000
 2533.5464    12.4687  3150.0000     -.0085    11.9714    21.0449     4.7526     2.5221  2644.0000
 2533.6988    12.4427  3150.0000     -.0047    13.8203    20.6055     4.5339     2.5345  2644.0000
 2533.8512    12.4088  3152.0000     -.0018    15.2374    23.2113     4.5535     2.5260  2644.0000
 2534.0036    12.4349  3154.0000     -.0021    15.7917    25.9928     4.4661     2.5078  2650.0000
 2534.1560    12.4479  3156.0000     -.0041    14.4766    25.7487     4.4245     2.4837  2644.0000
 2534.3084    12.4193  3156.0000     -.0046    12.8958    24.7396     4.3672     2.4785  2650.0000
 2534.4608    12.4010  3160.0000     -.0044    11.6178    24.4791     4.3190     2.4792  2634.0000
 2534.6132    12.4349  3160.0000     -.0041    12.9415    24.7235     4.3672     2.4824  2650.0000
 2534.7656    12.4687  3154.0000     -.0052    14.1042    25.1465     4.3268     2.4727  2640.0000
 2534.9180    12.4922  3154.0000     -.0059    13.9531    25.0000     4.5221     2.4707  2650.0000
 2535.0704    12.5000  3150.0000     -.0068    12.9297    24.0072     4.6211     2.4805  2650.0000
 2535.2228    12.5000  3150.0000     -.0090    13.6285    22.8347     4.8322     2.4883  2644.0000
 2535.3752    12.5000  3150.0000     -.0081    15.0599    21.9076     4.7852     2.5007  2674.0000
 2535.5276    12.5000  3150.0000     -.0070    16.3203    21.5332     4.8893     2.4980  2654.0000
 2535.6800    12.5104  3150.0000     -.0049    15.3021    22.0703     4.9596     2.5007  2650.0000
 2535.8324    12.5052  3152.0000     -.0088    13.7207    23.7316     4.9857     2.4896  2640.0000
 2535.9848    12.5000  3154.0000     -.0116    11.3099    24.3490     5.0846     2.4746  2634.0000
 2536.1372    12.5000  3152.0000     -.0107    11.5130    23.5352     5.0937     2.4551  2654.0000
 2536.2896    12.5104  3150.0000      .0002    13.2865    21.9727     5.0260     2.4421  2644.0000
 2536.4420    12.6566  3150.0000      .0031    14.4493    21.7783     4.9034     2.4395  2664.0000
 2536.5944    12.5595  3150.0000     -.0013    13.8416    22.0379     4.8450     2.4499  2630.0000
 2536.7468    12.4713  3150.0000     -.0088    14.8371    21.5816     4.8007     2.4694  2640.0000
 2536.8992    12.4583  3152.0000     -.0085    15.2630    20.0033     4.9115     2.5000  2630.0000
 2537.0516    12.4323  3152.0000     -.0039    14.8151    18.7174     4.9583     2.5221  2640.0000
 2537.2040    12.4219  3154.0000     -.0028    12.3095    18.2777     5.0328     2.5313  2650.0000
 2537.3564    12.4375  3154.0000     -.0036    12.8687    18.3108     4.8810     2.5254  2664.0000
 2537.5088    12.4662  3158.0000     -.0072    15.1808    18.0336     4.6992     2.5228  2680.0000
 2537.6612    12.4401  3156.0000     -.0153    15.6458    17.8711     4.4948     2.5143  2680.0000
 2537.8136    12.3958  3152.0000     -.0221    14.6542    18.5890     4.3723     2.5072  2684.0000
 2537.9660    12.4141  3150.0000     -.0236    13.3651    20.1526     4.3751     2.5111  2674.0000
 2538.1184    12.4453  3148.0000     -.0189    14.9130    20.2633     4.5874     2.5124  2664.0000
 2538.2708    12.4687  3148.0000     -.0146    15.6016    18.9779     4.8359     2.5117  2660.0000
 2538.4232    12.4766  3148.0000     -.0150    14.2941    16.9234     5.0537     2.5039  2660.0000
 2538.5756    12.4766  3148.0000     -.0140    12.3091    15.5421     5.0545     2.5144  2660.0000
 2538.7280    12.4922  3148.0000     -.0142    10.7337    13.9312     4.8345     2.5397  2654.0000
 2538.8804    12.4531  3150.0000     -.0114    11.1562    11.7513     4.7083     2.5697  2664.0000
 2539.0328    12.4297  3150.0000     -.0120    11.0026    10.0098     4.8815     2.5879  2680.0000
 2539.1852    12.4401  3148.0000     -.0116    10.4551     9.2604     4.7703     2.5970  2660.0000
 2539.3376    12.4349  3148.0000     -.0137    10.3542     8.9351     4.5531     2.5866  2664.0000
 2539.4900    12.4140  3148.0000     -.0132     9.5214     9.3600     4.3891     2.5749  2670.0000
 2539.6424    12.4010  3148.0000     -.0089    10.5194    10.3684     4.7399     2.5631  2690.0000
 2539.7948    12.3984  3150.0000     -.0096    11.5085    12.3411     4.8057     2.5534  2690.0000
 2539.9472    12.3671  3150.0000     -.0098    12.7918    12.9716     4.7879     2.5469  2680.0000
 2540.0996    12.3516  3152.0000     -.0067    11.9184    12.7927     4.5750     2.5541  2654.0000
 2540.2520    12.2941  3152.0000     -.0021    10.6027    12.0589     4.5980     2.5638  2674.0000
 2540.4044    12.2813  3156.0000     -.0008     9.1500    12.1106     4.7359     2.5703  2690.0000
 2540.5568    12.3465  3158.0000     -.0065    10.3271    11.7826     4.8322     2.5683  2700.0000
 2540.7092    12.3489  3158.0000     -.0054    10.9186    11.2624     4.7797     2.5755  2700.0000
 2540.8616    12.3046  3156.0000     -.0041    10.5045    11.1654     4.5999     2.5814  2684.0000
 2541.0140    12.3151  3152.0000     -.0067    10.3411    13.4295     4.5208     2.5755  2660.0000
 2541.1664    12.3177  3152.0000     -.0127    11.1843    15.2686     4.7558     2.5657  2640.0000
 2541.3188    12.3229  3150.0000     -.0187    12.1784    17.5828     4.9611     2.5481  2654.0000
 2541.4712    12.3438  3150.0000     -.0159    11.0252    17.9021     4.9125     2.5462  2680.0000
 2541.6236    12.3255  3150.0000     -.0140    10.5888    17.8062     4.8333     2.5540  2684.0000
 2541.7760    12.3125  3150.0000     -.0129    11.8752    15.3421     4.7903     2.5684  2700.0000
 2541.9284    12.3125  3152.0000     -.0093    13.3015    13.6057     4.9261     2.5820  2684.0000
 2542.0808    12.2760  3154.0000     -.0019    13.1636    12.8251     4.6560     2.5938  2654.0000
 2542.2332    12.3047  3152.0000      .0016    11.4714    13.1999     4.5339     2.6055  2634.0000
 2542.3856    12.3177  3150.0000     -.0026    11.3660    14.2433     4.5482     2.6055  2630.0000
 2542.5380    12.3229  3148.0000     -.0062     9.9439    15.0557     4.9104     2.6048  2640.0000
 2542.6904    12.3281  3150.0000     -.0072    10.5130    15.3483     5.2187     2.6042  2660.0000
 2542.8428    12.3177  3150.0000     -.0034    10.9401    14.5671     5.2604     2.6139  2660.0000
 2542.9952    12.3229  3152.0000     -.0031    11.6615    13.3789     5.2214     2.6152  2664.0000
 2543.1476    12.3177  3152.0000     -.0029    10.6371    13.4125     5.1548     2.6172  2670.0000
