~VERSION INFORMATION
VERS.                                                 2.0:   CWLS Log ASCII Standard-VERSION 2.0
WRAP.                                                  NO:   One line per depth step
~Well Information Block
STRT.M                                           494.1296:   Top Depth
STOP.M                                          3282.7448:   Bottom Depth
STEP.M                                             .15240:   Depth Increment
NULL.                                            -999.250:   Null Value
FLD .                                      SLEIPNER GAMMA:   Field Name
WELL.                                             15/9-13:   NAME
WBN .                                             15/9-13:   WELLBORE
NATI.                                                 NOR:   COUNTRY
CTRY.                                                 NOR:   COUNTRY
COMP.                                             STATOIL:   OPERATOR
PROV.                                           NORTH SEA:   PROVINCE
COUN.                                            ROSS RIG:   RIG NAME
SPUD.                                          1982/03/21:   SPUD DATE
LATI.                                       58 22 25.96 N:   SURF. LATITUDE
LONG.                                         1 56 2.86 E:   SURF. LONGITUDE
PBWE.                                             15/9-13:   PB WELL ID
APIN.                                             15/9-13:   PB WELLBORE ID
PBWS.                                                 all:   PB WELL NAME SET
~PARAMETER INFORMATION (log)
LNAM.                              LDT/CNL/GR  COMPOSITED:   NAME
LTYP.                                         DEPTH MATCH:   LOG TYPE
LSRV.                                           LATEROLOG:   LOG SERVICE
LSOU.                                             SPT/NPD:   LOG SOURCE
LVSN.                                                   1:   LOG VERSION
BHIS.                                                   R:   BRIEF HISTORY
FHIS.                                             RAW-LIS:   FULL HISTORY
LCNM.                                        SCHLUMBERGER:   LOGGING CONTRACTOR
TOOL.                             LDT/CNL/GR (COMPOSITED):   TOOL STRING
~Curve Information Block
#MNEM.UNIT                                        API CODE    No Description
#=========                                        ========    == ===========
DEPT.M                                       00 001 00 00:     1  DEPTH
CALI.IN                                                  :     2  Caliper
CS.                                                      :     3  Cable Speed
DRHO.G/CC                                                :     4  Bulk density correction
GR.GAPI                                                  :     5  Gamma Ray
NPHI.%                                                   :     6  Neutron porosity
PEF.B/E                                                  :     7  Photo-electric factor
RHOB.G/CC                                                :     8  Bulk density
TENS.LB                                                  :     9  Cable Tension
~ASCII
# ...
 1419.9596    12.2839  3180.0000     -.0008    84.7596    57.2266     2.0702     1.9040  1700.0000
 1420.1120    12.3047  3182.0000     -.0024    79.7046    56.8024     2.0932     1.9030  1680.0000
 1420.2644    12.2890  3184.0000     -.0033    81.7336    53.8204     2.2241     1.9023  1710.0000
 1420.4168    12.2656  3184.0000     -.0016    81.4126    50.2225     2.4372     1.9053  1695.0000
 1420.5692    12.2474  3184.0000     -.0021    80.2286    50.3274     2.4954     1.9164  1695.0000
 1420.7216    12.3153  3184.0000     -.0003    79.3942    51.7109     2.4100     1.9418  1685.0000
 1420.8740    12.3672  3186.0000      .0039    81.4413    56.6642     2.2426     1.9613  1675.0000
 1421.0264    12.4115  3190.0000      .0044    86.6715    56.1001     2.1647     1.9580  1685.0000
 1421.1788    12.2575  3192.0000     -.0013    89.5222    53.9376     2.2012     1.9398  1675.0000
 1421.3312    12.1823  3192.0000     -.0042    93.2331    50.4683     2.2357     1.9294  1685.0000
 1421.4836    12.3127  3190.0000     -.0028    91.6615    53.2947     2.2122     1.9316  1675.0000
 1421.6360    12.2811  3190.0000      .0010    92.2318    52.6333     2.1503     1.9395  1680.0000
 1421.7884    12.2344  3188.0000      .0018    88.0958    51.9380     2.1491     1.9430  1695.0000
 1421.9408    12.2709  3188.0000     -.0028    83.7479    48.7425     2.2292     1.9375  1695.0000
 1422.0932    12.3204  3188.0000     -.0049    78.9521    53.1022     2.2689     1.9346  1695.0000
 1422.2456    12.2994  3186.0000     -.0072    80.3373    56.1523     2.2871     1.9333  1695.0000
 1422.3980    12.2656  3186.0000     -.0044    83.9213    55.8260     2.2949     1.9404  1700.0000
 1422.5504    12.2474  3188.0000     -.0021    83.9569    54.4251     2.3314     1.9450  1680.0000
 1422.7028    12.1640  3188.0000      .0000    83.7920    55.4381     2.3301     1.9414  1670.0000
 1422.8552    12.2346  3186.0000     -.0013    85.9824    56.5434     2.3360     1.9336  1680.0000
 1423.0076    12.4299  3184.0000     -.0024    89.2944    57.8627     2.3125     1.9287  1690.0000
 1423.1600    12.5417  3184.0000     -.0057    90.8966    56.1650     2.3073     1.9310  1705.0000
 1423.3124    12.5469  3184.0000     -.0063    91.2919    55.0293     2.3112     1.9378  1695.0000
 1423.4648    12.5391  3184.0000     -.0052    89.6222    48.8345     2.3327     1.9456  1680.0000
 1423.6172    12.5703  3184.0000      .0007    87.3316    44.6764     2.3881     1.9645  1670.0000
 1423.7696    12.6016  3184.0000      .0057    87.8770    46.0643     2.3762     1.9844  1675.0000
 1423.9220    12.5051  3182.0000      .0091    88.6252    48.2599     2.3841     2.0020  1670.0000
 1424.0744    12.4688  3184.0000      .0093    94.0711    52.2026     2.3248     2.0019  1670.0000
 1424.2268    12.5704  3186.0000      .0114    93.7047    53.4337     2.2734     1.9984  1685.0000
 1424.3792    12.6746  3188.0000      .0150    93.1056    55.3093     2.2200     1.9941  1720.0000
 1424.5316    12.7188  3190.0000      .0164    91.3098    52.9908     2.2364     1.9928  1735.0000
 1424.6840    12.7266  3190.0000      .0133    91.1879    51.7091     2.2910     1.9847  1705.0000
 1424.8364    12.7891  3188.0000      .0085    93.5647    51.1873     2.3360     1.9746  1700.0000
 1424.9888    12.8047  3188.0000      .0078    92.9160    52.5886     2.3275     1.9717  1690.0000
 1425.1412    12.8229  3186.0000      .0060    91.9164    50.0121     2.3060     1.9756  1690.0000
 1425.2936    12.9142  3186.0000      .0026    89.3929    47.5414     2.3516     1.9821  1685.0000
 1425.4460    13.0209  3186.0000     -.0054    86.3512    48.3091     2.4304     1.9818  1685.0000
 1425.5984    13.0964  3184.0000     -.0091    87.4399    47.8992     2.4284     1.9837  1685.0000
 1425.7508    13.0546  3184.0000     -.0103    92.0683    45.9449     2.3358     1.9801  1690.0000
 1425.9032    13.0860  3186.0000     -.0075    97.5043    43.6831     2.2408     1.9730  1680.0000
 1426.0556    13.0546  3186.0000     -.0036    99.0204    50.2559     2.1868     1.9622  1685.0000
 1426.2080    12.9974  3184.0000     -.0011    96.2468    52.7004     2.2142     1.9547  1680.0000
 1426.3604    12.9531  3184.0000      .0002    92.7674    50.6976     2.2618     1.9538  1685.0000
 1426.5128    12.9323  3186.0000     -.0031    88.0999    48.6638     2.3771     1.9502  1690.0000
 1426.6652    12.9193  3184.0000     -.0042    87.1462    50.3753     2.4108     1.9456  1685.0000
 1426.8176    12.9558  3184.0000     -.0020    93.6949    52.6054     2.4793     1.9437  1690.0000
 1426.9700    13.3830  3182.0000      .0016    99.9179    49.8359     2.4993     1.9479  1690.0000
 1427.1224    13.7059  3184.0000     -.0007   102.7932    48.1608     2.5085     1.9476  1690.0000
 1427.2748    13.6875  3184.0000     -.0070    98.6022    47.8189     2.4993     1.9456  1685.0000
 1427.4272    13.4399  3186.0000     -.0103    94.0182    47.3629     2.4720     1.9460  1695.0000
 1427.5796    13.2421  3186.0000     -.0065    91.5203    49.4638     2.4394     1.9515  1700.0000
 1427.7320    13.2214  3188.0000     -.0031    88.2261    49.7386     2.4316     1.9554  1695.0000
 1427.8844    13.4219  3190.0000     -.0011    87.4377    50.7818     2.4649     1.9600  1690.0000
 1428.0368    14.0058  3190.0000     -.0011    85.9354    50.5359     2.5352     1.9730  1680.0000
 1428.1892    13.5460  3188.0000     -.0021    83.5607    50.3096     2.5051     1.9896  1690.0000
 1428.3416    13.4561  3186.0000     -.0018    84.1897    50.3416     2.5000     2.0049  1720.0000
 1428.4940    13.2313  3184.0000     -.0037    85.8762    49.3478     2.4687     2.0098  1735.0000
 1428.6464    12.9557  3184.0000      .0000    86.4584    48.6816     2.4447     2.0124  1725.0000
 1428.7988    12.8906  3184.0000      .0021    83.1209    49.0077     2.3925     2.0026  1710.0000
 1428.9512    12.8568  3184.0000      .0003    82.6880    50.2608     2.3463     1.9834  1705.0000
 1429.1036    12.6925  3184.0000     -.0031    89.0694    54.1381     2.3855     1.9629  1705.0000
 1429.2560    12.6589  3184.0000     -.0057    90.7704    55.0290     2.4167     1.9528  1695.0000
 1429.4084    12.5702  3184.0000     -.0028    89.7286    51.8032     2.5477     1.9551  1700.0000
 1429.5608    12.4687  3184.0000      .0000    86.2904    53.7448     2.6009     1.9668  1715.0000
 1429.7132    12.4036  3184.0000     -.0005    87.8580    52.0956     2.5905     1.9704  1715.0000
 1429.8656    12.3932  3184.0000      .0000    90.4796    54.1519     2.5189     1.9697  1695.0000
 1430.0180    12.5705  3182.0000     -.0044    93.1693    50.4654     2.4596     1.9586  1675.0000
 1430.1704    12.7136  3182.0000     -.0062    94.9592    49.1717     2.4655     1.9538  1680.0000
 1430.3228    12.8832  3182.0000     -.0081    93.2242    49.0213     2.4224     1.9561  1695.0000
 1430.4752    13.1305  3182.0000     -.0063    88.4315    49.4643     2.5113     1.9616  1690.0000
 1430.6276    13.4013  3184.0000     -.0042    84.7270    49.2831     2.6596     1.9658  1695.0000
 1430.7800    13.6122  3184.0000     -.0023    87.1094    47.8661     2.8146     1.9668  1690.0000
 1430.9324    13.6145  3186.0000     -.0024    89.8763    44.5116     2.8144     1.9674  1705.0000
 1431.0848    13.4815  3190.0000     -.0036    90.4375    44.0289     2.7179     1.9652  1700.0000
 1431.2372    13.5288  3192.0000     -.0055    89.3107    45.9170     2.7136     1.9554  1695.0000
 1431.3896    13.4267  3188.0000     -.0047    89.0841    48.8497     2.6045     1.9486  1695.0000
 1431.5420    13.3516  3188.0000     -.0026    91.1280    49.2339     2.4999     1.9460  1715.0000
 1431.6944    13.2576  3188.0000     -.0020    90.2665    48.8443     2.4263     1.9538  1725.0000
 1431.8468    13.1170  3186.0000     -.0010    89.9175    49.2194     2.4708     1.9645  1715.0000
 1431.9992    12.9816  3184.0000      .0011    89.4357    49.2835     2.4967     1.9782  1685.0000
 1432.1516    12.9949  3182.0000     -.0003    89.0625    51.2402     2.5352     1.9860  1700.0000
