~VERSION INFORMATION
VERS.                                                 2.0:   CWLS Log ASCII Standard-VERSION 2.0
WRAP.                                                  NO:   One line per depth step
~Well Information Block
STRT.M                                           494.1296:   Top Depth
STOP.M                                          3282.7448:   Bottom Depth
STEP.M                                             .15240:   Depth Increment
NULL.                                            -999.250:   Null Value
FLD .                                      SLEIPNER GAMMA:   Field Name
WELL.                                             15/9-13:   NAME
WBN .                                             15/9-13:   WELLBORE
NATI.                                                 NOR:   COUNTRY
CTRY.                                                 NOR:   COUNTRY
COMP.                                             STATOIL:   OPERATOR
PROV.                                           NORTH SEA:   PROVINCE
COUN.                                            ROSS RIG:   RIG NAME
SPUD.                                          1982/03/21:   SPUD DATE
LATI.                                       58 22 25.96 N:   SURF. LATITUDE
LONG.                                         1 56 2.86 E:   SURF. LONGITUDE
PBWE.                                             15/9-13:   PB WELL ID
APIN.                                             15/9-13:   PB WELLBORE ID
PBWS.                                                 all:   PB WELL NAME SET
~PARAMETER INFORMATION (log)
LNAM.                              LDT/CNL/GR  COMPOSITED:   NAME
LTYP.                                         DEPTH MATCH:   LOG TYPE
LSRV.                                           LATEROLOG:   LOG SERVICE
LSOU.                                             SPT/NPD:   LOG SOURCE
LVSN.                                                   1:   LOG VERSION
BHIS.                                                   R:   BRIEF HISTORY
FHIS.                                             RAW-LIS:   FULL HISTORY
LCNM.                                        SCHLUMBERGER:   LOGGING CONTRACTOR
TOOL.                             LDT/CNL/GR (COMPOSITED):   TOOL STRING
~Curve Information Block
#MNEM.UNIT                                        API CODE    No Description
#=========                                        ========    == ===========
DEPT.M                                       00 001 00 00:     1  DEPTH
CALI.IN                                                  :     2  Caliper
CS.                                                      :     3  Cable Speed
DRHO.G/CC                                                :     4  Bulk density correction
GR.GAPI                                                  :     5  Gamma Ray
NPHI.%                                                   :     6  Neutron porosity
PEF.B/E                                                  :     7  Photo-electric factor
RHOB.G/CC                                                :     8  Bulk density
TENS.LB                                                  :     9  Cable Tension
~ASCII
# ...
 3086.4536     9.5781  3628.0000      .1040    89.3125    35.2051  -999.2500     2.4355  3510.0000
 3086.6060     9.6016  3626.0000      .1123    87.4375    36.9141  -999.2500     2.4023  3524.0000
 3086.7584     9.4141  3626.0000      .1167    90.0000    33.9844  -999.2500     2.4004  3490.0000
 3086.9108     9.1328  3626.0000      .1431    83.4375    31.6406  -999.2500     2.4473  3510.0000
 3087.0632     9.7187  3628.0000      .1421    81.7500    31.5918  -999.2500     2.4414  3534.0000
 3087.2156     9.2812  3630.0000      .1230    85.1250    31.9824  -999.2500     2.4141  3490.0000
 3087.3680     9.7187  3632.0000      .1221    87.6250    34.3750  -999.2500     2.4238  3514.0000
 3087.5204     9.6641  3634.0000      .1123    89.0000    33.6426  -999.2500     2.4629  3500.0000
 3087.6728     9.5781  3636.0000      .1084    86.6875    35.6445  -999.2500     2.4805  3494.0000
 3087.8252     9.1406  3634.0000      .1045    91.1250    35.5957  -999.2500     2.4590  3504.0000
 3087.9776     9.1016  3628.0000      .1152    88.8750    36.3281  -999.2500     2.4355  3540.0000
 3088.1300     9.1562  3628.0000      .1270    89.6875    35.7422  -999.2500     2.4570  3570.0000
 3088.2824     9.1719  3628.0000      .1211    83.0000    34.0820  -999.2500     2.4766  3604.0000
 3088.4348     9.1719  3630.0000      .1230    82.3750    34.1309  -999.2500     2.4473  3564.0000
 3088.5872     9.1562  3628.0000      .1372    76.4375    34.6680  -999.2500     2.4258  3570.0000
 3088.7396     9.1406  3632.0000      .1387    77.0000    35.9863  -999.2500     2.4238  3484.0000
 3088.8920     9.3672  3634.0000      .1382    79.5625    35.4980  -999.2500     2.4668  3484.0000
 3089.0444     9.0547  3636.0000      .0981    84.0625    35.4004  -999.2500     2.3945  3480.0000
 3089.1968     9.2969  3632.0000      .0918    87.4375    33.9844  -999.2500     2.2793  3490.0000
 3089.3492     9.1250  3630.0000      .0474    89.9375    35.4492  -999.2500     2.1543  3484.0000
 3089.5016     9.5781  3628.0000      .0386    90.4375    37.0605  -999.2500     2.1523  3520.0000
 3089.6540     9.8203  3626.0000      .0386    90.9375    35.4492  -999.2500     2.2500  3504.0000
 3089.8064    10.3125  3628.0000      .0679    97.0000    33.6426  -999.2500     2.4023  3524.0000
 3089.9588     8.8359  3630.0000      .0781   100.8125    32.4219  -999.2500     2.4727  3564.0000
 3090.1112     9.2187  3632.0000      .0825    99.7500    37.2559  -999.2500     2.4766  3550.0000
 3090.2636     9.0547  3636.0000      .0771    93.6875    37.8418  -999.2500     2.4551  3564.0000
 3090.4160     8.8828  3638.0000      .0874    92.6250    40.2344  -999.2500     2.4727  3544.0000
 3090.5684     9.0312  3642.0000      .0425    90.8750    39.4043  -999.2500     2.4512  3514.0000
 3090.7208     9.0547  3640.0000      .0308    92.8125    39.1602  -999.2500     2.4629  3514.0000
 3090.8732     8.9922  3636.0000      .0137    89.3750    38.4766  -999.2500     2.4375  3500.0000
 3091.0256     9.3828  3634.0000      .0532    90.3125    33.8379  -999.2500     2.4922  3494.0000
 3091.1780     9.1250  3630.0000      .0303    93.3750    33.2520  -999.2500     2.4707  3494.0000
 3091.3304     8.9453  3630.0000      .0200    93.4375    35.1074  -999.2500     2.4434  3490.0000
 3091.4828     9.1094  3630.0000      .0630    92.8125    39.6973  -999.2500     2.4531  3480.0000
 3091.6352     9.2734  3632.0000      .0615    88.7500    39.1113  -999.2500     2.4551  3510.0000
 3091.7876     9.1094  3632.0000      .0615    92.0625    40.4785  -999.2500     2.5039  3514.0000
 3091.9400     9.1328  3634.0000      .0146    93.5000    36.7188  -999.2500     2.4961  3534.0000
 3092.0924     9.0547  3632.0000      .0146    92.0000    37.0605  -999.2500     2.5137  3520.0000
 3092.2448     9.1953  3630.0000      .0142    87.8750    30.2246  -999.2500     2.5332  3510.0000
 3092.3972     9.1250  3628.0000      .0010    80.7500    30.2246  -999.2500     2.4883  3514.0000
 3092.5496     9.0469  3628.0000      .0430    78.3125    30.9082  -999.2500     2.4160  3474.0000
 3092.7020     9.1016  3626.0000      .1035    82.4375    36.0352  -999.2500     2.3711  3500.0000
 3092.8544     9.0547  3628.0000      .1372    92.1250    37.5488  -999.2500     2.3711  3514.0000
 3093.0068     9.3359  3632.0000      .1460    93.4375    38.4277  -999.2500     2.4336  3504.0000
 3093.1592     9.5000  3634.0000      .1201    90.3750    37.0117  -999.2500     2.4941  3514.0000
 3093.3116     9.2187  3636.0000      .0981    85.1250    37.3535  -999.2500     2.5547  3524.0000
 3093.4640     9.3750  3638.0000      .0190    86.7500    33.8379  -999.2500     2.5137  3514.0000
 3093.6164     9.4141  3638.0000      .0117    85.1875    33.3984  -999.2500     2.4883  3520.0000
 3093.7688     9.4531  3634.0000      .0571    85.5000    30.8105  -999.2500     2.5195  3540.0000
 3093.9212     9.4375  3632.0000      .0449    86.0000    32.9590  -999.2500     2.4746  3510.0000
 3094.0736     9.4844  3630.0000      .0444    95.8125    36.4258  -999.2500     2.4102  3534.0000
 3094.2260     9.5312  3628.0000      .0698    97.8125    36.8164  -999.2500     2.3906  3530.0000
 3094.3784     9.6172  3630.0000      .0830    93.3125    35.8887  -999.2500     2.3906  3564.0000
 3094.5308     9.6250  3632.0000      .0864    83.3125    33.4473  -999.2500     2.3867  3544.0000
 3094.6832     9.6953  3636.0000      .0405    84.1250    33.2520  -999.2500     2.3164  3550.0000
 3094.8356     9.6953  3636.0000      .1084    87.6250    33.3496  -999.2500     2.3906  3530.0000
 3094.9880     9.6953  3632.0000      .1021    88.6875    32.4219  -999.2500     2.4395  3514.0000
 3095.1404     9.7891  3630.0000      .0889    84.2500    32.9102  -999.2500     2.4844  3484.0000
 3095.2928     9.7891  3628.0000      .0967    83.2500    32.1289  -999.2500     2.5371  3474.0000
 3095.4452     9.6641  3624.0000      .0884    85.1875    29.4922  -999.2500     2.5625  3494.0000
 3095.5976     9.6719  3624.0000      .0649    86.8125    30.1270  -999.2500     2.5273  3524.0000
 3095.7500     9.6406  3622.0000      .0596    85.2500    31.3477  -999.2500     2.4766  3524.0000
 3095.9024     9.6641  3624.0000      .0991    87.1250    34.0820  -999.2500     2.4785  3540.0000
 3096.0548     9.6875  3626.0000      .1304    89.8750    32.8125  -999.2500     2.5449  3544.0000
 3096.2072     9.7422  3628.0000      .0654    90.4375    30.8594  -999.2500     2.5215  3570.0000
 3096.3596     9.6875  3630.0000      .0332    87.6250    29.8340  -999.2500     2.5059  3554.0000
 3096.5120     9.8516  3632.0000      .0625    87.5625    32.6660  -999.2500     2.5039  3544.0000
 3096.6644     9.5781  3624.0000      .0918    91.3750    33.1543  -999.2500     2.5293  3534.0000
 3096.8168     9.6016  3624.0000      .0791    91.8750    32.9590  -999.2500     2.5605  3510.0000
 3096.9692     9.5937  3622.0000      .0264    90.4375    27.5879  -999.2500     2.5391  3520.0000
 3097.1216     9.6406  3618.0000      .0122    90.7500    28.0762  -999.2500     2.5156  3544.0000
 3097.2740     9.5937  3616.0000      .0439    88.1875    28.9551  -999.2500     2.4785  3494.0000
 3097.4264     9.7891  3614.0000      .0728    84.3750    33.5938  -999.2500     2.4629  3524.0000
 3097.5788     9.6953  3616.0000      .0864    83.0000    34.4238  -999.2500     2.4492  3524.0000
 3097.7312     9.4531  3614.0000      .1016    86.6250    33.1055  -999.2500     2.4238  3544.0000
 3097.8836     9.5000  3612.0000      .1211    91.2500    32.0313  -999.2500     2.4492  3534.0000
 3098.0360     9.5000  3604.0000      .1094    94.1875    31.7383  -999.2500     2.4707  3530.0000
 3098.1884     9.4375  3600.0000      .0605    99.3750    31.3965  -999.2500     2.5078  3520.0000
 3098.3408     9.4375  3594.0000      .0430    97.3125    32.7148  -999.2500     2.5039  3534.0000
 3098.4932     9.5937  3590.0000      .0605    94.3125    34.5703  -999.2500     2.4629  3530.0000
 3098.6456     9.5547  3588.0000      .1113    89.9375    35.4492  -999.2500     2.4766  3520.0000
