~VERSION INFORMATION
VERS.                                                 2.0:   CWLS Log ASCII Standard-VERSION 2.0
WRAP.                                                  NO:   One line per depth step
~Well Information Block
STRT.M                                           494.1296:   Top Depth
STOP.M                                          3282.7448:   Bottom Depth
STEP.M                                             .15240:   Depth Increment
NULL.                                            -999.250:   Null Value
FLD .                                      SLEIPNER GAMMA:   Field Name
WELL.                                             15/9-13:   NAME
WBN .                                             15/9-13:   WELLBORE
NATI.                                                 NOR:   COUNTRY
CTRY.                                                 NOR:   COUNTRY
COMP.                                             STATOIL:   OPERATOR
PROV.                                           NORTH SEA:   PROVINCE
COUN.                                            ROSS RIG:   RIG NAME
SPUD.                                          1982/03/21:   SPUD DATE
LATI.                                       58 22 25.96 N:   SURF. LATITUDE
LONG.                                         1 56 2.86 E:   SURF. LONGITUDE
PBWE.                                             15/9-13:   PB WELL ID
APIN.                                             15/9-13:   PB WELLBORE ID
PBWS.                                                 all:   PB WELL NAME SET
~PARAMETER INFORMATION (log)
LNAM.                              LDT/CNL/GR  COMPOSITED:   NAME
LTYP.                                         DEPTH MATCH:   LOG TYPE
LSRV.                                           LATEROLOG:   LOG SERVICE
LSOU.                                             SPT/NPD:   LOG SOURCE
LVSN.                                                   1:   LOG VERSION
BHIS.                                                   R:   BRIEF HISTORY
FHIS.                                             RAW-LIS:   FULL HISTORY
LCNM.                                        SCHLUMBERGER:   LOGGING CONTRACTOR
TOOL.                             LDT/CNL/GR (COMPOSITED):   TOOL STRING
~Curve Information Block
#MNEM.UNIT                                        API CODE    No Description
#=========                                        ========    == ===========
DEPT.M                                       00 001 00 00:     1  DEPTH
CALI.IN                                                  :     2  Caliper
CS.                                                      :     3  Cable Speed
DRHO.G/CC                                                :     4  Bulk density correction
GR.GAPI                                                  :     5  Gamma Ray
NPHI.%                                                   :     6  Neutron porosity
PEF.B/E                                                  :     7  Photo-electric factor
RHOB.G/CC                                                :     8  Bulk density
TENS.LB                                                  :     9  Cable Tension
~ASCII
# ...
  679.2956    18.2656  2043.0000     -.0059    95.6250  -999.2500     2.2266     2.0703  1270.0000
  679.4480    18.3281  2044.0000     -.0020    96.6250  -999.2500     2.2422     2.0801  1280.0000
  679.6004    18.4688  2043.0000      .0034    97.1250  -999.2500     2.1914     2.0898  1270.0000
  679.7528    18.5156  2044.0000      .0059    99.0625  -999.2500     2.1699     2.0918  1255.0000
  679.9052    18.5625  2044.0000      .0010    96.6875  -999.2500     2.1543     2.0898  1260.0000
  680.0576    18.5781  2045.0000     -.0010    88.0625  -999.2500     2.1719     2.0937  1265.0000
  680.2100    18.6563  2045.0000     -.0024    84.9375  -999.2500     2.1816     2.1094  1265.0000
  680.3624    18.7344  2044.0000     -.0044    85.0625  -999.2500     2.2031     2.1133  1275.0000
  680.5148    18.7969  2042.0000     -.0083    86.7500  -999.2500     2.2461     2.1113  1270.0000
  680.6672    18.7969  2043.0000     -.0068    88.9375  -999.2500     2.2031     2.1055  1275.0000
  680.8196    18.7656  2043.0000     -.0059    88.6250  -999.2500     2.1895     2.1016  1260.0000
  680.9720    18.7500  2044.0000     -.0044    85.0625  -999.2500     2.1504     2.0977  1275.0000
  681.1244    18.7031  2043.0000     -.0049    80.6875  -999.2500     2.2305     2.0957  1275.0000
  681.2768    18.6250  2042.0000     -.0049    83.7500  -999.2500     2.2988     2.0957  1265.0000
  681.4292    18.4531  2042.0000     -.0063    85.6875  -999.2500     2.3203     2.0918  1270.0000
  681.5816    18.3438  2045.0000     -.0059    88.3750  -999.2500     2.2676     2.0957  1260.0000
  681.7340    18.4063  2044.0000     -.0049    85.6250  -999.2500     2.2227     2.1055  1260.0000
  681.8864    18.4219  2044.0000     -.0029    88.6250  -999.2500     2.1777     2.1230  1260.0000
  682.0388    18.4844  2042.0000     -.0044    88.2500  -999.2500     2.1699     2.1172  1270.0000
  682.1912    18.5469  2043.0000     -.0024    85.3125  -999.2500     2.1738     2.1074  1255.0000
  682.3436    18.4844  2042.0000      .0059    81.2500  -999.2500     2.1758     2.0996  1260.0000
  682.4960    18.3281  2043.0000      .0103    82.7500  -999.2500     2.1543     2.0996  1255.0000
  682.6484    18.1875  2043.0000      .0127    85.6250  -999.2500     2.0820     2.1074  1260.0000
  682.8008    18.1875  2043.0000      .0117    85.3125  -999.2500     2.1387     2.1094  1265.0000
  682.9532    18.1719  2042.0000      .0078    85.5000  -999.2500     2.1602     2.1113  1275.0000
  683.1056    18.2344  2042.0000      .0063    83.5625  -999.2500     2.2363     2.1172  1260.0000
  683.2580    18.2656  2043.0000     -.0024    87.5000  -999.2500     2.2363     2.1172  1265.0000
  683.4104    18.2813  2043.0000     -.0010    89.8750  -999.2500     2.2402     2.1191  1260.0000
  683.5628    18.2813  2043.0000      .0000    90.4375  -999.2500     2.1738     2.0859  1265.0000
  683.7152    18.0781  2043.0000      .0024    92.1250  -999.2500     2.1152     2.0449  1270.0000
  683.8676    17.9688  2043.0000      .0000    89.5625  -999.2500     2.0352     1.9990  1255.0000
  684.0200    17.7500  2043.0000      .0029    91.2500  -999.2500     2.0645     1.9854  1270.0000
  684.1724    17.7656  2043.0000      .0083    92.4375  -999.2500     2.0742     1.9932  1265.0000
  684.3248    17.8438  2043.0000      .0098    94.0625  -999.2500     2.1328     1.9961  1260.0000
  684.4772    18.0313  2043.0000      .0063    94.9375  -999.2500     2.1152     1.9863  1270.0000
  684.6296    18.0781  2043.0000      .0029    96.4375  -999.2500     2.1250     1.9717  1275.0000
  684.7820    18.0469  2043.0000      .0156    98.0000  -999.2500     2.1914     1.9902  1265.0000
  684.9344    18.0938  2043.0000      .0156   107.1875  -999.2500     2.2227     1.9922  1270.0000
  685.0868    18.1094  2044.0000      .0225   105.2500  -999.2500     2.2266     2.0020  1270.0000
  685.2392    18.1250  2043.0000      .0088   111.6875  -999.2500     2.2148     1.9805  1270.0000
  685.3916    17.9688  2043.0000      .0083   103.1250  -999.2500     2.2187     1.9688  1270.0000
  685.5440    17.9219  2044.0000      .0122   106.8125  -999.2500     2.2266     1.9629  1275.0000
  685.6964    18.0469  2044.0000      .0176    96.5000  -999.2500     2.2305     1.9678  1260.0000
  685.8488    18.0156  2043.0000      .0234    96.5625  -999.2500     2.2539     1.9785  1275.0000
  686.0012    18.0313  2044.0000      .0200    94.1875  -999.2500     2.2441     1.9756  1275.0000
  686.1536    18.0781  2044.0000      .0117    96.8750  -999.2500     2.2578     1.9600  1270.0000
  686.3060    18.0781  2044.0000      .0093   103.1250  -999.2500     2.2910     1.9551  1255.0000
  686.4584    17.9844  2044.0000      .0059   104.8125  -999.2500     2.3730     1.9590  1265.0000
  686.6108    18.0000  2044.0000      .0029   112.5625  -999.2500     2.3926     1.9717  1270.0000
  686.7632    18.0781  2044.0000      .0034   113.0000  -999.2500     2.3594     1.9824  1265.0000
  686.9156    18.1719  2045.0000      .0024   108.4375  -999.2500     2.3535     1.9814  1270.0000
  687.0680    18.2344  2044.0000      .0024   108.6250  -999.2500     2.3672     1.9775  1270.0000
  687.2204    18.3281  2044.0000      .0049   107.7500  -999.2500     2.4258     1.9717  1265.0000
  687.3728    18.3594  2044.0000      .0005   113.6875  -999.2500     2.4531     1.9648  1260.0000
  687.5252    18.2969  2044.0000      .0039   110.3750  -999.2500     2.4082     1.9678  1265.0000
  687.6776    18.3750  2044.0000      .0059   109.7500  -999.2500     2.3711     1.9717  1280.0000
  687.8300    18.1875  2043.0000      .0112   111.2500  -999.2500     2.3223     1.9775  1275.0000
  687.9824    18.0000  2043.0000      .0122   112.7500  -999.2500     2.2910     1.9795  1280.0000
  688.1348    17.9531  2043.0000      .0093   111.3750  -999.2500     2.2285     1.9766  1270.0000
  688.2872    17.8750  2043.0000      .0112   107.8125  -999.2500     2.2305     1.9766  1260.0000
  688.4396    18.1719  2045.0000      .0142    99.1250  -999.2500     2.2578     1.9766  1265.0000
  688.5920    18.2344  2044.0000      .0122    99.6875  -999.2500     2.2676     1.9766  1270.0000
  688.7444    18.0625  2044.0000      .0083   100.3125  -999.2500     2.2637     1.9775  1260.0000
  688.8968    18.0156  2043.0000      .0054   105.0000  -999.2500     2.2500     1.9814  1265.0000
  689.0492    18.1719  2042.0000      .0107   111.1250  -999.2500     2.2656     1.9863  1270.0000
  689.2016    18.1875  2042.0000      .0093   118.2500  -999.2500     2.3105     1.9766  1270.0000
  689.3540    18.2500  2043.0000      .0088   122.0000  -999.2500     2.2715     1.9658  1265.0000
  689.5064    18.1875  2043.0000      .0049   117.1875  -999.2500     2.2871     1.9531  1275.0000
  689.6588    18.0156  2043.0000      .0059   109.7500  -999.2500     2.2949     1.9521  1270.0000
  689.8112    18.0000  2043.0000      .0068   113.0000  -999.2500     2.3633     1.9551  1265.0000
  689.9636    18.0156  2042.0000      .0107   110.5625  -999.2500     2.3340     1.9609  1265.0000
  690.1160    18.0000  2044.0000      .0132   109.4375  -999.2500     2.2793     1.9648  1280.0000
  690.2684    18.0000  2045.0000      .0127   102.1875  -999.2500     2.2891     1.9688  1270.0000
  690.4208    17.9375  2044.0000      .0068   104.1875  -999.2500     2.3145     1.9717  1275.0000
  690.5732    17.7813  2044.0000      .0054   106.4375  -999.2500     2.3223     1.9795  1260.0000
  690.7256    17.6719  2043.0000      .0049   108.1875  -999.2500     2.2754     1.9922  1275.0000
  690.8780    17.6563  2043.0000      .0068   110.5000  -999.2500     2.2832     2.0000  1275.0000
  691.0304    17.6563  2043.0000      .0073   109.1250  -999.2500     2.2578     2.0059  1270.0000
  691.1828    17.5313  2043.0000      .0063   108.6875  -999.2500     2.2441     2.0020  1275.0000
  691.3352    17.5313  2043.0000      .0059   105.0000  -999.2500     2.2266     1.9912  1270.0000
  691.4876    17.5625  2042.0000      .0122   103.6250  -999.2500     2.3066     1.9688  1265.0000
