~VERSION INFORMATION
VERS.                                                 2.0:   CWLS Log ASCII Standard-VERSION 2.0
WRAP.                                                  NO:   One line per depth step
~Well Information Block
STRT.M                                           494.1296:   Top Depth
STOP.M                                          3282.7448:   Bottom Depth
STEP.M                                             .15240:   Depth Increment
NULL.                                            -999.250:   Null Value
FLD .                                      SLEIPNER GAMMA:   Field Name
WELL.                                             15/9-13:   NAME
WBN .                                             15/9-13:   WELLBORE
NATI.                                                 NOR:   COUNTRY
CTRY.                                                 NOR:   COUNTRY
COMP.                                             STATOIL:   OPERATOR
PROV.                                           NORTH SEA:   PROVINCE
COUN.                                            ROSS RIG:   RIG NAME
SPUD.                                          1982/03/21:   SPUD DATE
LATI.                                       58 22 25.96 N:   SURF. LATITUDE
LONG.                                         1 56 2.86 E:   SURF. LONGITUDE
PBWE.                                             15/9-13:   PB WELL ID
APIN.                                             15/9-13:   PB WELLBORE ID
PBWS.                                                 all:   PB WELL NAME SET
~PARAMETER INFORMATION (log)
LNAM.                              LDT/CNL/GR  COMPOSITED:   NAME
LTYP.                                         DEPTH MATCH:   LOG TYPE
LSRV.                                           LATEROLOG:   LOG SERVICE
LSOU.                                             SPT/NPD:   LOG SOURCE
LVSN.                                                   1:   LOG VERSION
BHIS.                                                   R:   BRIEF HISTORY
FHIS.                                             RAW-LIS:   FULL HISTORY
LCNM.                                        SCHLUMBERGER:   LOGGING CONTRACTOR
TOOL.                             LDT/CNL/GR (COMPOSITED):   TOOL STRING
~Curve Information Block
#MNEM.UNIT                                        API CODE    No Description
#=========                                        ========    == ===========
DEPT.M                                       00 001 00 00:     1  DEPTH
CALI.IN                                                  :     2  Caliper
CS.                                                      :     3  Cable Speed
DRHO.G/CC                                                :     4  Bulk density correction
GR.GAPI                                                  :     5  Gamma Ray
NPHI.%                                                   :     6  Neutron porosity
PEF.B/E                                                  :     7  Photo-electric factor
RHOB.G/CC                                                :     8  Bulk density
TENS.LB                                                  :     9  Cable Tension
~ASCII
# ...
  864.4616    19.1094  2039.0000      .0107    79.7500  -999.2500     2.0840     2.1582  1445.0000
  864.6140    19.0781  2040.0000      .0132    74.1250  -999.2500     2.1133     2.1523  1450.0000
  864.7664    19.2813  2040.0000      .0078    75.4375  -999.2500     2.1504     2.1465  1450.0000
  864.9188    19.1719  2042.0000      .0117    75.6250  -999.2500     2.2187     2.1523  1450.0000
  865.0712    19.4375  2042.0000      .0088    78.4375  -999.2500     2.2559     2.1562  1435.0000
  865.2236    19.3438  2043.0000      .0044    79.5000  -999.2500     2.2852     2.1523  1435.0000
  865.3760    19.5469  2045.0000      .0024    80.6875  -999.2500     2.1895     2.1523  1455.0000
  865.5284    19.5469  2044.0000     -.0010    80.4375  -999.2500     2.1055     2.1348  1440.0000
  865.6808    19.6250  2044.0000      .0020    80.3125  -999.2500     2.0625     2.1289  1455.0000
  865.8332    19.5469  2043.0000      .0029    77.8125  -999.2500     2.1113     2.1074  1430.0000
  865.9856    19.6250  2042.0000      .0122    79.5625  -999.2500     2.1016     2.0977  1450.0000
  866.1380    19.2031  2042.0000      .0264    79.3125  -999.2500     2.0527     2.0957  1445.0000
  866.2904    19.6250  2041.0000      .0259    81.1875  -999.2500     2.0371     2.1133  1435.0000
  866.4428    19.4531  2041.0000      .0127    82.5000  -999.2500     2.0625     2.1250  1445.0000
  866.5952    19.7344  2041.0000      .0088    82.4375  -999.2500     2.0645     2.1367  1440.0000
  866.7476    19.6719  2041.0000      .0103    82.4375  -999.2500     2.0117     2.1211  1445.0000
  866.9000    19.7969  2041.0000      .0195    81.3750  -999.2500     1.9814     2.1133  1450.0000
  867.0524    19.6406  2040.0000      .0200    79.0625  -999.2500     2.0215     2.1113  1435.0000
  867.2048    19.4219  2040.0000      .0132    74.7500  -999.2500     2.0117     2.1191  1455.0000
  867.3572    19.4531  2041.0000      .0068    70.5625  -999.2500     2.0020     2.1250  1440.0000
  867.5096    19.4375  2041.0000      .0088    67.8750  -999.2500     1.9395     2.1289  1445.0000
  867.6620    19.1250  2040.0000      .0107    68.4375  -999.2500     1.9141     2.1133  1440.0000
  867.8144    19.2188  2041.0000      .0142    68.1875  -999.2500     1.9111     2.1035  1440.0000
  867.9668    18.9688  2041.0000      .0093    71.3750  -999.2500     1.9531     2.0879  1450.0000
  868.1192    18.7969  2040.0000      .0059    70.1875  -999.2500     1.9521     2.0918  1440.0000
  868.2716    18.8281  2042.0000      .0044    72.5625  -999.2500     1.9268     2.0937  1445.0000
  868.4240    19.0000  2044.0000      .0029    73.8125  -999.2500     1.8789     2.1016  1455.0000
  868.5764    18.9688  2045.0000      .0039    71.6875  -999.2500     1.8389     2.1035  1440.0000
  868.7288    18.9375  2047.0000      .0029    67.0000  -999.2500     1.8008     2.1055  1445.0000
  868.8812    18.5938  2046.0000      .0049    60.0625  -999.2500     1.7090     2.1074  1445.0000
  869.0336    18.4844  2045.0000      .0024    54.9687  -999.2500     1.5967     2.1016  1440.0000
  869.1860    18.8906  2045.0000     -.0078    47.5625  -999.2500     1.4619     2.0820  1450.0000
  869.3384    19.0156  2045.0000     -.0127    42.7188  -999.2500     1.4004     2.0449  1450.0000
  869.4908    19.9531  2044.0000     -.0044    38.3438  -999.2500     1.3838     2.0156  1465.0000
  869.6432    21.2969  2043.0000      .0142    34.4375  -999.2500     1.4043     2.0020  1450.0000
  869.7956    21.7031  2043.0000      .0366    31.1719  -999.2500     1.4180     2.0039  1460.0000
  869.9480    22.3906  2042.0000      .0498    28.6250  -999.2500     1.4395     2.0078  1460.0000
  870.1004    22.5938  2043.0000      .0674    30.8906  -999.2500     1.4531     2.0273  1450.0000
  870.2528    20.7969  2043.0000      .0806    30.2031  -999.2500     1.4951     2.0430  1460.0000
  870.4052    21.2031  2042.0000      .0918    33.0313  -999.2500     1.5469     2.0508  1445.0000
  870.5576    21.7969  2042.0000      .0869    32.9688  -999.2500     1.5723     2.0254  1465.0000
  870.7100    22.2500  2042.0000      .1069    34.9063  -999.2500     1.4756     2.0176  1450.0000
  870.8624    22.8594  2042.0000      .1021    35.9688  -999.2500     1.3193     1.9521  1440.0000
  871.0148    23.2656  2042.0000      .1191    37.7188  -999.2500     1.1982     1.8564  1465.0000
  871.1672    23.2656  2042.0000      .1084    36.5000  -999.2500     1.1572     1.7119  1435.0000
  871.3196    23.2656  2042.0000      .0654    37.1875  -999.2500     1.1924     1.5811  1445.0000
  871.4720    23.2656  2042.0000      .0117    36.1875  -999.2500     1.3154     1.5137  1445.0000
  871.6244    23.2656  2043.0000      .0073    38.0937  -999.2500     1.3848     1.5869  1455.0000
  871.7768    23.2656  2043.0000      .0659    36.1563  -999.2500     1.3184     1.7383  1430.0000
  871.9292    23.2656  2045.0000      .1108    36.1875  -999.2500     1.2363     1.8008  1450.0000
  872.0816    23.2656  2047.0000      .1172    34.8438  -999.2500     1.1553     1.7334  1420.0000
  872.2340    23.2656  2048.0000      .0830    30.9375  -999.2500     1.1055     1.6172  1425.0000
  872.3864    23.2656  2047.0000      .0410    33.1250  -999.2500     1.0723     1.5293  1410.0000
  872.5388    23.2656  2047.0000      .0088    33.1563  -999.2500     1.0713     1.4746  1425.0000
  872.6912    23.2656  2046.0000     -.0039    35.4375  -999.2500     1.0732     1.4521  1415.0000
  872.8436    23.2656  2044.0000     -.0059    31.8906  -999.2500     1.0693     1.4463  1425.0000
  872.9960    23.2656  2044.0000     -.0063    33.4375  -999.2500     1.0645     1.4385  1415.0000
  873.1484    23.2656  2044.0000     -.0068    34.4063  -999.2500     1.0645     1.4365  1430.0000
  873.3008    23.2656  2044.0000     -.0117    34.7500  -999.2500     1.0684     1.4297  1425.0000
  873.4532    23.2656  2043.0000     -.0151    33.1563  -999.2500     1.0654     1.4268  1430.0000
  873.6056    23.2656  2043.0000     -.0098    31.8437  -999.2500     1.0557     1.4316  1420.0000
  873.7580    23.2656  2042.0000     -.0137    30.5156  -999.2500     1.0410     1.4277  1425.0000
  873.9104    23.2656  2042.0000     -.0156    30.0938  -999.2500     1.0410     1.4258  1415.0000
  874.0628    23.2656  2042.0000     -.0229    29.4063  -999.2500     1.0439     1.4199  1415.0000
  874.2152    23.2656  2042.0000     -.0190    30.3438  -999.2500     1.0439     1.4238  1425.0000
  874.3676    23.2656  2042.0000     -.0156    30.3750  -999.2500     1.0371     1.4258  1425.0000
  874.5200    23.2656  2042.0000     -.0093    34.6875  -999.2500     1.0381     1.4307  1415.0000
  874.6724    23.2656  2042.0000     -.0063    33.4688  -999.2500     1.0361     1.4307  1425.0000
  874.8248    23.2656  2043.0000     -.0059    32.9688  -999.2500     1.0586     1.4316  1415.0000
  874.9772    23.2656  2043.0000     -.0098    31.6250  -999.2500     1.0957     1.4355  1410.0000
  875.1296    23.2656  2044.0000     -.0088    32.6250  -999.2500     1.1670     1.4541  1425.0000
  875.2820    23.2656  2045.0000     -.0029    29.9375  -999.2500     1.2402     1.4902  1420.0000
  875.4344    23.2656  2048.0000      .0078    27.9844  -999.2500     1.3252     1.5615  1415.0000
  875.5868    23.2656  2048.0000      .0601    26.9531  -999.2500     1.3320     1.6992  1420.0000
  875.7392    23.2656  2048.0000      .1055    30.8750  -999.2500     1.2734     1.7988  1410.0000
  875.8916    23.2656  2048.0000      .1348    30.8750  -999.2500     1.1846     1.7930  1425.0000
  876.0440    23.2656  2047.0000      .1025    32.1562  -999.2500     1.1172     1.6768  1410.0000
  876.1964    23.2656  2047.0000      .0586    31.4688  -999.2500     1.0850     1.5703  1415.0000
  876.3488    23.2656  2045.0000      .0103    30.1406  -999.2500     1.0713     1.4893  1405.0000
  876.5012    23.2656  2044.0000     -.0088    32.7812  -999.2500     1.0703     1.4531  1425.0000
  876.6536    23.2656  2043.0000     -.0142    35.7813  -999.2500     1.0645     1.4355  1420.0000
