~VERSION INFORMATION
VERS.                                                 2.0:   CWLS Log ASCII Standard-VERSION 2.0
WRAP.                                                  NO:   One line per depth step
~Well Information Block
STRT.M                                           494.1296:   Top Depth
STOP.M                                          3282.7448:   Bottom Depth
STEP.M                                             .15240:   Depth Increment
NULL.                                            -999.250:   Null Value
FLD .                                      SLEIPNER GAMMA:   Field Name
WELL.                                             15/9-13:   NAME
WBN .                                             15/9-13:   WELLBORE
NATI.                                                 NOR:   COUNTRY
CTRY.                                                 NOR:   COUNTRY
COMP.                                             STATOIL:   OPERATOR
PROV.                                           NORTH SEA:   PROVINCE
COUN.                                            ROSS RIG:   RIG NAME
SPUD.                                          1982/03/21:   SPUD DATE
LATI.                                       58 22 25.96 N:   SURF. LATITUDE
LONG.                                         1 56 2.86 E:   SURF. LONGITUDE
PBWE.                                             15/9-13:   PB WELL ID
APIN.                                             15/9-13:   PB WELLBORE ID
PBWS.                                                 all:   PB WELL NAME SET
~PARAMETER INFORMATION (log)
LNAM.                              LDT/CNL/GR  COMPOSITED:   NAME
LTYP.                                         DEPTH MATCH:   LOG TYPE
LSRV.                                           LATEROLOG:   LOG SERVICE
LSOU.                                             SPT/NPD:   LOG SOURCE
LVSN.                                                   1:   LOG VERSION
BHIS.                                                   R:   BRIEF HISTORY
FHIS.                                             RAW-LIS:   FULL HISTORY
LCNM.                                        SCHLUMBERGER:   LOGGING CONTRACTOR
TOOL.                             LDT/CNL/GR (COMPOSITED):   TOOL STRING
~Curve Information Block
#MNEM.UNIT                                        API CODE    No Description
#=========                                        ========    == ===========
DEPT.M                                       00 001 00 00:     1  DEPTH
CALI.IN                                                  :     2  Caliper
CS.                                                      :     3  Cable Speed
DRHO.G/CC                                                :     4  Bulk density correction
GR.GAPI                                                  :     5  Gamma Ray
NPHI.%                                                   :     6  Neutron porosity
PEF.B/E                                                  :     7  Photo-electric factor
RHOB.G/CC                                                :     8  Bulk density
TENS.LB                                                  :     9  Cable Tension
~ASCII
# ...
 2160.6236    22.5469  2988.0000     -.0104    59.0729    47.8027     3.5840     2.0833  2310.0000
 2160.7760    22.4792  2986.0000     -.0130    58.1526    47.4121     4.1090     2.0964  2320.0000
 2160.9284    22.5157  2988.0000     -.0102    55.2135    48.2931     4.6728     2.1251  2320.0000
 2161.0808    22.6876  2986.0000     -.0085    50.7890    48.0463     4.5610     2.1706  2290.0000
 2161.2332    23.1198  2986.0000     -.0112    50.1875    44.2220     3.9466     2.1914  2274.0000
 2161.3856    22.3780  2986.0000     -.0078    49.8625    43.1983     3.4675     2.1673  2294.0000
 2161.5380    22.0159  2988.0000     -.0021    51.2961    47.1440     3.1682     2.1112  2290.0000
 2161.6904    22.4899  2990.0000      .0060    50.5299    48.1765     3.1739     2.0807  2300.0000
 2161.8428    22.7448  2992.0000     -.0057    50.7708    47.1517     3.2559     2.0775  2290.0000
 2161.9952    22.7240  2990.0000     -.0151    50.5833    45.5566     3.2526     2.0885  2300.0000
 2162.1476    21.9826  2986.0000     -.0161    51.3256    49.1312     3.2918     2.0990  2280.0000
 2162.3000    22.0107  2986.0000     -.0054    51.3329    53.8595     3.3464     2.1068  2274.0000
 2162.4524    22.8698  2984.0000      .0007    50.2083    57.7148     3.9069     2.1380  2260.0000
 2162.6048    21.9531  2982.0000     -.0075    48.4479    56.4453     4.0286     2.1784  2270.0000
 2162.7572    21.5996  2982.0000     -.0088    51.0808    54.1642     3.8317     2.2253  2290.0000
 2162.9096    22.5593  2982.0000     -.0047    52.1340    50.5296     3.4843     2.2200  2290.0000
 2163.0620    23.1045  2984.0000     -.0002    53.3891    49.8230     3.3966     2.2025  2300.0000
 2163.2144    23.0468  2986.0000     -.0060    50.8203    49.0387     3.3678     2.1914  2290.0000
 2163.3668    23.0992  2988.0000     -.0127    49.4695    48.6985     3.3712     2.1823  2290.0000
 2163.5192    23.1980  2986.0000     -.0096    49.9800    48.2081     3.3006     2.1562  2294.0000
 2163.6716    22.5922  2986.0000     -.0034    48.8824    48.1288     3.2500     2.1158  2290.0000
 2163.8240    21.8531  2984.0000     -.0005    49.6283    47.2306     3.1952     2.0950  2310.0000
 2163.9764    22.1931  2984.0000     -.0016    46.7888    47.5430     3.2207     2.0931  2294.0000
 2164.1288    22.9386  2986.0000      .0021    45.8457    47.1335     3.2722     2.1146  2300.0000
 2164.2812    23.2659  2986.0000      .0047    47.8789    46.6633     3.2799     2.1367  2300.0000
 2164.4336    23.3021  2986.0000      .0065    51.3397    51.4601     3.2891     2.1439  2304.0000
 2164.5860    23.0050  2986.0000      .0044    57.7228    54.6067     3.3796     2.1250  2294.0000
 2164.7384    22.4521  2988.0000      .0065    59.3102    60.2339     3.3958     2.1074  2294.0000
 2164.8908    22.8974  2990.0000      .0057    58.8438    58.6325     3.2836     2.0944  2290.0000
 2165.0432    23.1248  2990.0000      .0044    55.6904    55.2051     3.2461     2.0964  2294.0000
 2165.1956    23.2345  2988.0000     -.0002    53.3744    49.2308     3.5686     2.1139  2290.0000
 2165.3480    23.3125  2986.0000     -.0037    51.6217    45.8315     3.9041     2.1707  2280.0000
 2165.5004    23.3125  2984.0000     -.0067    49.2668    50.0599     3.9569     2.2358  2260.0000
 2165.6528    23.2500  2984.0000     -.0107    51.1272    50.5194     3.9955     2.2689  2280.0000
 2165.8052    22.7292  2984.0000     -.0037    53.0729    49.2513     3.9023     2.2689  2290.0000
 2165.9576    23.0365  2982.0000      .0073    52.8125    44.7103     3.7194     2.2643  2320.0000
 2166.1100    23.3125  2984.0000      .0130    48.4446    45.7545     3.3077     2.2389  2310.0000
 2166.2624    23.3125  2986.0000      .0070    44.9479    46.1589     3.1549     2.1901  2280.0000
 2166.4148    23.3125  2986.0000     -.0011    44.2187    45.2962     3.5527     2.1562  2244.0000
 2166.5672    23.3125  2986.0000     -.0034    44.5312    43.2780     3.8620     2.1732  2240.0000
 2166.7196    22.8739  2986.0000     -.0015    43.9775    42.5298     4.0387     2.2064  2274.0000
 2166.8720    23.0941  2986.0000      .0008    46.4189    40.1184     3.9556     2.2103  2310.0000
 2167.0244    23.3125  2986.0000     -.0005    48.6458    43.6198     4.0345     2.1927  2344.0000
 2167.1768    23.3125  2986.0000      .0041    49.8542    47.1680     4.0221     2.1842  2300.0000
 2167.3292    23.3125  2988.0000      .0055    49.4564    52.4200     3.8180     2.1901  2310.0000
 2167.4816    23.3125  2988.0000      .0075    48.7706    50.3057     3.5858     2.1868  2264.0000
 2167.6340    23.3125  2990.0000      .0029    48.6042    47.1517     3.4785     2.1628  2260.0000
 2167.7864    23.3021  2992.0000     -.0013    49.0312    45.5404     3.3353     2.1341  2270.0000
 2167.9388    22.3073  2994.0000     -.0029    51.3542    49.0723     3.3145     2.1120  2284.0000
 2168.0912    21.8750  2994.0000     -.0011    54.0534    52.7845     3.2929     2.1068  2270.0000
 2168.2436    22.1250  2992.0000     -.0013    53.5417    51.9531     3.4147     2.1048  2290.0000
 2168.3960    22.9531  2990.0000      .0000    52.9167    47.2493     3.4017     2.1087  2294.0000
 2168.5484    23.3125  2990.0000      .0013    53.4792    44.2708     3.3385     2.1152  2270.0000
 2168.7008    23.3125  2988.0000      .0064    51.0143    45.7404     3.3555     2.1263  2234.0000
 2168.8532    23.3125  2986.0000      .0042    46.9414    48.5232     3.5728     2.1217  2220.0000
 2169.0056    23.2812  2986.0000     -.0000    40.9859    51.4991     3.8967     2.1042  2260.0000
 2169.1580    23.2969  2986.0000     -.0023    39.7083    53.3854     4.3542     2.1120  2324.0000
 2169.3104    23.3125  2988.0000      .0052    40.9914    52.8623     4.9137     2.1700  2324.0000
 2169.4628    23.3125  2990.0000      .0129    44.6328    51.7073     5.0011     2.2658  2294.0000
 2169.6152    23.3125  2990.0000      .0127    49.2990    48.8220     4.5916     2.3034  2264.0000
 2169.7676    22.8225  2988.0000      .0065    53.8566    46.8093     4.1196     2.2526  2270.0000
 2169.9200    22.2344  2988.0000      .0036    54.0625    46.8913     3.9987     2.1797  2300.0000
 2170.0724    22.8247  2988.0000      .0044    52.9050    46.8255     3.9660     2.1393  2304.0000
 2170.2248    23.2762  2986.0000      .0052    50.0041    48.6375     3.9486     2.1361  2284.0000
 2170.3772    23.3125  2986.0000      .0018    50.0427    49.9352     4.0098     2.1374  2240.0000
 2170.5296    23.3125  2984.0000      .0042    49.8646    51.6927     3.8177     2.1484  2234.0000
 2170.6820    23.3125  2986.0000      .0037    49.3331    51.4787     3.6170     2.1478  2240.0000
 2170.8344    23.0828  2988.0000      .0054    48.8845    48.3988     3.3217     2.1484  2290.0000
 2170.9868    23.1981  2988.0000      .0059    47.3322    43.4378     3.4188     2.1504  2334.0000
 2171.1392    23.3125  2992.0000      .0093    46.6771    41.3411     3.5319     2.1699  2360.0000
 2171.2916    23.3021  2990.0000      .0086    48.3999    40.9173     3.8556     2.1993  2304.0000
 2171.4440    23.2969  2988.0000      .0047    49.4588    42.5662     3.9765     2.2325  2254.0000
 2171.5964    23.2969  2986.0000      .0005    49.8549    43.7181     4.0928     2.2494  2234.0000
 2171.7488    22.8792  2986.0000      .0062    48.6426    46.4581     4.2202     2.2624  2264.0000
 2171.9012    22.2653  2984.0000      .0117    48.0104    49.4154     4.1744     2.2728  2284.0000
 2172.0536    21.8641  2984.0000      .0088    49.9316    49.7547     4.1863     2.2728  2294.0000
 2172.2060    21.0034  2984.0000      .0019    52.7127    45.5961     4.0621     2.2493  2274.0000
 2172.3584    21.0949  2984.0000     -.0018    52.1840    46.7849     3.8565     2.2083  2284.0000
 2172.5108    21.3908  2986.0000      .0002    50.6334    49.1882     3.5861     2.1712  2290.0000
 2172.6632    20.4291  2986.0000     -.0015    50.5531    54.7364     3.3786     2.1432  2280.0000
 2172.8156    20.6684  2984.0000     -.0088    54.0810    54.1102     3.3301     2.1217  2290.0000
