~VERSION INFORMATION
VERS.                                                 2.0:   CWLS Log ASCII Standard-VERSION 2.0
WRAP.                                                  NO:   One line per depth step
~Well Information Block
STRT.M                                           494.1296:   Top Depth
STOP.M                                          3282.7448:   Bottom Depth
STEP.M                                             .15240:   Depth Increment
NULL.                                            -999.250:   Null Value
FLD .                                      SLEIPNER GAMMA:   Field Name
WELL.                                             15/9-13:   NAME
WBN .                                             15/9-13:   WELLBORE
NATI.                                                 NOR:   COUNTRY
CTRY.                                                 NOR:   COUNTRY
COMP.                                             STATOIL:   OPERATOR
PROV.                                           NORTH SEA:   PROVINCE
COUN.                                            ROSS RIG:   RIG NAME
SPUD.                                          1982/03/21:   SPUD DATE
LATI.                                       58 22 25.96 N:   SURF. LATITUDE
LONG.                                         1 56 2.86 E:   SURF. LONGITUDE
PBWE.                                             15/9-13:   PB WELL ID
APIN.                                             15/9-13:   PB WELLBORE ID
PBWS.                                                 all:   PB WELL NAME SET
~PARAMETER INFORMATION (log)
LNAM.                              LDT/CNL/GR  COMPOSITED:   NAME
LTYP.                                         DEPTH MATCH:   LOG TYPE
LSRV.                                           LATEROLOG:   LOG SERVICE
LSOU.                                             SPT/NPD:   LOG SOURCE
LVSN.                                                   1:   LOG VERSION
BHIS.                                                   R:   BRIEF HISTORY
FHIS.                                             RAW-LIS:   FULL HISTORY
LCNM.                                        SCHLUMBERGER:   LOGGING CONTRACTOR
TOOL.                             LDT/CNL/GR (COMPOSITED):   TOOL STRING
~Curve Information Block
#MNEM.UNIT                                        API CODE    No Description
#=========                                        ========    == ===========
DEPT.M                                       00 001 00 00:     1  DEPTH
CALI.IN                                                  :     2  Caliper
CS.                                                      :     3  Cable Speed
DRHO.G/CC                                                :     4  Bulk density correction
GR.GAPI                                                  :     5  Gamma Ray
NPHI.%                                                   :     6  Neutron porosity
PEF.B/E                                                  :     7  Photo-electric factor
RHOB.G/CC                                                :     8  Bulk density
TENS.LB                                                  :     9  Cable Tension
~ASCII
# ...
 2901.2876     8.3620  3584.0000      .0371    95.9792    29.9316     4.3711     2.5319  3204.0000
 2901.4400     8.3333  3582.0000      .0435    98.7917    31.4779     4.4987     2.5404  3210.0000
 2901.5924     8.3594  3580.0000      .0337   101.9405    31.7207     4.4476     2.5423  3224.0000
 2901.7448     8.4115  3580.0000      .0149   103.7737    32.4242     4.3867     2.5299  3244.0000
 2901.8972     8.4297  3578.0000     -.0002   103.4993    32.3889     4.3945     2.5260  3184.0000
 2902.0496     8.4297  3578.0000     -.0083   101.3958    32.9753     4.3281     2.5182  3190.0000
 2902.2020     8.4297  3578.0000     -.0086   100.6878    33.0069     4.2851     2.5150  3200.0000
 2902.3544     8.4297  3576.0000     -.0055    98.9123    33.8240     4.3987     2.5039  3184.0000
 2902.5068     8.4140  3578.0000      .0025    97.4570    33.6409     4.3604     2.5020  3210.0000
 2902.6592     8.4271  3578.0000      .0140    95.8531    32.3560     4.1796     2.5039  3244.0000
 2902.8116     8.4375  3578.0000      .0226    93.5208    29.9642     3.9818     2.5143  3194.0000
 2902.9640     8.5054  3576.0000      .0249    93.6481    29.2976     4.1549     2.5195  3190.0000
 2903.1164     8.5234  3574.0000      .0275    96.6728    30.2265     4.2291     2.5195  3194.0000
 2903.2688     8.5156  3572.0000      .0327    98.2294    31.6252     4.0793     2.5078  3174.0000
 2903.4212     8.5208  3574.0000      .0399    98.6250    30.7292     3.6901     2.5020  3180.0000
 2903.5736     8.5600  3574.0000      .0298    95.1581    29.3441     3.4869     2.5006  3180.0000
 2903.7260     8.5677  3576.0000      .0231    98.0111    28.6123     3.4133     2.5209  3174.0000
 2903.8784     8.5677  3576.0000      .0112   100.1457    28.7112     3.4297     2.5391  3204.0000
 2904.0308     8.6484  3578.0000      .0011   102.6875    29.4108     3.3952     2.5469  3194.0000
 2904.1832     8.6927  3578.0000     -.0072   104.0000    29.7854     3.3254     2.5475  3190.0000
 2904.3356     8.7110  3576.0000     -.0116   106.8401    30.7803     3.1572     2.5417  3210.0000
 2904.4880     8.7031  3578.0000     -.0161   108.1665    31.2174     3.0383     2.5351  3214.0000
 2904.6404     8.6901  3578.0000     -.0181   104.3660    30.8422     2.9086     2.5345  3230.0000
 2904.7928     8.7031  3576.0000     -.0184    98.0381    30.2731     2.9597     2.5378  3240.0000
 2904.9452     8.7109  3578.0000     -.0137    98.6944    30.6981     3.1305     2.5430  3224.0000
 2905.0976     8.7005  3578.0000     -.0142    99.8326    31.2016     3.3931     2.5358  3214.0000
 2905.2500     8.6953  3580.0000     -.0182   100.0634    31.1683     3.4654     2.5260  3210.0000
 2905.4024     8.6901  3580.0000     -.0248    98.4540    30.3204     3.2998     2.5169  3180.0000
 2905.5548     8.6927  3580.0000     -.0241    99.6107    30.5521     3.3383     2.5228  3170.0000
 2905.7072     8.6901  3580.0000     -.0179   103.8410    30.5331     3.4272     2.5326  3200.0000
 2905.8596     8.6614  3580.0000     -.0153   104.6857    29.7185     3.4825     2.5299  3204.0000
 2906.0120     8.6589  3580.0000     -.0164    99.9688    29.2966     3.2083     2.5234  3194.0000
 2906.1644     8.6693  3580.0000     -.0200    94.8865    29.4113     2.9489     2.5202  3194.0000
 2906.3168     8.6719  3580.0000     -.0179    91.1821    30.6669     2.9213     2.5352  3200.0000
 2906.4692     8.6667  3582.0000     -.0138    94.6151    30.8584     3.2018     2.5573  3180.0000
 2906.6216     8.6641  3582.0000     -.0163    94.1602    30.2072     3.4162     2.5618  3180.0000
 2906.7740     8.6588  3584.0000     -.0168    94.8141    28.2864     3.5183     2.5540  3190.0000
 2906.9264     8.6562  3586.0000     -.0174    98.3185    27.9635     3.3204     2.5429  3210.0000
 2907.0788     8.6458  3584.0000     -.0125   102.9038    28.5163     3.2866     2.5443  3214.0000
 2907.2312     8.6354  3582.0000     -.0166   105.1463    29.3788     3.3952     2.5417  3194.0000
 2907.3836     8.6589  3582.0000     -.0252   101.6458    28.9225     3.5885     2.5352  3160.0000
 2907.5360     8.6667  3584.0000     -.0285    96.7010    30.4408     3.7202     2.5306  3170.0000
 2907.6884     8.7735  3582.0000     -.0275    95.5628    31.8200     3.5897     2.5267  3170.0000
 2907.8408     8.6615  3582.0000     -.0213    96.5000    32.1940     3.3802     2.5319  3190.0000
 2907.9932     8.6406  3582.0000     -.0179   102.0417    30.1595     3.2402     2.5352  3194.0000
 2908.1456     8.6301  3582.0000     -.0117   102.7455    30.5047     3.2527     2.5391  3184.0000
 2908.2980     8.5989  3582.0000      .0007   101.1442    31.1033     3.4562     2.5488  3170.0000
 2908.4504     8.5885  3584.0000      .0015    96.9761    30.7615     3.4667     2.5397  3190.0000
 2908.6028     8.5859  3582.0000     -.0057    93.1042    28.4668     3.4772     2.5176  3174.0000
 2908.7552     8.5703  3580.0000     -.0047    91.0000    27.3600     3.3027     2.5085  3194.0000
 2908.9076     8.5521  3580.0000      .0020    89.0592    27.0827     3.4720     2.5156  3194.0000
 2909.0600     8.5573  3580.0000      .0057    93.5875    28.1259     3.4817     2.5339  3194.0000
 2909.2124     8.6771  3578.0000     -.0086    97.5625    29.1341     3.5645     2.5241  3184.0000
 2909.3648     8.6146  3580.0000     -.0171   103.1667    30.8105     3.6654     2.5208  3170.0000
 2909.5172     8.5547  3580.0000     -.0140   102.6178    31.9998     3.7684     2.5234  3180.0000
 2909.6696     8.5443  3582.0000     -.0070    98.8732    31.9985     3.9246     2.5352  3190.0000
 2909.8220     8.5599  3584.0000     -.0024    92.9167    30.6803     3.7448     2.5410  3190.0000
 2909.9744     8.5495  3584.0000     -.0070    89.9583    29.7852     3.5059     2.5371  3204.0000
 2910.1268     8.5391  3582.0000     -.0153    91.2746    29.8018     3.2260     2.5286  3244.0000
 2910.2792     8.5547  3582.0000     -.0239    93.6079    31.2207     3.1890     2.5241  3214.0000
 2910.4316     8.5625  3580.0000     -.0256    93.3308    31.1016     3.3904     2.5313  3200.0000
 2910.5840     8.5625  3580.0000     -.0239    91.8117    29.9310     3.6981     2.5378  3234.0000
 2910.7364     8.5521  3580.0000     -.0208    91.6458    29.6061     3.7285     2.5365  3214.0000
 2910.8888     8.5469  3580.0000     -.0195    91.8543    28.9534     3.6940     2.5260  3200.0000
 2911.0412     8.5417  3580.0000     -.0199    91.6244    29.2985     3.8108     2.5189  3184.0000
 2911.1936     8.5234  3580.0000     -.0128    90.9988    29.8018     3.8672     2.5202  3160.0000
 2911.3460     8.5156  3580.0000     -.0076    94.0860    30.5995     3.6965     2.5189  3140.0000
 2911.4984     8.5156  3580.0000     -.0052    99.6761    31.2833     3.4730     2.5202  3150.0000
 2911.6508     8.5522  3580.0000     -.0132   102.9615    30.2706     3.3717     2.5215  3174.0000
 2911.8032     8.5860  3580.0000     -.0156    97.6523    29.9812     3.4012     2.5345  3200.0000
 2911.9556     8.6042  3580.0000     -.0120    93.3531    28.4329     3.4082     2.5449  3194.0000
 2912.1080     8.6042  3578.0000     -.0107    91.3092    27.8816     3.4095     2.5443  3184.0000
 2912.2604     8.5963  3580.0000     -.0088    94.8017    29.3326     3.4075     2.5325  3190.0000
 2912.4128     8.5885  3582.0000     -.0081    98.1280    30.7310     3.3730     2.5182  3190.0000
 2912.5652     8.5807  3582.0000     -.0067    98.7917    31.5270     3.3639     2.5163  3204.0000
 2912.7176     8.5729  3584.0000     -.0059   100.2292    30.3060     3.3125     2.5241  3194.0000
 2912.8700     8.5651  3586.0000     -.0075   101.2716    30.2098     3.5423     2.5260  3170.0000
 2913.0224     8.5625  3586.0000     -.0129   104.7788    29.4408     3.7012     2.5123  3180.0000
 2913.1748     8.5573  3584.0000     -.0177   106.3957    28.4821     3.8408     2.4863  3190.0000
 2913.3272     8.5442  3584.0000     -.0141   102.4072    27.5862     3.6348     2.4609  3184.0000
 2913.4796     8.6645  3582.0000      .0059   100.0613    28.0625     3.9970     2.4401  3204.0000
