~VERSION INFORMATION
VERS.                                                 2.0:   CWLS Log ASCII Standard-VERSION 2.0
WRAP.                                                  NO:   One line per depth step
~Well Information Block
STRT.M                                           699.4124:   Top Depth
STOP.M                                          3782.7692:   Bottom Depth
STEP.M                                             .15240:   Depth Increment
NULL.                                            -999.250:   Null Value
FLD .                                             WILDCAT:   Field Name
WELL.                                              15/5-1:   NAME
WBN .                                              15/5-1:   WELLBORE
NATI.                                                 NOR:   COUNTRY
BHT1.DEGF                                            52.0:   BH TEMP 1
BS1 .IN                                             17.50:   BIT SIZE 1
CTRY.                                                 NOR:   COUNTRY
CBD1.M                                              194.0:   CSG 1 DRILL DEP
CBL1.M                                              192.0:   CSG 1 LOG DEP
CS1 .IN                                              30.0:   CSG 1 SIZE
COMP.                                         NORSK HYDRO:   OPERATOR
PDAT.                                                 MSL:   PERM DATUM
PROV.                                           NORTH SEA:   PROVINCE
COUN.                                     TREASURE SEEKER:   RIG NAME
SPUD.                                          1977/11/26:   SPUD DATE
LATI.                                        58 35 4.37 N:   SURF. LATITUDE
LONG.                                         1 39 8.35 E:   SURF. LONGITUDE
BTD1.                                            713.50 M:   TOTAL DEPTH 1
PBWE.                                              15/5-1:   PB WELL ID
APIN.                                              15/5-1:   PB WELLBORE ID
PBWS.                                                 all:   PB WELL NAME SET
~PARAMETER INFORMATION (log)
LNAM.                              FDC/CNL/GR  COMPOSITED:   NAME
LTYP.                                         DEPTH MATCH:   LOG TYPE
LSRV.                                            DEN/NEUT:   LOG SERVICE
LSOU.                                             SPT/NPD:   LOG SOURCE
LVSN.                                                   1:   LOG VERSION
BHIS.                                                   R:   BRIEF HISTORY
FHIS.                                             RAW-LIS:   FULL HISTORY
LCNM.                                        SCHLUMBERGER:   LOGGING CONTRACTOR
TOOL.                             FDC/CNL/GR (COMPOSITED):   TOOL STRING
~Curve Information Block
#MNEM.UNIT                                        API CODE    No Description
#=========                                        ========    == ===========
DEPT.M                                       00 001 00 00:     1  DEPTH
CALI.IN                                                  :     2  Caliper
DRHO.G/CC                                                :     3  Bulk density correction
GR.GAPI                                                  :     4  Gamma Ray
NPHI.%                                                   :     5  Neutron porosity
RHOB.G/CC                                                :     6  Bulk density
TENS.LB                                                  :     7  Cable Tension
~ASCII
  699.4124    18.9749     -.0018    23.0424  -999.2500  -999.2500  -999.2500
  699.5648    18.9806     -.1607    22.6991  -999.2500  -999.2500  -999.2500
  699.7172    18.9862     -.2820    22.3559  -999.2500     1.9677  -999.2500
  699.8696    18.9465     -.2831    22.0126  -999.2500     1.9596  -999.2500
  700.0220    18.9048     -.2829    22.0027  -999.2500     1.9515  -999.2500
  700.1744    18.8808     -.2688    22.5908  -999.2500     1.9491  -999.2500
  700.3268    18.8599     -.2054    21.1724  -999.2500     1.9847  -999.2500
  700.4792    18.7392     -.1386    19.6766  -999.2500     2.0395  -999.2500
  700.6316    18.3072     -.0706    18.9997  -999.2500     2.1173  -999.2500
  700.7840    17.9957     -.0285    19.4848  -999.2500     2.1547  -999.2500
  700.9364    17.9184     -.0171    19.9699  -999.2500     2.1615  -999.2500
  701.0888    17.8432     -.0090    18.4517  -999.2500     2.1654  -999.2500
  701.2412    17.7831     -.0095    18.8732  -999.2500     2.1576  -999.2500
  701.3936    17.7660     -.0092    19.7127  -999.2500     2.1610  -999.2500
  701.5460    17.7991     -.0072    19.7464  -999.2500     2.1687  -999.2500
  701.6984    17.8305     -.0072    20.1378  -999.2500     2.1767  -999.2500
  701.8508    17.8608     -.0112    21.1992  -999.2500     2.1846  -999.2500
  702.0032    17.8912     -.0152    22.2606  -999.2500     2.1926  -999.2500
  702.1556    17.9181     -.0094    22.6499  -999.2500     2.2133  -999.2500
  702.3080    17.9147     -.0066    22.7827  -999.2500     2.2369  -999.2500
  702.4604    17.8666     -.0081    22.6170  -999.2500     2.2404  -999.2500
  702.6128    17.8563     -.0114    21.9994  -999.2500     2.2438  -999.2500
  702.7652    17.8628     -.0174    22.1518  -999.2500     2.2437  -999.2500
  702.9176    17.8693     -.0501    22.3041  -999.2500     2.2248  -999.2500
  703.0700    18.0698     -.0861    22.4786  -999.2500     2.2003  -999.2500
  703.2224    18.3705     -.2005    21.6699  -999.2500     2.1408  -999.2500
  703.3748    18.6711     -.2474    20.5790  -999.2500     2.0871  -999.2500
  703.5272    18.9128     -.2866    21.9276  -999.2500     2.0337  -999.2500
  703.6796    19.0920     -.2862    22.5839  -999.2500     2.0354  -999.2500
  703.8320    19.1022     -.2859    21.5283  -999.2500     2.0391  -999.2500
  703.9844    19.1124     -.2855    20.4189  -999.2500     2.0420  -999.2500
  704.1368    19.1226     -.2851    19.7020  -999.2500     2.0574  -999.2500
  704.2892    19.1424     -.2848    20.0062  -999.2500     2.0725  -999.2500
  704.4416    19.2152     -.2828    21.0842  -999.2500     2.0873  -999.2500
  704.5940    19.2636     -.2597    23.3182  -999.2500     2.0766  -999.2500
  704.7464    18.9641     -.1589    27.0287  -999.2500     2.0522  -999.2500
  704.8988    18.5095     -.0613    31.4128  -999.2500     1.9788  -999.2500
  705.0512    19.3103      .0016    33.9874  -999.2500     1.8500  -999.2500
  705.2036    19.9163     -.0038    31.9265  -999.2500     1.7405  -999.2500
  705.3560    20.5224     -.0032    29.6783  -999.2500     1.7038  -999.2500
  705.5084    20.8235     -.0014    27.7499  -999.2500     1.7045  -999.2500
  705.6608    20.9145     -.0023    26.7596  -999.2500     1.7048  -999.2500
  705.8132    21.1738     -.0046    25.7693  -999.2500     1.7059  -999.2500
  705.9656    21.4743     -.0090    25.9667  -999.2500     1.7095  -999.2500
  706.1180    21.3675     -.0155    28.2484  -999.2500     1.7042  -999.2500
  706.2704    21.5391     -.0220    31.1190  -999.2500     1.6882  -999.2500
  706.4228    21.8544     -.0284    33.0821  -999.2500     1.6692  -999.2500
  706.5752    22.0293     -.0364    34.2689  -999.2500     1.6218  -999.2500
  706.7276    22.0306     -.0471    32.4361  -999.2500     1.5600  -999.2500
  706.8800    22.0320     -.0573    30.3136  -999.2500     1.5143  -999.2500
  707.0324    22.0334     -.0523    30.5876  -999.2500     1.4977  -999.2500
  707.1848    22.0347     -.0471    32.0166  -999.2500     1.5120  -999.2500
  707.3372    22.0361     -.0383    32.2770  -999.2500     1.5401  -999.2500
  707.4896    22.0374     -.0295    32.5374  -999.2500     1.5883  -999.2500
  707.6420    22.0388     -.0207    33.7334  -999.2500     1.6366  -999.2500
  707.7944    22.0401     -.0142    35.2947  -999.2500     1.7067  -999.2500
  707.9468    22.0415     -.0106    36.6092  -999.2500     1.7461  -999.2500
  708.0992    22.0428     -.0066    38.0836  -999.2500     1.7768  -999.2500
  708.2516    22.0442     -.0025    40.7799  -999.2500     1.7995  -999.2500
  708.4040    22.0455      .0015    42.1801  -999.2500     1.8056  -999.2500
  708.5564    22.0469      .0041    43.5377  -999.2500     1.8263  -999.2500
  708.7088    22.0483      .0063    44.5988  -999.2500     1.8494  -999.2500
  708.8612    22.0496      .0038    43.3521  -999.2500     1.8562  -999.2500
  709.0136    22.0510      .0011    41.8119  -999.2500     1.8626  -999.2500
  709.1660    21.9781     -.0016    42.0442  -999.2500     1.8600  -999.2500
  709.3184    21.7700     -.0052    42.7717  -999.2500     1.8668  -999.2500
  709.4708    21.6618     -.0092    43.4632  -999.2500     1.8764  -999.2500
  709.6232    21.7914     -.0132    44.2035  -999.2500     1.8759  -999.2500
  709.7756    21.9922     -.0137    45.2215  -999.2500     1.8543  -999.2500
  709.9280    21.8721     -.0125    45.4914  -999.2500     1.8231  -999.2500
  710.0804    21.6734     -.0071    44.7499  -999.2500     1.7734  -999.2500
  710.2328    21.3996     -.0017    43.1477  -999.2500     1.7257  -999.2500
  710.3852    21.0776      .0038    41.5454  -999.2500     1.7288  -999.2500
  710.5376    20.5360      .0068    40.9821  -999.2500     1.7950  -999.2500
  710.6900    20.5534      .0088    41.2624  -999.2500     1.8505  -999.2500
  710.8424    20.5271      .0081    41.0653  -999.2500     1.8866  -999.2500
  710.9948    20.1537      .0063    40.1663  -999.2500     1.8941  -999.2500
  711.1472    19.6590      .0021    39.3068  -999.2500     1.8898  -999.2500
  711.2996    19.1981     -.0033    39.7138  -999.2500     1.8728  -999.2500
  711.4520    19.1079      .0005    41.7942  -999.2500     1.8603  -999.2500
  711.6044    19.0177      .0081    43.9203  -999.2500     1.8570  -999.2500
  711.7568    18.9597      .0164    44.5988  -999.2500     1.8487  -999.2500
  711.9092    18.9763      .0153    44.4795  -999.2500     1.8438  -999.2500
  712.0616    19.4828      .0142    45.0829  -999.2500     1.8301  -999.2500
  712.2140    19.9893      .0089    46.0934  -999.2500     1.8325  -999.2500
  712.3664    19.4401     -.0062    46.7036  -999.2500     1.8449  -999.2500
  712.5188    18.7891     -.0037    47.1431  -999.2500     1.8551  -999.2500
  712.6712    18.4056     -.0008    47.6388  -999.2500     1.9014  -999.2500
  712.8236    18.2454      .0053    48.5480  -999.2500     1.9176  -999.2500
  712.9760    18.2374      .0044    49.8711  -999.2500     1.9202  -999.2500
  713.1284    18.3297      .0018    49.1378  -999.2500     1.9120  -999.2500
  713.2808    18.4021     -.0000    48.6586  -999.2500     1.9101  -999.2500
  713.4332    18.4320      .0030    48.4015  -999.2500     1.9097  -999.2500
  713.5856    18.7430      .0060    48.3669  -999.2500     1.9094  -999.2500
  713.7380    18.8869      .0129    48.6706  -999.2500     1.9137  -999.2500
  713.8904    18.8417      .0205    49.5739  -999.2500     1.9155  -999.2500
  714.0428    18.7455      .0185    51.3271  -999.2500     1.9150  -999.2500
  714.1952    18.8481      .0165    51.9313  -999.2500     1.9170  -999.2500
  714.3476    18.8156      .0111    52.8001  -999.2500     1.9198  -999.2500
  714.5000    18.1522      .0079    53.7700  -999.2500     1.9247  -999.2500
  714.6524    17.4631      .0088    54.6306  -999.2500     1.9528  -999.2500
  714.8048    17.5566      .0100    53.6704  -999.2500     1.9638  -999.2500
  714.9572    17.7234      .0121    51.8275  -999.2500     1.9939  -999.2500
  715.1096    18.3848      .0143    50.1995  -999.2500     2.0249  -999.2500
