~VERSION INFORMATION
VERS.                                                 2.0:   CWLS Log ASCII Standard-VERSION 2.0
WRAP.                                                  NO:   One line per depth step
~Well Information Block
STRT.M                                           699.4124:   Top Depth
STOP.M                                          3782.7692:   Bottom Depth
STEP.M                                             .15240:   Depth Increment
NULL.                                            -999.250:   Null Value
FLD .                                             WILDCAT:   Field Name
WELL.                                              15/5-1:   NAME
WBN .                                              15/5-1:   WELLBORE
NATI.                                                 NOR:   COUNTRY
BHT1.DEGF                                            52.0:   BH TEMP 1
BS1 .IN                                             17.50:   BIT SIZE 1
CTRY.                                                 NOR:   COUNTRY
CBD1.M                                              194.0:   CSG 1 DRILL DEP
CBL1.M                                              192.0:   CSG 1 LOG DEP
CS1 .IN                                              30.0:   CSG 1 SIZE
COMP.                                         NORSK HYDRO:   OPERATOR
PDAT.                                                 MSL:   PERM DATUM
PROV.                                           NORTH SEA:   PROVINCE
COUN.                                     TREASURE SEEKER:   RIG NAME
SPUD.                                          1977/11/26:   SPUD DATE
LATI.                                        58 35 4.37 N:   SURF. LATITUDE
LONG.                                         1 39 8.35 E:   SURF. LONGITUDE
BTD1.                                            713.50 M:   TOTAL DEPTH 1
PBWE.                                              15/5-1:   PB WELL ID
APIN.                                              15/5-1:   PB WELLBORE ID
PBWS.                                                 all:   PB WELL NAME SET
~PARAMETER INFORMATION (log)
LNAM.                              FDC/CNL/GR  COMPOSITED:   NAME
LTYP.                                         DEPTH MATCH:   LOG TYPE
LSRV.                                            DEN/NEUT:   LOG SERVICE
LSOU.                                             SPT/NPD:   LOG SOURCE
LVSN.                                                   1:   LOG VERSION
BHIS.                                                   R:   BRIEF HISTORY
FHIS.                                             RAW-LIS:   FULL HISTORY
LCNM.                                        SCHLUMBERGER:   LOGGING CONTRACTOR
TOOL.                             FDC/CNL/GR (COMPOSITED):   TOOL STRING
~Curve Information Block
#MNEM.UNIT                                        API CODE    No Description
#=========                                        ========    == ===========
DEPT.M                                       00 001 00 00:     1  DEPTH
CALI.IN                                                  :     2  Caliper
DRHO.G/CC                                                :     3  Bulk density correction
GR.GAPI                                                  :     4  Gamma Ray
NPHI.%                                                   :     5  Neutron porosity
RHOB.G/CC                                                :     6  Bulk density
TENS.LB                                                  :     7  Cable Tension
~ASCII
# ...
 2537.9660    16.7366      .0123    21.2307  -999.2500     2.0961  -999.2500
 2538.1184    16.7403      .0138    21.8577  -999.2500     2.0929  -999.2500
 2538.2708    16.7604      .0156    22.3421  -999.2500     2.0885  -999.2500
 2538.4232    16.7796      .0174    21.6945  -999.2500     2.0883  -999.2500
 2538.5756    16.7614      .0192    22.0586  -999.2500     2.0939  -999.2500
 2538.7280    16.7529      .0235    23.2697  -999.2500     2.0988  -999.2500
 2538.8804    16.7671      .0315    24.4207  -999.2500     2.1068  -999.2500
 2539.0328    16.8298      .0188    24.8253  -999.2500     2.1069  -999.2500
 2539.1852    16.8625      .0138    24.3691  -999.2500     2.0937  -999.2500
 2539.3376    16.8695      .0114    23.8188  -999.2500     2.0856  -999.2500
 2539.4900    16.8734      .0131    24.2021  -999.2500     2.0786  -999.2500
 2539.6424    16.8878      .0124    23.9965  -999.2500     2.0792  -999.2500
 2539.7948    16.8874      .0097    24.3663  -999.2500     2.0793  -999.2500
 2539.9472    16.8915      .0075    24.0019  -999.2500     2.0811  -999.2500
 2540.0996    16.9056      .0075    23.2704  -999.2500     2.0826  -999.2500
 2540.2520    16.9048      .0098    22.7052  -999.2500     2.0826  -999.2500
 2540.4044    16.9083      .0164    22.6726  -999.2500     2.0866  -999.2500
 2540.5568    16.9280      .0244    23.3019  -999.2500     2.0949  -999.2500
 2540.7092    16.9385      .0266    23.9312  -999.2500     2.0990  -999.2500
 2540.8616    16.9431      .0277    23.5489  -999.2500     2.0969  -999.2500
 2541.0140    16.9504      .0312    23.3690  -999.2500     2.1030  -999.2500
 2541.1664    16.9602      .0299    24.1224  -999.2500     2.1017  -999.2500
 2541.3188    16.9632      .0231    24.6149  -999.2500     2.0899  -999.2500
 2541.4712    16.9839      .0248    24.4448  -999.2500     2.0805  -999.2500
 2541.6236    16.9972      .0355    23.5058  -999.2500     2.0858  -999.2500
 2541.7760    16.9614      .0467    24.0328  -999.2500     2.1015  -999.2500
 2541.9284    16.9552      .0536    25.1000  -999.2500     2.1080  -999.2500
 2542.0808    16.9834      .0545    24.9798  -999.2500     2.1119  -999.2500
 2542.2332    17.0202      .0553    24.2417  -999.2500     2.1178  -999.2500
 2542.3856    17.0224      .0427    22.2797  -999.2500     2.1143  -999.2500
 2542.5380    17.0126      .0369    22.2285  -999.2500     2.0925  -999.2500
 2542.6904    17.0085      .0386    23.0900  -999.2500     2.0895  -999.2500
 2542.8428    17.0095      .0416    23.7728  -999.2500     2.0865  -999.2500
 2542.9952    16.9871      .0397    23.2725  -999.2500     2.0813  -999.2500
 2543.1476    16.9451      .0382    22.0838  -999.2500     2.0755  -999.2500
 2543.3000    16.9618      .0375    20.9905  -999.2500     2.0725  -999.2500
 2543.4524    16.9465      .0318    20.6722  -999.2500     2.0668  -999.2500
 2543.6048    16.9784      .0269    20.8929  -999.2500     2.0591  -999.2500
 2543.7572    16.9563      .0247    21.1136  -999.2500     2.0603  -999.2500
 2543.9096    16.9502      .0153    21.3114  -999.2500     2.0565  -999.2500
 2544.0620    16.9663      .0070    21.4241  -999.2500     2.0503  -999.2500
 2544.2144    16.9626      .0138    21.5369  -999.2500     2.0536  -999.2500
 2544.3668    16.9450      .0180    21.8612  -999.2500     2.0592  -999.2500
 2544.5192    16.9472      .0128    23.0371  -999.2500     2.0619  -999.2500
 2544.6716    16.9634      .0078    22.2265  -999.2500     2.0581  -999.2500
 2544.8240    16.9627      .0090    22.0255  -999.2500     2.0601  -999.2500
 2544.9764    16.9620      .0262    22.7503  -999.2500     2.0759  -999.2500
 2545.1288    16.9612      .0367    22.6660  -999.2500     2.0816  -999.2500
 2545.2812    16.9605      .0237    21.3606  -999.2500     2.0634  -999.2500
 2545.4336    16.9598      .0122    20.3421  -999.2500     2.0600  -999.2500
 2545.5860    16.9590      .0109    21.1188  -999.2500     2.0502  -999.2500
 2545.7384    16.9583      .0146    21.6782  -999.2500     2.0555  -999.2500
 2545.8908    16.9641      .0171    21.8511  -999.2500     2.0577  -999.2500
 2546.0432    17.0072      .0129    21.9512  -999.2500     2.0531  -999.2500
 2546.1956    17.0184      .0165    21.8547  -999.2500     2.0547  -999.2500
 2546.3480    17.0349      .0224    21.9162  -999.2500     2.0615  -999.2500
 2546.5004    17.0314      .0212    22.7858  -999.2500     2.0661  -999.2500
 2546.6528    17.0137      .0171    22.7075  -999.2500     2.0656  -999.2500
 2546.8052    17.0130      .0157    23.1937  -999.2500     2.0689  -999.2500
 2546.9576    17.0123      .0184    23.9964  -999.2500     2.0739  -999.2500
 2547.1100    17.0115      .0214    24.8942  -999.2500     2.0755  -999.2500
 2547.2624    17.0108      .0204    25.5279  -999.2500     2.0748  -999.2500
 2547.4148    17.0103      .0194    24.3778  -999.2500     2.0770  -999.2500
 2547.5672    17.0207      .0190    23.2302  -999.2500     2.0808  -999.2500
 2547.7196    17.0765      .0227    22.2504  -999.2500     2.0900  -999.2500
 2547.8720    17.0914      .0260    22.6354  -999.2500     2.0957  -999.2500
 2548.0244    17.0921      .0232    22.7775  -999.2500     2.0930  -999.2500
 2548.1768    17.0913      .0195    22.2989  -999.2500     2.0957  -999.2500
 2548.3292    17.0782      .0249    23.2570  -999.2500     2.1018  -999.2500
 2548.4816    17.0631      .0198    23.9468  -999.2500     2.0978  -999.2500
 2548.6340    17.0834      .0177    23.9528  -999.2500     2.0934  -999.2500
 2548.7864    17.0973      .0171    23.8293  -999.2500     2.0973  -999.2500
 2548.9388    17.1158      .0129    22.5769  -999.2500     2.0941  -999.2500
 2549.0912    17.1165      .0244    21.7311  -999.2500     2.0993  -999.2500
 2549.2436    17.1171      .0309    22.2910  -999.2500     2.1118  -999.2500
 2549.3960    17.1177      .0359    22.8509  -999.2500     2.1159  -999.2500
 2549.5484    17.1184      .0300    23.4111  -999.2500     2.1136  -999.2500
 2549.7008    17.1190      .0236    23.8715  -999.2500     2.1058  -999.2500
 2549.8532    17.1272      .0182    23.4057  -999.2500     2.0911  -999.2500
 2550.0056    17.2050      .0217    23.4007  -999.2500     2.0975  -999.2500
 2550.1580    17.2205      .0248    23.0390  -999.2500     2.1097  -999.2500
 2550.3104    17.2212      .0236    21.9182  -999.2500     2.1112  -999.2500
 2550.4628    17.2218      .0181    21.7491  -999.2500     2.1089  -999.2500
 2550.6152    17.2224      .0110    21.7264  -999.2500     2.0856  -999.2500
 2550.7676    17.2231      .0081    21.5066  -999.2500     2.0819  -999.2500
 2550.9200    17.2267      .0139    21.3691  -999.2500     2.0855  -999.2500
 2551.0724    17.2625      .0194    22.2228  -999.2500     2.0942  -999.2500
 2551.2248    17.2649      .0221    23.3257  -999.2500     2.0952  -999.2500
 2551.3772    17.2655      .0197    24.1734  -999.2500     2.0959  -999.2500
 2551.5296    17.2689      .0173    23.4636  -999.2500     2.0973  -999.2500
 2551.6820    17.3061      .0167    24.0087  -999.2500     2.0972  -999.2500
 2551.8344    17.3093      .0288    26.4450  -999.2500     2.1013  -999.2500
 2551.9868    17.3384      .0409    29.7793  -999.2500     2.1036  -999.2500
 2552.1392    17.3527      .0521    34.1852  -999.2500     2.1089  -999.2500
 2552.2916    17.4086      .0505    37.8819  -999.2500     2.1101  -999.2500
 2552.4440    17.4093      .0405    38.1665  -999.2500     2.1058  -999.2500
 2552.5964    17.4049      .0330    37.3404  -999.2500     2.0883  -999.2500
 2552.7488    17.3559      .0364    36.5937  -999.2500     2.0893  -999.2500
 2552.9012    17.3007      .0399    37.1221  -999.2500     2.0942  -999.2500
 2553.0536    17.3124      .0497    38.1374  -999.2500     2.1051  -999.2500
 2553.2060    17.3127      .0694    38.4324  -999.2500     2.1293  -999.2500
 2553.3584    17.3057      .0793    39.0728  -999.2500     2.1417  -999.2500
 2553.5108    17.2673      .0725    39.1864  -999.2500     2.1389  -999.2500
 2553.6632    17.3322      .0615    38.5681  -999.2500     2.1214  -999.2500
