~VERSION INFORMATION
VERS.                                                 2.0:   CWLS Log ASCII Standard-VERSION 2.0
WRAP.                                                  NO:   One line per depth step
~Well Information Block
STRT.M                                           699.4124:   Top Depth
STOP.M                                          3782.7692:   Bottom Depth
STEP.M                                             .15240:   Depth Increment
NULL.                                            -999.250:   Null Value
FLD .                                             WILDCAT:   Field Name
WELL.                                              15/5-1:   NAME
WBN .                                              15/5-1:   WELLBORE
NATI.                                                 NOR:   COUNTRY
BHT1.DEGF                                            52.0:   BH TEMP 1
BS1 .IN                                             17.50:   BIT SIZE 1
CTRY.                                                 NOR:   COUNTRY
CBD1.M                                              194.0:   CSG 1 DRILL DEP
CBL1.M                                              192.0:   CSG 1 LOG DEP
CS1 .IN                                              30.0:   CSG 1 SIZE
COMP.                                         NORSK HYDRO:   OPERATOR
PDAT.                                                 MSL:   PERM DATUM
PROV.                                           NORTH SEA:   PROVINCE
COUN.                                     TREASURE SEEKER:   RIG NAME
SPUD.                                          1977/11/26:   SPUD DATE
LATI.                                        58 35 4.37 N:   SURF. LATITUDE
LONG.                                         1 39 8.35 E:   SURF. LONGITUDE
BTD1.                                            713.50 M:   TOTAL DEPTH 1
PBWE.                                              15/5-1:   PB WELL ID
APIN.                                              15/5-1:   PB WELLBORE ID
PBWS.                                                 all:   PB WELL NAME SET
~PARAMETER INFORMATION (log)
LNAM.                              FDC/CNL/GR  COMPOSITED:   NAME
LTYP.                                         DEPTH MATCH:   LOG TYPE
LSRV.                                            DEN/NEUT:   LOG SERVICE
LSOU.                                             SPT/NPD:   LOG SOURCE
LVSN.                                                   1:   LOG VERSION
BHIS.                                                   R:   BRIEF HISTORY
FHIS.                                             RAW-LIS:   FULL HISTORY
LCNM.                                        SCHLUMBERGER:   LOGGING CONTRACTOR
TOOL.                             FDC/CNL/GR (COMPOSITED):   TOOL STRING
~Curve Information Block
#MNEM.UNIT                                        API CODE    No Description
#=========                                        ========    == ===========
DEPT.M                                       00 001 00 00:     1  DEPTH
CALI.IN                                                  :     2  Caliper
DRHO.G/CC                                                :     3  Bulk density correction
GR.GAPI                                                  :     4  Gamma Ray
NPHI.%                                                   :     5  Neutron porosity
RHOB.G/CC                                                :     6  Bulk density
TENS.LB                                                  :     7  Cable Tension
~ASCII
# ...
 2744.0108    16.5022      .0144    19.1902    19.3718     2.4888  -999.2500
 2744.1632    16.3781      .0093    21.1701    20.0263     2.4711  -999.2500
 2744.3156    16.4225      .0080    22.7693    22.3182     2.4187  -999.2500
 2744.4680    16.5927      .0151    23.4151    25.5826     2.3439  -999.2500
 2744.6204    16.5989      .0034    22.5512    28.2378     2.2835  -999.2500
 2744.7728    16.5147      .0019    20.8279    28.6617     2.2593  -999.2500
 2744.9252    16.4890      .0065    19.9047    27.3970     2.2805  -999.2500
 2745.0776    16.3333      .0029    19.2558    24.6800     2.3522  -999.2500
 2745.2300    16.1370      .0090    18.6702    22.3043     2.4462  -999.2500
 2745.3824    16.1955      .0199    18.5222    22.3088     2.4850  -999.2500
 2745.5348    16.2380      .0306    19.3188    25.3526     2.4838  -999.2500
 2745.6872    16.1467      .0379    19.9958    27.3593     2.4545  -999.2500
 2745.8396    16.0146      .0348    19.7918    27.0747     2.4338  -999.2500
 2745.9920    16.0268      .0223    18.6725    24.6199     2.4179  -999.2500
 2746.1444    15.9647      .0101    17.9171    23.3703     2.4174  -999.2500
 2746.2968    15.9670      .0032    19.3180    24.8903     2.4294  -999.2500
 2746.4492    16.0886      .0094    20.4858    27.7275     2.4001  -999.2500
 2746.6016    16.2104      .0215    20.7215    30.5448     2.3288  -999.2500
 2746.7540    16.3577      .0230    20.3643    31.8984     2.2522  -999.2500
 2746.9064    16.3622      .0085    19.9456    30.4752     2.2012  -999.2500
 2747.0588    16.2062      .0073    19.4990    27.6112     2.2090  -999.2500
 2747.2112    16.2785      .0171    18.2891    25.8961     2.2379  -999.2500
 2747.3636    16.3287      .0067    17.0309    24.6624     2.2795  -999.2500
 2747.5160    16.3993      .0037    16.8246    23.4323     2.3250  -999.2500
 2747.6684    16.4777      .0104    16.5647    22.4234     2.3584  -999.2500
 2747.8208    16.4194      .0046    16.8132    21.9031     2.3772  -999.2500
 2747.9732    15.8952      .0008    17.5941    21.6113     2.3927  -999.2500
 2748.1256    15.9380      .0146    19.4920    22.3515     2.3974  -999.2500
 2748.2780    16.0984      .0101    21.5397    24.7513     2.3706  -999.2500
 2748.4304    16.0407      .0093    22.3809    27.0282     2.3372  -999.2500
 2748.5828    16.1214      .0304    22.0930    28.8458     2.3178  -999.2500
 2748.7352    16.7105      .0430    21.3567    30.1797     2.2612  -999.2500
 2748.8876    17.5031      .0348    20.3488    30.0948     2.2166  -999.2500
 2749.0400    17.1371      .0166    19.8145    27.4634     2.2394  -999.2500
 2749.1924    16.1281      .0037    19.6458    24.4782     2.3373  -999.2500
 2749.3448    15.8584     -.0014    20.0530    24.7390     2.4035  -999.2500
 2749.4972    15.8770      .0007    20.5688    26.8078     2.3919  -999.2500
 2749.6496    15.9662      .0167    21.0395    28.6748     2.3339  -999.2500
 2749.8020    16.2730      .0238    21.6950    29.8755     2.2786  -999.2500
 2749.9544    16.7665      .0135    22.1485    29.3446     2.2766  -999.2500
 2750.1068    16.6449      .0160    22.0184    26.7746     2.3527  -999.2500
 2750.2592    15.9177      .0282    21.5602    24.6380     2.4260  -999.2500
 2750.4116    15.6772      .0358    21.1017    24.2123     2.4373  -999.2500
 2750.5640    15.7008      .0315    20.4561    24.0630     2.4091  -999.2500
 2750.7164    15.7022      .0164    19.2877    23.1871     2.4244  -999.2500
 2750.8688    15.5924      .0143    17.8913    22.5503     2.4718  -999.2500
 2751.0212    15.5407      .0284    17.3268    23.2085     2.4648  -999.2500
 2751.1736    15.5629      .0478    17.8748    25.2394     2.4164  -999.2500
 2751.3260    15.6651      .0644    18.6729    27.4103     2.3793  -999.2500
 2751.4784    15.7243      .0617    19.4368    27.5410     2.3623  -999.2500
 2751.6308    15.5191      .0452    19.8988    25.5283     2.3711  -999.2500
 2751.7832    15.3271      .0203    19.8360    23.6773     2.3799  -999.2500
 2751.9356    15.2732      .0059    19.6146    23.2016     2.3838  -999.2500
 2752.0880    15.2395      .0207    19.3279    23.9449     2.4105  -999.2500
 2752.2404    15.2758      .0371    18.5339    24.0161     2.4283  -999.2500
 2752.3928    15.2683      .0306    17.1784    22.3120     2.4582  -999.2500
 2752.5452    15.1168      .0143    16.0043    19.7675     2.5127  -999.2500
 2752.6976    15.0282      .0063    15.4093    18.5828     2.5451  -999.2500
 2752.8500    15.0040     -.0005    15.2664    19.1993     2.5323  -999.2500
 2753.0024    14.9797     -.0030    15.2909    20.3333     2.5072  -999.2500
 2753.1548    14.9555      .0020    15.4400    21.6425     2.4820  -999.2500
 2753.3072    14.9277      .0132    15.1429    22.5047     2.4632  -999.2500
 2753.4596    14.8930      .0167    14.5172    22.1287     2.4547  -999.2500
 2753.6120    14.8250      .0043    13.8811    21.0146     2.4670  -999.2500
 2753.7644    14.7279     -.0002    13.5718    19.4313     2.5050  -999.2500
 2753.9168    14.6459      .0025    13.8270    17.7317     2.5461  -999.2500
 2754.0692    14.5781      .0070    14.0280    16.9162     2.5719  -999.2500
 2754.2216    14.5199      .0110    14.7206    17.0876     2.5684  -999.2500
 2754.3740    14.4606      .0096    15.4772    17.1264     2.5521  -999.2500
 2754.5264    14.4164      .0236    15.5312    16.9770     2.5414  -999.2500
 2754.6788    14.3864      .0292    15.2598    16.6444     2.5457  -999.2500
 2754.8312    14.3446      .0144    14.8000    16.2161     2.5612  -999.2500
 2754.9836    14.2914      .0054    14.9502    16.0742     2.5777  -999.2500
 2755.1360    14.2380     -.0009    15.9763    16.7072     2.5784  -999.2500
 2755.2884    14.1906     -.0087    17.6760    19.0343     2.5456  -999.2500
 2755.4408    14.2200     -.0098    19.9749    22.9271     2.4888  -999.2500
 2755.5932    14.3974      .0006    22.0063    27.1362     2.4263  -999.2500
 2755.7456    14.7757      .0138    22.1591    29.6580     2.3663  -999.2500
 2755.8980    14.8976      .0120    20.6640    28.8173     2.3323  -999.2500
 2756.0504    14.4772     -.0055    19.5913    25.5110     2.3491  -999.2500
 2756.2028    14.2553     -.0108    19.9631    23.3521     2.3863  -999.2500
 2756.3552    14.3925     -.0011    21.3218    25.2103     2.3611  -999.2500
 2756.5076    14.6535      .0107    23.0139    29.3358     2.2892  -999.2500
 2756.6600    15.0553      .0149    23.6543    32.8575     2.2474  -999.2500
 2756.8124    15.3429      .0059    21.9529    34.2663     2.2739  -999.2500
 2756.9648    14.9486     -.0018    20.2721    32.2319     2.3578  -999.2500
 2757.1172    14.4500      .0039    20.5758    28.8552     2.4600  -999.2500
 2757.2696    14.4867      .0083    21.1529    27.1407     2.5242  -999.2500
 2757.4220    14.5770      .0026    20.9501    27.0830     2.5124  -999.2500
 2757.5744    14.6497      .0073    20.0789    27.8651     2.4858  -999.2500
 2757.7268    14.7068      .0260    19.3430    28.8207     2.4676  -999.2500
 2757.8792    14.7625      .0498    18.9512    29.6926     2.4568  -999.2500
 2758.0316    14.8027      .0766    18.5609    29.6706     2.4253  -999.2500
 2758.1840    14.7607      .0913    18.1709    28.0231     2.3801  -999.2500
 2758.3364    14.5726      .0730    17.5558    25.5428     2.3620  -999.2500
 2758.4888    14.4307      .0310    16.7796    24.2477     2.3994  -999.2500
 2758.6412    14.4122      .0129    16.7318    24.3647     2.4789  -999.2500
 2758.7936    14.4887      .0282    17.3479    25.5349     2.5274  -999.2500
 2758.9460    14.6025      .0478    17.9125    27.1324     2.5075  -999.2500
 2759.0984    14.5754      .0591    18.2239    27.4281     2.4481  -999.2500
 2759.2508    14.5313      .0390    17.9786    26.7656     2.4263  -999.2500
 2759.4032    14.4548      .0240    16.8629    25.7055     2.4529  -999.2500
 2759.5556    14.3497      .0171    16.4904    23.2859     2.4744  -999.2500
 2759.7080    14.3334     -.0073    17.4103    21.4592     2.4841  -999.2500
