~VERSION INFORMATION
VERS.                                                 2.0:   CWLS Log ASCII Standard-VERSION 2.0
WRAP.                                                  NO:   One line per depth step
~Well Information Block
STRT.M                                           699.4124:   Top Depth
STOP.M                                          3782.7692:   Bottom Depth
STEP.M                                             .15240:   Depth Increment
NULL.                                            -999.250:   Null Value
FLD .                                             WILDCAT:   Field Name
WELL.                                              15/5-1:   NAME
WBN .                                              15/5-1:   WELLBORE
NATI.                                                 NOR:   COUNTRY
BHT1.DEGF                                            52.0:   BH TEMP 1
BS1 .IN                                             17.50:   BIT SIZE 1
CTRY.                                                 NOR:   COUNTRY
CBD1.M                                              194.0:   CSG 1 DRILL DEP
CBL1.M                                              192.0:   CSG 1 LOG DEP
CS1 .IN                                              30.0:   CSG 1 SIZE
COMP.                                         NORSK HYDRO:   OPERATOR
PDAT.                                                 MSL:   PERM DATUM
PROV.                                           NORTH SEA:   PROVINCE
COUN.                                     TREASURE SEEKER:   RIG NAME
SPUD.                                          1977/11/26:   SPUD DATE
LATI.                                        58 35 4.37 N:   SURF. LATITUDE
LONG.                                         1 39 8.35 E:   SURF. LONGITUDE
BTD1.                                            713.50 M:   TOTAL DEPTH 1
PBWE.                                              15/5-1:   PB WELL ID
APIN.                                              15/5-1:   PB WELLBORE ID
PBWS.                                                 all:   PB WELL NAME SET
~PARAMETER INFORMATION (log)
LNAM.                              FDC/CNL/GR  COMPOSITED:   NAME
LTYP.                                         DEPTH MATCH:   LOG TYPE
LSRV.                                            DEN/NEUT:   LOG SERVICE
LSOU.                                             SPT/NPD:   LOG SOURCE
LVSN.                                                   1:   LOG VERSION
BHIS.                                                   R:   BRIEF HISTORY
FHIS.                                             RAW-LIS:   FULL HISTORY
LCNM.                                        SCHLUMBERGER:   LOGGING CONTRACTOR
TOOL.                             FDC/CNL/GR (COMPOSITED):   TOOL STRING
~Curve Information Block
#MNEM.UNIT                                        API CODE    No Description
#=========                                        ========    == ===========
DEPT.M                                       00 001 00 00:     1  DEPTH
CALI.IN                                                  :     2  Caliper
DRHO.G/CC                                                :     3  Bulk density correction
GR.GAPI                                                  :     4  Gamma Ray
NPHI.%                                                   :     5  Neutron porosity
RHOB.G/CC                                                :     6  Bulk density
TENS.LB                                                  :     7  Cable Tension
~ASCII
# ...
 1523.5916    19.2396      .0219    35.4482  -999.2500     2.1234  -999.2500
 1523.7440    19.2336      .0259    38.3709  -999.2500     2.1024  -999.2500
 1523.8964    19.0965      .0274    40.9711  -999.2500     2.0841  -999.2500
 1524.0488    18.8577      .0253    42.5359  -999.2500     2.0687  -999.2500
 1524.2012    18.7682      .0234    42.0814  -999.2500     2.0595  -999.2500
 1524.3536    18.7301      .0197    41.4211  -999.2500     2.0531  -999.2500
 1524.5060    18.7297      .0120    42.8390  -999.2500     2.0465  -999.2500
 1524.6584    18.6671      .0048    44.1340  -999.2500     2.0478  -999.2500
 1524.8108    18.4973      .0108    44.7804  -999.2500     2.0612  -999.2500
 1524.9632    18.3783      .0169    43.9547  -999.2500     2.0721  -999.2500
 1525.1156    18.2891      .0250    42.8964  -999.2500     2.0812  -999.2500
 1525.2680    18.2324      .0290    42.6857  -999.2500     2.0805  -999.2500
 1525.4204    18.0945      .0332    41.8630  -999.2500     2.0854  -999.2500
 1525.5728    17.9329      .0363    40.5306  -999.2500     2.0898  -999.2500
 1525.7252    17.8799      .0325    38.6502  -999.2500     2.0820  -999.2500
 1525.8776    17.8680      .0268    36.9165  -999.2500     2.0762  -999.2500
 1526.0300    17.9474      .0256    36.1970  -999.2500     2.0771  -999.2500
 1526.1824    17.9408      .0274    37.2095  -999.2500     2.0768  -999.2500
 1526.3348    17.8975      .0308    38.3943  -999.2500     2.0743  -999.2500
 1526.4872    17.8573      .0329    39.1031  -999.2500     2.0742  -999.2500
 1526.6396    17.7671      .0311    39.1556  -999.2500     2.0655  -999.2500
 1526.7920    17.6210      .0231    38.2700  -999.2500     2.0471  -999.2500
 1526.9444    17.4640      .0155    36.9163  -999.2500     2.0368  -999.2500
 1527.0968    17.4013      .0131    36.6785  -999.2500     2.0320  -999.2500
 1527.2492    17.4223      .0152    37.6350  -999.2500     2.0313  -999.2500
 1527.4016    17.4148      .0128    38.9680  -999.2500     2.0277  -999.2500
 1527.5540    17.3334      .0102    39.9753  -999.2500     2.0232  -999.2500
 1527.7064    17.2438      .0144    40.6269  -999.2500     2.0168  -999.2500
 1527.8588    17.1675      .0153    41.1052  -999.2500     2.0117  -999.2500
 1528.0112    17.0897      .0197    41.0961  -999.2500     2.0104  -999.2500
 1528.1636    17.0410      .0228    40.3888  -999.2500     2.0207  -999.2500
 1528.3160    17.0555      .0235    39.6862  -999.2500     2.0326  -999.2500
 1528.4684    17.1259      .0228    39.0237  -999.2500     2.0396  -999.2500
 1528.6208    17.2386      .0201    38.4371  -999.2500     2.0388  -999.2500
 1528.7732    17.2210      .0207    37.8511  -999.2500     2.0445  -999.2500
 1528.9256    17.1921      .0230    37.2519  -999.2500     2.0460  -999.2500
 1529.0780    17.3106      .0280    36.4550  -999.2500     2.0459  -999.2500
 1529.2304    17.4039      .0318    35.1835  -999.2500     2.0414  -999.2500
 1529.3828    17.4243      .0279    34.5182  -999.2500     2.0302  -999.2500
 1529.5352    17.3921      .0211    35.2834  -999.2500     2.0195  -999.2500
 1529.6876    17.4012      .0164    36.0219  -999.2500     2.0086  -999.2500
 1529.8400    17.4074      .0124    36.5598  -999.2500     2.0065  -999.2500
 1529.9924    17.2650      .0104    36.1691  -999.2500     2.0038  -999.2500
 1530.1448    17.1265      .0102    34.8799  -999.2500     2.0086  -999.2500
 1530.2972    17.1289      .0091    34.9281  -999.2500     2.0083  -999.2500
 1530.4496    17.1826      .0080    35.9103  -999.2500     2.0096  -999.2500
 1530.6020    17.3220      .0098    37.0608  -999.2500     2.0162  -999.2500
 1530.7544    17.4500      .0157    38.1733  -999.2500     2.0296  -999.2500
 1530.9068    17.4260      .0171    39.0446  -999.2500     2.0197  -999.2500
 1531.0592    17.3942      .0197    39.5151  -999.2500     2.0217  -999.2500
 1531.2116    17.3249      .0307    40.0578  -999.2500     2.0275  -999.2500
 1531.3640    17.2160      .0368    40.6422  -999.2500     2.0450  -999.2500
 1531.5164    17.0283      .0293    40.4944  -999.2500     2.0423  -999.2500
 1531.6688    16.9439      .0293    39.8632  -999.2500     2.0434  -999.2500
 1531.8212    16.8841      .0329    39.9635  -999.2500     2.0503  -999.2500
 1531.9736    16.8130      .0394    40.5655  -999.2500     2.0574  -999.2500
 1532.1260    16.8899      .0409    40.7182  -999.2500     2.0614  -999.2500
 1532.2784    17.2049      .0329    38.7153  -999.2500     2.0512  -999.2500
 1532.4308    17.2882      .0339    37.3551  -999.2500     2.0429  -999.2500
 1532.5832    17.1908      .0364    37.4378  -999.2500     2.0368  -999.2500
 1532.7356    17.1143      .0301    38.4439  -999.2500     2.0266  -999.2500
 1532.8880    16.9644      .0259    39.4521  -999.2500     2.0076  -999.2500
 1533.0404    16.8083      .0181    40.2728  -999.2500     2.0001  -999.2500
 1533.1928    16.7446      .0198    39.9874  -999.2500     1.9974  -999.2500
 1533.3452    16.8626      .0277    39.2170  -999.2500     2.0021  -999.2500
 1533.4976    16.9156      .0355    40.6215  -999.2500     2.0055  -999.2500
 1533.6500    16.9329      .0491    40.7514  -999.2500     2.0079  -999.2500
 1533.8024    16.9655      .0617    39.0337  -999.2500     1.9991  -999.2500
 1533.9548    16.9532      .0431    38.8448  -999.2500     1.9541  -999.2500
 1534.1072    16.8893      .0268    39.9971  -999.2500     1.9453  -999.2500
 1534.2596    16.8276      .0392    39.2967  -999.2500     1.9497  -999.2500
 1534.4120    16.4588      .0475    38.4448  -999.2500     1.9622  -999.2500
 1534.5644    16.1742      .0470    37.3177  -999.2500     1.9713  -999.2500
 1534.7168    16.3761      .0363    35.9509  -999.2500     1.9936  -999.2500
 1534.8692    16.6528      .0273    34.7002  -999.2500     2.0073  -999.2500
 1535.0216    17.0104      .0237    34.3154  -999.2500     2.0131  -999.2500
 1535.1740    17.1855      .0243    34.7328  -999.2500     2.0090  -999.2500
 1535.3264    17.3066      .0321    35.7841  -999.2500     2.0055  -999.2500
 1535.4788    17.2857      .0531    37.1036  -999.2500     2.0164  -999.2500
 1535.6312    17.0760      .0605    38.7332  -999.2500     2.0276  -999.2500
 1535.7836    16.7298      .0576    39.4366  -999.2500     2.0369  -999.2500
 1535.9360    16.7870      .0451    40.1017  -999.2500     2.0331  -999.2500
 1536.0884    16.9006      .0412    40.5531  -999.2500     2.0345  -999.2500
 1536.2408    16.8950      .0372    40.3136  -999.2500     2.0383  -999.2500
 1536.3932    16.8948      .0319    39.7391  -999.2500     2.0359  -999.2500
 1536.5456    16.8946      .0313    39.1247  -999.2500     2.0350  -999.2500
 1536.6980    16.8945      .0215    38.1902  -999.2500     2.0265  -999.2500
 1536.8504    16.8984      .0156    37.2101  -999.2500     2.0132  -999.2500
 1537.0028    16.9397      .0094    36.2786  -999.2500     2.0130  -999.2500
 1537.1552    16.9938      .0122    35.9730  -999.2500     2.0258  -999.2500
 1537.3076    16.9997      .0253    37.7801  -999.2500     2.0440  -999.2500
 1537.4600    17.0738      .0308    40.0580  -999.2500     2.0627  -999.2500
 1537.6124    17.2458      .0276    42.2376  -999.2500     2.0639  -999.2500
 1537.7648    17.3892      .0198    43.2560  -999.2500     2.0571  -999.2500
 1537.9172    17.4016      .0165    42.9614  -999.2500     2.0626  -999.2500
 1538.0696    17.4018      .0137    42.0779  -999.2500     2.0689  -999.2500
 1538.2220    17.3889      .0225    42.2481  -999.2500     2.0903  -999.2500
 1538.3744    17.4874      .0230    42.6135  -999.2500     2.1008  -999.2500
 1538.5268    17.7622      .0273    43.2890  -999.2500     2.1033  -999.2500
 1538.6792    17.9871      .0232    44.8480  -999.2500     2.1054  -999.2500
 1538.8316    18.1435      .0193    46.6768  -999.2500     2.1086  -999.2500
 1538.9840    18.2405      .0252    48.1234  -999.2500     2.1092  -999.2500
 1539.1364    18.3132      .0280    49.4638  -999.2500     2.1003  -999.2500
 1539.2888    18.4091      .0206    52.5472  -999.2500     2.0835  -999.2500
