~VERSION INFORMATION
VERS.                                                 2.0:   CWLS Log ASCII Standard-VERSION 2.0
WRAP.                                                  NO:   One line per depth step
~Well Information Block
STRT.M                                           699.4124:   Top Depth
STOP.M                                          3782.7692:   Bottom Depth
STEP.M                                             .15240:   Depth Increment
NULL.                                            -999.250:   Null Value
FLD .                                             WILDCAT:   Field Name
WELL.                                              15/5-1:   NAME
WBN .                                              15/5-1:   WELLBORE
NATI.                                                 NOR:   COUNTRY
BHT1.DEGF                                            52.0:   BH TEMP 1
BS1 .IN                                             17.50:   BIT SIZE 1
CTRY.                                                 NOR:   COUNTRY
CBD1.M                                              194.0:   CSG 1 DRILL DEP
CBL1.M                                              192.0:   CSG 1 LOG DEP
CS1 .IN                                              30.0:   CSG 1 SIZE
COMP.                                         NORSK HYDRO:   OPERATOR
PDAT.                                                 MSL:   PERM DATUM
PROV.                                           NORTH SEA:   PROVINCE
COUN.                                     TREASURE SEEKER:   RIG NAME
SPUD.                                          1977/11/26:   SPUD DATE
LATI.                                        58 35 4.37 N:   SURF. LATITUDE
LONG.                                         1 39 8.35 E:   SURF. LONGITUDE
BTD1.                                            713.50 M:   TOTAL DEPTH 1
PBWE.                                              15/5-1:   PB WELL ID
APIN.                                              15/5-1:   PB WELLBORE ID
PBWS.                                                 all:   PB WELL NAME SET
~PARAMETER INFORMATION (log)
LNAM.                              FDC/CNL/GR  COMPOSITED:   NAME
LTYP.                                         DEPTH MATCH:   LOG TYPE
LSRV.                                            DEN/NEUT:   LOG SERVICE
LSOU.                                             SPT/NPD:   LOG SOURCE
LVSN.                                                   1:   LOG VERSION
BHIS.                                                   R:   BRIEF HISTORY
FHIS.                                             RAW-LIS:   FULL HISTORY
LCNM.                                        SCHLUMBERGER:   LOGGING CONTRACTOR
TOOL.                             FDC/CNL/GR (COMPOSITED):   TOOL STRING
~Curve Information Block
#MNEM.UNIT                                        API CODE    No Description
#=========                                        ========    == ===========
DEPT.M                                       00 001 00 00:     1  DEPTH
CALI.IN                                                  :     2  Caliper
DRHO.G/CC                                                :     3  Bulk density correction
GR.GAPI                                                  :     4  Gamma Ray
NPHI.%                                                   :     5  Neutron porosity
RHOB.G/CC                                                :     6  Bulk density
TENS.LB                                                  :     7  Cable Tension
~ASCII
# ...
 1935.6812    17.6274      .0092    42.5206  -999.2500     2.0490  -999.2500
 1935.8336    17.8565      .0071    42.9037  -999.2500     2.0493  -999.2500
 1935.9860    18.1382      .0077    43.4023  -999.2500     2.0400  -999.2500
 1936.1384    18.4470      .0088    42.4503  -999.2500     2.0251  -999.2500
 1936.2908    18.9453      .0082    42.7065  -999.2500     2.0039  -999.2500
 1936.4432    19.3291      .0098    44.4755  -999.2500     1.9672  -999.2500
 1936.5956    19.1887      .0214    43.7329  -999.2500     1.9335  -999.2500
 1936.7480    18.7949      .0383    41.5446  -999.2500     1.9063  -999.2500
 1936.9004    18.8159      .0404    40.2645  -999.2500     1.8808  -999.2500
 1937.0528    18.5510      .0327    39.8594  -999.2500     1.8801  -999.2500
 1937.2052    17.6101      .0405    37.8532  -999.2500     1.9056  -999.2500
 1937.3576    16.8280      .0517    35.6284  -999.2500     1.9628  -999.2500
 1937.5100    16.8474      .0554    34.9764  -999.2500     2.0357  -999.2500
 1937.6624    17.1710      .0534    35.0805  -999.2500     2.0861  -999.2500
 1937.8148    17.0070      .0322    35.2941  -999.2500     2.1066  -999.2500
 1937.9672    16.7648      .0092    35.2035  -999.2500     2.1246  -999.2500
 1938.1196    17.0597      .0060    35.3709  -999.2500     2.1541  -999.2500
 1938.2720    17.1686      .0148    36.0268  -999.2500     2.1695  -999.2500
 1938.4244    16.9027      .0291    37.2960  -999.2500     2.1612  -999.2500
 1938.5768    17.4799      .0300    38.9518  -999.2500     2.1071  -999.2500
 1938.7292    18.3062      .0214    40.6474  -999.2500     2.0416  -999.2500
 1938.8816    18.8721      .0188    42.8955  -999.2500     2.0298  -999.2500
 1939.0340    19.2585      .0170    45.4651  -999.2500     2.0329  -999.2500
 1939.1864    19.3153      .0139    46.1091  -999.2500     2.0275  -999.2500
 1939.3388    18.9396      .0139    44.4182  -999.2500     2.0225  -999.2500
 1939.4912    18.5687      .0154    42.0001  -999.2500     2.0252  -999.2500
 1939.6436    18.5550      .0175    40.1941  -999.2500     2.0309  -999.2500
 1939.7960    18.3887      .0183    39.2862  -999.2500     2.0352  -999.2500
 1939.9484    17.6596      .0196    39.7146  -999.2500     2.0392  -999.2500
 1940.1008    17.0753      .0176    39.9977  -999.2500     2.0396  -999.2500
 1940.2532    16.8604      .0138    38.7257  -999.2500     2.0349  -999.2500
 1940.4056    16.6138      .0128    37.3918  -999.2500     2.0307  -999.2500
 1940.5580    16.5077      .0129    37.5013  -999.2500     2.0262  -999.2500
 1940.7104    16.7131      .0127    38.4948  -999.2500     2.0230  -999.2500
 1940.8628    17.2095      .0134    39.5229  -999.2500     2.0219  -999.2500
 1941.0152    17.6265      .0185    40.2208  -999.2500     2.0306  -999.2500
 1941.1676    17.8208      .0199    39.9025  -999.2500     2.0375  -999.2500
 1941.3200    17.3979      .0163    38.9709  -999.2500     2.0389  -999.2500
 1941.4724    16.8338      .0117    39.1470  -999.2500     2.0394  -999.2500
 1941.6248    16.6383      .0092    38.9872  -999.2500     2.0382  -999.2500
 1941.7772    16.4821      .0084    37.7554  -999.2500     2.0361  -999.2500
 1941.9296    16.4564      .0088    37.0143  -999.2500     2.0332  -999.2500
 1942.0820    16.7068      .0116    37.4459  -999.2500     2.0361  -999.2500
 1942.2344    16.9730      .0180    37.4034  -999.2500     2.0472  -999.2500
 1942.3868    16.9607      .0254    36.1768  -999.2500     2.0768  -999.2500
 1942.5392    17.0857      .0228    34.6009  -999.2500     2.1107  -999.2500
 1942.6916    17.4299      .0147    33.2997  -999.2500     2.1400  -999.2500
 1942.8440    17.5656      .0129    32.3228  -999.2500     2.1800  -999.2500
 1942.9964    17.5532      .0145    31.4295  -999.2500     2.2041  -999.2500
 1943.1488    17.5164      .0258    31.4958  -999.2500     2.2084  -999.2500
 1943.3012    17.4591      .0405    32.5479  -999.2500     2.1804  -999.2500
 1943.4536    17.2308      .0401    33.8197  -999.2500     2.1419  -999.2500
 1943.6060    17.2102      .0242    34.5944  -999.2500     2.0764  -999.2500
 1943.7584    17.2043      .0200    34.6282  -999.2500     2.0474  -999.2500
 1943.9108    17.1084      .0221    33.0640  -999.2500     2.0415  -999.2500
 1944.0632    16.8157      .0195    31.4213  -999.2500     2.0364  -999.2500
 1944.2156    16.6811      .0219    31.5623  -999.2500     2.0374  -999.2500
 1944.3680    16.6960      .0222    32.2736  -999.2500     2.0452  -999.2500
 1944.5204    16.7843      .0200    33.6850  -999.2500     2.0427  -999.2500
 1944.6728    16.8182      .0142    35.7366  -999.2500     2.0413  -999.2500
 1944.8252    16.8208      .0117    35.5277  -999.2500     2.0408  -999.2500
 1944.9776    16.8173      .0069    34.5489  -999.2500     2.0381  -999.2500
 1945.1300    16.7850      .0036    34.3461  -999.2500     2.0397  -999.2500
 1945.2824    16.7495      .0014    34.9513  -999.2500     2.0568  -999.2500
 1945.4348    16.6654      .0066    36.1597  -999.2500     2.0731  -999.2500
 1945.5872    16.6558      .0090    37.1436  -999.2500     2.0752  -999.2500
 1945.7396    16.6586      .0087    35.7549  -999.2500     2.0552  -999.2500
 1945.8920    16.6760      .0090    35.4734  -999.2500     2.0467  -999.2500
 1946.0444    16.6918      .0103    35.1087  -999.2500     2.0483  -999.2500
 1946.1968    16.6928      .0160    34.3473  -999.2500     2.0513  -999.2500
 1946.3492    16.6919      .0205    35.1565  -999.2500     2.0559  -999.2500
 1946.5016    16.6910      .0218    36.1733  -999.2500     2.0643  -999.2500
 1946.6540    16.6672      .0200    37.5012  -999.2500     2.0633  -999.2500
 1946.8064    16.6513      .0134    38.0030  -999.2500     2.0429  -999.2500
 1946.9588    16.6576      .0143    38.0652  -999.2500     2.0292  -999.2500
 1947.1112    16.6667      .0147    38.0969  -999.2500     2.0258  -999.2500
 1947.2636    16.7140      .0117    38.1286  -999.2500     2.0243  -999.2500
 1947.4160    16.8149      .0064    38.1602  -999.2500     2.0214  -999.2500
 1947.5684    16.8580      .0025    36.2831  -999.2500     2.0198  -999.2500
 1947.7208    16.9114      .0049    34.1102  -999.2500     2.0225  -999.2500
 1947.8732    16.8370      .0060    34.6194  -999.2500     2.0190  -999.2500
 1948.0256    16.7597      .0085    35.5033  -999.2500     2.0060  -999.2500
 1948.1780    16.6733      .0114    36.7062  -999.2500     2.0093  -999.2500
 1948.3304    16.5919      .0149    36.9238  -999.2500     2.0221  -999.2500
 1948.4828    16.5096      .0208    36.9197  -999.2500     2.0194  -999.2500
 1948.6352    16.4629      .0191    36.3234  -999.2500     2.0148  -999.2500
 1948.7876    16.5002      .0230    36.7798  -999.2500     2.0163  -999.2500
 1948.9400    16.4992      .0260    36.9177  -999.2500     2.0142  -999.2500
 1949.0924    16.4680      .0229    36.0203  -999.2500     2.0094  -999.2500
 1949.2448    16.4284      .0233    35.9486  -999.2500     2.0039  -999.2500
 1949.3972    16.4195      .0228    36.8205  -999.2500     2.0151  -999.2500
 1949.5496    16.4193      .0128    37.3586  -999.2500     2.0273  -999.2500
 1949.7020    16.4211      .0083    37.7179  -999.2500     2.0384  -999.2500
 1949.8544    16.4525      .0073    37.9901  -999.2500     2.0417  -999.2500
 1950.0068    16.4869      .0068    37.1309  -999.2500     2.0461  -999.2500
 1950.1592    16.4773      .0049    36.1594  -999.2500     2.0376  -999.2500
 1950.3116    16.4654     -.0033    35.9843  -999.2500     2.0265  -999.2500
 1950.4640    16.4580     -.0005    35.9552  -999.2500     2.0323  -999.2500
 1950.6164    16.4648      .0050    34.7521  -999.2500     2.0396  -999.2500
 1950.7688    16.5300      .0078    33.2103  -999.2500     2.0376  -999.2500
 1950.9212    16.5874      .0090    31.8585  -999.2500     2.0303  -999.2500
 1951.0736    16.5564      .0095    32.0452  -999.2500     2.0314  -999.2500
 1951.2260    16.6781      .0085    33.4297  -999.2500     2.0315  -999.2500
 1951.3784    17.0242      .0103    34.2449  -999.2500     2.0257  -999.2500
