~VERSION INFORMATION
VERS.                                                 2.0:   CWLS Log ASCII Standard-VERSION 2.0
WRAP.                                                  NO:   One line per depth step
~Well Information Block
STRT.M                                           699.4124:   Top Depth
STOP.M                                          3782.7692:   Bottom Depth
STEP.M                                             .15240:   Depth Increment
NULL.                                            -999.250:   Null Value
FLD .                                             WILDCAT:   Field Name
WELL.                                              15/5-1:   NAME
WBN .                                              15/5-1:   WELLBORE
NATI.                                                 NOR:   COUNTRY
BHT1.DEGF                                            52.0:   BH TEMP 1
BS1 .IN                                             17.50:   BIT SIZE 1
CTRY.                                                 NOR:   COUNTRY
CBD1.M                                              194.0:   CSG 1 DRILL DEP
CBL1.M                                              192.0:   CSG 1 LOG DEP
CS1 .IN                                              30.0:   CSG 1 SIZE
COMP.                                         NORSK HYDRO:   OPERATOR
PDAT.                                                 MSL:   PERM DATUM
PROV.                                           NORTH SEA:   PROVINCE
COUN.                                     TREASURE SEEKER:   RIG NAME
SPUD.                                          1977/11/26:   SPUD DATE
LATI.                                        58 35 4.37 N:   SURF. LATITUDE
LONG.                                         1 39 8.35 E:   SURF. LONGITUDE
BTD1.                                            713.50 M:   TOTAL DEPTH 1
PBWE.                                              15/5-1:   PB WELL ID
APIN.                                              15/5-1:   PB WELLBORE ID
PBWS.                                                 all:   PB WELL NAME SET
~PARAMETER INFORMATION (log)
LNAM.                              FDC/CNL/GR  COMPOSITED:   NAME
LTYP.                                         DEPTH MATCH:   LOG TYPE
LSRV.                                            DEN/NEUT:   LOG SERVICE
LSOU.                                             SPT/NPD:   LOG SOURCE
LVSN.                                                   1:   LOG VERSION
BHIS.                                                   R:   BRIEF HISTORY
FHIS.                                             RAW-LIS:   FULL HISTORY
LCNM.                                        SCHLUMBERGER:   LOGGING CONTRACTOR
TOOL.                             FDC/CNL/GR (COMPOSITED):   TOOL STRING
~Curve Information Block
#MNEM.UNIT                                        API CODE    No Description
#=========                                        ========    == ===========
DEPT.M                                       00 001 00 00:     1  DEPTH
CALI.IN                                                  :     2  Caliper
DRHO.G/CC                                                :     3  Bulk density correction
GR.GAPI                                                  :     4  Gamma Ray
NPHI.%                                                   :     5  Neutron porosity
RHOB.G/CC                                                :     6  Bulk density
TENS.LB                                                  :     7  Cable Tension
~ASCII
# ...
  905.4572    17.4171      .0476    19.6565  -999.2500     2.0642  -999.2500
  905.6096    17.3662      .0437    20.2473  -999.2500     2.0548  -999.2500
  905.7620    17.3332      .0353    21.2007  -999.2500     2.0371  -999.2500
  905.9144    17.3333      .0320    21.6603  -999.2500     2.0261  -999.2500
  906.0668    17.3348      .0331    20.8775  -999.2500     2.0134  -999.2500
  906.2192    17.3433      .0316    20.2628  -999.2500     2.0033  -999.2500
  906.3716    17.3436      .0273    20.8771  -999.2500     2.0002  -999.2500
  906.5240    17.3437      .0275    22.8974  -999.2500     1.9927  -999.2500
  906.6764    17.3437      .0282    24.7779  -999.2500     1.9842  -999.2500
  906.8288    17.3438      .0310    25.3535  -999.2500     1.9813  -999.2500
  906.9812    17.3436      .0326    23.2818  -999.2500     1.9814  -999.2500
  907.1336    17.3400      .0266    20.9433  -999.2500     1.9752  -999.2500
  907.2860    17.3262      .0120    21.9066  -999.2500     1.9491  -999.2500
  907.4384    17.2859     -.0002    22.3266  -999.2500     1.9486  -999.2500
  907.5908    17.2521      .0051    22.4687  -999.2500     1.9519  -999.2500
  907.7432    17.2740      .0048    21.5179  -999.2500     1.9551  -999.2500
  907.8956    17.3145      .0009    21.1148  -999.2500     1.9603  -999.2500
  908.0480    17.3146      .0000    21.8907  -999.2500     1.9688  -999.2500
  908.2004    17.3168      .0068    21.9682  -999.2500     1.9763  -999.2500
  908.3528    17.3389      .0082    21.6896  -999.2500     1.9963  -999.2500
  908.5052    17.3479      .0098    22.2934  -999.2500     2.0023  -999.2500
  908.6576    17.3835      .0137    22.5984  -999.2500     2.0109  -999.2500
  908.8100    17.3970      .0189    21.6093  -999.2500     2.0169  -999.2500
  908.9624    17.4229      .0159    20.4406  -999.2500     2.0135  -999.2500
  909.1148    17.4163      .0151    19.2306  -999.2500     2.0140  -999.2500
  909.2672    17.4337      .0155    19.6984  -999.2500     2.0129  -999.2500
  909.4196    17.4239      .0139    20.9473  -999.2500     2.0028  -999.2500
  909.5720    17.4064      .0125    21.5718  -999.2500     2.0074  -999.2500
  909.7244    17.4275      .0151    21.4475  -999.2500     2.0133  -999.2500
  909.8768    17.4482      .0185    22.7381  -999.2500     2.0148  -999.2500
  910.0292    17.4754      .0194    23.0917  -999.2500     2.0133  -999.2500
  910.1816    17.4750      .0183    22.8836  -999.2500     2.0033  -999.2500
  910.3340    17.4619      .0232    22.6755  -999.2500     2.0019  -999.2500
  910.4864    17.4457      .0257    22.4674  -999.2500     1.9960  -999.2500
  910.6388    17.4452      .0251    22.2525  -999.2500     1.9949  -999.2500
  910.7912    17.4198      .0272    21.7987  -999.2500     1.9936  -999.2500
  910.9436    17.3508      .0101    22.5983  -999.2500     1.9925  -999.2500
  911.0960    17.3460      .0083    23.8794  -999.2500     2.0068  -999.2500
  911.2484    17.3197      .0124    25.0542  -999.2500     2.0291  -999.2500
  911.4008    17.2784      .0220    25.8771  -999.2500     2.0350  -999.2500
  911.5532    17.2468      .0347    26.3310  -999.2500     2.0459  -999.2500
  911.7056    17.2966      .0331    25.3424  -999.2500     2.0432  -999.2500
  911.8580    17.2324      .0283    23.9366  -999.2500     2.0480  -999.2500
  912.0104    17.2185      .0250    22.5300  -999.2500     2.0630  -999.2500
  912.1628    17.2858      .0213    21.1676  -999.2500     2.0657  -999.2500
  912.3152    17.2972      .0182    19.8770  -999.2500     2.0591  -999.2500
  912.4676    17.2972      .0168    18.5884  -999.2500     2.0425  -999.2500
  912.6200    17.2975      .0258    17.4879  -999.2500     2.0349  -999.2500
  912.7724    17.3059      .0332    17.6764  -999.2500     2.0364  -999.2500
  912.9248    17.3075      .0340    17.8632  -999.2500     2.0373  -999.2500
  913.0772    17.3104      .0270    17.9724  -999.2500     2.0356  -999.2500
  913.2296    17.3242      .0155    17.8862  -999.2500     2.0414  -999.2500
  913.3820    17.3480      .0109    16.9826  -999.2500     2.0546  -999.2500
  913.5344    17.3588      .0226    16.0838  -999.2500     2.0625  -999.2500
  913.6868    17.3969      .0242    15.3442  -999.2500     2.0641  -999.2500
  913.8392    17.5381      .0109    15.9533  -999.2500     2.0528  -999.2500
  913.9916    17.7078      .0003    16.5970  -999.2500     2.0410  -999.2500
  914.1440    17.6581     -.0024    17.4059  -999.2500     2.0397  -999.2500
  914.2964    17.6776     -.0024    16.8782  -999.2500     2.0463  -999.2500
  914.4488    17.6842     -.0006    16.4310  -999.2500     2.0558  -999.2500
  914.6012    17.6957      .0084    16.2672  -999.2500     2.0613  -999.2500
  914.7536    17.7229      .0108    15.5173  -999.2500     2.0593  -999.2500
  914.9060    17.6897      .0128    14.5990  -999.2500     2.0621  -999.2500
  915.0584    17.6882      .0130    14.0424  -999.2500     2.0607  -999.2500
  915.2108    17.7009      .0069    15.0774  -999.2500     2.0554  -999.2500
  915.3632    17.7982      .0011    16.6203  -999.2500     2.0544  -999.2500
  915.5156    17.9211      .0044    17.6635  -999.2500     2.0554  -999.2500
  915.6680    17.9894      .0047    17.5089  -999.2500     2.0557  -999.2500
  915.8204    18.0281      .0043    16.3466  -999.2500     2.0600  -999.2500
  915.9728    18.0373      .0025    15.2494  -999.2500     2.0660  -999.2500
  916.1252    18.0373     -.0019    15.1536  -999.2500     2.0722  -999.2500
  916.2776    18.0360      .0003    16.7457  -999.2500     2.0782  -999.2500
  916.4300    18.0374      .0049    18.0756  -999.2500     2.0813  -999.2500
  916.5824    18.0336      .0109    18.8701  -999.2500     2.0842  -999.2500
  916.7348    18.0162      .0098    18.3731  -999.2500     2.0826  -999.2500
  916.8872    17.9987      .0039    16.1071  -999.2500     2.0643  -999.2500
  917.0396    18.0106      .0037    16.1788  -999.2500     2.0589  -999.2500
  917.1920    18.0531      .0059    16.9611  -999.2500     2.0657  -999.2500
  917.3444    18.0580      .0056    17.6661  -999.2500     2.0644  -999.2500
  917.4968    18.0581      .0007    17.9598  -999.2500     2.0576  -999.2500
  917.6492    18.0582     -.0016    16.6075  -999.2500     2.0540  -999.2500
  917.8016    18.0675      .0017    15.3498  -999.2500     2.0569  -999.2500
  917.9540    18.1611      .0031    15.4851  -999.2500     2.0568  -999.2500
  918.1064    18.2518      .0035    16.1971  -999.2500     2.0501  -999.2500
  918.2588    18.2719      .0028    16.7069  -999.2500     2.0463  -999.2500
  918.4112    18.3069     -.0049    16.8279  -999.2500     2.0399  -999.2500
  918.5636    18.3267     -.0103    17.9378  -999.2500     2.0396  -999.2500
  918.7160    18.3274     -.0082    19.1491  -999.2500     2.0473  -999.2500
  918.8684    18.3282     -.0035    20.2020  -999.2500     2.0531  -999.2500
  919.0208    18.3357     -.0047    19.8863  -999.2500     2.0529  -999.2500
  919.1732    18.3867     -.0061    18.4496  -999.2500     2.0520  -999.2500
  919.3256    18.3865     -.0056    18.0073  -999.2500     2.0532  -999.2500
  919.4780    18.4229      .0020    18.0360  -999.2500     2.0492  -999.2500
  919.6304    18.3797      .0085    18.3778  -999.2500     2.0481  -999.2500
  919.7828    18.3362      .0122    19.4009  -999.2500     2.0481  -999.2500
  919.9352    18.3337      .0117    20.4016  -999.2500     2.0490  -999.2500
  920.0876    18.2910      .0116    21.2425  -999.2500     2.0535  -999.2500
  920.2400    18.1830      .0116    21.0913  -999.2500     2.0475  -999.2500
  920.3924    17.8877      .0105    19.8151  -999.2500     2.0384  -999.2500
  920.5448    17.6961      .0032    18.1696  -999.2500     2.0393  -999.2500
  920.6972    17.6020      .0002    17.6221  -999.2500     2.0449  -999.2500
  920.8496    17.6085     -.0043    17.9377  -999.2500     2.0530  -999.2500
  921.0020    17.6224     -.0015    17.2515  -999.2500     2.0606  -999.2500
  921.1544    17.6450      .0025    16.5162  -999.2500     2.0636  -999.2500
