~VERSION INFORMATION
VERS.                                                 2.0:   CWLS Log ASCII Standard-VERSION 2.0
WRAP.                                                  NO:   One line per depth step
~Well Information Block
STRT.M                                           699.4124:   Top Depth
STOP.M                                          3782.7692:   Bottom Depth
STEP.M                                             .15240:   Depth Increment
NULL.                                            -999.250:   Null Value
FLD .                                             WILDCAT:   Field Name
WELL.                                              15/5-1:   NAME
WBN .                                              15/5-1:   WELLBORE
NATI.                                                 NOR:   COUNTRY
BHT1.DEGF                                            52.0:   BH TEMP 1
BS1 .IN                                             17.50:   BIT SIZE 1
CTRY.                                                 NOR:   COUNTRY
CBD1.M                                              194.0:   CSG 1 DRILL DEP
CBL1.M                                              192.0:   CSG 1 LOG DEP
CS1 .IN                                              30.0:   CSG 1 SIZE
COMP.                                         NORSK HYDRO:   OPERATOR
PDAT.                                                 MSL:   PERM DATUM
PROV.                                           NORTH SEA:   PROVINCE
COUN.                                     TREASURE SEEKER:   RIG NAME
SPUD.                                          1977/11/26:   SPUD DATE
LATI.                                        58 35 4.37 N:   SURF. LATITUDE
LONG.                                         1 39 8.35 E:   SURF. LONGITUDE
BTD1.                                            713.50 M:   TOTAL DEPTH 1
PBWE.                                              15/5-1:   PB WELL ID
APIN.                                              15/5-1:   PB WELLBORE ID
PBWS.                                                 all:   PB WELL NAME SET
~PARAMETER INFORMATION (log)
LNAM.                              FDC/CNL/GR  COMPOSITED:   NAME
LTYP.                                         DEPTH MATCH:   LOG TYPE
LSRV.                                            DEN/NEUT:   LOG SERVICE
LSOU.                                             SPT/NPD:   LOG SOURCE
LVSN.                                                   1:   LOG VERSION
BHIS.                                                   R:   BRIEF HISTORY
FHIS.                                             RAW-LIS:   FULL HISTORY
LCNM.                                        SCHLUMBERGER:   LOGGING CONTRACTOR
TOOL.                             FDC/CNL/GR (COMPOSITED):   TOOL STRING
~Curve Information Block
#MNEM.UNIT                                        API CODE    No Description
#=========                                        ========    == ===========
DEPT.M                                       00 001 00 00:     1  DEPTH
CALI.IN                                                  :     2  Caliper
DRHO.G/CC                                                :     3  Bulk density correction
GR.GAPI                                                  :     4  Gamma Ray
NPHI.%                                                   :     5  Neutron porosity
RHOB.G/CC                                                :     6  Bulk density
TENS.LB                                                  :     7  Cable Tension
~ASCII
# ...
 1729.6364    17.8064      .0125    41.1265  -999.2500     2.0231  -999.2500
 1729.7888    17.6214      .0138    39.4533  -999.2500     2.0293  -999.2500
 1729.9412    17.4675      .0210    37.7789  -999.2500     2.0462  -999.2500
 1730.0936    17.4286      .0222    36.1080  -999.2500     2.0533  -999.2500
 1730.2460    17.5569      .0173    34.4398  -999.2500     2.0454  -999.2500
 1730.3984    17.8579      .0174    32.5376  -999.2500     2.0535  -999.2500
 1730.5508    17.8898      .0160    32.1046  -999.2500     2.0647  -999.2500
 1730.7032    17.9065      .0218    34.1199  -999.2500     2.0832  -999.2500
 1730.8556    18.2767      .0223    36.7598  -999.2500     2.1041  -999.2500
 1731.0080    18.2567      .0095    37.9873  -999.2500     2.1147  -999.2500
 1731.1604    18.0965      .0139    39.0293  -999.2500     2.1160  -999.2500
 1731.3128    18.1168      .0153    38.7468  -999.2500     2.1157  -999.2500
 1731.4652    18.0956      .0142    36.8691  -999.2500     2.0867  -999.2500
 1731.6176    17.9688      .0132    33.0367  -999.2500     2.0837  -999.2500
 1731.7700    17.9822      .0056    29.0412  -999.2500     2.0893  -999.2500
 1731.9224    17.9999      .0034    25.0424  -999.2500     2.0925  -999.2500
 1732.0748    18.0004      .0017    22.4450  -999.2500     2.0919  -999.2500
 1732.2272    18.2193      .0014    20.2371  -999.2500     2.0800  -999.2500
 1732.3796    18.6116      .0013    20.1197  -999.2500     2.0642  -999.2500
 1732.5320    18.7649     -.0046    20.0022  -999.2500     2.0491  -999.2500
 1732.6844    18.8582     -.0051    19.7645  -999.2500     2.0387  -999.2500
 1732.8368    18.8155     -.0063    19.0592  -999.2500     2.0424  -999.2500
 1732.9892    18.6416     -.0065    17.4907  -999.2500     2.0479  -999.2500
 1733.1416    18.4059     -.0065    17.8867  -999.2500     2.0487  -999.2500
 1733.2940    18.2403     -.0064    18.9528  -999.2500     2.0483  -999.2500
 1733.4464    17.9392     -.0037    19.9560  -999.2500     2.0569  -999.2500
 1733.5988    17.7204      .0029    21.3541  -999.2500     2.0646  -999.2500
 1733.7512    17.6233      .0102    24.7048  -999.2500     2.0703  -999.2500
 1733.9036    17.6078      .0151    28.2924  -999.2500     2.0712  -999.2500
 1734.0560    17.5551      .0163    32.5060  -999.2500     2.0631  -999.2500
 1734.2084    17.4667      .0247    36.3141  -999.2500     2.0549  -999.2500
 1734.3608    17.2505      .0250    38.6545  -999.2500     2.0390  -999.2500
 1734.5132    17.0253      .0260    39.8090  -999.2500     2.0362  -999.2500
 1734.6656    17.0400      .0226    36.7168  -999.2500     2.0335  -999.2500
 1734.8180    17.1407      .0199    33.3527  -999.2500     2.0422  -999.2500
 1734.9704    17.2436      .0242    30.8929  -999.2500     2.0599  -999.2500
 1735.1228    17.4018      .0296    29.5942  -999.2500     2.0777  -999.2500
 1735.2752    17.3073      .0308    28.7672  -999.2500     2.0819  -999.2500
 1735.4276    17.2524      .0184    29.0590  -999.2500     2.0792  -999.2500
 1735.5800    17.1867      .0126    29.3511  -999.2500     2.0788  -999.2500
 1735.7324    17.2577      .0229    29.7629  -999.2500     2.0815  -999.2500
 1735.8848    17.7556      .0227    30.3961  -999.2500     2.0668  -999.2500
 1736.0372    17.5659      .0104    31.2138  -999.2500     2.0627  -999.2500
 1736.1896    17.5661      .0056    28.3697  -999.2500     2.0499  -999.2500
 1736.3420    17.5375      .0101    25.0550  -999.2500     2.0473  -999.2500
 1736.4944    17.5173      .0173    22.0387  -999.2500     2.0502  -999.2500
 1736.6468    17.5178      .0174    19.9464  -999.2500     2.0465  -999.2500
 1736.7992    17.5782      .0129    17.8566  -999.2500     2.0377  -999.2500
 1736.9516    17.7117      .0110    17.1332  -999.2500     2.0308  -999.2500
 1737.1040    17.8273      .0132    16.8350  -999.2500     2.0276  -999.2500
 1737.2564    17.8723      .0211    16.7772  -999.2500     2.0287  -999.2500
 1737.4088    17.8599      .0296    16.7827  -999.2500     2.0324  -999.2500
 1737.5612    17.8320      .0297    15.8894  -999.2500     2.0342  -999.2500
 1737.7136    17.8311      .0232    16.0997  -999.2500     2.0273  -999.2500
 1737.8660    17.7936      .0265    16.8552  -999.2500     2.0254  -999.2500
 1738.0184    17.6734      .0332    16.8961  -999.2500     2.0301  -999.2500
 1738.1708    17.6433      .0257    16.3359  -999.2500     2.0199  -999.2500
 1738.3232    17.6542      .0265    15.8311  -999.2500     2.0117  -999.2500
 1738.4756    17.6531      .0383    16.0104  -999.2500     2.0141  -999.2500
 1738.6280    17.6662      .0366    16.7991  -999.2500     2.0108  -999.2500
 1738.7804    17.6872      .0147    17.6333  -999.2500     2.0076  -999.2500
 1738.9328    17.7231      .0058    18.4681  -999.2500     2.0164  -999.2500
 1739.0852    17.7920      .0046    19.3023  -999.2500     2.0257  -999.2500
 1739.2376    17.7997      .0125    19.4432  -999.2500     2.0294  -999.2500
 1739.3900    17.7733      .0116    18.8925  -999.2500     2.0204  -999.2500
 1739.5424    17.6838      .0106    17.9305  -999.2500     2.0047  -999.2500
 1739.6948    17.4869      .0139    17.3289  -999.2500     1.9859  -999.2500
 1739.8472    17.4595      .0187    17.1106  -999.2500     1.9809  -999.2500
 1739.9996    17.4990      .0260    18.3781  -999.2500     1.9841  -999.2500
 1740.1520    17.3957      .0333    20.3659  -999.2500     1.9958  -999.2500
 1740.3044    17.1085      .0271    22.3616  -999.2500     1.9971  -999.2500
 1740.4568    17.1155      .0192    24.4112  -999.2500     2.0034  -999.2500
 1740.6092    17.1781      .0168    26.4981  -999.2500     2.0331  -999.2500
 1740.7616    17.1659      .0311    27.7577  -999.2500     2.0455  -999.2500
 1740.9140    16.8955      .0382    26.7319  -999.2500     2.0586  -999.2500
 1741.0664    16.8070      .0280    22.8232  -999.2500     2.0460  -999.2500
 1741.2188    17.2519      .0162    18.9735  -999.2500     2.0517  -999.2500
 1741.3712    17.6411      .0041    17.4435  -999.2500     2.0578  -999.2500
 1741.5236    17.8308     -.0049    17.6197  -999.2500     2.0638  -999.2500
 1741.6760    18.2075     -.0058    16.2615  -999.2500     2.0679  -999.2500
 1741.8284    18.2993     -.0048    14.9032  -999.2500     2.0680  -999.2500
 1741.9808    18.3893     -.0017    14.4789  -999.2500     2.0695  -999.2500
 1742.1332    18.5480     -.0028    14.8991  -999.2500     2.0662  -999.2500
 1742.2856    18.5808     -.0056    15.1337  -999.2500     2.0497  -999.2500
 1742.4380    18.3572     -.0066    15.3645  -999.2500     2.0471  -999.2500
 1742.5904    18.2914     -.0075    14.8841  -999.2500     2.0471  -999.2500
 1742.7428    18.3082     -.0087    14.8873  -999.2500     2.0472  -999.2500
 1742.8952    18.3487     -.0119    15.7461  -999.2500     2.0488  -999.2500
 1743.0476    18.3492     -.0150    15.7919  -999.2500     2.0503  -999.2500
 1743.2000    18.3586     -.0175    15.8735  -999.2500     2.0489  -999.2500
 1743.3524    18.3184     -.0174    17.0168  -999.2500     2.0477  -999.2500
 1743.5048    18.2283     -.0113    18.1610  -999.2500     2.0544  -999.2500
 1743.6572    18.1414     -.0069    19.4651  -999.2500     2.0532  -999.2500
 1743.8096    17.9697     -.0049    21.1089  -999.2500     2.0502  -999.2500
 1743.9620    17.8360      .0045    24.3790  -999.2500     2.0499  -999.2500
 1744.1144    17.7366      .0042    28.6140  -999.2500     2.0477  -999.2500
 1744.2668    17.7249      .0067    33.3095  -999.2500     2.0425  -999.2500
 1744.4192    17.7354      .0088    37.8688  -999.2500     2.0444  -999.2500
 1744.5716    17.7367      .0120    41.0881  -999.2500     2.0451  -999.2500
 1744.7240    17.3803      .0135    42.4755  -999.2500     2.0439  -999.2500
 1744.8764    17.0387      .0152    42.3595  -999.2500     2.0291  -999.2500
 1745.0288    17.2105      .0139    42.1241  -999.2500     2.0196  -999.2500
 1745.1812    17.7911      .0159    41.3454  -999.2500     2.0165  -999.2500
 1745.3336    17.2600      .0170    40.0452  -999.2500     2.0152  -999.2500
