~VERSION INFORMATION
VERS.                                                 2.0:   CWLS Log ASCII Standard-VERSION 2.0
WRAP.                                                  NO:   One line per depth step
~Well Information Block
STRT.M                                           699.4124:   Top Depth
STOP.M                                          3782.7692:   Bottom Depth
STEP.M                                             .15240:   Depth Increment
NULL.                                            -999.250:   Null Value
FLD .                                             WILDCAT:   Field Name
WELL.                                              15/5-1:   NAME
WBN .                                              15/5-1:   WELLBORE
NATI.                                                 NOR:   COUNTRY
BHT1.DEGF                                            52.0:   BH TEMP 1
BS1 .IN                                             17.50:   BIT SIZE 1
CTRY.                                                 NOR:   COUNTRY
CBD1.M                                              194.0:   CSG 1 DRILL DEP
CBL1.M                                              192.0:   CSG 1 LOG DEP
CS1 .IN                                              30.0:   CSG 1 SIZE
COMP.                                         NORSK HYDRO:   OPERATOR
PDAT.                                                 MSL:   PERM DATUM
PROV.                                           NORTH SEA:   PROVINCE
COUN.                                     TREASURE SEEKER:   RIG NAME
SPUD.                                          1977/11/26:   SPUD DATE
LATI.                                        58 35 4.37 N:   SURF. LATITUDE
LONG.                                         1 39 8.35 E:   SURF. LONGITUDE
BTD1.                                            713.50 M:   TOTAL DEPTH 1
PBWE.                                              15/5-1:   PB WELL ID
APIN.                                              15/5-1:   PB WELLBORE ID
PBWS.                                                 all:   PB WELL NAME SET
~PARAMETER INFORMATION (log)
LNAM.                              FDC/CNL/GR  COMPOSITED:   NAME
LTYP.                                         DEPTH MATCH:   LOG TYPE
LSRV.                                            DEN/NEUT:   LOG SERVICE
LSOU.                                             SPT/NPD:   LOG SOURCE
LVSN.                                                   1:   LOG VERSION
BHIS.                                                   R:   BRIEF HISTORY
FHIS.                                             RAW-LIS:   FULL HISTORY
LCNM.                                        SCHLUMBERGER:   LOGGING CONTRACTOR
TOOL.                             FDC/CNL/GR (COMPOSITED):   TOOL STRING
~Curve Information Block
#MNEM.UNIT                                        API CODE    No Description
#=========                                        ========    == ===========
DEPT.M                                       00 001 00 00:     1  DEPTH
CALI.IN                                                  :     2  Caliper
DRHO.G/CC                                                :     3  Bulk density correction
GR.GAPI                                                  :     4  Gamma Ray
NPHI.%                                                   :     5  Neutron porosity
RHOB.G/CC                                                :     6  Bulk density
TENS.LB                                                  :     7  Cable Tension
~ASCII
# ...
 1317.5468    20.7732      .0301    62.2546  -999.2500     2.0708  -999.2500
 1317.6992    20.8459      .0289    63.2298  -999.2500     2.0716  -999.2500
 1317.8516    20.9387      .0256    62.0288  -999.2500     2.0676  -999.2500
 1318.0040    21.0255      .0187    59.6505  -999.2500     2.0431  -999.2500
 1318.1564    21.0918      .0142    57.4331  -999.2500     2.0313  -999.2500
 1318.3088    21.0944      .0145    56.0535  -999.2500     2.0301  -999.2500
 1318.4612    20.9486      .0214    55.7512  -999.2500     2.0352  -999.2500
 1318.6136    20.7729      .0262    55.4485  -999.2500     2.0405  -999.2500
 1318.7660    20.5990      .0334    54.2288  -999.2500     2.0472  -999.2500
 1318.9184    20.4686      .0379    51.0257  -999.2500     2.0607  -999.2500
 1319.0708    20.4243      .0367    48.9845  -999.2500     2.0716  -999.2500
 1319.2232    20.3801      .0235    49.4823  -999.2500     2.0562  -999.2500
 1319.3756    20.3402      .0128    51.1226  -999.2500     2.0474  -999.2500
 1319.5280    20.3145      .0139    53.0113  -999.2500     2.0455  -999.2500
 1319.6804    20.2996      .0210    54.4395  -999.2500     2.0482  -999.2500
 1319.8328    20.2847      .0249    54.5297  -999.2500     2.0488  -999.2500
 1319.9852    20.2752      .0238    53.5459  -999.2500     2.0409  -999.2500
 1320.1376    20.2795      .0230    51.5468  -999.2500     2.0353  -999.2500
 1320.2900    20.2660      .0212    49.0377  -999.2500     2.0347  -999.2500
 1320.4424    20.2041      .0170    48.3117  -999.2500     2.0300  -999.2500
 1320.5948    20.1086      .0119    48.9474  -999.2500     2.0222  -999.2500
 1320.7472    19.9782      .0169    49.3465  -999.2500     2.0249  -999.2500
 1320.8996    19.8656      .0280    48.5324  -999.2500     2.0356  -999.2500
 1321.0520    19.8019      .0307    47.3909  -999.2500     2.0424  -999.2500
 1321.2044    19.8943      .0251    47.7129  -999.2500     2.0363  -999.2500
 1321.3568    20.0890      .0195    48.8884  -999.2500     2.0278  -999.2500
 1321.5092    20.1313      .0138    50.3176  -999.2500     2.0246  -999.2500
 1321.6616    20.0474      .0088    51.1778  -999.2500     2.0262  -999.2500
 1321.8140    19.8960      .0068    51.2621  -999.2500     2.0256  -999.2500
 1321.9664    19.7621      .0071    51.0024  -999.2500     2.0189  -999.2500
 1322.1188    19.7151      .0057    50.1228  -999.2500     2.0108  -999.2500
 1322.2712    19.7931      .0032    49.5958  -999.2500     2.0058  -999.2500
 1322.4236    19.8888      .0042    49.9187  -999.2500     2.0029  -999.2500
 1322.5760    19.8904      .0067    50.3342  -999.2500     2.0004  -999.2500
 1322.7284    19.9281      .0084    50.7489  -999.2500     2.0125  -999.2500
 1322.8808    20.2181      .0117    51.4441  -999.2500     2.0293  -999.2500
 1323.0332    20.7114      .0151    52.2589  -999.2500     2.0307  -999.2500
 1323.1856    21.1086      .0161    52.5820  -999.2500     2.0250  -999.2500
 1323.3380    21.2663      .0172    52.6558  -999.2500     2.0251  -999.2500
 1323.4904    21.3413      .0204    53.0815  -999.2500     2.0315  -999.2500
 1323.6428    21.5187      .0245    53.7094  -999.2500     2.0368  -999.2500
 1323.7952    21.8776      .0288    54.2226  -999.2500     2.0441  -999.2500
 1323.9476    22.0807      .0319    54.3083  -999.2500     2.0500  -999.2500
 1324.1000    22.0811      .0271    53.8485  -999.2500     2.0498  -999.2500
 1324.2524    22.0816      .0220    53.5406  -999.2500     2.0479  -999.2500
 1324.4048    22.0821      .0271    53.9082  -999.2500     2.0487  -999.2500
 1324.5572    22.0826      .0284    54.4953  -999.2500     2.0429  -999.2500
 1324.7096    22.0831      .0214    54.8584  -999.2500     2.0359  -999.2500
 1324.8620    22.0836      .0198    54.4926  -999.2500     2.0332  -999.2500
 1325.0144    22.0841      .0211    53.8627  -999.2500     2.0312  -999.2500
 1325.1668    22.0846      .0203    54.0121  -999.2500     2.0292  -999.2500
 1325.3192    22.0543      .0209    54.5780  -999.2500     2.0273  -999.2500
 1325.4716    21.7844      .0217    55.1043  -999.2500     2.0298  -999.2500
 1325.6240    21.4641      .0276    55.4644  -999.2500     2.0335  -999.2500
 1325.7764    21.6318      .0311    54.6747  -999.2500     2.0362  -999.2500
 1325.9288    21.8125      .0319    52.6773  -999.2500     2.0452  -999.2500
 1326.0812    21.7084      .0360    51.2528  -999.2500     2.0509  -999.2500
 1326.2336    21.7135      .0404    49.8371  -999.2500     2.0637  -999.2500
 1326.3860    21.8174      .0440    49.5677  -999.2500     2.0706  -999.2500
 1326.5384    21.9235      .0456    50.0285  -999.2500     2.0711  -999.2500
 1326.6908    22.0178      .0447    50.4687  -999.2500     2.0712  -999.2500
 1326.8432    22.0126      .0273    48.7436  -999.2500     2.0617  -999.2500
 1326.9956    21.7976      .0174    47.4753  -999.2500     2.0504  -999.2500
 1327.1480    21.4693      .0184    47.4388  -999.2500     2.0467  -999.2500
 1327.3004    21.3189      .0225    47.9996  -999.2500     2.0454  -999.2500
 1327.4528    20.9853      .0218    48.7021  -999.2500     2.0336  -999.2500
 1327.6052    20.4526      .0165    48.2023  -999.2500     2.0247  -999.2500
 1327.7576    19.5897      .0142    47.7454  -999.2500     2.0188  -999.2500
 1327.9100    19.1332      .0144    48.4721  -999.2500     2.0133  -999.2500
 1328.0624    18.9016      .0231    49.2440  -999.2500     2.0101  -999.2500
 1328.2148    18.7215      .0297    48.9340  -999.2500     2.0114  -999.2500
 1328.3672    18.5886      .0350    48.2689  -999.2500     2.0169  -999.2500
 1328.5196    18.5036      .0362    47.4236  -999.2500     2.0400  -999.2500
 1328.6720    18.4308      .0352    46.4780  -999.2500     2.0734  -999.2500
 1328.8244    18.3209      .0368    46.0077  -999.2500     2.1028  -999.2500
 1328.9768    18.3053      .0410    46.9363  -999.2500     2.1152  -999.2500
 1329.1292    18.3146      .0460    48.1733  -999.2500     2.1035  -999.2500
 1329.2816    18.3238      .0452    49.3832  -999.2500     2.0678  -999.2500
 1329.4340    18.3331      .0332    48.1000  -999.2500     2.0458  -999.2500
 1329.5864    18.3337      .0275    46.8022  -999.2500     2.0371  -999.2500
 1329.7388    18.3260      .0259    47.3380  -999.2500     2.0336  -999.2500
 1329.8912    18.3152      .0246    48.4126  -999.2500     2.0272  -999.2500
 1330.0436    18.3016      .0238    48.7303  -999.2500     2.0210  -999.2500
 1330.1960    18.2876      .0221    48.4051  -999.2500     2.0080  -999.2500
 1330.3484    18.1965      .0308    48.0006  -999.2500     1.9992  -999.2500
 1330.5008    18.0883      .0331    46.8332  -999.2500     1.9866  -999.2500
 1330.6532    18.3396      .0211    45.1804  -999.2500     1.9709  -999.2500
 1330.8056    19.0964      .0213    43.9831  -999.2500     1.9676  -999.2500
 1330.9580    19.3483      .0231    42.8471  -999.2500     1.9701  -999.2500
 1331.1104    19.0577      .0302    42.8325  -999.2500     1.9716  -999.2500
 1331.2628    18.7845      .0302    43.3582  -999.2500     1.9657  -999.2500
 1331.4152    19.3382      .0177    44.5904  -999.2500     1.9570  -999.2500
 1331.5676    19.8166      .0063    45.9922  -999.2500     1.9479  -999.2500
 1331.7200    19.3986      .0072    47.8186  -999.2500     1.9465  -999.2500
 1331.8724    18.9267      .0101    47.9082  -999.2500     1.9467  -999.2500
 1332.0248    18.8513      .0132    47.4933  -999.2500     1.9493  -999.2500
 1332.1772    18.9511      .0182    47.3165  -999.2500     1.9536  -999.2500
 1332.3296    18.5659      .0214    47.3908  -999.2500     1.9514  -999.2500
 1332.4820    17.9572      .0213    47.4728  -999.2500     1.9488  -999.2500
 1332.6344    17.9526      .0142    47.0037  -999.2500     1.9600  -999.2500
 1332.7868    17.8177      .0173    47.4837  -999.2500     1.9678  -999.2500
 1332.9392    17.3809      .0196    49.3746  -999.2500     1.9719  -999.2500
 1333.0916    17.3087      .0333    51.2453  -999.2500     1.9778  -999.2500
 1333.2440    17.1817      .0372    51.5903  -999.2500     1.9833  -999.2500
