~VERSION INFORMATION
VERS.                                                 2.0:   CWLS Log ASCII Standard-VERSION 2.0
WRAP.                                                  NO:   One line per depth step
~Well Information Block
STRT.M                                           699.4124:   Top Depth
STOP.M                                          3782.7692:   Bottom Depth
STEP.M                                             .15240:   Depth Increment
NULL.                                            -999.250:   Null Value
FLD .                                             WILDCAT:   Field Name
WELL.                                              15/5-1:   NAME
WBN .                                              15/5-1:   WELLBORE
NATI.                                                 NOR:   COUNTRY
BHT1.DEGF                                            52.0:   BH TEMP 1
BS1 .IN                                             17.50:   BIT SIZE 1
CTRY.                                                 NOR:   COUNTRY
CBD1.M                                              194.0:   CSG 1 DRILL DEP
CBL1.M                                              192.0:   CSG 1 LOG DEP
CS1 .IN                                              30.0:   CSG 1 SIZE
COMP.                                         NORSK HYDRO:   OPERATOR
PDAT.                                                 MSL:   PERM DATUM
PROV.                                           NORTH SEA:   PROVINCE
COUN.                                     TREASURE SEEKER:   RIG NAME
SPUD.                                          1977/11/26:   SPUD DATE
LATI.                                        58 35 4.37 N:   SURF. LATITUDE
LONG.                                         1 39 8.35 E:   SURF. LONGITUDE
BTD1.                                            713.50 M:   TOTAL DEPTH 1
PBWE.                                              15/5-1:   PB WELL ID
APIN.                                              15/5-1:   PB WELLBORE ID
PBWS.                                                 all:   PB WELL NAME SET
~PARAMETER INFORMATION (log)
LNAM.                              FDC/CNL/GR  COMPOSITED:   NAME
LTYP.                                         DEPTH MATCH:   LOG TYPE
LSRV.                                            DEN/NEUT:   LOG SERVICE
LSOU.                                             SPT/NPD:   LOG SOURCE
LVSN.                                                   1:   LOG VERSION
BHIS.                                                   R:   BRIEF HISTORY
FHIS.                                             RAW-LIS:   FULL HISTORY
LCNM.                                        SCHLUMBERGER:   LOGGING CONTRACTOR
TOOL.                             FDC/CNL/GR (COMPOSITED):   TOOL STRING
~Curve Information Block
#MNEM.UNIT                                        API CODE    No Description
#=========                                        ========    == ===========
DEPT.M                                       00 001 00 00:     1  DEPTH
CALI.IN                                                  :     2  Caliper
DRHO.G/CC                                                :     3  Bulk density correction
GR.GAPI                                                  :     4  Gamma Ray
NPHI.%                                                   :     5  Neutron porosity
RHOB.G/CC                                                :     6  Bulk density
TENS.LB                                                  :     7  Cable Tension
~ASCII
# ...
 2950.0556    16.1353      .0195    24.5512    23.3452     2.5448  -999.2500
 2950.2080    16.2874      .0231    24.2888    23.5676     2.5210  -999.2500
 2950.3604    16.3889      .0416    24.5725    23.5387     2.5031  -999.2500
 2950.5128    16.1848      .0306    25.1424    22.4309     2.4970  -999.2500
 2950.6652    16.0928      .0525    26.1848    21.7324     2.5467  -999.2500
 2950.8176    16.1987      .0634    27.4823    22.0225     2.5901  -999.2500
 2950.9700    16.2478      .0619    28.6026    22.7353     2.5806  -999.2500
 2951.1224    16.0906      .0215    28.9379    23.2962     2.5702  -999.2500
 2951.2748    16.0942      .0129    29.2722    23.6274     2.5767  -999.2500
 2951.4272    16.0978      .0191    29.6069    23.5815     2.5787  -999.2500
 2951.5796    16.1014      .0085    29.9412    23.2736     2.5738  -999.2500
 2951.7320    16.1050      .0033    30.4307    22.5355     2.5707  -999.2500
 2951.8844    16.1085      .0078    31.5803    21.7975     2.5738  -999.2500
 2952.0368    16.1121      .0142    31.8240    21.1427     2.5701  -999.2500
 2952.1892    16.1209      .0267    29.3451    20.9655     2.5596  -999.2500
 2952.3416    16.1593      .0597    26.9249    21.3668     2.5570  -999.2500
 2952.4940    16.1935      .0752    24.5983    22.5348     2.5626  -999.2500
 2952.6464    16.1194      .0691    23.0634    23.3091     2.5630  -999.2500
 2952.7988    16.1273      .0351    23.0983    23.0906     2.5497  -999.2500
 2952.9512    16.1427      .0246    23.7317    23.0527     2.5932  -999.2500
 2953.1036    16.1711      .0118    24.4197    23.0423     2.6156  -999.2500
 2953.2560    16.2182     -.0016    25.3926    23.2667     2.6066  -999.2500
 2953.4084    16.2651      .0048    26.4035    23.9689     2.5976  -999.2500
 2953.5608    16.3096      .0142    27.4157    24.6736     2.5886  -999.2500
 2953.7132    16.3566      .0266    28.4074    25.3962     2.5796  -999.2500
 2953.8656    16.4860      .0377    28.9942    26.1599     2.5699  -999.2500
 2954.0180    16.6277      .0189    27.8357    26.6570     2.5566  -999.2500
 2954.1704    16.3880     -.0011    25.8979    26.0701     2.5445  -999.2500
 2954.3228    16.2865      .0025    24.5558    25.9094     2.5498  -999.2500
 2954.4752    16.3013      .0106    23.6179    26.2643     2.5579  -999.2500
 2954.6276    16.3161      .0307    24.5367    26.7227     2.5650  -999.2500
 2954.7800    16.3309      .0511    26.0703    27.5061     2.5663  -999.2500
 2954.9324    16.3457      .0680    27.2684    28.2582     2.5637  -999.2500
 2955.0848    16.3538      .0731    28.2475    28.6241     2.5622  -999.2500
 2955.2372    16.3179      .0458    27.8083    27.6894     2.5688  -999.2500
 2955.3896    16.2584      .0214    26.6611    25.9466     2.5832  -999.2500
 2955.5420    16.2062      .0160    25.4129    24.4260     2.5972  -999.2500
 2955.6944    16.1978      .0107    24.2851    24.5828     2.6074  -999.2500
 2955.8468    16.1961      .0063    24.0400    24.3865     2.6068  -999.2500
 2955.9992    16.1944      .0042    24.7082    24.0085     2.6062  -999.2500
 2956.1516    16.1927      .0073    25.2984    23.9096     2.6060  -999.2500
 2956.3040    16.1910      .0038    25.3527    23.9695     2.6100  -999.2500
 2956.4564    16.1893      .0067    24.9907    24.0201     2.6210  -999.2500
 2956.6088    16.1876      .0113    23.9490    23.9919     2.6214  -999.2500
 2956.7612    16.1859      .0065    23.6507    23.8362     2.6149  -999.2500
 2956.9136    16.1842      .0015    24.2027    23.5810     2.6085  -999.2500
 2957.0660    16.1846      .0052    24.5990    23.3313     2.6020  -999.2500
 2957.2184    16.2005      .0113    23.9811    23.3746     2.5952  -999.2500
 2957.3708    16.2259      .0143    23.7360    23.4394     2.5879  -999.2500
 2957.5232    16.2513      .0062    24.7182    23.5069     2.5805  -999.2500
 2957.6756    16.2770      .0005    26.1079    23.8060     2.5746  -999.2500
 2957.8280    16.3057      .0117    27.2904    24.5991     2.5785  -999.2500
 2957.9804    16.3426      .0321    28.5352    26.1646     2.5842  -999.2500
 2958.1328    16.3791      .0592    30.8223    27.3440     2.5835  -999.2500
 2958.2852    16.4084      .0400    32.5092    28.1339     2.5662  -999.2500
 2958.4376    16.4067      .0159    33.0792    27.8924     2.5529  -999.2500
 2958.5900    16.4122      .0211    33.5164    27.5946     2.5692  -999.2500
 2958.7424    16.4801      .0438    32.8660    27.0871     2.5880  -999.2500
 2958.8948    16.6099      .0607    33.3579    26.5738     2.5968  -999.2500
 2959.0472    16.6613      .0318    33.0612    25.9933     2.5827  -999.2500
 2959.1996    16.3481      .0043    32.2637    25.2910     2.5699  -999.2500
 2959.3520    16.2919      .0106    30.1450    25.0596     2.5708  -999.2500
 2959.5044    16.2657      .0188    28.2774    25.4109     2.5937  -999.2500
 2959.6568    16.2396      .0259    29.0359    25.5239     2.6157  -999.2500
 2959.8092    16.2155      .0302    30.1861    25.0183     2.6300  -999.2500
 2959.9616    16.2100      .0328    30.7914    24.0651     2.6433  -999.2500
 2960.1140    16.2083      .0362    30.0416    23.6806     2.6474  -999.2500
 2960.2664    16.2066      .0380    28.9926    23.7529     2.6425  -999.2500
 2960.4188    16.2049      .0269    29.6141    23.4921     2.6269  -999.2500
 2960.5712    16.2032      .0216    29.5972    23.2246     2.6113  -999.2500
 2960.7236    16.2015      .0113    29.6211    23.0049     2.5960  -999.2500
 2960.8760    16.1958      .0022    29.9473    23.3151     2.5852  -999.2500
 2961.0284    16.1542      .0044    29.5494    23.6477     2.5818  -999.2500
 2961.1808    16.1173      .0082    27.7635    23.6171     2.5784  -999.2500
 2961.3332    16.1216     -.0064    26.1475    23.6961     2.5756  -999.2500
 2961.4856    16.1259     -.0062    25.2274    24.2752     2.5759  -999.2500
 2961.6380    16.1302     -.0062    24.3265    25.0478     2.5725  -999.2500
 2961.7904    16.1346     -.0035    23.6359    25.7587     2.5681  -999.2500
 2961.9428    16.1389     -.0068    23.2714    25.8718     2.5647  -999.2500
 2962.0952    16.1432     -.0041    22.6365    25.3933     2.5623  -999.2500
 2962.2476    16.1475     -.0023    22.0527    24.5605     2.5698  -999.2500
 2962.4000    16.1518     -.0082    22.2638    23.8196     2.5791  -999.2500
 2962.5524    16.1560      .0073    22.2334    23.5066     2.5877  -999.2500
 2962.7048    16.1585      .0052    22.6815    23.6901     2.5889  -999.2500
 2962.8572    16.1511     -.0013    22.8706    23.9963     2.5832  -999.2500
 2963.0096    16.1437     -.0011    24.2294    23.8670     2.5764  -999.2500
 2963.1620    16.1363     -.0027    25.1019    23.7369     2.5696  -999.2500
 2963.3144    16.1289     -.0040    25.2830    23.5958     2.5639  -999.2500
 2963.4668    16.1215      .0018    25.1427    23.3900     2.5706  -999.2500
 2963.6192    16.1142     -.0012    25.7932    23.1839     2.5832  -999.2500
 2963.7716    16.1076      .0111    25.2428    22.9620     2.5958  -999.2500
 2963.9240    16.1059      .0278    25.0791    22.5508     2.6084  -999.2500
 2964.0764    16.1042      .0243    25.6716    22.1364     2.6205  -999.2500
 2964.2288    16.1025      .0234    26.1606    21.8216     2.6255  -999.2500
 2964.3812    16.1008      .0251    25.3894    22.1183     2.6218  -999.2500
 2964.5336    16.0991      .0206    26.2586    22.6609     2.6158  -999.2500
 2964.6860    16.0974      .0156    26.3595    22.7670     2.6098  -999.2500
 2964.8384    16.0957      .0068    24.6318    22.9648     2.6038  -999.2500
 2964.9908    16.0940      .0001    22.8289    23.2830     2.5979  -999.2500
 2965.1432    16.0923      .0060    22.0047    22.7678     2.5947  -999.2500
 2965.2956    16.0906      .0029    22.4546    21.6251     2.5995  -999.2500
 2965.4480    16.0889      .0094    22.8533    21.0210     2.5979  -999.2500
 2965.6004    16.0902      .0031    23.4340    20.6598     2.5985  -999.2500
 2965.7528    16.1301      .0079    23.7940    20.4538     2.6059  -999.2500
