~VERSION INFORMATION
VERS.                                                 2.0:   CWLS Log ASCII Standard-VERSION 2.0
WRAP.                                                  NO:   One line per depth step
~Well Information Block
STRT.M                                           699.4124:   Top Depth
STOP.M                                          3782.7692:   Bottom Depth
STEP.M                                             .15240:   Depth Increment
NULL.                                            -999.250:   Null Value
FLD .                                             WILDCAT:   Field Name
WELL.                                              15/5-1:   NAME
WBN .                                              15/5-1:   WELLBORE
NATI.                                                 NOR:   COUNTRY
BHT1.DEGF                                            52.0:   BH TEMP 1
BS1 .IN                                             17.50:   BIT SIZE 1
CTRY.                                                 NOR:   COUNTRY
CBD1.M                                              194.0:   CSG 1 DRILL DEP
CBL1.M                                              192.0:   CSG 1 LOG DEP
CS1 .IN                                              30.0:   CSG 1 SIZE
COMP.                                         NORSK HYDRO:   OPERATOR
PDAT.                                                 MSL:   PERM DATUM
PROV.                                           NORTH SEA:   PROVINCE
COUN.                                     TREASURE SEEKER:   RIG NAME
SPUD.                                          1977/11/26:   SPUD DATE
LATI.                                        58 35 4.37 N:   SURF. LATITUDE
LONG.                                         1 39 8.35 E:   SURF. LONGITUDE
BTD1.                                            713.50 M:   TOTAL DEPTH 1
PBWE.                                              15/5-1:   PB WELL ID
APIN.                                              15/5-1:   PB WELLBORE ID
PBWS.                                                 all:   PB WELL NAME SET
~PARAMETER INFORMATION (log)
LNAM.                              FDC/CNL/GR  COMPOSITED:   NAME
LTYP.                                         DEPTH MATCH:   LOG TYPE
LSRV.                                            DEN/NEUT:   LOG SERVICE
LSOU.                                             SPT/NPD:   LOG SOURCE
LVSN.                                                   1:   LOG VERSION
BHIS.                                                   R:   BRIEF HISTORY
FHIS.                                             RAW-LIS:   FULL HISTORY
LCNM.                                        SCHLUMBERGER:   LOGGING CONTRACTOR
TOOL.                             FDC/CNL/GR (COMPOSITED):   TOOL STRING
~Curve Information Block
#MNEM.UNIT                                        API CODE    No Description
#=========                                        ========    == ===========
DEPT.M                                       00 001 00 00:     1  DEPTH
CALI.IN                                                  :     2  Caliper
DRHO.G/CC                                                :     3  Bulk density correction
GR.GAPI                                                  :     4  Gamma Ray
NPHI.%                                                   :     5  Neutron porosity
RHOB.G/CC                                                :     6  Bulk density
TENS.LB                                                  :     7  Cable Tension
~ASCII
# ...
 3774.2348     8.2773      .0646    37.3409    -3.9776     2.5401  -999.2500
 3774.3872     8.2751      .0721    36.2158    -4.8411     2.5283  -999.2500
 3774.5396     8.2729      .0681    35.7262    -4.9476     2.5156  -999.2500
 3774.6920     8.2707      .0696    35.4694    -4.9549     2.5192  -999.2500
 3774.8444     8.2684      .0747    35.4935    -4.8336     2.5305  -999.2500
 3774.9968     8.2671      .0691    35.1704    -4.7122     2.5297  -999.2500
 3775.1492     8.2674      .0523    34.3339    -4.5824     2.5235  -999.2500
 3775.3016     8.2679      .0453    34.0640    -4.4285     2.5276  -999.2500
 3775.4540     8.2684      .0500    34.4151    -4.2907     2.5326  -999.2500
 3775.6064     8.2689      .0582    34.5761    -4.3034     2.5373  -999.2500
 3775.7588     8.2695      .0668    34.1368    -4.6091     2.5367  -999.2500
 3775.9112     8.2700      .0753    34.2567    -4.8378     2.5385  -999.2500
 3776.0636     8.2705      .0834    34.8684    -4.8631     2.5468  -999.2500
 3776.2160     8.2710      .0904    34.1303    -4.8883     2.5551  -999.2500
 3776.3684     8.2715      .0974    34.4752    -4.9135     2.5635  -999.2500
 3776.5208     8.2720      .1001    35.2131    -4.9388     2.5618  -999.2500
 3776.6732     8.2726      .0893    34.7561    -4.9641     2.5507  -999.2500
 3776.8256     8.2731      .0770    34.5625    -4.9893     2.5429  -999.2500
 3776.9780     8.2736      .0750    35.2544    -5.0004     2.5392  -999.2500
 3777.1304     8.2741      .0821    36.4583    -4.9987     2.5451  -999.2500
 3777.2828     8.2746      .0898    36.3633    -4.9941     2.5484  -999.2500
 3777.4352     8.2752      .0820    36.0007    -4.9894     2.5394  -999.2500
 3777.5876     8.2757      .0671    36.0705    -4.9848     2.5302  -999.2500
 3777.7400     8.2762      .0554    36.2360    -4.9802     2.5284  -999.2500
 3777.8924     8.2767      .0466    36.1135    -4.9755     2.5265  -999.2500
 3778.0448     8.2772      .0386    35.7989    -4.9709     2.5214  -999.2500
 3778.1972     8.2777      .0344    35.4850    -4.9663     2.5140  -999.2500
 3778.3496     8.2783      .0362    35.4522    -4.9616     2.5112  -999.2500
 3778.5020     8.2788      .0419    35.9846    -4.9570     2.5190  -999.2500
 3778.6544     8.2793      .0545    36.7137    -4.9524     2.5300  -999.2500
 3778.8068     8.2798      .0757    37.0772    -4.9477     2.5467  -999.2500
 3778.9592     8.2803      .0952    36.8780    -4.9431     2.5662  -999.2500
 3779.1116     8.2808      .0990    36.1944    -4.9399     2.5722  -999.2500
 3779.2640     8.2814      .0909    35.5371    -4.9436     2.5499  -999.2500
 3779.4164     8.2819      .0801    34.8988    -4.9548     2.5396  -999.2500
 3779.5688     8.2824      .0780    34.3665    -4.9661     2.5559  -999.2500
 3779.7212     8.2829      .0713    34.3857    -4.9774     2.5477  -999.2500
 3779.8736     8.2834      .0619    34.4049    -4.9887     2.5409  -999.2500
 3780.0260     8.2839      .0740    34.4242    -4.9929     2.5520  -999.2500
 3780.1784     8.1408      .0770    34.4434    -4.9926     2.5316  -999.2500
 3780.3308     8.0556      .0550    34.4626    -4.9920     2.5054  -999.2500
 3780.4832     8.0432      .0411    34.4819    -3.4508     2.4789  -999.2500
 3780.6356     8.0416      .0461    34.5012     -.6894     2.4191  -999.2500
 3780.7880     8.0399      .0589    34.5204      .0199  -999.2500  -999.2500
 3780.9404     8.0382  -999.2500    34.5396  -999.2500  -999.2500  -999.2500
 3781.0928     8.0365  -999.2500    34.5588  -999.2500  -999.2500  -999.2500
 3781.2452     8.0349  -999.2500    34.5781  -999.2500  -999.2500  -999.2500
 3781.3976     8.0332  -999.2500    34.5973  -999.2500  -999.2500  -999.2500
 3781.5500     8.0315  -999.2500    34.6165  -999.2500  -999.2500  -999.2500
 3781.7024     8.0299  -999.2500    34.6357  -999.2500  -999.2500  -999.2500
 3781.8548     8.0282  -999.2500    34.6550  -999.2500  -999.2500  -999.2500
 3782.0072     8.0265  -999.2500    34.6742  -999.2500  -999.2500  -999.2500
 3782.1596     8.0248  -999.2500    34.6935  -999.2500  -999.2500  -999.2500
 3782.3120     8.0232  -999.2500    34.7127  -999.2500  -999.2500  -999.2500
 3782.4644     8.0215  -999.2500    34.7319  -999.2500  -999.2500  -999.2500
 3782.6168     8.0198  -999.2500    34.7512  -999.2500  -999.2500  -999.2500
 3782.7692     8.0182  -999.2500    34.7704  -999.2500  -999.2500  -999.2500
