~VERSION INFORMATION
VERS.                                                 2.0:   CWLS Log ASCII Standard-VERSION 2.0
WRAP.                                                  NO:   One line per depth step
~Well Information Block
STRT.M                                           699.4124:   Top Depth
STOP.M                                          3782.7692:   Bottom Depth
STEP.M                                             .15240:   Depth Increment
NULL.                                            -999.250:   Null Value
FLD .                                             WILDCAT:   Field Name
WELL.                                              15/5-1:   NAME
WBN .                                              15/5-1:   WELLBORE
NATI.                                                 NOR:   COUNTRY
BHT1.DEGF                                            52.0:   BH TEMP 1
BS1 .IN                                             17.50:   BIT SIZE 1
CTRY.                                                 NOR:   COUNTRY
CBD1.M                                              194.0:   CSG 1 DRILL DEP
CBL1.M                                              192.0:   CSG 1 LOG DEP
CS1 .IN                                              30.0:   CSG 1 SIZE
COMP.                                         NORSK HYDRO:   OPERATOR
PDAT.                                                 MSL:   PERM DATUM
PROV.                                           NORTH SEA:   PROVINCE
COUN.                                     TREASURE SEEKER:   RIG NAME
SPUD.                                          1977/11/26:   SPUD DATE
LATI.                                        58 35 4.37 N:   SURF. LATITUDE
LONG.                                         1 39 8.35 E:   SURF. LONGITUDE
BTD1.                                            713.50 M:   TOTAL DEPTH 1
PBWE.                                              15/5-1:   PB WELL ID
APIN.                                              15/5-1:   PB WELLBORE ID
PBWS.                                                 all:   PB WELL NAME SET
~PARAMETER INFORMATION (log)
LNAM.                              FDC/CNL/GR  COMPOSITED:   NAME
LTYP.                                         DEPTH MATCH:   LOG TYPE
LSRV.                                            DEN/NEUT:   LOG SERVICE
LSOU.                                             SPT/NPD:   LOG SOURCE
LVSN.                                                   1:   LOG VERSION
BHIS.                                                   R:   BRIEF HISTORY
FHIS.                                             RAW-LIS:   FULL HISTORY
LCNM.                                        SCHLUMBERGER:   LOGGING CONTRACTOR
TOOL.                             FDC/CNL/GR (COMPOSITED):   TOOL STRING
~Curve Information Block
#MNEM.UNIT                                        API CODE    No Description
#=========                                        ========    == ===========
DEPT.M                                       00 001 00 00:     1  DEPTH
CALI.IN                                                  :     2  Caliper
DRHO.G/CC                                                :     3  Bulk density correction
GR.GAPI                                                  :     4  Gamma Ray
NPHI.%                                                   :     5  Neutron porosity
RHOB.G/CC                                                :     6  Bulk density
TENS.LB                                                  :     7  Cable Tension
~ASCII
# ...
 1111.5020    21.8577      .0004    41.6258  -999.2500     1.9739  -999.2500
 1111.6544    21.9929     -.0046    41.3958  -999.2500     1.9766  -999.2500
 1111.8068    22.0661     -.0070    41.2180  -999.2500     1.9763  -999.2500
 1111.9592    21.8631     -.0062    40.2461  -999.2500     1.9721  -999.2500
 1112.1116    21.6414      .0004    38.8045  -999.2500     1.9703  -999.2500
 1112.2640    21.4905      .0070    38.3742  -999.2500     1.9726  -999.2500
 1112.4164    21.2163      .0101    39.3243  -999.2500     1.9814  -999.2500
 1112.5688    21.0260      .0137    40.7785  -999.2500     1.9920  -999.2500
 1112.7212    20.9535      .0162    42.2700  -999.2500     1.9994  -999.2500
 1112.8736    20.9648      .0161    43.4718  -999.2500     2.0000  -999.2500
 1113.0260    21.0588      .0136    43.7609  -999.2500     1.9953  -999.2500
 1113.1784    21.1741      .0122    43.0332  -999.2500     1.9934  -999.2500
 1113.3308    21.2131      .0145    40.7222  -999.2500     2.0000  -999.2500
 1113.4832    21.0709      .0202    38.5731  -999.2500     2.0081  -999.2500
 1113.6356    20.9088      .0227    37.9450  -999.2500     2.0053  -999.2500
 1113.7880    20.8222      .0150    38.5760  -999.2500     1.9863  -999.2500
 1113.9404    20.7622      .0074    39.6533  -999.2500     1.9671  -999.2500
 1114.0928    20.7136      .0068    40.0767  -999.2500     1.9539  -999.2500
 1114.2452    20.6668      .0069    40.5438  -999.2500     1.9474  -999.2500
 1114.3976    20.7028      .0065    41.1680  -999.2500     1.9525  -999.2500
 1114.5500    20.7096      .0067    40.3434  -999.2500     1.9635  -999.2500
 1114.7024    20.6917      .0067    37.8827  -999.2500     1.9744  -999.2500
 1114.8548    20.8903      .0068    37.2796  -999.2500     1.9842  -999.2500
 1115.0072    20.8664      .0067    38.6275  -999.2500     1.9878  -999.2500
 1115.1596    20.6788      .0067    40.1060  -999.2500     1.9880  -999.2500
 1115.3120    20.7024      .0067    41.8724  -999.2500     1.9897  -999.2500
 1115.4644    20.9809      .0067    43.6504  -999.2500     1.9912  -999.2500
 1115.6168    21.4613      .0122    44.9250  -999.2500     1.9907  -999.2500
 1115.7692    21.1585      .0164    45.4295  -999.2500     1.9891  -999.2500
 1115.9216    21.1475      .0148    45.1356  -999.2500     1.9854  -999.2500
 1116.0740    21.2745      .0132    45.3237  -999.2500     1.9800  -999.2500
 1116.2264    20.8983      .0158    46.1076  -999.2500     1.9743  -999.2500
 1116.3788    20.7695      .0188    46.7086  -999.2500     1.9687  -999.2500
 1116.5312    20.9009      .0130    46.6359  -999.2500     1.9631  -999.2500
 1116.6836    21.0141      .0040    46.2695  -999.2500     1.9575  -999.2500
 1116.8360    21.0350     -.0051    46.8446  -999.2500     1.9482  -999.2500
 1116.9884    21.0731     -.0093    48.8060  -999.2500     1.9323  -999.2500
 1117.1408    21.1093     -.0051    50.7725  -999.2500     1.9253  -999.2500
 1117.2932    20.9595      .0037    49.2327  -999.2500     1.9243  -999.2500
 1117.4456    20.8052      .0113    45.9115  -999.2500     1.9293  -999.2500
 1117.5980    20.8660      .0165    43.8014  -999.2500     1.9423  -999.2500
 1117.7504    21.0075      .0222    42.3850  -999.2500     1.9553  -999.2500
 1117.9028    21.1400      .0248    41.3549  -999.2500     1.9616  -999.2500
 1118.0552    21.3375      .0230    39.9560  -999.2500     1.9603  -999.2500
 1118.2076    21.4756      .0162    38.0422  -999.2500     1.9560  -999.2500
 1118.3600    21.4840      .0100    36.0162  -999.2500     1.9492  -999.2500
 1118.5124    21.7147      .0025    35.6051  -999.2500     1.9430  -999.2500
 1118.6648    21.8919     -.0012    36.3825  -999.2500     1.9437  -999.2500
 1118.8172    21.8849      .0006    35.8673  -999.2500     1.9463  -999.2500
 1118.9696    21.8612      .0021    34.8825  -999.2500     1.9445  -999.2500
 1119.1220    21.8156      .0051    35.1873  -999.2500     1.9457  -999.2500
 1119.2744    21.7584      .0082    36.4372  -999.2500     1.9521  -999.2500
 1119.4268    21.7817      .0092    37.9300  -999.2500     1.9596  -999.2500
 1119.5792    21.8931      .0109    38.3973  -999.2500     1.9671  -999.2500
 1119.7316    22.0054      .0136    38.1136  -999.2500     1.9724  -999.2500
 1119.8840    22.0730      .0164    38.6146  -999.2500     1.9731  -999.2500
 1120.0364    22.1126      .0150    39.8519  -999.2500     1.9704  -999.2500
 1120.1888    22.1293      .0105    41.2222  -999.2500     1.9633  -999.2500
 1120.3412    22.1333      .0081    42.1271  -999.2500     1.9524  -999.2500
 1120.4936    22.1372      .0074    41.7082  -999.2500     1.9412  -999.2500
 1120.6460    22.1412      .0141    41.0915  -999.2500     1.9358  -999.2500
 1120.7984    22.0684      .0188    41.5597  -999.2500     1.9342  -999.2500
 1120.9508    21.8714      .0134    41.9090  -999.2500     1.9340  -999.2500
 1121.1032    21.7214      .0090    41.8252  -999.2500     1.9427  -999.2500
 1121.2556    21.6712      .0126    41.1068  -999.2500     1.9653  -999.2500
 1121.4080    21.6026      .0185    40.0982  -999.2500     1.9873  -999.2500
 1121.5604    21.4814      .0228    40.7065  -999.2500     2.0029  -999.2500
 1121.7128    21.4680      .0165    42.9025  -999.2500     2.0086  -999.2500
 1121.8652    21.5523      .0071    45.4739  -999.2500     2.0024  -999.2500
 1122.0176    21.6336      .0019    46.4841  -999.2500     1.9911  -999.2500
 1122.1700    21.5662      .0020    46.1277  -999.2500     1.9830  -999.2500
 1122.3224    21.2947      .0057    46.1203  -999.2500     1.9856  -999.2500
 1122.4748    21.1188      .0100    46.2103  -999.2500     1.9960  -999.2500
 1122.6272    21.1228      .0144    45.3163  -999.2500     2.0077  -999.2500
 1122.7796    21.1859      .0196    43.6841  -999.2500     2.0175  -999.2500
 1122.9320    21.1414      .0204    41.6508  -999.2500     2.0159  -999.2500
 1123.0844    21.0564      .0149    40.3884  -999.2500     1.9967  -999.2500
 1123.2368    21.0240      .0085    39.7852  -999.2500     1.9703  -999.2500
 1123.3892    21.0102      .0067    38.1572  -999.2500     1.9437  -999.2500
 1123.5416    20.9281      .0069    35.8346  -999.2500     1.9172  -999.2500
 1123.6940    20.7890      .0047    33.9927  -999.2500     1.8958  -999.2500
 1123.8464    20.6687      .0040    34.0478  -999.2500     1.8887  -999.2500
 1123.9988    20.6058      .0067    34.9170  -999.2500     1.8938  -999.2500
 1124.1512    20.5482      .0106    35.4890  -999.2500     1.9027  -999.2500
 1124.3036    20.4979      .0122    35.9590  -999.2500     1.9184  -999.2500
 1124.4560    20.5276      .0065    36.2491  -999.2500     1.9309  -999.2500
 1124.6084    20.5380      .0028    36.4161  -999.2500     1.9375  -999.2500
 1124.7608    20.4752      .0076    37.1423  -999.2500     1.9464  -999.2500
 1124.9132    20.4758      .0136    37.7861  -999.2500     1.9549  -999.2500
 1125.0656    20.5261      .0156    38.7766  -999.2500     1.9575  -999.2500
 1125.2180    20.5549      .0145    40.1712  -999.2500     1.9578  -999.2500
 1125.3704    20.5721      .0104    41.6820  -999.2500     1.9595  -999.2500
 1125.5228    20.6649      .0082    43.2856  -999.2500     1.9679  -999.2500
 1125.6752    20.8133      .0122    44.8670  -999.2500     1.9749  -999.2500
 1125.8276    21.0608      .0149    46.6087  -999.2500     1.9809  -999.2500
 1125.9800    21.4894      .0146    48.5296  -999.2500     1.9926  -999.2500
 1126.1324    21.5989      .0190    50.4297  -999.2500     2.0067  -999.2500
 1126.2848    21.5254      .0272    51.6765  -999.2500     2.0181  -999.2500
 1126.4372    21.7059      .0325    52.2726  -999.2500     2.0215  -999.2500
 1126.5896    22.0192      .0330    50.7538  -999.2500     2.0231  -999.2500
 1126.7420    22.1731      .0279    47.9551  -999.2500     2.0225  -999.2500
 1126.8944    22.1929      .0241    47.5382  -999.2500     2.0195  -999.2500
 1127.0468    22.1913      .0217    48.2358  -999.2500     2.0231  -999.2500
 1127.1992    22.1898      .0201    47.7250  -999.2500     2.0237  -999.2500
