~VERSION INFORMATION
VERS.                                                 2.0:   CWLS Log ASCII Standard-VERSION 2.0
WRAP.                                                  NO:   One line per depth step
~Well Information Block
STRT.M                                           699.4124:   Top Depth
STOP.M                                          3782.7692:   Bottom Depth
STEP.M                                             .15240:   Depth Increment
NULL.                                            -999.250:   Null Value
FLD .                                             WILDCAT:   Field Name
WELL.                                              15/5-1:   NAME
WBN .                                              15/5-1:   WELLBORE
NATI.                                                 NOR:   COUNTRY
BHT1.DEGF                                            52.0:   BH TEMP 1
BS1 .IN                                             17.50:   BIT SIZE 1
CTRY.                                                 NOR:   COUNTRY
CBD1.M                                              194.0:   CSG 1 DRILL DEP
CBL1.M                                              192.0:   CSG 1 LOG DEP
CS1 .IN                                              30.0:   CSG 1 SIZE
COMP.                                         NORSK HYDRO:   OPERATOR
PDAT.                                                 MSL:   PERM DATUM
PROV.                                           NORTH SEA:   PROVINCE
COUN.                                     TREASURE SEEKER:   RIG NAME
SPUD.                                          1977/11/26:   SPUD DATE
LATI.                                        58 35 4.37 N:   SURF. LATITUDE
LONG.                                         1 39 8.35 E:   SURF. LONGITUDE
BTD1.                                            713.50 M:   TOTAL DEPTH 1
PBWE.                                              15/5-1:   PB WELL ID
APIN.                                              15/5-1:   PB WELLBORE ID
PBWS.                                                 all:   PB WELL NAME SET
~PARAMETER INFORMATION (log)
LNAM.                              FDC/CNL/GR  COMPOSITED:   NAME
LTYP.                                         DEPTH MATCH:   LOG TYPE
LSRV.                                            DEN/NEUT:   LOG SERVICE
LSOU.                                             SPT/NPD:   LOG SOURCE
LVSN.                                                   1:   LOG VERSION
BHIS.                                                   R:   BRIEF HISTORY
FHIS.                                             RAW-LIS:   FULL HISTORY
LCNM.                                        SCHLUMBERGER:   LOGGING CONTRACTOR
TOOL.                             FDC/CNL/GR (COMPOSITED):   TOOL STRING
~Curve Information Block
#MNEM.UNIT                                        API CODE    No Description
#=========                                        ========    == ===========
DEPT.M                                       00 001 00 00:     1  DEPTH
CALI.IN                                                  :     2  Caliper
DRHO.G/CC                                                :     3  Bulk density correction
GR.GAPI                                                  :     4  Gamma Ray
NPHI.%                                                   :     5  Neutron porosity
RHOB.G/CC                                                :     6  Bulk density
TENS.LB                                                  :     7  Cable Tension
~ASCII
# ...
 2331.9212    17.1949      .0107    26.6953  -999.2500     2.1829  -999.2500
 2332.0736    17.2088      .0096    26.6516  -999.2500     2.1780  -999.2500
 2332.2260    17.2110      .0028    25.8376  -999.2500     2.1780  -999.2500
 2332.3784    17.2427     -.0009    24.9234  -999.2500     2.1796  -999.2500
 2332.5308    17.2071     -.0041    23.9793  -999.2500     2.1782  -999.2500
 2332.6832    17.1820     -.0074    23.7703  -999.2500     2.1789  -999.2500
 2332.8356    17.2006     -.0051    24.5237  -999.2500     2.1791  -999.2500
 2332.9880    17.3168     -.0023    25.1170  -999.2500     2.1791  -999.2500
 2333.1404    17.3044      .0059    25.2623  -999.2500     2.1808  -999.2500
 2333.2928    17.3176      .0156    24.6164  -999.2500     2.1938  -999.2500
 2333.4452    17.3533      .0196    23.4627  -999.2500     2.2029  -999.2500
 2333.5976    17.3606      .0192    22.9566  -999.2500     2.2075  -999.2500
 2333.7500    17.3620      .0133    22.5534  -999.2500     2.2067  -999.2500
 2333.9024    17.3631      .0070    21.7217  -999.2500     2.1974  -999.2500
 2334.0548    17.3643      .0041    21.5092  -999.2500     2.1931  -999.2500
 2334.2072    17.3994      .0032    22.4266  -999.2500     2.1891  -999.2500
 2334.3596    17.4063      .0109    23.3474  -999.2500     2.1909  -999.2500
 2334.5120    17.4076      .0150    24.5424  -999.2500     2.1947  -999.2500
 2334.6644    17.3778      .0158    26.0029  -999.2500     2.1987  -999.2500
 2334.8168    17.3582      .0101    26.9414  -999.2500     2.2111  -999.2500
 2334.9692    17.4284      .0028    28.2570  -999.2500     2.2178  -999.2500
 2335.1216    17.4355      .0093    30.0235  -999.2500     2.2188  -999.2500
 2335.2740    17.4495      .0049    31.2195  -999.2500     2.2304  -999.2500
 2335.4264    17.4543      .0131    30.5991  -999.2500     2.2373  -999.2500
 2335.5788    17.4556      .0265    31.3426  -999.2500     2.2418  -999.2500
 2335.7312    17.4567      .0463    31.2802  -999.2500     2.2520  -999.2500
 2335.8836    17.5691      .0638    31.4954  -999.2500     2.3046  -999.2500
 2336.0360    17.7668      .0688    35.6201  -999.2500     2.3421  -999.2500
 2336.1884    17.8969      .0604    37.7325  -999.2500     2.3574  -999.2500
 2336.3408    18.0084      .0515    39.8282  -999.2500     2.3591  -999.2500
 2336.4932    18.0517      .0538    41.3625  -999.2500     2.3587  -999.2500
 2336.6456    17.9748      .0508    41.5887  -999.2500     2.3167  -999.2500
 2336.7980    18.1128      .0292    37.0244  -999.2500     2.2733  -999.2500
 2336.9504    17.8527      .0165    30.4465  -999.2500     2.2422  -999.2500
 2337.1028    17.7842      .0127    29.2064  -999.2500     2.2315  -999.2500
 2337.2552    17.7859      .0076    28.4681  -999.2500     2.2284  -999.2500
 2337.4076    17.7210      .0130    29.7054  -999.2500     2.2236  -999.2500
 2337.5600    17.6921      .0234    31.5662  -999.2500     2.2342  -999.2500
 2337.7124    17.7346      .0340    30.4990  -999.2500     2.2750  -999.2500
 2337.8648    17.9329      .0442    29.2662  -999.2500     2.2784  -999.2500
 2338.0172    17.9721      .0487    28.8872  -999.2500     2.2907  -999.2500
 2338.1696    17.9782      .0527    27.6227  -999.2500     2.3272  -999.2500
 2338.3220    18.1080      .0479    25.4969  -999.2500     2.3497  -999.2500
 2338.4744    18.2550      .0357    24.0906  -999.2500     2.4006  -999.2500
 2338.6268    18.4983      .0266    25.4936  -999.2500     2.4388  -999.2500
 2338.7792    18.5566      .0314    28.6577  -999.2500     2.4751  -999.2500
 2338.9316    18.5544      .0351    31.2297  -999.2500     2.4772  -999.2500
 2339.0840    18.5440      .0320    32.5697  -999.2500     2.4639  -999.2500
 2339.2364    18.6231      .0200    31.9777  -999.2500     2.4321  -999.2500
 2339.3888    18.6868      .0142    33.0306  -999.2500     2.3742  -999.2500
 2339.5412    18.6355      .0275    35.2133  -999.2500     2.3480  -999.2500
 2339.6936    18.4472      .0416    32.6769  -999.2500     2.2834  -999.2500
 2339.8460    18.2071      .0290    27.0165  -999.2500     2.2404  -999.2500
 2339.9984    17.9552      .0095    26.2953  -999.2500     2.1933  -999.2500
 2340.1508    17.9385      .0074    26.4030  -999.2500     2.1976  -999.2500
 2340.3032    17.9387      .0082    27.3165  -999.2500     2.1984  -999.2500
 2340.4556    17.9264      .0116    29.0071  -999.2500     2.2072  -999.2500
 2340.6080    17.8813      .0108    30.6481  -999.2500     2.2178  -999.2500
 2340.7604    17.7963      .0122    31.9051  -999.2500     2.2239  -999.2500
 2340.9128    17.7606      .0173    34.2897  -999.2500     2.2371  -999.2500
 2341.0652    17.7962      .0257    37.2484  -999.2500     2.2445  -999.2500
 2341.2176    17.8034      .0388    37.7682  -999.2500     2.2598  -999.2500
 2341.3700    17.8436      .0483    37.9539  -999.2500     2.2820  -999.2500
 2341.5224    17.8984      .0465    41.5537  -999.2500     2.2791  -999.2500
 2341.6748    18.0087      .0590    44.2745  -999.2500     2.2832  -999.2500
 2341.8272    18.1135      .0734    44.7615  -999.2500     2.3023  -999.2500
 2341.9796    18.1158      .0702    43.4812  -999.2500     2.2964  -999.2500
 2342.1320    18.0495      .0413    39.7375  -999.2500     2.2699  -999.2500
 2342.2844    17.8513      .0319    35.8651  -999.2500     2.2514  -999.2500
 2342.4368    17.7291      .0308    32.5424  -999.2500     2.2402  -999.2500
 2342.5892    17.7052      .0246    31.5460  -999.2500     2.2264  -999.2500
 2342.7416    17.7018      .0206    32.4785  -999.2500     2.2164  -999.2500
 2342.8940    17.6457      .0235    33.8496  -999.2500     2.2243  -999.2500
 2343.0464    17.6271      .0232    35.5768  -999.2500     2.2270  -999.2500
 2343.1988    17.6229      .0226    37.4500  -999.2500     2.2336  -999.2500
 2343.3512    17.7020      .0382    38.9906  -999.2500     2.2455  -999.2500
 2343.5036    17.8393      .0467    39.5952  -999.2500     2.2629  -999.2500
 2343.6560    17.8411      .0467    37.3800  -999.2500     2.2643  -999.2500
 2343.8084    17.6533      .0342    33.6742  -999.2500     2.2529  -999.2500
 2343.9608    17.5980      .0222    30.1313  -999.2500     2.2152  -999.2500
 2344.1132    17.5922      .0114    27.4900  -999.2500     2.1907  -999.2500
 2344.2656    17.5752      .0058    25.7141  -999.2500     2.1854  -999.2500
 2344.4180    17.5289      .0029    23.9622  -999.2500     2.1810  -999.2500
 2344.5704    17.4335      .0017    22.5451  -999.2500     2.1807  -999.2500
 2344.7228    17.3954      .0089    22.2108  -999.2500     2.1856  -999.2500
 2344.8752    17.3760      .0194    22.5167  -999.2500     2.1960  -999.2500
 2345.0276    17.3830      .0262    23.6410  -999.2500     2.2028  -999.2500
 2345.1800    17.4295      .0273    23.8924  -999.2500     2.1913  -999.2500
 2345.3324    17.4448      .0356    24.6194  -999.2500     2.1797  -999.2500
 2345.4848    17.3758      .0431    26.4498  -999.2500     2.1734  -999.2500
 2345.6372    17.3819      .0427    27.7515  -999.2500     2.1643  -999.2500
 2345.7896    17.3545      .0397    27.0501  -999.2500     2.1531  -999.2500
 2345.9420    17.2114      .0382    26.1186  -999.2500     2.1507  -999.2500
 2346.0944    17.1968      .0389    25.1776  -999.2500     2.1405  -999.2500
 2346.2468    17.1979      .0341    25.0517  -999.2500     2.1339  -999.2500
 2346.3992    17.2084      .0178    24.7072  -999.2500     2.1196  -999.2500
 2346.5516    17.2401      .0151    23.9024  -999.2500     2.1030  -999.2500
 2346.7040    17.2299      .0228    23.3865  -999.2500     2.1071  -999.2500
 2346.8564    17.1890      .0342    23.0887  -999.2500     2.1131  -999.2500
 2347.0088    17.1889      .0468    23.1801  -999.2500     2.1253  -999.2500
 2347.1612    17.2298      .0542    23.1033  -999.2500     2.1502  -999.2500
 2347.3136    17.1891      .0474    23.0431  -999.2500     2.1616  -999.2500
 2347.4660    17.2303      .0370    23.4907  -999.2500     2.1691  -999.2500
 2347.6184    17.3949      .0271    23.9632  -999.2500     2.1645  -999.2500
