~VERSION INFORMATION
VERS.                                                 2.0:   CWLS Log ASCII Standard-VERSION 2.0
WRAP.                                                  NO:   One line per depth step
~Well Information Block
STRT.M                                           699.4124:   Top Depth
STOP.M                                          3782.7692:   Bottom Depth
STEP.M                                             .15240:   Depth Increment
NULL.                                            -999.250:   Null Value
FLD .                                             WILDCAT:   Field Name
WELL.                                              15/5-1:   NAME
WBN .                                              15/5-1:   WELLBORE
NATI.                                                 NOR:   COUNTRY
BHT1.DEGF                                            52.0:   BH TEMP 1
BS1 .IN                                             17.50:   BIT SIZE 1
CTRY.                                                 NOR:   COUNTRY
CBD1.M                                              194.0:   CSG 1 DRILL DEP
CBL1.M                                              192.0:   CSG 1 LOG DEP
CS1 .IN                                              30.0:   CSG 1 SIZE
COMP.                                         NORSK HYDRO:   OPERATOR
PDAT.                                                 MSL:   PERM DATUM
PROV.                                           NORTH SEA:   PROVINCE
COUN.                                     TREASURE SEEKER:   RIG NAME
SPUD.                                          1977/11/26:   SPUD DATE
LATI.                                        58 35 4.37 N:   SURF. LATITUDE
LONG.                                         1 39 8.35 E:   SURF. LONGITUDE
BTD1.                                            713.50 M:   TOTAL DEPTH 1
PBWE.                                              15/5-1:   PB WELL ID
APIN.                                              15/5-1:   PB WELLBORE ID
PBWS.                                                 all:   PB WELL NAME SET
~PARAMETER INFORMATION (log)
LNAM.                              FDC/CNL/GR  COMPOSITED:   NAME
LTYP.                                         DEPTH MATCH:   LOG TYPE
LSRV.                                            DEN/NEUT:   LOG SERVICE
LSOU.                                             SPT/NPD:   LOG SOURCE
LVSN.                                                   1:   LOG VERSION
BHIS.                                                   R:   BRIEF HISTORY
FHIS.                                             RAW-LIS:   FULL HISTORY
LCNM.                                        SCHLUMBERGER:   LOGGING CONTRACTOR
TOOL.                             FDC/CNL/GR (COMPOSITED):   TOOL STRING
~Curve Information Block
#MNEM.UNIT                                        API CODE    No Description
#=========                                        ========    == ===========
DEPT.M                                       00 001 00 00:     1  DEPTH
CALI.IN                                                  :     2  Caliper
DRHO.G/CC                                                :     3  Bulk density correction
GR.GAPI                                                  :     4  Gamma Ray
NPHI.%                                                   :     5  Neutron porosity
RHOB.G/CC                                                :     6  Bulk density
TENS.LB                                                  :     7  Cable Tension
~ASCII
# ...
 2141.7260    17.3778      .0254    48.9059  -999.2500     2.1309  -999.2500
 2141.8784    17.5854      .0383    47.1197  -999.2500     2.1423  -999.2500
 2142.0308    17.5936      .0518    45.5479  -999.2500     2.1507  -999.2500
 2142.1832    17.7008      .0501    43.1853  -999.2500     2.1550  -999.2500
 2142.3356    17.8061      .0535    41.6878  -999.2500     2.1569  -999.2500
 2142.4880    17.7281      .0394    41.8528  -999.2500     2.1470  -999.2500
 2142.6404    17.5385      .0260    42.5326  -999.2500     2.1475  -999.2500
 2142.7928    17.5481      .0350    43.2124  -999.2500     2.1492  -999.2500
 2142.9452    17.5403      .0234    41.4731  -999.2500     2.1258  -999.2500
 2143.0976    17.1939      .0061    42.2794  -999.2500     2.0877  -999.2500
 2143.2500    16.7663      .0049    44.7233  -999.2500     2.0736  -999.2500
 2143.4024    16.8867      .0061    48.0322  -999.2500     2.0596  -999.2500
 2143.5548    17.0126      .0169    50.1491  -999.2500     2.0559  -999.2500
 2143.7072    17.1335      .0141    50.9950  -999.2500     2.0586  -999.2500
 2143.8596    17.2506      .0138    51.1334  -999.2500     2.0652  -999.2500
 2144.0120    17.0171      .0221    50.9216  -999.2500     2.0679  -999.2500
 2144.1644    17.1206      .0280    49.8342  -999.2500     2.0662  -999.2500
 2144.3168    17.6267      .0141    47.9325  -999.2500     2.0592  -999.2500
 2144.4692    18.5094      .0216    45.8515  -999.2500     2.0627  -999.2500
 2144.6216    18.6314      .0291    44.9314  -999.2500     2.0634  -999.2500
 2144.7740    18.1783      .0314    44.4996  -999.2500     2.0503  -999.2500
 2144.9264    18.1996      .0336    44.7295  -999.2500     2.0413  -999.2500
 2145.0788    18.7159      .0395    45.5348  -999.2500     2.0409  -999.2500
 2145.2312    18.8366      .0446    46.3000  -999.2500     2.0391  -999.2500
 2145.3836    19.1570      .0381    46.1174  -999.2500     2.0351  -999.2500
 2145.5360    18.8717      .0313    46.2348  -999.2500     2.0488  -999.2500
 2145.6884    18.4721      .0244    47.5912  -999.2500     2.0726  -999.2500
 2145.8408    19.0227      .0178    48.9475  -999.2500     2.0963  -999.2500
 2145.9932    19.6461      .0178    48.7297  -999.2500     2.0983  -999.2500
 2146.1456    19.8933      .0240    47.5748  -999.2500     2.0964  -999.2500
 2146.2980    19.3847      .0506    44.9848  -999.2500     2.1031  -999.2500
 2146.4504    18.9091      .0498    44.5423  -999.2500     2.1035  -999.2500
 2146.6028    19.9468      .0455    45.5083  -999.2500     2.1024  -999.2500
 2146.7552    20.0001      .0367    46.0680  -999.2500     2.0957  -999.2500
 2146.9076    19.5178      .0248    44.4732  -999.2500     2.0780  -999.2500
 2147.0600    20.0163      .0130    43.0757  -999.2500     2.0824  -999.2500
 2147.2124    20.8900      .0314    41.8501  -999.2500     2.1020  -999.2500
 2147.3648    21.3621      .0493    41.5944  -999.2500     2.1166  -999.2500
 2147.5172    21.4959      .0591    41.6865  -999.2500     2.1277  -999.2500
 2147.6696    21.3618      .0595    42.3888  -999.2500     2.1389  -999.2500
 2147.8220    21.7143      .0547    43.4959  -999.2500     2.1502  -999.2500
 2147.9744    21.2412      .0499    43.1568  -999.2500     2.1503  -999.2500
 2148.1268    20.6049      .0378    44.4131  -999.2500     2.1343  -999.2500
 2148.2792    20.3585      .0194    46.2724  -999.2500     2.1110  -999.2500
 2148.4316    20.2074      .0031    45.5073  -999.2500     2.0858  -999.2500
 2148.5840    19.9687      .0070    44.6896  -999.2500     2.0586  -999.2500
 2148.7364    20.5183      .0109    43.8725  -999.2500     2.0283  -999.2500
 2148.8888    21.5881      .0126    42.0896  -999.2500     2.0080  -999.2500
 2149.0412    21.7664      .0091    39.5027  -999.2500     1.9934  -999.2500
 2149.1936    21.2350      .0119    39.4548  -999.2500     2.0103  -999.2500
 2149.3460    20.5553      .0281    42.3931  -999.2500     2.0596  -999.2500
 2149.4984    20.9580      .0442    44.8313  -999.2500     2.0940  -999.2500
 2149.6508    21.7559      .0474    46.8591  -999.2500     2.0749  -999.2500
 2149.8032    21.3846      .0413    47.2487  -999.2500     2.0655  -999.2500
 2149.9556    20.4512      .0291    46.7432  -999.2500     2.0764  -999.2500
 2150.1080    20.3172      .0318    47.4102  -999.2500     2.0947  -999.2500
 2150.2604    20.5528      .0366    47.6429  -999.2500     2.1138  -999.2500
 2150.4128    20.8918      .0404    46.7819  -999.2500     2.1237  -999.2500
 2150.5652    20.9088      .0434    44.1793  -999.2500     2.1277  -999.2500
 2150.7176    20.8014      .0296    41.5768  -999.2500     2.1075  -999.2500
 2150.8700    21.1617      .0188    39.2861  -999.2500     2.0817  -999.2500
 2151.0224    21.8748      .0316    38.5400  -999.2500     2.0552  -999.2500
 2151.1748    22.0307      .0380    38.6651  -999.2500     2.0358  -999.2500
 2151.3272    22.0305      .0278    37.3444  -999.2500     2.0170  -999.2500
 2151.4796    22.0300      .0133    36.0235  -999.2500     2.0083  -999.2500
 2151.6320    21.4374      .0094    34.7005  -999.2500     2.0259  -999.2500
 2151.7844    20.6471      .0076    33.3551  -999.2500     2.0434  -999.2500
 2151.9368    21.0618      .0143    31.3039  -999.2500     2.0544  -999.2500
 2152.0892    21.4682      .0136    31.2449  -999.2500     2.0530  -999.2500
 2152.2416    21.7564      .0034    33.7993  -999.2500     2.0583  -999.2500
 2152.3940    22.0258      .0165    36.7409  -999.2500     2.0326  -999.2500
 2152.5464    22.0114      .0210    39.3692  -999.2500     2.0205  -999.2500
 2152.6988    21.9967      .0266    40.9697  -999.2500     2.0389  -999.2500
 2152.8512    21.9350      .0255    40.7235  -999.2500     2.0526  -999.2500
 2153.0036    21.7451      .0164    39.8476  -999.2500     2.0543  -999.2500
 2153.1560    21.7656      .0099    38.4374  -999.2500     2.0534  -999.2500
 2153.3084    22.0177      .0034    36.3873  -999.2500     2.0484  -999.2500
 2153.4608    21.6468      .0003    35.5697  -999.2500     2.0362  -999.2500
 2153.6132    21.6271      .0005    35.8878  -999.2500     2.0125  -999.2500
 2153.7656    21.7769      .0008    32.3982  -999.2500     1.9855  -999.2500
 2153.9180    21.9229      .0035    29.9868  -999.2500     1.9529  -999.2500
 2154.0704    21.9389      .0155    31.5769  -999.2500     1.9230  -999.2500
 2154.2228    21.9550      .0243    33.6545  -999.2500     1.9103  -999.2500
 2154.3752    21.9711      .0295    35.3260  -999.2500     1.9057  -999.2500
 2154.5276    21.9791      .0300    33.0532  -999.2500     1.9446  -999.2500
 2154.6800    21.9757      .0164    30.7803  -999.2500     1.9767  -999.2500
 2154.8324    21.9722      .0027    30.9301  -999.2500     1.9868  -999.2500
 2154.9848    21.9688      .0076    30.2925  -999.2500     1.9970  -999.2500
 2155.1372    21.9654      .0065    29.6495  -999.2500     2.0058  -999.2500
 2155.2896    21.9619     -.0030    29.0055  -999.2500     2.0069  -999.2500
 2155.4420    21.9585      .0034    29.3248  -999.2500     2.0046  -999.2500
 2155.5944    21.7318      .0113    30.4193  -999.2500     1.9824  -999.2500
 2155.7468    21.6029      .0262    31.6644  -999.2500     1.9668  -999.2500
 2155.8992    21.8326      .0350    32.9643  -999.2500     1.9807  -999.2500
 2156.0516    21.9780      .0129    33.7407  -999.2500     2.0586  -999.2500
 2156.2040    21.7937      .0171    34.4959  -999.2500     2.1010  -999.2500
 2156.3564    21.9504      .0171    35.4566  -999.2500     2.0894  -999.2500
 2156.5088    22.0362      .0108    34.7182  -999.2500     2.0642  -999.2500
 2156.6612    22.0398      .0128    34.1851  -999.2500     2.0509  -999.2500
 2156.8136    22.0433      .0150    35.1962  -999.2500     2.0606  -999.2500
 2156.9660    22.0469      .0186    36.0933  -999.2500     2.0779  -999.2500
 2157.1184    22.0504      .0169    34.5935  -999.2500     2.0851  -999.2500
 2157.2708    21.3200      .0086    33.6223  -999.2500     2.0756  -999.2500
 2157.4232    20.1669      .0095    33.5688  -999.2500     2.0393  -999.2500
