~VERSION INFORMATION
VERS.                                                 2.0:   CWLS Log ASCII Standard-VERSION 2.0
WRAP.                                                  NO:   One line per depth step
~Well Information Block
STRT.M                                           699.4124:   Top Depth
STOP.M                                          3782.7692:   Bottom Depth
STEP.M                                             .15240:   Depth Increment
NULL.                                            -999.250:   Null Value
FLD .                                             WILDCAT:   Field Name
WELL.                                              15/5-1:   NAME
WBN .                                              15/5-1:   WELLBORE
NATI.                                                 NOR:   COUNTRY
BHT1.DEGF                                            52.0:   BH TEMP 1
BS1 .IN                                             17.50:   BIT SIZE 1
CTRY.                                                 NOR:   COUNTRY
CBD1.M                                              194.0:   CSG 1 DRILL DEP
CBL1.M                                              192.0:   CSG 1 LOG DEP
CS1 .IN                                              30.0:   CSG 1 SIZE
COMP.                                         NORSK HYDRO:   OPERATOR
PDAT.                                                 MSL:   PERM DATUM
PROV.                                           NORTH SEA:   PROVINCE
COUN.                                     TREASURE SEEKER:   RIG NAME
SPUD.                                          1977/11/26:   SPUD DATE
LATI.                                        58 35 4.37 N:   SURF. LATITUDE
LONG.                                         1 39 8.35 E:   SURF. LONGITUDE
BTD1.                                            713.50 M:   TOTAL DEPTH 1
PBWE.                                              15/5-1:   PB WELL ID
APIN.                                              15/5-1:   PB WELLBORE ID
PBWS.                                                 all:   PB WELL NAME SET
~PARAMETER INFORMATION (log)
LNAM.                              FDC/CNL/GR  COMPOSITED:   NAME
LTYP.                                         DEPTH MATCH:   LOG TYPE
LSRV.                                            DEN/NEUT:   LOG SERVICE
LSOU.                                             SPT/NPD:   LOG SOURCE
LVSN.                                                   1:   LOG VERSION
BHIS.                                                   R:   BRIEF HISTORY
FHIS.                                             RAW-LIS:   FULL HISTORY
LCNM.                                        SCHLUMBERGER:   LOGGING CONTRACTOR
TOOL.                             FDC/CNL/GR (COMPOSITED):   TOOL STRING
~Curve Information Block
#MNEM.UNIT                                        API CODE    No Description
#=========                                        ========    == ===========
DEPT.M                                       00 001 00 00:     1  DEPTH
CALI.IN                                                  :     2  Caliper
DRHO.G/CC                                                :     3  Bulk density correction
GR.GAPI                                                  :     4  Gamma Ray
NPHI.%                                                   :     5  Neutron porosity
RHOB.G/CC                                                :     6  Bulk density
TENS.LB                                                  :     7  Cable Tension
~ASCII
# ...
 3156.1004    16.3540      .0162    22.8360    18.8860     2.5870  -999.2500
 3156.2528    16.3415      .0115    21.6159    18.4941     2.5752  -999.2500
 3156.4052    16.3288      .0064    20.1158    17.7064     2.5645  -999.2500
 3156.5576    16.3151     -.0018    18.8625    17.0193     2.5631  -999.2500
 3156.7100    16.3058     -.0086    18.9979    16.9201     2.5808  -999.2500
 3156.8624    16.3000      .0033    19.1965    17.0620     2.5999  -999.2500
 3157.0148    16.2775      .0224    18.7358    17.4731     2.6201  -999.2500
 3157.1672    16.2627      .0421    17.7073    17.8237     2.6412  -999.2500
 3157.3196    16.2764      .0488    17.1421    18.1182     2.6548  -999.2500
 3157.4720    16.2740      .0467    16.3964    18.1797     2.6613  -999.2500
 3157.6244    16.2716      .0320    15.8153    17.8805     2.6592  -999.2500
 3157.7768    16.2693      .0190    16.1318    17.4917     2.6304  -999.2500
 3157.9292    16.2669      .0150    16.4558    17.1038     2.6057  -999.2500
 3158.0816    16.2645      .0206    16.8996    16.7518     2.6125  -999.2500
 3158.2340    16.2622      .0260    17.6257    16.7817     2.6202  -999.2500
 3158.3864    16.2501      .0293    18.1623    17.6385     2.6251  -999.2500
 3158.5388    16.2052      .0296    18.2957    18.5134     2.6220  -999.2500
 3158.6912    16.1591      .0275    18.8415    18.9209     2.6128  -999.2500
 3158.8436    16.1529      .0205    19.7465    18.8854     2.6026  -999.2500
 3158.9960    16.1505      .0197    20.4865    18.6519     2.5932  -999.2500
 3159.1484    16.1459      .0249    20.7661    18.3678     2.5907  -999.2500
 3159.3008    16.1296      .0231    20.7011    18.0500     2.5976  -999.2500
 3159.4532    16.1135      .0175    20.2211    17.8123     2.6019  -999.2500
 3159.6056    16.1211      .0104    19.4664    17.8927     2.5981  -999.2500
 3159.7580    16.1187      .0065    19.1234    18.1582     2.5825  -999.2500
 3159.9104    16.1164      .0092    19.5960    18.1729     2.5736  -999.2500
 3160.0628    16.1217      .0139    20.0229    18.0844     2.5835  -999.2500
 3160.2152    16.1315      .0189    19.6617    17.6930     2.6061  -999.2500
 3160.3676    16.1292      .0223    18.4212    16.9169     2.6238  -999.2500
 3160.5200    16.1268      .0185    17.2240    16.1735     2.6246  -999.2500
 3160.6724    16.1236      .0083    16.6408    15.6977     2.6128  -999.2500
 3160.8248    16.1210      .0049    16.6676    15.8075     2.6059  -999.2500
 3160.9772    16.1222      .0070    17.1642    16.2409     2.6068  -999.2500
 3161.1296    16.1235      .0059    17.4592    16.5936     2.6094  -999.2500
 3161.2820    16.1278      .0073    17.0853    16.6799     2.6120  -999.2500
 3161.4344    16.1325      .0157    16.4118    16.5773     2.6129  -999.2500
 3161.5868    16.1302      .0224    15.8011    16.2917     2.6111  -999.2500
 3161.7392    16.1278      .0191    15.5896    16.0546     2.6125  -999.2500
 3161.8916    16.1254      .0197    15.7196    16.0732     2.6199  -999.2500
 3162.0440    16.1230      .0232    15.9408    16.2359     2.6290  -999.2500
 3162.1964    16.1279      .0218    16.3313    16.5849     2.6328  -999.2500
 3162.3488    16.1354      .0256    16.9813    17.0135     2.6310  -999.2500
 3162.5012    16.1359      .0394    17.7763    17.3779     2.6313  -999.2500
 3162.6536    16.1335      .0434    17.8588    17.6348     2.6382  -999.2500
 3162.8060    16.1311      .0409    17.2015    17.7532     2.6459  -999.2500
 3162.9584    16.1288      .0408    16.3582    17.8508     2.6466  -999.2500
 3163.1108    16.1264      .0369    16.0316    18.0111     2.6346  -999.2500
 3163.2632    16.1240      .0330    16.4078    18.6254     2.6159  -999.2500
 3163.4156    16.1162      .0355    17.2572    19.5825     2.6009  -999.2500
 3163.5680    16.1158      .0437    18.2839    20.3594     2.5935  -999.2500
 3163.7204    16.1368      .0535    19.0638    20.9744     2.5894  -999.2500
 3163.8728    16.1485      .0557    19.4469    21.3931     2.5926  -999.2500
 3164.0252    16.1375      .0619    19.3073    20.6313     2.6038  -999.2500
 3164.1776    16.1473      .0522    17.4127    18.7987     2.6066  -999.2500
 3164.3300    16.1069      .0210    15.8457    16.9285     2.6065  -999.2500
 3164.4824    16.0236      .0130    15.4642    15.9840     2.6136  -999.2500
 3164.6348    15.9961      .0218    15.6720    15.6634     2.6235  -999.2500
 3164.7872    15.9976      .0260    16.0216    16.2794     2.6334  -999.2500
 3164.9396    15.9990      .0227    16.3703    17.2088     2.6342  -999.2500
 3165.0920    16.0004      .0168    16.8640    17.7903     2.6309  -999.2500
 3165.2444    16.0018      .0116    17.4844    17.7638     2.6276  -999.2500
 3165.3968    16.0032      .0157    18.1305    17.6266     2.6267  -999.2500
 3165.5492    16.0046      .0214    18.4643    17.7232     2.6247  -999.2500
 3165.7016    16.0060      .0172    18.1645    18.0126     2.6144  -999.2500
 3165.8540    16.0074      .0105    17.5849    18.1377     2.6090  -999.2500
 3166.0064    16.0088      .0136    16.8954    18.3062     2.6132  -999.2500
 3166.1588    16.0088      .0168    16.1809    18.1433     2.6186  -999.2500
 3166.3112    16.0068      .0116    15.3690    17.6383     2.6237  -999.2500
 3166.4636    16.0044      .0169    14.4792    17.0692     2.6267  -999.2500
 3166.6160    16.0020      .0158    13.5798    16.3960     2.6201  -999.2500
 3166.7684    15.9997      .0136    14.0151    15.7307     2.6099  -999.2500
 3166.9208    15.9973      .0070    14.1659    15.3606     2.5994  -999.2500
 3167.0732    15.9949      .0014    13.8166    15.3857     2.5899  -999.2500
 3167.2256    15.9926      .0037    14.3221    15.7506     2.5855  -999.2500
 3167.3780    15.9902      .0015    14.9940    16.3380     2.5819  -999.2500
 3167.5304    15.9878     -.0015    15.3711    16.9552     2.5784  -999.2500
 3167.6828    15.9854      .0045    15.6300    17.5696     2.5798  -999.2500
 3167.8352    15.9831      .0150    15.8790    18.1827     2.5858  -999.2500
 3167.9876    15.9825      .0280    16.2298    18.8519     2.5966  -999.2500
 3168.1400    15.9852      .0400    16.6121    19.4967     2.6071  -999.2500
 3168.2924    15.9882      .0202    16.2242    19.2427     2.6039  -999.2500
 3168.4448    15.9912      .0108    15.6791    18.5994     2.5995  -999.2500
 3168.5972    15.9941      .0107    15.5073    17.7520     2.5952  -999.2500
 3168.7496    15.9971      .0168    15.3607    17.3204     2.6014  -999.2500
 3168.9020    16.0001      .0231    15.2142    17.9133     2.6050  -999.2500
 3169.0544    16.0030      .0166    16.2266    18.9208     2.5948  -999.2500
 3169.2068    16.0160      .0229    17.5645    19.4368     2.5871  -999.2500
 3169.3592    16.0312      .0196    18.5066    19.1467     2.5894  -999.2500
 3169.5116    16.0258      .0056    17.4131    18.7503     2.5918  -999.2500
 3169.6640    16.0031     -.0000    16.0606    15.6021     2.5942  -999.2500
 3169.8164    15.9942     -.0051    15.1051    14.6201     2.5966  -999.2500
 3169.9688    15.9954      .0052    14.4684    14.6602     2.5989  -999.2500
 3170.1212    15.9965      .0156    13.8278    15.2273     2.6060  -999.2500
 3170.2736    15.9976      .0153    12.5994    15.0390     2.6159  -999.2500
 3170.4260    15.9988      .0206    12.6461    14.7914     2.6230  -999.2500
 3170.5784    15.9999      .0220    13.3441    15.1671     2.6211  -999.2500
 3170.7308    16.0075      .0214    13.8713    15.2357     2.6156  -999.2500
 3170.8832    16.0162      .0278    13.6364    15.3668     2.6102  -999.2500
 3171.0356    16.0248      .0282    13.3718    15.7050     2.6101  -999.2500
 3171.1880    16.0317      .0222    13.4315    15.8198     2.6099  -999.2500
 3171.3404    16.0324      .0262    13.7319    15.8256     2.6083  -999.2500
 3171.4928    16.0332      .0099    13.1285    15.7133     2.6016  -999.2500
 3171.6452    16.0340      .0128    13.0468    15.1871     2.5950  -999.2500
 3171.7976    16.0348      .0121    13.4530    14.9151     2.5991  -999.2500
