~VERSION INFORMATION
VERS.                                                 2.0:   CWLS Log ASCII Standard-VERSION 2.0
WRAP.                                                  NO:   One line per depth step
~Well Information Block
STRT.M                                           699.4124:   Top Depth
STOP.M                                          3782.7692:   Bottom Depth
STEP.M                                             .15240:   Depth Increment
NULL.                                            -999.250:   Null Value
FLD .                                             WILDCAT:   Field Name
WELL.                                              15/5-1:   NAME
WBN .                                              15/5-1:   WELLBORE
NATI.                                                 NOR:   COUNTRY
BHT1.DEGF                                            52.0:   BH TEMP 1
BS1 .IN                                             17.50:   BIT SIZE 1
CTRY.                                                 NOR:   COUNTRY
CBD1.M                                              194.0:   CSG 1 DRILL DEP
CBL1.M                                              192.0:   CSG 1 LOG DEP
CS1 .IN                                              30.0:   CSG 1 SIZE
COMP.                                         NORSK HYDRO:   OPERATOR
PDAT.                                                 MSL:   PERM DATUM
PROV.                                           NORTH SEA:   PROVINCE
COUN.                                     TREASURE SEEKER:   RIG NAME
SPUD.                                          1977/11/26:   SPUD DATE
LATI.                                        58 35 4.37 N:   SURF. LATITUDE
LONG.                                         1 39 8.35 E:   SURF. LONGITUDE
BTD1.                                            713.50 M:   TOTAL DEPTH 1
PBWE.                                              15/5-1:   PB WELL ID
APIN.                                              15/5-1:   PB WELLBORE ID
PBWS.                                                 all:   PB WELL NAME SET
~PARAMETER INFORMATION (log)
LNAM.                              FDC/CNL/GR  COMPOSITED:   NAME
LTYP.                                         DEPTH MATCH:   LOG TYPE
LSRV.                                            DEN/NEUT:   LOG SERVICE
LSOU.                                             SPT/NPD:   LOG SOURCE
LVSN.                                                   1:   LOG VERSION
BHIS.                                                   R:   BRIEF HISTORY
FHIS.                                             RAW-LIS:   FULL HISTORY
LCNM.                                        SCHLUMBERGER:   LOGGING CONTRACTOR
TOOL.                             FDC/CNL/GR (COMPOSITED):   TOOL STRING
~Curve Information Block
#MNEM.UNIT                                        API CODE    No Description
#=========                                        ========    == ===========
DEPT.M                                       00 001 00 00:     1  DEPTH
CALI.IN                                                  :     2  Caliper
DRHO.G/CC                                                :     3  Bulk density correction
GR.GAPI                                                  :     4  Gamma Ray
NPHI.%                                                   :     5  Neutron porosity
RHOB.G/CC                                                :     6  Bulk density
TENS.LB                                                  :     7  Cable Tension
~ASCII
# ...
 3362.1452    14.0130     -.0008    20.1549    17.7138     2.6298  -999.2500
 3362.2976    14.0079     -.0032    20.4123    18.4851     2.6218  -999.2500
 3362.4500    14.0030     -.0031    20.9935    19.2450     2.6186  -999.2500
 3362.6024    13.9989     -.0009    22.3555    19.9122     2.6170  -999.2500
 3362.7548    13.9950      .0017    22.6285    20.1641     2.6154  -999.2500
 3362.9072    13.9911      .0027    22.1234    20.1818     2.6138  -999.2500
 3363.0596    13.9872      .0031    22.1535    20.1569     2.6156  -999.2500
 3363.2120    13.9833      .0056    22.2777    20.1156     2.6210  -999.2500
 3363.3644    13.9794      .0104    22.2840    20.0843     2.6274  -999.2500
 3363.5168    13.9755      .0162    23.2949    20.1882     2.6333  -999.2500
 3363.6692    13.9716      .0195    25.1507    20.4983     2.6370  -999.2500
 3363.8216    13.9702      .0164    26.6886    20.4922     2.6337  -999.2500
 3363.9740    13.9722      .0101    27.4595    20.2209     2.6299  -999.2500
 3364.1264    13.9752      .0131    27.2473    20.0370     2.6346  -999.2500
 3364.2788    13.9783      .0247    26.9244    20.0635     2.6451  -999.2500
 3364.4312    13.9814      .0326    27.6715    20.2693     2.6556  -999.2500
 3364.5836    13.9844      .0318    29.1355    20.5261     2.6593  -999.2500
 3364.7360    13.9875      .0245    30.0829    20.6416     2.6498  -999.2500
 3364.8884    13.9905      .0219    30.1051    20.5752     2.6331  -999.2500
 3365.0408    14.0011      .0329    29.6336    20.4480     2.6258  -999.2500
 3365.1932    14.0288      .0478    29.5029    20.2227     2.6327  -999.2500
 3365.3456    14.0670      .0529    30.1293    19.9625     2.6420  -999.2500
 3365.4980    14.1051      .0414    31.1260    20.0111     2.6376  -999.2500
 3365.6504    14.1431      .0240    32.0143    20.7496     2.6156  -999.2500
 3365.8028    14.1747      .0224    31.7818    22.0140     2.6034  -999.2500
 3365.9552    14.1944      .0389    30.3552    23.2726     2.6145  -999.2500
 3366.1076    14.2099      .0605    29.3521    24.4670     2.6287  -999.2500
 3366.2600    14.2226      .0776    29.2532    25.4306     2.6429  -999.2500
 3366.4124    14.2313      .0867    29.5012    25.9559     2.6537  -999.2500
 3366.5648    14.2400      .0767    29.6583    26.0677     2.6532  -999.2500
 3366.7172    14.2486      .0631    29.7952    25.9119     2.6369  -999.2500
 3366.8696    14.2547      .0520    30.5469    25.6275     2.6119  -999.2500
 3367.0220    14.2442      .0459    31.8668    25.4373     2.5974  -999.2500
 3367.1744    14.2011      .0302    32.9445    25.2721     2.5942  -999.2500
 3367.3268    14.1334      .0187    33.9614    25.3524     2.5909  -999.2500
 3367.4792    14.0708      .0140    34.7704    25.8018     2.5901  -999.2500
 3367.6316    14.0683      .0130    35.4265    26.2888     2.5970  -999.2500
 3367.7840    14.0720      .0199    36.0499    26.6318     2.6058  -999.2500
 3367.9364    14.0756      .0281    36.6312    26.0989     2.6110  -999.2500
 3368.0888    14.0793      .0245    36.8372    25.6371     2.6108  -999.2500
 3368.2412    14.0830      .0199    35.8736    25.9416     2.6055  -999.2500
 3368.3936    14.0862      .0129    34.4423    26.2460     2.6003  -999.2500
 3368.5460    14.0865      .0079    33.7457    26.5611     2.5971  -999.2500
 3368.6984    14.0832      .0129    33.2396    26.9308     2.6036  -999.2500
 3368.8508    14.0799      .0033    32.7997    27.3239     2.6026  -999.2500
 3369.0032    14.0766     -.0028    31.7064    27.6579     2.6006  -999.2500
 3369.1556    14.0732      .0007    30.5140    27.5331     2.6010  -999.2500
 3369.3080    14.0699      .0057    29.3527    26.9511     2.6069  -999.2500
 3369.4604    14.0666      .0113    28.3502    25.2658     2.6102  -999.2500
 3369.6128    14.0633      .0119    27.3491    23.2971     2.6028  -999.2500
 3369.7652    14.0599      .0094    26.4234    21.8663     2.5952  -999.2500
 3369.9176    14.0566      .0105    26.8646    20.5470     2.5964  -999.2500
 3370.0700    14.0533      .0163    27.3822    20.3003     2.6063  -999.2500
 3370.2224    14.0500      .0240    27.9005    20.0337     2.6169  -999.2500
 3370.3748    14.0466      .0222    28.4186    19.7253     2.6104  -999.2500
 3370.5272    14.0431      .0107    28.2410    19.3114     2.5959  -999.2500
 3370.6796    14.0435      .0014    28.0115    19.1159     2.5814  -999.2500
 3370.8320    14.0702      .0072    27.3521    19.3164     2.5679  -999.2500
 3370.9844    14.0291      .0033    25.2649    19.2022     2.5597  -999.2500
 3371.1368    13.9200      .0014    23.4442    18.6881     2.5532  -999.2500
 3371.2892    13.9091      .0091    22.6873    18.2930     2.5549  -999.2500
 3371.4416    13.8517      .0247    23.0096    18.3936     2.5685  -999.2500
 3371.5940    13.7574      .0329    24.0861    18.6529     2.5826  -999.2500
 3371.7464    13.6631      .0295    24.7853    19.2005     2.5944  -999.2500
 3371.8988    13.5987      .0324    25.1327    19.8255     2.6061  -999.2500
 3372.0512    13.5823      .0443    25.7558    20.4926     2.6241  -999.2500
 3372.2036    13.5814      .0459    26.5118    20.5996     2.6333  -999.2500
 3372.3560    13.5804      .0365    27.0710    19.8622     2.6251  -999.2500
 3372.5084    13.5794      .0308    27.0278    18.9703     2.6219  -999.2500
 3372.6608    13.5784      .0351    26.5788    18.2004     2.6268  -999.2500
 3372.8132    13.5774      .0376    25.9818    17.8069     2.6233  -999.2500
 3372.9656    13.5764      .0392    26.2673    17.6986     2.6141  -999.2500
 3373.1180    13.5754      .0386    27.2998    17.9141     2.6045  -999.2500
 3373.2704    13.5744      .0266    27.9469    18.6426     2.5941  -999.2500
 3373.4228    13.5735      .0146    27.9763    19.2469     2.5703  -999.2500
 3373.5752    13.5724      .0034    27.1195    18.8210     2.5582  -999.2500
 3373.7276    13.5685     -.0033    25.8407    18.6372     2.5690  -999.2500
 3373.8800    13.5540     -.0058    26.3404    19.0019     2.5813  -999.2500
 3374.0324    13.5454     -.0026    27.5843    20.1721     2.5891  -999.2500
 3374.1848    13.5620      .0003    28.5452    21.0910     2.5884  -999.2500
 3374.3372    13.5662      .0026    28.2164    21.0872     2.5809  -999.2500
 3374.4896    13.5351      .0056    28.1538    20.6985     2.5706  -999.2500
 3374.6420    13.5471      .0106    28.2286    20.4730     2.5644  -999.2500
 3374.7944    13.5865      .0166    28.9541    20.5211     2.5675  -999.2500
 3374.9468    13.6254      .0117    29.3036    21.4263     2.5665  -999.2500
 3375.0992    13.6403      .0016    28.6976    22.5528     2.5606  -999.2500
 3375.2516    13.6441     -.0005    27.8681    23.0988     2.5546  -999.2500
 3375.4040    13.6480      .0032    27.5165    22.7737     2.5553  -999.2500
 3375.5564    13.6518      .0213    28.1802    22.1712     2.5680  -999.2500
 3375.7088    13.6557      .0419    29.0873    22.0513     2.5909  -999.2500
 3375.8612    13.6595      .0569    30.0643    22.0183     2.6147  -999.2500
 3376.0136    13.6695      .0631    30.5044    22.1789     2.6228  -999.2500
 3376.1660    13.6906      .0549    30.7602    22.3791     2.6215  -999.2500
 3376.3184    13.7108      .0467    31.9052    22.6054     2.6054  -999.2500
 3376.4708    13.7218      .0419    31.9369    22.9142     2.5900  -999.2500
 3376.6232    13.7167      .0444    31.0402    22.9486     2.5792  -999.2500
 3376.7756    13.7115      .0322    31.3910    22.8857     2.5766  -999.2500
 3376.9280    13.7106      .0197    31.8143    22.9005     2.5800  -999.2500
 3377.0804    13.7172      .0100    31.6825    22.9879     2.5818  -999.2500
 3377.2328    13.7347      .0016    30.3451    23.1093     2.5790  -999.2500
 3377.3852    13.7522      .0117    31.9352    24.4987     2.5764  -999.2500
 3377.5376    13.7698      .0219    33.7912    26.2343     2.5639  -999.2500
 3377.6900    13.7873      .0318    36.1527    27.7348     2.5524  -999.2500
 3377.8424    13.8132      .0415    38.9833    28.6041     2.5413  -999.2500
