~VERSION INFORMATION
VERS.                                                 2.0:   CWLS Log ASCII Standard-VERSION 2.0
WRAP.                                                  NO:   One line per depth step
~Well Information Block
STRT.M                                           699.4124:   Top Depth
STOP.M                                          3782.7692:   Bottom Depth
STEP.M                                             .15240:   Depth Increment
NULL.                                            -999.250:   Null Value
FLD .                                             WILDCAT:   Field Name
WELL.                                              15/5-1:   NAME
WBN .                                              15/5-1:   WELLBORE
NATI.                                                 NOR:   COUNTRY
BHT1.DEGF                                            52.0:   BH TEMP 1
BS1 .IN                                             17.50:   BIT SIZE 1
CTRY.                                                 NOR:   COUNTRY
CBD1.M                                              194.0:   CSG 1 DRILL DEP
CBL1.M                                              192.0:   CSG 1 LOG DEP
CS1 .IN                                              30.0:   CSG 1 SIZE
COMP.                                         NORSK HYDRO:   OPERATOR
PDAT.                                                 MSL:   PERM DATUM
PROV.                                           NORTH SEA:   PROVINCE
COUN.                                     TREASURE SEEKER:   RIG NAME
SPUD.                                          1977/11/26:   SPUD DATE
LATI.                                        58 35 4.37 N:   SURF. LATITUDE
LONG.                                         1 39 8.35 E:   SURF. LONGITUDE
BTD1.                                            713.50 M:   TOTAL DEPTH 1
PBWE.                                              15/5-1:   PB WELL ID
APIN.                                              15/5-1:   PB WELLBORE ID
PBWS.                                                 all:   PB WELL NAME SET
~PARAMETER INFORMATION (log)
LNAM.                              FDC/CNL/GR  COMPOSITED:   NAME
LTYP.                                         DEPTH MATCH:   LOG TYPE
LSRV.                                            DEN/NEUT:   LOG SERVICE
LSOU.                                             SPT/NPD:   LOG SOURCE
LVSN.                                                   1:   LOG VERSION
BHIS.                                                   R:   BRIEF HISTORY
FHIS.                                             RAW-LIS:   FULL HISTORY
LCNM.                                        SCHLUMBERGER:   LOGGING CONTRACTOR
TOOL.                             FDC/CNL/GR (COMPOSITED):   TOOL STRING
~Curve Information Block
#MNEM.UNIT                                        API CODE    No Description
#=========                                        ========    == ===========
DEPT.M                                       00 001 00 00:     1  DEPTH
CALI.IN                                                  :     2  Caliper
DRHO.G/CC                                                :     3  Bulk density correction
GR.GAPI                                                  :     4  Gamma Ray
NPHI.%                                                   :     5  Neutron porosity
RHOB.G/CC                                                :     6  Bulk density
TENS.LB                                                  :     7  Cable Tension
~ASCII
# ...
 3568.1900     8.3276      .0202    39.0944    13.4192     2.3539  1225.3064
 3568.3424     8.3459      .0218    42.2478    13.7682     2.3654  1222.5894
 3568.4948     8.3469      .0055    45.5249    14.1178     2.3763  1215.7380
 3568.6472     8.3462     -.0005    47.9518    13.9229     2.3926  1215.9270
 3568.7996     8.3465      .0006    47.5839    13.3191     2.4016  1188.0112
 3568.9520     8.3543      .0036    44.1600    13.1475     2.4074  1142.1663
 3569.1044     8.3459      .0060    40.7234    13.0968     2.4058  1121.9175
 3569.2568     8.3457      .0060    40.3117    13.2184     2.3895  1121.8408
 3569.4092     8.3354      .0060    42.8215    13.5214     2.3940  1117.3928
 3569.5616     8.3451      .0059    45.1730    13.8244     2.4120  1162.3740
 3569.7140     8.3298      .0045    45.2715    14.1274     2.4261  1213.9172
 3569.8664     8.3389     -.0006    44.0426    14.4308     2.4205  1244.5195
 3570.0188     8.3370     -.0057    43.6121    14.7338     2.4150  1255.0830
 3570.1712     8.3440     -.0092    42.3859    15.0291     2.4096  1285.5662
 3570.3236     8.3636     -.0038    41.1537    15.2812     2.4041  1226.7649
 3570.4760     8.3452      .0004    40.0732    15.2226     2.3961  1209.3669
 3570.6284     8.3521     -.0025    39.8052    15.1633     2.3822  1188.9063
 3570.7808     8.3429     -.0064    39.8968    15.0956     2.3797  1179.1226
 3570.9332     8.3329     -.0071    40.5314    14.9822     2.3879  1139.2419
 3571.0856     8.3424     -.0052    43.1323    14.8686     2.3811  1139.3662
 3571.2380     8.3835     -.0034    42.3030    14.7516     2.3678  1140.4775
 3571.3904     8.3938      .0032    39.1438    14.4519     2.3571  1149.6926
 3571.5428     8.4015      .0101    36.5973    13.8407     2.3472  1163.3999
 3571.6952     8.4012      .0171    36.5880    13.2340     2.3404  1202.1326
 3571.8476     8.3970      .0240    35.8725    12.7136     2.3541  1232.5696
 3572.0000     8.3715      .0195    34.2751    12.5821     2.3455  1246.7852
 3572.1524     8.3605      .0086    34.1711    12.7289     2.3395  1233.8423
 3572.3048     8.3403      .0082    34.9803    12.8437     2.3394  1252.1248
 3572.4572     8.3234      .0078    35.1441    12.7317     2.3342  1237.7922
 3572.6096     8.3325      .0067    34.7512    12.6194     2.3267  1216.0447
 3572.7620     8.3351      .0045    34.6261    12.6725     2.3300  1185.9973
 3572.9144     8.3278      .0051    34.1005    12.8961     2.3418  1161.4893
 3573.0668     8.3389      .0078    33.2826    13.1185     2.3575  1135.8333
 3573.2192     8.3975      .0100    32.5371    13.3413     2.3605  1151.9602
 3573.3716     8.3982      .0119    32.2896    13.2892     2.3595  1175.8528
 3573.5240     8.4069      .0137    32.4255    13.1317     2.3624  1199.4763
 3573.6764     8.3993      .0116    32.8463    12.9922     2.3612  1229.9407
 3573.8288     8.3974      .0072    33.0883    13.0296     2.3730  1249.6650
 3573.9812     8.4171      .0028    33.7818    13.0672     2.3798  1271.6716
 3574.1336     8.4367     -.0016    33.7452    13.1048     2.3699  1264.8730
 3574.2860     8.4407     -.0012    33.7225    13.1651     2.3542  1272.1877
 3574.4384     8.4459      .0066    34.5709    13.2305     2.3428  1228.0967
 3574.5908     8.4260      .0148    34.9832    13.2915     2.3545  1213.7490
 3574.7432     8.4157      .0230    34.5651    13.1253     2.3725  1222.6792
 3574.8956     8.4322      .0289    33.4030    12.9592     2.3876  1174.6230
 3575.0480     8.4625      .0268    32.2389    13.1274     2.3877  1189.8674
 3575.2004     8.4200      .0135    31.5398    13.3409     2.3686  1174.1299
 3575.3528     8.4338      .0003    31.5427    13.5544     2.3590  1209.0291
 3575.5052     8.4208     -.0004    31.0391    13.7679     2.3590  1223.8569
 3575.6576     8.4363      .0036    31.1947    13.9800     2.3611  1256.3643
 3575.8100     8.4267      .0097    32.6662    13.5346     2.3649  1279.7397
 3575.9624     8.4276      .0080    34.1171    13.2067     2.3692  1333.9277
 3576.1148     8.4171      .0037    35.1476    13.2802     2.3666  1317.5759
 3576.2672     8.4475      .0025    35.3342    13.0688     2.3618  1256.3774
 3576.4196     8.4585      .0028    35.5640    12.7632     2.3643  1038.2571
 3576.5720     8.4687      .0031    35.3821    12.9071     2.3607   836.3794
 3576.7244     8.4694      .0081    35.7314    13.1162     2.3589   642.0632
 3576.8768     8.4787      .0165    34.3850    13.0977     2.3666   740.5275
 3577.0292     8.4790      .0248    34.8044    13.0794     2.3742   922.8485
 3577.1816     8.4793      .0247    36.4829    13.0611     2.3692  1052.1650
 3577.3340     8.4796      .0158    37.9138    12.9140     2.3624  1079.2075
 3577.4864     8.4899      .0068    36.9649    12.7567     2.3655  1109.9451
 3577.6388     8.4802     -.0021    34.9025    12.7971     2.3685  1140.6824
 3577.7912     8.4805     -.0004    33.8873    12.9388     2.3654  1164.1787
 3577.9436     8.4808      .0021    33.2290    12.8837     2.3684  1174.1299
 3578.0960     8.4811      .0035    33.5309    12.8286     2.3794  1174.1299
 3578.2484     8.4814      .0014    33.7902    12.7738     2.3722  1114.6382
 3578.4008     8.4818      .0070    33.3910    12.8838     2.3845  1104.4775
 3578.5532     8.5020      .0116    33.1797    13.1762     2.3753  1071.3918
 3578.7056     8.5023      .0055    34.2542    13.4846     2.3545  1040.0962
 3578.8580     8.4871     -.0006    34.5964    13.5233     2.3333  1051.3264
 3579.0104     8.4154      .0003    33.9476    13.5620     2.3336  1020.6602
 3579.1628     8.4633      .0049    33.2982    13.5838     2.3475  1084.8726
 3579.3152     8.4636      .0095    33.2133    13.4461     2.3418  1114.4277
 3579.4676     8.4639      .0127    34.5545    13.6305     2.3535  1131.2961
 3579.6200     8.4643      .0139    36.0077    13.9001     2.3625  1175.9873
 3579.7724     8.4745      .0152    35.5864    14.2934     2.3582  1217.0579
 3579.9248     8.4848      .0132    34.5300    14.6875     2.3460  1233.8311
 3580.0772     8.4851      .0065    33.4736    14.7638     2.3442  1194.0938
 3580.2296     8.4854      .0182    33.6532    14.6897     2.3434  1182.7681
 3580.3820     8.5033      .0206    34.2065    14.3227     2.3302  1154.2295
 3580.5344     8.5060      .0162    34.3617    13.9558     2.3312  1141.2241
 3580.6868     8.5063      .0132    35.0075    13.9197     2.3390  1124.3779
 3580.8392     8.5068      .0132    35.8109    13.8841     2.3524  1134.3123
 3580.9916     8.5067      .0132    36.1769    13.8486     2.3672  1134.3281
 3581.1440     8.5080      .0132    38.5508    13.8130     2.3803  1139.3027
 3581.2964     8.5366      .0139    36.9801    13.7775     2.3667  1161.6174
 3581.4488     8.5465      .0167    35.7308    13.8114     2.3530  1174.1099
 3581.6012     8.5480      .0157    34.7649    13.9026     2.3438  1203.1487
 3581.7536     8.5600      .0104    33.1258    14.1006     2.3346  1218.9546
 3581.9060     8.5685      .0051    33.4738    14.1882     2.3254  1242.8008
 3582.0584     8.5688     -.0001    34.5857    13.8984     2.3133  1210.2385
 3582.2108     8.5592     -.0054    34.6329    13.6077     2.3112  1181.3188
 3582.3632     8.5694      .0000    34.3343    13.3510     2.3207  1150.6824
 3582.5156     8.5697      .0061    34.0609    13.2985     2.3313  1164.1787
 3582.6680     8.5700      .0120    34.1105    13.7119     2.3419  1158.9084
 3582.8204     8.5803      .0032    34.9202    14.1253     2.3335  1144.3018
 3582.9728     8.5906      .0069    35.2394    14.2862     2.3392  1161.2727
 3583.1252     8.5909      .0025    33.9514    14.0701     2.3285  1166.1985
 3583.2776     8.5613      .0042    32.3440    13.8540     2.3309  1174.1299
 3583.4300     8.5715      .0042    31.4793    13.6316     2.3228  1183.7705
 3583.5824     8.5619      .0042    32.1390    13.4049     2.3166  1184.0840
 3583.7348     8.5640      .0042    33.3501    13.1435     2.3276  1185.5085
 3583.8872     8.5326      .0039    34.1186    12.8496     2.3386  1194.0303
