~VERSION INFORMATION
VERS.                                                 2.0:   CWLS Log ASCII Standard-VERSION 2.0
WRAP.                                                  NO:   One line per depth step
~Well Information Block
STRT.M                                           500.1250:   Top Depth
STOP.M                                          3159.8750:   Bottom Depth
STEP.M                                             .12500:   Depth Increment
NULL.                                            -999.250:   Null Value
FLD .                                             WILDCAT:   Field Name
WELL.                                             15/12-4:   NAME
WBN .                                             15/12-4:   WELLBORE
NATI.                                                 NOR:   COUNTRY
CTRY.                                                 NOR:   COUNTRY
COMP.                                             STATOIL:   OPERATOR
PROV.                                           NORTH SEA:   PROVINCE
COUN.                                      DEEPSEA BERGEN:   RIG NAME
SPUD.                                          1984/09/13:   SPUD DATE
LATI.                                         58 3 9.16 N:   SURF. LATITUDE
LONG.                                        1 54 11.61 E:   SURF. LONGITUDE
PBWE.                                             15/12-4:   PB WELL ID
APIN.                                             15/12-4:   PB WELLBORE ID
PBWS.                                                 all:   PB WELL NAME SET
~PARAMETER INFORMATION (log)
LNAM.                              CDL/CNL/GR  COMPOSITED:   NAME
LTYP.                                         DEPTH MATCH:   LOG TYPE
LSRV.                                             CAL/BGT:   LOG SERVICE
LSOU.                                             SPT/NPD:   LOG SOURCE
LVSN.                                                   1:   LOG VERSION
BHIS.                                                   R:   BRIEF HISTORY
FHIS.                                             RAW-LIS:   FULL HISTORY
LCNM.                                                  DA:   LOGGING CONTRACTOR
TOOL.                             CDL/CNL/GR (COMPOSITED):   TOOL STRING
~Curve Information Block
#MNEM.UNIT                                        API CODE    No Description
#=========                                        ========    == ===========
DEPT.M                                       00 001 00 00:     1  DEPTH
CAL.IN                                                   :     2  Caliper
CNC.%                                                    :     3  Neutron Porosity
CORR.G/CC                                                :     4  Density Correction
DEN.G/CC                                                 :     5  Bulk Density
GR.GAPI                                                  :     6  Gamma Ray
SPD.                                                     :     7  Cable Speed
TEN.LB                                                   :     8  Cable Tension
~ASCII
# ...
 1205.3750    16.0521  -999.2500      .1066     2.0874    27.2364    10.1347   -45.8383
 1205.5000    16.0798  -999.2500      .1087     2.0903    27.6145    10.1201   -44.5200
 1205.6250    16.1320  -999.2500      .1095     2.0922    28.4446    10.1386   -43.1773
 1205.7500    16.1876  -999.2500      .1079     2.0906    29.3004    10.1845   -41.3767
 1205.8750    16.2305  -999.2500      .1032     2.0832    29.6821    10.2601   -38.7516
 1206.0000    16.2591  -999.2500      .0981     2.0735    29.4594    10.3478   -36.3269
 1206.1250    16.2802  -999.2500      .0945     2.0647    28.8916    10.4305   -34.8804
 1206.2500    16.3004  -999.2500      .0938     2.0601    28.4199    10.4860   -34.5655
 1206.3750    16.3193  -999.2500      .0951     2.0581    28.2254    10.5184   -34.2769
 1206.5000    16.3320  -999.2500      .0977     2.0593    28.2437    10.5308   -33.6063
 1206.6250    16.3333  -999.2500      .1002     2.0628    28.3075    10.5242   -33.5737
 1206.7500    16.3241  -999.2500      .1008     2.0676    28.3104    10.4985   -35.0599
 1206.8750    16.3054  -999.2500      .0958     2.0697    28.2619    10.4461   -38.0721
 1207.0000    16.2837  -999.2500      .0844     2.0686    28.2675    10.3760   -40.7466
 1207.1250    16.2637  -999.2500      .0694     2.0654    28.2980    10.3083   -41.8522
 1207.2500    16.2494  -999.2500      .0576     2.0616    28.2324    10.2636   -41.6233
 1207.3750    16.2410  -999.2500      .0537     2.0568    28.0780    10.2396   -41.1859
 1207.5000    16.2368  -999.2500      .0580     2.0503    27.9778    10.2172   -41.1271
 1207.6250    16.2352  -999.2500      .0674     2.0432    28.0133    10.1808   -41.1952
 1207.7500    16.2392  -999.2500      .0797     2.0392    28.2169    10.1300   -40.8907
 1207.8750    16.2556  -999.2500      .0958     2.0426    28.6152    10.0758   -39.9363
 1208.0000    16.2911  -999.2500      .1154     2.0536    29.0961    10.0275   -38.2353
 1208.1250    16.3542  -999.2500      .1306     2.0670    29.3289     9.9876   -36.1177
 1208.2500    16.4423  -999.2500      .1338     2.0764    29.2078     9.9514   -34.5353
 1208.3750    16.5549  -999.2500      .1192     2.0785    28.7982     9.9216   -34.3239
 1208.5000    16.6765  -999.2500      .0939     2.0776    28.5131     9.9071   -35.2260
 1208.6250    16.7909  -999.2500      .0695     2.0795    28.6568     9.9128   -36.5252
 1208.7500    16.8783  -999.2500      .0609     2.0904    29.2850     9.9487   -37.3179
 1208.8750    16.9373  -999.2500      .0670     2.1073    29.7541    10.0079   -37.1746
 1209.0000    16.9695  -999.2500      .0812     2.1256    29.6357    10.0888   -36.0723
 1209.1250    16.9853  -999.2500      .0944     2.1380    28.9343    10.1821   -34.7886
 1209.2500    16.9967  -999.2500      .1035     2.1442    28.1706    10.2705   -34.0994
 1209.3750    17.0057  -999.2500      .1049     2.1434    27.7458    10.3339   -34.4290
 1209.5000    17.0099  -999.2500      .0975     2.1369    27.6953    10.3634   -35.0794
 1209.6250    17.0086  -999.2500      .0836     2.1227    27.8387    10.3647   -35.1292
 1209.7500    17.0018  -999.2500      .0667     2.1040    28.1241    10.3392   -33.0874
 1209.8750    16.9933  -999.2500      .0531     2.0900    28.7141    10.3059   -30.0496
 1210.0000    16.9849  -999.2500      .0478     2.0854    29.7396    10.2744   -27.2259
 1210.1250    16.9785  -999.2500      .0514     2.0893    30.8142    10.2567   -26.2684
 1210.2500    16.9740  -999.2500      .0572     2.0947    31.5454    10.2519   -26.9325
 1210.3750    16.9724  -999.2500      .0600     2.0964    31.7348    10.2495   -29.0091
 1210.5000    16.9737  -999.2500      .0598     2.0932    31.6816    10.2304   -31.8279
 1210.6250    16.9761  -999.2500      .0595     2.0873    31.6804    10.1863   -34.9103
 1210.7500    16.9758  -999.2500      .0629     2.0819    31.8858    10.1215   -37.3924
 1210.8750    16.9727  -999.2500      .0705     2.0780    32.0779    10.0581   -38.7520
 1211.0000    16.9698  -999.2500      .0813     2.0745    32.0843    10.0112   -38.5933
 1211.1250    16.9716  -999.2500      .0917     2.0690    32.0128     9.9829   -37.2167
 1211.2500    16.9774  -999.2500      .0988     2.0606    32.0799     9.9665   -35.2482
 1211.3750    16.9794  -999.2500      .1008     2.0501    32.3874     9.9601   -32.7558
 1211.5000    16.9610  -999.2500      .0991     2.0412    32.7848     9.9680   -29.9871
 1211.6250    16.9078  -999.2500      .0972     2.0379    33.2502    10.0014   -28.1217
 1211.7500    16.8259  -999.2500      .0995     2.0421    33.7876    10.0647   -27.7484
 1211.8750    16.7352  -999.2500      .1078     2.0530    34.2986    10.1513   -27.7477
 1212.0000    16.6636  -999.2500      .1192     2.0652    34.6412    10.2433   -25.8527
 1212.1250    16.6224  -999.2500      .1281     2.0740    34.7410    10.3289   -21.5908
 1212.2500    16.6109  -999.2500      .1296     2.0778    34.6135    10.4001   -16.2547
 1212.3750    16.6071  -999.2500      .1241     2.0828    34.3647    10.4536   -12.7419
 1212.5000    16.5948  -999.2500      .1142     2.0871    33.9557    10.4861   -13.1049
 1212.6250    16.5717  -999.2500      .1065     2.0927    33.1717    10.4902   -16.5318
 1212.7500    16.5495  -999.2500      .1058     2.0982    32.0031    10.4724   -19.7761
 1212.8750    16.5408  -999.2500      .1149     2.0993    30.6826    10.4385   -21.0863
 1213.0000    16.5489  -999.2500      .1279     2.0918    29.8319    10.4028   -21.5489
 1213.1250    16.5679  -999.2500      .1381     2.0769    29.5991    10.3711   -22.5787
 1213.2500    16.5893  -999.2500      .1372     2.0573    29.9754    10.3475   -25.6283
 1213.3750    16.6058  -999.2500      .1270     2.0390    30.3966    10.3331   -29.6468
 1213.5000    16.6165  -999.2500      .1082     2.0248    30.6316    10.3287   -32.9014
 1213.6250    16.6233  -999.2500      .0844     2.0156    30.6635    10.3218   -33.0801
 1213.7500    16.6284  -999.2500      .0594     2.0095    30.6668    10.3027   -31.1993
 1213.8750    16.6357  -999.2500      .0371     2.0076    30.7387    10.2649   -28.8445
 1214.0000    16.6516  -999.2500      .0238     2.0097    30.8121    10.2258   -27.9625
 1214.1250    16.6808  -999.2500      .0240     2.0136    30.8707    10.2038   -28.8518
 1214.2500    16.7332  -999.2500      .0441     2.0201    30.9575    10.2115   -31.2861
 1214.3750    16.8047  -999.2500      .0735     2.0251    31.0405    10.2250   -33.9480
 1214.5000    16.8906  -999.2500      .1010     2.0244    31.0055    10.2222   -36.2720
 1214.6250    16.9675  -999.2500      .1102     2.0161    30.7259    10.1916   -38.0840
 1214.7500    17.0161  -999.2500      .1013     2.0050    30.3116    10.1561   -39.1923
 1214.8750    17.0207  -999.2500      .0816     1.9982    29.9461    10.1478   -38.9637
 1215.0000    16.9994  -999.2500      .0680     2.0003    29.7608    10.1831   -37.6211
 1215.1250    16.9716  -999.2500      .0647     2.0096    29.7084    10.2542   -35.8800
 1215.2500    16.9469  -999.2500      .0639     2.0200    29.6935    10.3339   -34.5906
 1215.3750    16.9176  -999.2500      .0580     2.0279    29.7044    10.3971   -33.8255
 1215.5000    16.8720  -999.2500      .0484     2.0355    29.7593    10.4345   -33.2178
 1215.6250    16.8147  -999.2500      .0426     2.0463    29.8041    10.4518   -33.0051
 1215.7500    16.7688  -999.2500      .0447     2.0601    29.7823    10.4571   -34.2166
 1215.8750    16.7595  -999.2500      .0509     2.0730    29.7173    10.4550   -37.4793
 1216.0000    16.7901  -999.2500      .0545     2.0867    29.6864    10.4497   -41.6872
 1216.1250    16.8450  -999.2500      .0509     2.0973    29.5902    10.4468   -44.4361
 1216.2500    16.9005  -999.2500      .0404     2.1014    29.2384    10.4489   -45.2034
 1216.3750    16.9420  -999.2500      .0235     2.0967    28.4417    10.4554   -44.9029
 1216.5000    16.9670  -999.2500      .0069     2.0870    27.5122    10.4572   -44.7414
 1216.6250    16.9823  -999.2500     -.0007     2.0774    27.0334    10.4464   -44.1713
