~VERSION INFORMATION
VERS.                                                 2.0:   CWLS Log ASCII Standard-VERSION 2.0
WRAP.                                                  NO:   One line per depth step
~Well Information Block
STRT.M                                           500.1250:   Top Depth
STOP.M                                          3159.8750:   Bottom Depth
STEP.M                                             .12500:   Depth Increment
NULL.                                            -999.250:   Null Value
FLD .                                             WILDCAT:   Field Name
WELL.                                             15/12-4:   NAME
WBN .                                             15/12-4:   WELLBORE
NATI.                                                 NOR:   COUNTRY
CTRY.                                                 NOR:   COUNTRY
COMP.                                             STATOIL:   OPERATOR
PROV.                                           NORTH SEA:   PROVINCE
COUN.                                      DEEPSEA BERGEN:   RIG NAME
SPUD.                                          1984/09/13:   SPUD DATE
LATI.                                         58 3 9.16 N:   SURF. LATITUDE
LONG.                                        1 54 11.61 E:   SURF. LONGITUDE
PBWE.                                             15/12-4:   PB WELL ID
APIN.                                             15/12-4:   PB WELLBORE ID
PBWS.                                                 all:   PB WELL NAME SET
~PARAMETER INFORMATION (log)
LNAM.                              CDL/CNL/GR  COMPOSITED:   NAME
LTYP.                                         DEPTH MATCH:   LOG TYPE
LSRV.                                             CAL/BGT:   LOG SERVICE
LSOU.                                             SPT/NPD:   LOG SOURCE
LVSN.                                                   1:   LOG VERSION
BHIS.                                                   R:   BRIEF HISTORY
FHIS.                                             RAW-LIS:   FULL HISTORY
LCNM.                                                  DA:   LOGGING CONTRACTOR
TOOL.                             CDL/CNL/GR (COMPOSITED):   TOOL STRING
~Curve Information Block
#MNEM.UNIT                                        API CODE    No Description
#=========                                        ========    == ===========
DEPT.M                                       00 001 00 00:     1  DEPTH
CAL.IN                                                   :     2  Caliper
CNC.%                                                    :     3  Neutron Porosity
CORR.G/CC                                                :     4  Density Correction
DEN.G/CC                                                 :     5  Bulk Density
GR.GAPI                                                  :     6  Gamma Ray
SPD.                                                     :     7  Cable Speed
TEN.LB                                                   :     8  Cable Tension
~ASCII
# ...
 1740.0000    13.3718    31.0915      .1664     2.1716    75.2523    10.5035   -17.7540
 1740.1250    13.2794    31.5007      .1710     2.1756    75.8544    10.5360   -18.8526
 1740.2500    13.2422    32.5387      .1787     2.1830    76.2372    10.5857   -22.4912
 1740.3750    13.2345    34.3193      .1857     2.1889    76.6303    10.6439   -26.2570
 1740.5000    13.2405    35.9213      .1874     2.1882    77.3421    10.7007   -27.0658
 1740.6250    13.2495    36.7857      .1846     2.1855    78.2025    10.7478   -25.0474
 1740.7500    13.2704    37.0812      .1770     2.1774    79.2576    10.8120   -19.8692
 1740.8750    13.3147    36.5898      .1682     2.1701    79.1003    10.8790   -14.2563
 1741.0000    13.3869    35.9675      .1643     2.1705    77.1497    10.9405   -11.9986
 1741.1250    13.4797    36.1919      .1666     2.1764    74.0724    10.9907   -13.0860
 1741.2500    13.5810    36.8640      .1754     2.1893    70.8092    11.0110   -16.2537
 1741.3750    13.6749    37.0487      .1847     2.2024    68.3534    10.9986   -18.5665
 1741.5000    13.7587    36.0012      .1912     2.2121    67.0714    10.9520   -19.2728
 1741.6250    13.8339    34.2492      .1925     2.2162    66.9169    10.8819   -18.7038
 1741.7500    13.9053    32.4862      .1910     2.2184    66.9475    10.8210   -17.9785
 1741.8750    13.9684    31.4509      .1880     2.2198    66.4825    10.7942   -17.6342
 1742.0000    14.0075    31.2041      .1848     2.2182    64.4298    10.8105   -18.7549
 1742.1250    14.0198    31.6593      .1816     2.2133    61.0768    10.8339   -21.8039
 1742.2500    14.0009    32.4821      .1788     2.2056    57.6474    10.8299   -26.5634
 1742.3750    13.9586    33.4730      .1772     2.1966    56.9235    10.7690   -30.7581
 1742.5000    13.9249    34.2867      .1753     2.1874    58.8324    10.6757   -32.6178
 1742.6250    13.9338    34.8204      .1717     2.1782    62.2182    10.5755   -31.5648
 1742.7500    14.0033    35.5520      .1677     2.1710    64.7000    10.5038   -29.3816
 1742.8750    14.0865    36.6394      .1662     2.1675    65.9333    10.4710   -28.3137
 1743.0000    14.1271    37.5432      .1682     2.1669    66.6252    10.4809   -28.5726
 1743.1250    14.0868    37.7126      .1712     2.1680    67.4503    10.5239   -28.1728
 1743.2500    13.9882    37.0775      .1729     2.1698    68.0538    10.5864   -25.9823
 1743.3750    13.8827    35.7488      .1725     2.1711    68.1529    10.6574   -23.2956
 1743.5000    13.8032    33.9638      .1704     2.1695    68.0945    10.7318   -22.0763
 1743.6250    13.7495    32.1467      .1664     2.1636    68.4592    10.8111   -22.7219
 1743.7500    13.7020    30.8560      .1615     2.1557    69.6434    10.8950   -22.8985
 1743.8750    13.6648    30.7679      .1569     2.1483    71.4175    10.9765   -21.3024
 1744.0000    13.6674    31.7060      .1551     2.1442    73.4020    11.0390   -19.1628
 1744.1250    13.7168    33.4591      .1561     2.1429    75.0408    11.0638   -19.8812
 1744.2500    13.7886    35.1660      .1593     2.1450    75.7033    11.0431   -23.6616
 1744.3750    13.8352    36.1954      .1639     2.1506    74.4637    10.9738   -28.5996
 1744.5000    13.8321    36.0965      .1683     2.1556    71.9853    10.8962   -31.3761
 1744.6250    13.7992    34.7048      .1697     2.1577    69.2496    10.8350   -31.5163
 1744.7500    13.7772    33.0363      .1641     2.1530    66.6103    10.8030   -29.6519
 1744.8750    13.7868    32.1529      .1558     2.1471    63.8009    10.7806   -27.4589
 1745.0000    13.8055    32.6942      .1498     2.1460    61.1940    10.7512   -25.1890
 1745.1250    13.7978    34.3417      .1505     2.1525    59.6905    10.7085   -22.9922
 1745.2500    13.7494    35.8337      .1568     2.1620    59.9708    10.6649   -21.6707
 1745.3750    13.6828    36.2091      .1636     2.1707    61.8930    10.6275   -20.8902
 1745.5000    13.6452    35.3634      .1662     2.1745    64.9966    10.5918   -19.0985
 1745.6250    13.6853    34.1171      .1641     2.1734    68.7870    10.5545   -15.5286
 1745.7500    13.8072    33.0826      .1622     2.1710    72.9176    10.5269   -11.8078
 1745.8750    13.9704    32.6088      .1641     2.1705    76.8002    10.5233   -10.1396
 1746.0000    14.1228    32.7187      .1707     2.1731    79.3557    10.5540   -11.7118
 1746.1250    14.2221    32.9713      .1791     2.1757    79.7784    10.6141   -15.1368
 1746.2500    14.2666    32.8169      .1851     2.1753    79.0508    10.6850   -17.8326
 1746.3750    14.2491    32.3555      .1856     2.1713    78.0825    10.7548   -18.2035
 1746.5000    14.1514    31.7740      .1792     2.1619    77.3054    10.8152   -16.6173
 1746.6250    14.0006    31.3454      .1699     2.1510    75.8519    10.8673   -15.3975
 1746.7500    13.8290    31.3386      .1617     2.1443    72.4758    10.9111   -15.6116
 1746.8750    13.7128    31.4770      .1599     2.1499    66.2826    10.9417   -17.6496
 1747.0000    13.6851    31.3982      .1636     2.1632    59.0757    10.9529   -20.6797
 1747.1250    13.7617    30.9543      .1695     2.1784    52.5471    10.9360   -23.6017
 1747.2500    13.9368    30.6354      .1700     2.1852    48.9045    10.8887   -23.5405
 1747.3750    14.1568    31.0924      .1661     2.1845    48.4825    10.8323   -20.5905
 1747.5000    14.3920    32.3383      .1622     2.1785    51.4869    10.7819   -16.3112
 1747.6250    14.6258    34.0153      .1617     2.1718    57.6613    10.7433   -12.8991
 1747.7500    14.8384    35.3643      .1640     2.1669    65.5009    10.7138   -11.4804
 1747.8750    14.9926    36.2609      .1678     2.1668    73.0941    10.6884   -13.8565
 1748.0000    15.0963    36.8966      .1698     2.1686    78.6486    10.6592   -18.2174
 1748.1250    15.1344    37.4795      .1681     2.1702    80.8833    10.6240   -23.8113
 1748.2500    15.1083    37.6620      .1637     2.1688    80.5112    10.5838   -29.1576
 1748.3750    15.0249    36.6614      .1592     2.1652    79.0514    10.5413   -32.9043
 1748.5000    14.9063    34.6056      .1569     2.1623    77.7004    10.5029   -33.8719
 1748.6250    14.7862    32.2044      .1576     2.1615    77.0590    10.4765   -31.7021
 1748.7500    14.7002    30.5978      .1618     2.1655    77.2582    10.4679   -28.0273
 1748.8750    14.6636    30.1882      .1688     2.1737    78.1820    10.4786   -24.8316
 1749.0000    14.6769    30.8352      .1769     2.1835    79.4084    10.5077   -22.7707
 1749.1250    14.7173    32.6850      .1841     2.1925    80.2628    10.5451   -20.9946
 1749.2500    14.7814    35.1328      .1888     2.1983    79.7836    10.5858   -19.0287
 1749.3750    14.8583    37.3137      .1911     2.2012    77.8734    10.6293   -17.8346
 1749.5000    14.9438    38.4600      .1905     2.2018    74.1659    10.6813   -18.2170
 1749.6250    15.0233    38.4973      .1881     2.2000    69.3674    10.7433   -19.0187
 1749.7500    15.0894    37.7362      .1851     2.1954    64.8230    10.8066   -18.2876
 1749.8750    15.1482    36.6648      .1819     2.1884    61.6989    10.8597   -15.9378
 1750.0000    15.2035    35.5053      .1786     2.1812    60.6580    10.8912   -14.2160
 1750.1250    15.2318    34.3142      .1767     2.1755    61.4812    10.8962   -15.8006
 1750.2500    15.1924    33.1103      .1757     2.1717    63.5781    10.8787   -20.7976
 1750.3750    15.0304    31.9466      .1736     2.1684    66.4398    10.8433   -27.1035
 1750.5000    14.7809    30.8326      .1693     2.1643    69.7359    10.8011   -32.2038
 1750.6250    14.4811    29.5831      .1627     2.1591    73.5579    10.7595   -34.0284
 1750.7500    14.2198    28.1446      .1567     2.1548    76.7930    10.7227   -33.6704
 1750.8750    14.0500    26.9239      .1536     2.1534    77.7730    10.6913   -31.6466
 1751.0000    13.9843    26.4633      .1548     2.1533    75.6628    10.6604   -28.6919
 1751.1250    14.0113    27.2161      .1586     2.1539    71.6340    10.6258   -25.5853
 1751.2500    14.1084    29.0530      .1622     2.1537    68.1338    10.5896   -23.3201
