~VERSION INFORMATION
VERS.                                                 2.0:   CWLS Log ASCII Standard-VERSION 2.0
WRAP.                                                  NO:   One line per depth step
~Well Information Block
STRT.M                                           500.1250:   Top Depth
STOP.M                                          3159.8750:   Bottom Depth
STEP.M                                             .12500:   Depth Increment
NULL.                                            -999.250:   Null Value
FLD .                                             WILDCAT:   Field Name
WELL.                                             15/12-4:   NAME
WBN .                                             15/12-4:   WELLBORE
NATI.                                                 NOR:   COUNTRY
CTRY.                                                 NOR:   COUNTRY
COMP.                                             STATOIL:   OPERATOR
PROV.                                           NORTH SEA:   PROVINCE
COUN.                                      DEEPSEA BERGEN:   RIG NAME
SPUD.                                          1984/09/13:   SPUD DATE
LATI.                                         58 3 9.16 N:   SURF. LATITUDE
LONG.                                        1 54 11.61 E:   SURF. LONGITUDE
PBWE.                                             15/12-4:   PB WELL ID
APIN.                                             15/12-4:   PB WELLBORE ID
PBWS.                                                 all:   PB WELL NAME SET
~PARAMETER INFORMATION (log)
LNAM.                              CDL/CNL/GR  COMPOSITED:   NAME
LTYP.                                         DEPTH MATCH:   LOG TYPE
LSRV.                                             CAL/BGT:   LOG SERVICE
LSOU.                                             SPT/NPD:   LOG SOURCE
LVSN.                                                   1:   LOG VERSION
BHIS.                                                   R:   BRIEF HISTORY
FHIS.                                             RAW-LIS:   FULL HISTORY
LCNM.                                                  DA:   LOGGING CONTRACTOR
TOOL.                             CDL/CNL/GR (COMPOSITED):   TOOL STRING
~Curve Information Block
#MNEM.UNIT                                        API CODE    No Description
#=========                                        ========    == ===========
DEPT.M                                       00 001 00 00:     1  DEPTH
CAL.IN                                                   :     2  Caliper
CNC.%                                                    :     3  Neutron Porosity
CORR.G/CC                                                :     4  Density Correction
DEN.G/CC                                                 :     5  Bulk Density
GR.GAPI                                                  :     6  Gamma Ray
SPD.                                                     :     7  Cable Speed
TEN.LB                                                   :     8  Cable Tension
~ASCII
  500.1250      .0001  -999.2500      .0001      .0001      .0001      .0001      .0001
  500.2500    16.4232  -999.2500    -1.5702     1.2544    27.4965    10.1309   -26.4951
  500.3750    17.9559  -999.2500    -1.6986     1.4023    30.0678    11.0783   -27.8799
  500.5000    17.9537  -999.2500    -1.6717     1.4366    30.0678    11.0783   -26.3827
  500.6250    17.9543  -999.2500    -1.6590     1.4488    30.0678    11.0783   -25.0139
  500.7500    17.9563  -999.2500    -1.6635     1.4380    30.0678    11.0783   -24.4249
  500.8750    17.9585  -999.2500    -1.6755     1.4114    30.0678    11.0783   -25.2352
  501.0000    17.9603  -999.2500    -1.6739     1.3912    30.0678    11.0783   -26.6064
  501.1250    17.9623  -999.2500    -1.6567     1.3856    30.0678    11.0783   -27.7858
  501.2500    17.9658  -999.2500    -1.6363     1.3930    30.0678    11.0783   -28.2457
  501.3750    17.9694  -999.2500    -1.6309     1.3998    30.0678    11.0783   -28.1548
  501.5000    17.9713  -999.2500    -1.6504     1.3971    30.0678    11.0783   -27.6507
  501.6250    17.9714  -999.2500    -1.6837     1.3845    30.1105    11.0725   -27.0718
  501.7500    17.9716  -999.2500    -1.7114     1.3706    30.4071    11.0390   -26.4915
  501.8750    17.9735  -999.2500    -1.7175     1.3663    30.8490    11.0303   -25.9452
  502.0000    17.9753  -999.2500    -1.7011     1.3770    31.4181    11.0516   -25.7335
  502.1250    17.9740  -999.2500    -1.6720     1.4006    32.0566    11.0963   -25.8507
  502.2500    17.9678  -999.2500    -1.6433     1.4282    32.5684    11.1589   -26.1691
  502.3750    17.9587  -999.2500    -1.6236     1.4504    32.6868    11.2413   -26.5697
  502.5000    17.9505  -999.2500    -1.6164     1.4598    32.3097    11.3480   -27.0388
  502.6250    17.9465  -999.2500    -1.6161     1.4559    31.7343    11.4656   -27.6000
  502.7500    17.9486  -999.2500    -1.6136     1.4431    31.4029    11.5661   -28.1128
  502.8750    17.9559  -999.2500    -1.5858     1.4360    31.4578    11.6286   -28.7512
  503.0000    17.9658  -999.2500    -1.5010     1.4494    31.7317    11.6524   -29.5172
  503.1250    17.9760  -999.2500    -1.3462     1.4901    32.1986    11.6516   -30.0951
  503.2500    17.9864  -999.2500    -1.1420     1.5486    33.1434    11.6415   -30.4021
  503.3750    18.0115  -999.2500     -.8770     1.6245    35.0437    11.6242   -30.2805
  503.5000    18.1205  -999.2500     -.5809     1.7059    37.6458    11.5996   -30.0891
  503.6250    18.3842  -999.2500     -.2990     1.7758    40.4097    11.5690   -30.0576
  503.7500    18.9301  -999.2500     -.0945     1.8033    42.6346    11.5349   -30.2601
  503.8750    19.6387  -999.2500      .0322     1.7895    44.0617    11.4978   -30.3008
  504.0000    20.3862  -999.2500      .0821     1.7384    44.6489    11.4510   -29.6260
  504.1250    20.9623  -999.2500      .0775     1.6701    44.5720    11.3858   -28.5071
  504.2500    21.3290  -999.2500      .0561     1.6064    44.1099    11.3088   -27.6348
  504.3750    21.4681  -999.2500      .0371     1.5638    43.2908    11.2338   -27.3212
  504.5000    21.5103  -999.2500      .0280     1.5435    42.2904    11.1759   -27.1900
  504.6250    21.5216  -999.2500      .0268     1.5402    41.2452    11.1367   -26.7419
  504.7500    21.5229  -999.2500      .0336     1.5478    40.3858    11.1118   -25.7563
  504.8750    21.5197  -999.2500      .0435     1.5593    39.9056    11.0868   -24.9382
  505.0000    21.5131  -999.2500      .0517     1.5687    39.9917    11.0581   -24.9548
  505.1250    21.5064  -999.2500      .0526     1.5699    40.5617    11.0329   -26.1705
  505.2500    21.5023  -999.2500      .0479     1.5678    41.3412    11.0214   -27.9178
  505.3750    21.5033  -999.2500      .0417     1.5621    42.1480    11.0400   -29.3784
  505.5000    21.5083  -999.2500      .0384     1.5577    42.9377    11.0888   -29.8532
  505.6250    21.5152  -999.2500      .0387     1.5556    43.7337    11.1614   -29.2122
  505.7500    21.5207  -999.2500      .0406     1.5533    44.3825    11.2476   -27.9253
  505.8750    21.5227  -999.2500      .0413     1.5504    44.6546    11.3371   -26.8682
  506.0000    21.5203  -999.2500      .0398     1.5470    44.5012    11.4232   -26.3747
  506.1250    21.5156  -999.2500      .0384     1.5446    44.1734    11.5012   -26.2193
  506.2500    21.5107  -999.2500      .0405     1.5462    43.8596    11.5659   -25.9848
  506.3750    21.5078  -999.2500      .0470     1.5527    43.6187    11.6089   -25.4015
  506.5000    21.5077  -999.2500      .0552     1.5610    43.2963    11.6268   -24.8994
  506.6250    21.5091  -999.2500      .0597     1.5657    42.4938    11.6225   -24.9017
  506.7500    21.5094  -999.2500      .0581     1.5654    41.2755    11.6050   -25.2556
  506.8750    21.5079  -999.2500      .0515     1.5598    40.1607    11.5764   -25.7715
  507.0000    21.5059  -999.2500      .0450     1.5532    39.8670    11.5402   -26.3575
  507.1250    21.5058  -999.2500      .0422     1.5488    40.4596    11.5057   -27.0908
  507.2500    21.5105  -999.2500      .0434     1.5470    41.5094    11.4790   -27.9024
  507.3750    21.5185  -999.2500      .0454     1.5447    42.2495    11.4522   -28.3710
  507.5000    21.5270  -999.2500      .0464     1.5415    42.3841    11.4137   -28.2474
  507.6250    21.5319  -999.2500      .0461     1.5380    42.2207    11.3543   -27.6148
  507.7500    21.5327  -999.2500      .0452     1.5347    42.3281    11.2837   -26.8572
  507.8750    21.5294  -999.2500      .0435     1.5321    43.1383    11.2150   -26.2827
  508.0000    21.5259  -999.2500      .0423     1.5309    44.3735    11.1597   -26.1164
  508.1250    21.5248  -999.2500      .0416     1.5307    45.6517    11.1136   -26.2752
  508.2500    21.5286  -999.2500      .0403     1.5302    46.3906    11.0685   -26.7791
  508.3750    21.5336  -999.2500      .0374     1.5278    46.5479    11.0263   -27.2390
  508.5000    21.5364  -999.2500      .0331     1.5239    46.0923    10.9955   -27.4941
  508.6250    21.5327  -999.2500      .0309     1.5209    45.2740    10.9894   -27.8372
  508.7500    21.5241  -999.2500      .0317     1.5194    44.3815    11.0092   -28.4059
  508.8750    21.5137  -999.2500      .0347     1.5192    43.5471    11.0659   -29.4285
  509.0000    21.5057  -999.2500      .0344     1.5169    42.8088    11.1554   -30.7262
  509.1250    21.5012  -999.2500      .0274     1.5101    42.2951    11.2678   -31.5819
  509.2500    21.5011  -999.2500      .0157     1.4994    42.0604    11.3807   -31.5390
  509.3750    21.5034  -999.2500      .0066     1.4902    41.7689    11.4717   -31.1642
  509.5000    21.5070  -999.2500      .0043     1.4859    41.1449    11.5317   -30.6630
  509.6250    21.5107  -999.2500      .0074     1.4853    40.2932    11.5752   -30.1403
  509.7500    21.5126  -999.2500      .0112     1.4864    39.6028    11.6167   -29.6001
  509.8750    21.5107  -999.2500      .0133     1.4881    39.5739    11.6515   -29.0969
  510.0000    21.5062  -999.2500      .0144     1.4904    40.2540    11.6616   -28.6770
  510.1250    21.5025  -999.2500      .0162     1.4932    41.2287    11.6323   -28.5447
  510.2500    21.5025  -999.2500      .0190     1.4955    41.7903    11.5707   -29.0923
  510.3750    21.5062  -999.2500      .0208     1.4965    41.6441    11.5016   -30.1250
  510.5000    21.5117  -999.2500      .0191     1.4968    41.1069    11.4462   -31.2737
  510.6250    21.5164  -999.2500      .0148     1.4962    40.6417    11.4098   -32.3281
  510.7500    21.5183  -999.2500      .0114     1.4960    40.3312    11.3873   -32.8242
  510.8750    21.5173  -999.2500      .0117     1.4962    39.9411    11.3666   -32.4511
  511.0000    21.5139  -999.2500      .0149     1.4976    39.1696    11.3373   -31.2398
  511.1250    21.5097  -999.2500      .0186     1.5001    38.0736    11.2892   -29.7517
  511.2500    21.5068  -999.2500      .0209     1.5021    37.2024    11.2264   -28.6165
  511.3750    21.5065  -999.2500      .0203     1.5023    37.2455    11.1555   -27.9718
