~VERSION INFORMATION
VERS.                                                 2.0:   CWLS Log ASCII Standard-VERSION 2.0
WRAP.                                                  NO:   One line per depth step
~Well Information Block
STRT.M                                           500.1250:   Top Depth
STOP.M                                          3159.8750:   Bottom Depth
STEP.M                                             .12500:   Depth Increment
NULL.                                            -999.250:   Null Value
FLD .                                             WILDCAT:   Field Name
WELL.                                             15/12-4:   NAME
WBN .                                             15/12-4:   WELLBORE
NATI.                                                 NOR:   COUNTRY
CTRY.                                                 NOR:   COUNTRY
COMP.                                             STATOIL:   OPERATOR
PROV.                                           NORTH SEA:   PROVINCE
COUN.                                      DEEPSEA BERGEN:   RIG NAME
SPUD.                                          1984/09/13:   SPUD DATE
LATI.                                         58 3 9.16 N:   SURF. LATITUDE
LONG.                                        1 54 11.61 E:   SURF. LONGITUDE
PBWE.                                             15/12-4:   PB WELL ID
APIN.                                             15/12-4:   PB WELLBORE ID
PBWS.                                                 all:   PB WELL NAME SET
~PARAMETER INFORMATION (log)
LNAM.                              CDL/CNL/GR  COMPOSITED:   NAME
LTYP.                                         DEPTH MATCH:   LOG TYPE
LSRV.                                             CAL/BGT:   LOG SERVICE
LSOU.                                             SPT/NPD:   LOG SOURCE
LVSN.                                                   1:   LOG VERSION
BHIS.                                                   R:   BRIEF HISTORY
FHIS.                                             RAW-LIS:   FULL HISTORY
LCNM.                                                  DA:   LOGGING CONTRACTOR
TOOL.                             CDL/CNL/GR (COMPOSITED):   TOOL STRING
~Curve Information Block
#MNEM.UNIT                                        API CODE    No Description
#=========                                        ========    == ===========
DEPT.M                                       00 001 00 00:     1  DEPTH
CAL.IN                                                   :     2  Caliper
CNC.%                                                    :     3  Neutron Porosity
CORR.G/CC                                                :     4  Density Correction
DEN.G/CC                                                 :     5  Bulk Density
GR.GAPI                                                  :     6  Gamma Ray
SPD.                                                     :     7  Cable Speed
TEN.LB                                                   :     8  Cable Tension
~ASCII
# ...
 1034.7500    16.5969  -999.2500      .0658     2.1037    80.6972    10.8489   -40.8038
 1034.8750    16.5015  -999.2500      .0675     2.0979    80.6947    10.8422   -40.3048
 1035.0000    16.4291  -999.2500      .0815     2.1017    80.1664    10.8326   -39.8463
 1035.1250    16.3800  -999.2500      .1023     2.1114    79.3983    10.8184   -38.8512
 1035.2500    16.3524  -999.2500      .1165     2.1190    78.7767    10.7911   -35.7926
 1035.3750    16.3283  -999.2500      .1213     2.1207    78.4157    10.7572   -31.0301
 1035.5000    16.3038  -999.2500      .1200     2.1172    78.1956    10.7233   -24.9304
 1035.6250    16.2783  -999.2500      .1245     2.1127    77.8766    10.7010   -19.5370
 1035.7500    16.2529  -999.2500      .1371     2.1081    77.5220    10.6876   -16.3746
 1035.8750    16.2291  -999.2500      .1523     2.0987    77.4111    10.6786   -16.5486
 1036.0000    16.2084  -999.2500      .1590     2.0814    77.8116    10.6632   -18.2539
 1036.1250    16.1922  -999.2500      .1558     2.0600    78.7194    10.6354   -19.8908
 1036.2500    16.1821  -999.2500      .1461     2.0393    79.9724    10.5957   -20.4603
 1036.3750    16.1790  -999.2500      .1351     2.0242    81.1235    10.5550   -20.5434
 1036.5000    16.1902  -999.2500      .1242     2.0175    81.6869    10.5179   -20.6781
 1036.6250    16.2277  -999.2500      .1152     2.0201    81.2840    10.4850   -20.7078
 1036.7500    16.2940  -999.2500      .1096     2.0298    80.1431    10.4560   -20.1608
 1036.8750    16.3882  -999.2500      .1074     2.0451    78.8277    10.4368   -19.1063
 1037.0000    16.4897  -999.2500      .1034     2.0617    77.9640    10.4298   -18.9221
 1037.1250    16.5784  -999.2500      .0917     2.0758    77.5192    10.4350   -21.1216
 1037.2500    16.6415  -999.2500      .0728     2.0861    76.9725    10.4547   -25.7005
 1037.3750    16.6773  -999.2500      .0550     2.0941    75.8529    10.4947   -31.1979
 1037.5000    16.6896  -999.2500      .0478     2.1009    74.1308    10.5606   -36.0908
 1037.6250    16.6866  -999.2500      .0506     2.1051    72.4068    10.6449   -40.0808
 1037.7500    16.6742  -999.2500      .0569     2.1019    71.6376    10.7260   -43.5367
 1037.8750    16.6604  -999.2500      .0606     2.0956    72.1551    10.7823   -46.9322
 1038.0000    16.6522  -999.2500      .0614     2.0902    73.5294    10.8058   -50.1447
 1038.1250    16.6537  -999.2500      .0644     2.0910    74.8629    10.8006   -52.0350
 1038.2500    16.6608  -999.2500      .0719     2.0976    75.6100    10.7796   -51.9098
 1038.3750    16.6693  -999.2500      .0831     2.1075    75.5789    10.7452   -49.4348
 1038.5000    16.6745  -999.2500      .0928     2.1145    75.3382    10.7066   -46.6759
 1038.6250    16.6750  -999.2500      .0978     2.1162    75.3381    10.6716   -45.3684
 1038.7500    16.6689  -999.2500      .0969     2.1116    75.8132    10.6526   -46.8454
 1038.8750    16.6602  -999.2500      .0948     2.1054    76.2992    10.6471   -49.0997
 1039.0000    16.6526  -999.2500      .0946     2.0995    76.5956    10.6465   -50.1998
 1039.1250    16.6510  -999.2500      .0981     2.0954    76.8381    10.6353   -48.6410
 1039.2500    16.6590  -999.2500      .1026     2.0926    77.3278    10.6124   -45.8376
 1039.3750    16.6885  -999.2500      .1037     2.0908    78.2887    10.5810   -43.6905
 1039.5000    16.7469  -999.2500      .0978     2.0879    79.2982    10.5493   -43.4157
 1039.6250    16.8331  -999.2500      .0865     2.0850    79.7907    10.5167   -44.2374
 1039.7500    16.9449  -999.2500      .0755     2.0860    79.0222    10.4775   -43.8806
 1039.8750    17.0574  -999.2500      .0698     2.0907    77.5183    10.4347   -41.2986
 1040.0000    17.1515  -999.2500      .0714     2.0972    75.4988    10.3996   -36.2350
 1040.1250    17.2092  -999.2500      .0769     2.1015    73.3299    10.3938   -29.9482
 1040.2500    17.2366  -999.2500      .0820     2.1023    71.3566    10.4189   -23.5652
 1040.3750    17.2347  -999.2500      .0850     2.1006    69.9891    10.4770   -17.0422
 1040.5000    17.2168  -999.2500      .0887     2.1008    69.3777    10.5499   -10.2872
 1040.6250    17.1910  -999.2500      .0962     2.1057    69.5124    10.6256    -4.0680
 1040.7500    17.1648  -999.2500      .1086     2.1150    70.0569    10.6948      .3464
 1040.8750    17.1419  -999.2500      .1229     2.1245    70.2646    10.7528     2.4477
 1041.0000    17.1237  -999.2500      .1359     2.1302    69.6011    10.7942     1.8542
 1041.1250    17.1115  -999.2500      .1451     2.1299    68.2819    10.8176    -1.3077
 1041.2500    17.1068  -999.2500      .1499     2.1243    66.9407    10.8239    -6.4856
 1041.3750    17.1098  -999.2500      .1506     2.1154    66.1980    10.8120   -12.2127
 1041.5000    17.1182  -999.2500      .1458     2.1046    66.1975    10.7825   -15.9582
 1041.6250    17.1285  -999.2500      .1332     2.0913    66.5855    10.7417   -14.7055
 1041.7500    17.1384  -999.2500      .1149     2.0769    66.8276    10.7015    -8.3608
 1041.8750    17.1523  -999.2500      .0963     2.0652    66.7695    10.6732     1.5069
 1042.0000    17.1825  -999.2500      .0862     2.0607    66.5795    10.6569    11.0488
 1042.1250    17.2339  -999.2500      .0862     2.0637    66.3227    10.6441    17.3674
 1042.2500    17.3033  -999.2500      .0924     2.0705    65.8975    10.6282    17.3446
 1042.3750    17.3712  -999.2500      .0962     2.0755    65.1578    10.6050    11.8258
 1042.5000    17.4214  -999.2500      .0942     2.0760    64.0781    10.5711     2.5576
 1042.6250    17.4382  -999.2500      .0882     2.0716    62.8464    10.5305    -7.1254
 1042.7500    17.4256  -999.2500      .0823     2.0675    61.6818    10.4926   -14.9250
 1042.8750    17.3825  -999.2500      .0797     2.0688    60.9510    10.4655   -19.2498
 1043.0000    17.3243  -999.2500      .0805     2.0752    61.0301    10.4475   -20.7073
 1043.1250    17.2637  -999.2500      .0831     2.0848    61.8018    10.4336   -20.4566
 1043.2500    17.2173  -999.2500      .0885     2.0957    62.7576    10.4150   -19.3486
 1043.3750    17.1836  -999.2500      .0960     2.1045    63.2195    10.3934   -18.4883
 1043.5000    17.1590  -999.2500      .1029     2.1083    63.0811    10.3813   -18.4687
 1043.6250    17.1350  -999.2500      .1040     2.1057    62.9892    10.4011   -18.8654
 1043.7500    17.1084  -999.2500      .0995     2.1010    63.5118    10.4498   -18.5867
 1043.8750    17.0802  -999.2500      .0915     2.0962    65.0046    10.5227   -17.4335
 1044.0000    17.0533  -999.2500      .0862     2.0938    66.6731    10.5972   -16.8567
 1044.1250    17.0288  -999.2500      .0861     2.0935    67.7153    10.6614   -17.3607
 1044.2500    17.0098  -999.2500      .0892     2.0927    67.3391    10.7067   -18.6114
 1044.3750    16.9975  -999.2500      .0890     2.0894    66.0568    10.7414   -19.5342
 1044.5000    16.9926  -999.2500      .0814     2.0839    64.5983    10.7671   -19.5681
 1044.6250    16.9925  -999.2500      .0694     2.0788    63.9912    10.7770   -19.1443
 1044.7500    16.9950  -999.2500      .0591     2.0765    64.4757    10.7674   -19.0003
 1044.8750    16.9989  -999.2500      .0553     2.0775    66.1010    10.7383   -19.3712
 1045.0000    17.0012  -999.2500      .0569     2.0787    68.0502    10.7055   -19.9058
 1045.1250    16.9995  -999.2500      .0615     2.0824    69.6423    10.6827   -20.6176
 1045.2500    16.9946  -999.2500      .0689     2.0927    70.5974    10.6722   -21.8682
 1045.3750    16.9898  -999.2500      .0796     2.1103    71.0348    10.6632   -23.5015
 1045.5000    16.9892  -999.2500      .0930     2.1319    71.0188    10.6422   -24.7083
 1045.6250    16.9927  -999.2500      .1070     2.1526    70.6624    10.6087   -25.0032
 1045.7500    16.9960  -999.2500      .1197     2.1688    70.1044    10.5705   -24.9677
 1045.8750    16.9954  -999.2500      .1307     2.1819    69.4121    10.5335   -25.9119
 1046.0000    16.9913  -999.2500      .1401     2.1957    68.4963    10.4966   -28.0843
