~VERSION INFORMATION
VERS.                                                 2.0:   CWLS Log ASCII Standard-VERSION 2.0
WRAP.                                                  NO:   One line per depth step
~Well Information Block
STRT.M                                           500.1250:   Top Depth
STOP.M                                          3159.8750:   Bottom Depth
STEP.M                                             .12500:   Depth Increment
NULL.                                            -999.250:   Null Value
FLD .                                             WILDCAT:   Field Name
WELL.                                             15/12-4:   NAME
WBN .                                             15/12-4:   WELLBORE
NATI.                                                 NOR:   COUNTRY
CTRY.                                                 NOR:   COUNTRY
COMP.                                             STATOIL:   OPERATOR
PROV.                                           NORTH SEA:   PROVINCE
COUN.                                      DEEPSEA BERGEN:   RIG NAME
SPUD.                                          1984/09/13:   SPUD DATE
LATI.                                         58 3 9.16 N:   SURF. LATITUDE
LONG.                                        1 54 11.61 E:   SURF. LONGITUDE
PBWE.                                             15/12-4:   PB WELL ID
APIN.                                             15/12-4:   PB WELLBORE ID
PBWS.                                                 all:   PB WELL NAME SET
~PARAMETER INFORMATION (log)
LNAM.                              CDL/CNL/GR  COMPOSITED:   NAME
LTYP.                                         DEPTH MATCH:   LOG TYPE
LSRV.                                             CAL/BGT:   LOG SERVICE
LSOU.                                             SPT/NPD:   LOG SOURCE
LVSN.                                                   1:   LOG VERSION
BHIS.                                                   R:   BRIEF HISTORY
FHIS.                                             RAW-LIS:   FULL HISTORY
LCNM.                                                  DA:   LOGGING CONTRACTOR
TOOL.                             CDL/CNL/GR (COMPOSITED):   TOOL STRING
~Curve Information Block
#MNEM.UNIT                                        API CODE    No Description
#=========                                        ========    == ===========
DEPT.M                                       00 001 00 00:     1  DEPTH
CAL.IN                                                   :     2  Caliper
CNC.%                                                    :     3  Neutron Porosity
CORR.G/CC                                                :     4  Density Correction
DEN.G/CC                                                 :     5  Bulk Density
GR.GAPI                                                  :     6  Gamma Ray
SPD.                                                     :     7  Cable Speed
TEN.LB                                                   :     8  Cable Tension
~ASCII
# ...
 1910.6250    14.9074    35.5747      .0710     2.1687    79.4240    10.2605   -18.0599
 1910.7500    14.9966    34.9196      .0763     2.1748    79.7620    10.2631   -19.3307
 1910.8750    15.0636    34.9896      .0805     2.1788    79.3369    10.2467   -22.9343
 1911.0000    15.0715    35.9382      .0815     2.1801    78.4698    10.2100   -27.0932
 1911.1250    15.0340    37.1313      .0813     2.1810    77.7159    10.1575   -30.9770
 1911.2500    14.9781    37.7784      .0848     2.1844    77.5477    10.1039   -32.1345
 1911.3750    14.9338    37.2520      .0911     2.1888    77.9001    10.0679   -30.0012
 1911.5000    14.9128    36.2142      .0963     2.1912    78.8013    10.0623   -25.1757
 1911.6250    14.9017    35.4177      .0958     2.1892    79.9932    10.0780   -21.1885
 1911.7500    14.8718    35.4852      .0927     2.1864    81.0574    10.0906   -20.2814
 1911.8750    14.7900    35.9423      .0919     2.1854    81.5623    10.0760   -23.7382
 1912.0000    14.6602    36.1478      .0954     2.1876    81.0891    10.0301   -28.3150
 1912.1250    14.5084    35.6423      .1015     2.1910    79.3897     9.9641   -30.2751
 1912.2500    14.3845    34.9479      .1049     2.1914    77.0996     9.8990   -27.7718
 1912.3750    14.3248    34.5128      .1028     2.1879    75.6283     9.8535   -23.2997
 1912.5000    14.3358    34.2774      .0964     2.1790    75.8337     9.8404   -19.9186
 1912.6250    14.3782    33.8352      .0891     2.1687    77.1212     9.8595   -19.3070
 1912.7500    14.4143    32.7925      .0830     2.1619    78.2196     9.9050   -20.9580
 1912.8750    14.4266    31.3526      .0791     2.1618    78.1286     9.9720   -23.2240
 1913.0000    14.4252    29.9258      .0787     2.1671    76.8655    10.0528   -24.7281
 1913.1250    14.4393    29.1742      .0823     2.1770    75.2616    10.1380   -25.4255
 1913.2500    14.4878    29.3903      .0887     2.1887    74.0430    10.2166   -25.5486
 1913.3750    14.5774    30.5394      .0956     2.1987    73.1830    10.2748   -24.4864
 1913.5000    14.6890    32.2092      .0993     2.2034    72.1130    10.3011   -22.3112
 1913.6250    14.7981    33.9275      .0973     2.2027    70.7609    10.2962   -20.6306
 1913.7500    14.8782    34.8909      .0877     2.1976    69.4525    10.2633   -21.6945
 1913.8750    14.9258    34.6006      .0753     2.1926    68.7380    10.2206   -24.5830
 1914.0000    14.9552    33.3569      .0657     2.1912    68.7434    10.1781   -26.9957
 1914.1250    15.0013    31.9800      .0662     2.1946    68.8689    10.1436   -26.2625
 1914.2500    15.0725    31.3192      .0745     2.1994    68.6672    10.1170   -23.6401
 1914.3750    15.1515    31.5460      .0858     2.2014    68.0629    10.1015   -21.7633
 1914.5000    15.1852    32.6393      .0933     2.2007    67.3059    10.0954   -22.1928
 1914.6250    15.1553    34.0547      .0968     2.2006    66.6289    10.0930   -23.2094
 1914.7500    15.0525    34.9262      .0985     2.2078    65.9721    10.0821   -21.1404
 1914.8750    14.9460    34.6684      .1025     2.2211    64.9192    10.0577   -17.2576
 1915.0000    14.8716    33.6499      .1090     2.2380    63.0245    10.0182   -14.2479
 1915.1250    14.8423    32.4550      .1145     2.2517    60.5449     9.9732   -15.5403
 1915.2500    14.8338    31.6744      .1171     2.2582    58.3662     9.9344   -19.7976
 1915.3750    14.8366    31.3493      .1139     2.2535    57.4527     9.9110   -24.2339
 1915.5000    14.8566    31.7002      .1059     2.2355    58.1993     9.9044   -25.4128
 1915.6250    14.9062    32.8486      .0957     2.2094    60.6076     9.9150   -23.2829
 1915.7500    14.9917    34.3475      .0860     2.1838    64.3896     9.9464   -20.1117
 1915.8750    15.0856    35.5094      .0783     2.1649    68.5727     9.9937   -18.7261
 1916.0000    15.1575    35.5416      .0732     2.1558    72.4294    10.0589   -20.3192
 1916.1250    15.1779    34.4021      .0711     2.1552    75.1305    10.1365   -23.8010
 1916.2500    15.1505    32.6454      .0716     2.1592    76.5436    10.2123   -27.0971
 1916.3750    15.0943    31.4583      .0740     2.1652    76.7698    10.2649   -28.4671
 1916.5000    15.0543    31.3046      .0772     2.1735    76.8554    10.2791   -27.7669
 1916.6250    15.0547    32.0596      .0795     2.1844    77.4317    10.2545   -25.9046
 1916.7500    15.0877    33.2968      .0800     2.1975    78.2294    10.2116   -24.3946
 1916.8750    15.1234    34.4644      .0805     2.2115    78.5343    10.1737   -24.2026
 1917.0000    15.1279    34.8992      .0838     2.2234    78.0867    10.1526   -25.4775
 1917.1250    15.0913    34.3801      .0888     2.2292    77.4221    10.1424   -27.7857
 1917.2500    15.0197    33.4256      .0914     2.2262    77.3249    10.1349   -30.5372
 1917.3750    14.9248    32.9406      .0882     2.2158    77.8178    10.1239   -32.2528
 1917.5000    14.8061    33.6122      .0786     2.2007    78.2638    10.1083   -31.6596
 1917.6250    14.6650    35.3745      .0658     2.1855    77.7488    10.0888   -28.8965
 1917.7500    14.5253    37.4584      .0555     2.1743    76.3900    10.0632   -26.0685
 1917.8750    14.4185    38.8083      .0525     2.1699    74.6948    10.0266   -25.1157
 1918.0000    14.3670    39.0741      .0565     2.1697    73.4080     9.9804   -26.2972
 1918.1250    14.3674    38.5725      .0633     2.1712    72.4065     9.9311   -28.3843
 1918.2500    14.4192    37.8541      .0679     2.1720    71.0106     9.8883   -29.9446
 1918.3750    14.4910    36.9981      .0681     2.1710    69.2185     9.8577   -30.7274
 1918.5000    14.5687    36.0044      .0642     2.1691    67.9095     9.8481   -30.8346
 1918.6250    14.6324    34.9323      .0609     2.1683    68.3811     9.8728   -30.2303
 1918.7500    14.6707    33.9866      .0619     2.1709    70.2619     9.9270   -29.1334
 1918.8750    14.6611    33.3930      .0696     2.1796    73.0938    10.0098   -27.1943
 1919.0000    14.6028    33.1083      .0797     2.1893    75.6206    10.0984   -24.2114
 1919.1250    14.5088    32.8766      .0883     2.1945    77.3874    10.1781   -20.4773
 1919.2500    14.3981    32.6960      .0915     2.1889    78.5518    10.2326   -17.1947
 1919.3750    14.3033    32.6977      .0902     2.1764    79.8556    10.2696   -15.8505
 1919.5000    14.2464    32.7345      .0854     2.1596    81.4682    10.2913   -17.3678
 1919.6250    14.2343    32.5679      .0805     2.1416    83.1426    10.2991   -20.5934
 1919.7500    14.2470    31.9697      .0760     2.1258    84.4021    10.2931   -23.5165
 1919.8750    14.2733    31.3894      .0713     2.1168    84.4285    10.2658   -25.0715
 1920.0000    14.3058    31.2390      .0666     2.1164    82.7218    10.2214   -26.4866
 1920.1250    14.3452    31.8348      .0645     2.1230    79.5069    10.1696   -28.5955
 1920.2500    14.3847    32.8283      .0700     2.1396    75.7626    10.1224   -30.4770
 1920.3750    14.4121    33.6280      .0839     2.1620    72.6034    10.0865   -30.7276
 1920.5000    14.4248    33.7156      .1026     2.1813    70.6320    10.0641   -29.4134
 1920.6250    14.4395    33.4038      .1162     2.1889    69.4671    10.0448   -28.0868
 1920.7500    14.4731    33.2417      .1181     2.1842    68.5710    10.0133   -27.1197
 1920.8750    14.5302    33.4655      .1086     2.1771    67.8277     9.9614   -25.5405
 1921.0000    14.5912    34.0163      .0949     2.1675    67.4118     9.9017   -22.9049
 1921.1250    14.6202    34.4448      .0837     2.1614    67.6469     9.8587   -20.4789
 1921.2500    14.5923    34.5432      .0781     2.1617    68.2333     9.8447   -19.8048
 1921.3750    14.4942    34.4405      .0775     2.1679    68.5829     9.8623   -21.3311
 1921.5000    14.3513    34.6349      .0778     2.1766    68.3231     9.8974   -23.3369
 1921.6250    14.2116    35.5212      .0763     2.1860    67.6721     9.9390   -23.8180
 1921.7500    14.1460    37.0011      .0746     2.1969    67.5107     9.9887   -21.4342
 1921.8750    14.1907    38.7462      .0765     2.2117    68.1974    10.0484   -17.1083
