~VERSION INFORMATION
VERS.                                                 2.0:   CWLS Log ASCII Standard-VERSION 2.0
WRAP.                                                  NO:   One line per depth step
~Well Information Block
STRT.M                                           500.1250:   Top Depth
STOP.M                                          3159.8750:   Bottom Depth
STEP.M                                             .12500:   Depth Increment
NULL.                                            -999.250:   Null Value
FLD .                                             WILDCAT:   Field Name
WELL.                                             15/12-4:   NAME
WBN .                                             15/12-4:   WELLBORE
NATI.                                                 NOR:   COUNTRY
CTRY.                                                 NOR:   COUNTRY
COMP.                                             STATOIL:   OPERATOR
PROV.                                           NORTH SEA:   PROVINCE
COUN.                                      DEEPSEA BERGEN:   RIG NAME
SPUD.                                          1984/09/13:   SPUD DATE
LATI.                                         58 3 9.16 N:   SURF. LATITUDE
LONG.                                        1 54 11.61 E:   SURF. LONGITUDE
PBWE.                                             15/12-4:   PB WELL ID
APIN.                                             15/12-4:   PB WELLBORE ID
PBWS.                                                 all:   PB WELL NAME SET
~PARAMETER INFORMATION (log)
LNAM.                              CDL/CNL/GR  COMPOSITED:   NAME
LTYP.                                         DEPTH MATCH:   LOG TYPE
LSRV.                                             CAL/BGT:   LOG SERVICE
LSOU.                                             SPT/NPD:   LOG SOURCE
LVSN.                                                   1:   LOG VERSION
BHIS.                                                   R:   BRIEF HISTORY
FHIS.                                             RAW-LIS:   FULL HISTORY
LCNM.                                                  DA:   LOGGING CONTRACTOR
TOOL.                             CDL/CNL/GR (COMPOSITED):   TOOL STRING
~Curve Information Block
#MNEM.UNIT                                        API CODE    No Description
#=========                                        ========    == ===========
DEPT.M                                       00 001 00 00:     1  DEPTH
CAL.IN                                                   :     2  Caliper
CNC.%                                                    :     3  Neutron Porosity
CORR.G/CC                                                :     4  Density Correction
DEN.G/CC                                                 :     5  Bulk Density
GR.GAPI                                                  :     6  Gamma Ray
SPD.                                                     :     7  Cable Speed
TEN.LB                                                   :     8  Cable Tension
~ASCII
# ...
 1387.3750    17.4803  -999.2500      .0628     2.0889    80.1438    10.2010   -35.0574
 1387.5000    17.4542  -999.2500      .0645     2.0845    79.8292    10.2535   -39.0612
 1387.6250    17.4210  -999.2500      .0639     2.0785    79.5220    10.2874   -43.5317
 1387.7500    17.3830  -999.2500      .0627     2.0672    79.1549    10.3054   -46.2299
 1387.8750    17.3453  -999.2500      .0644     2.0512    78.5279    10.3209   -47.0578
 1388.0000    17.3089  -999.2500      .0719     2.0306    77.4241    10.3366   -46.2064
 1388.1250    17.2653  -999.2500      .0868     2.0075    75.7911    10.3485   -44.4483
 1388.2500    17.2048  -999.2500      .1063     1.9842    73.9707    10.3488   -41.9125
 1388.3750    17.1124  -999.2500      .1272     1.9609    72.3421    10.3294   -37.8591
 1388.5000    16.9898  -999.2500      .1443     1.9373    71.0376    10.2976   -32.9404
 1388.6250    16.8462  -999.2500      .1548     1.9129    69.9108    10.2614   -28.6289
 1388.7500    16.6958  -999.2500      .1570     1.8888    68.9585    10.2315   -27.0547
 1388.8750    16.5520  -999.2500      .1557     1.8671    68.3856    10.2111   -27.6103
 1389.0000    16.4211  -999.2500      .1539     1.8501    68.4402    10.1990   -29.4233
 1389.1250    16.3044  -999.2500      .1531     1.8377    69.0581    10.1855   -31.7083
 1389.2500    16.1982  -999.2500      .1526     1.8287    69.8725    10.1644   -33.9737
 1389.3750    16.1086  -999.2500      .1519     1.8237    70.5643    10.1377   -35.5015
 1389.5000    16.0437  -999.2500      .1516     1.8222    70.8910    10.1161   -36.2794
 1389.6250    16.0113  -999.2500      .1521     1.8235    70.7983    10.1058   -37.2512
 1389.7500    16.0094  -999.2500      .1534     1.8264    70.3100    10.1065   -39.3987
 1389.8750    16.0250  -999.2500      .1543     1.8293    69.4086    10.1129   -42.2784
 1390.0000    16.0437  -999.2500      .1539     1.8309    68.2086    10.1254   -44.1714
 1390.1250    16.0577  -999.2500      .1524     1.8308    67.0315    10.1512   -43.6984
 1390.2500    16.0691  -999.2500      .1509     1.8300    66.1203    10.1959   -40.7523
 1390.3750    16.0863  -999.2500      .1497     1.8298    65.4923    10.2534   -37.4845
 1390.5000    16.1160  -999.2500      .1481     1.8312    64.9575    10.3062   -35.9550
 1390.6250    16.1687  -999.2500      .1454     1.8359    64.3205    10.3310   -36.3309
 1390.7500    16.2477  -999.2500      .1421     1.8447    63.6549    10.3293   -36.6438
 1390.8750    16.3645  -999.2500      .1385     1.8598    63.1538    10.3061   -35.0027
 1391.0000    16.5164  -999.2500      .1348     1.8818    62.9374    10.2743   -31.5818
 1391.1250    16.6909  -999.2500      .1302     1.9088    62.9997    10.2397   -27.9993
 1391.2500    16.8723  -999.2500      .1226     1.9393    63.4051    10.2032   -26.6467
 1391.3750    17.0396  -999.2500      .1137     1.9706    63.9857    10.1685   -28.2405
 1391.5000    17.1785  -999.2500      .1073     2.0018    64.7526    10.1391   -32.5047
 1391.6250    17.2770  -999.2500      .1092     2.0284    65.8759    10.1181   -37.4104
 1391.7500    17.3448  -999.2500      .1166     2.0511    67.3362    10.0997   -41.0856
 1391.8750    17.3846  -999.2500      .1246     2.0662    69.0831    10.0747   -41.8569
 1392.0000    17.4127  -999.2500      .1265     2.0738    70.5842    10.0417   -40.2452
 1392.1250    17.4385  -999.2500      .1223     2.0776    71.3835    10.0071   -37.4718
 1392.2500    17.4680  -999.2500      .1150     2.0797    70.7534     9.9768   -35.4738
 1392.3750    17.5002  -999.2500      .1108     2.0823    69.4297     9.9508   -35.0446
 1392.5000    17.5324  -999.2500      .1137     2.0861    68.1174     9.9278   -35.6815
 1392.6250    17.5586  -999.2500      .1245     2.0931    67.8623     9.9069   -35.7864
 1392.7500    17.5776  -999.2500      .1388     2.1014    68.7477     9.8917   -35.2603
 1392.8750    17.5871  -999.2500      .1529     2.1088    70.5602     9.8934   -35.0697
 1393.0000    17.5898  -999.2500      .1614     2.1130    72.1834     9.9211   -36.1834
 1393.1250    17.5878  -999.2500      .1612     2.1131    73.0979     9.9755   -38.5792
 1393.2500    17.5816  -999.2500      .1519     2.1089    73.3548    10.0488   -41.7495
 1393.3750    17.5750  -999.2500      .1384     2.1031    73.5063    10.1257   -44.6084
 1393.5000    17.5708  -999.2500      .1261     2.0978    73.9323    10.1888   -46.1513
 1393.6250    17.5689  -999.2500      .1191     2.0943    74.6601    10.2222   -46.1971
 1393.7500    17.5669  -999.2500      .1171     2.0915    75.5315    10.2238   -45.0928
 1393.8750    17.5617  -999.2500      .1168     2.0869    76.4968    10.2023   -43.2116
 1394.0000    17.5539  -999.2500      .1116     2.0787    77.5812    10.1791   -41.1523
 1394.1250    17.5503  -999.2500      .0982     2.0681    78.6149    10.1664   -39.2772
 1394.2500    17.5591  -999.2500      .0804     2.0593    79.2337    10.1639   -37.4606
 1394.3750    17.5858  -999.2500      .0645     2.0568    79.1692    10.1636   -36.0181
 1394.5000    17.6269  -999.2500      .0562     2.0617    78.6705    10.1562   -36.1001
 1394.6250    17.6730  -999.2500      .0536     2.0696    78.2797    10.1446   -38.2193
 1394.7500    17.7144  -999.2500      .0516     2.0748    78.4495    10.1369   -42.0789
 1394.8750    17.7463  -999.2500      .0469     2.0754    79.0663    10.1331   -46.0920
 1395.0000    17.7711  -999.2500      .0414     2.0735    79.7534    10.1241   -48.9533
 1395.1250    17.8046  -999.2500      .0397     2.0732    79.7126    10.0986   -49.8006
 1395.2500    17.8593  -999.2500      .0412     2.0747    78.6542    10.0631   -49.4053
 1395.3750    17.9469  -999.2500      .0419     2.0751    76.5822    10.0260   -48.3845
 1395.5000    18.0525  -999.2500      .0377     2.0712    74.6526     9.9936   -47.2833
 1395.6250    18.1542  -999.2500      .0304     2.0634    73.5542     9.9640   -46.0024
 1395.7500    18.2133  -999.2500      .0242     2.0533    73.6381     9.9364   -44.2799
 1395.8750    18.2304  -999.2500      .0227     2.0443    73.7415     9.9141   -42.2697
 1396.0000    18.2093  -999.2500      .0289     2.0385    73.1303     9.9054   -39.7912
 1396.1250    18.1653  -999.2500      .0435     2.0375    71.7692     9.9248   -36.5862
 1396.2500    18.1054  -999.2500      .0624     2.0395    70.4632     9.9686   -32.9761
 1396.3750    18.0129  -999.2500      .0819     2.0428    69.8351    10.0333   -29.7111
 1396.5000    17.8797  -999.2500      .0996     2.0443    69.4375    10.1049   -28.1593
 1396.6250    17.7118  -999.2500      .1153     2.0424    68.6430    10.1753   -28.8196
 1396.7500    17.5297  -999.2500      .1281     2.0352    67.1947    10.2297   -31.1323
 1396.8750    17.3649  -999.2500      .1395     2.0252    65.8656    10.2631   -32.4350
 1397.0000    17.2352  -999.2500      .1494     2.0152    65.4859    10.2700   -31.0348
 1397.1250    17.1377  -999.2500      .1582     2.0091    66.2191    10.2546   -27.8604
 1397.2500    17.0563  -999.2500      .1673     2.0083    67.1665    10.2280   -25.3721
 1397.3750    16.9873  -999.2500      .1775     2.0134    67.4488    10.1978   -25.8784
 1397.5000    16.9309  -999.2500      .1869     2.0211    66.9031    10.1714   -29.4064
 1397.6250    16.8875  -999.2500      .1929     2.0274    66.0358    10.1488   -34.3918
 1397.7500    16.8515  -999.2500      .1947     2.0293    65.4861    10.1268   -38.4369
 1397.8750    16.8119  -999.2500      .1951     2.0258    65.5308    10.1003   -40.3643
 1398.0000    16.7637  -999.2500      .1964     2.0162    66.1234    10.0662   -40.7686
 1398.1250    16.7141  -999.2500      .1981     2.0012    66.9657    10.0298   -41.2005
 1398.2500    16.6766  -999.2500      .1968     1.9797    67.8339     9.9994   -42.2244
 1398.3750    16.6596  -999.2500      .1906     1.9526    68.2640     9.9779   -43.3876
 1398.5000    16.6576  -999.2500      .1800     1.9228    67.8087     9.9608   -44.2170
 1398.6250    16.6590  -999.2500      .1674     1.8946    66.3332     9.9403   -44.6476
