~VERSION INFORMATION
VERS.                                                 2.0:   CWLS Log ASCII Standard-VERSION 2.0
WRAP.                                                  NO:   One line per depth step
~Well Information Block
STRT.M                                           500.1250:   Top Depth
STOP.M                                          3159.8750:   Bottom Depth
STEP.M                                             .12500:   Depth Increment
NULL.                                            -999.250:   Null Value
FLD .                                             WILDCAT:   Field Name
WELL.                                             15/12-4:   NAME
WBN .                                             15/12-4:   WELLBORE
NATI.                                                 NOR:   COUNTRY
CTRY.                                                 NOR:   COUNTRY
COMP.                                             STATOIL:   OPERATOR
PROV.                                           NORTH SEA:   PROVINCE
COUN.                                      DEEPSEA BERGEN:   RIG NAME
SPUD.                                          1984/09/13:   SPUD DATE
LATI.                                         58 3 9.16 N:   SURF. LATITUDE
LONG.                                        1 54 11.61 E:   SURF. LONGITUDE
PBWE.                                             15/12-4:   PB WELL ID
APIN.                                             15/12-4:   PB WELLBORE ID
PBWS.                                                 all:   PB WELL NAME SET
~PARAMETER INFORMATION (log)
LNAM.                              CDL/CNL/GR  COMPOSITED:   NAME
LTYP.                                         DEPTH MATCH:   LOG TYPE
LSRV.                                             CAL/BGT:   LOG SERVICE
LSOU.                                             SPT/NPD:   LOG SOURCE
LVSN.                                                   1:   LOG VERSION
BHIS.                                                   R:   BRIEF HISTORY
FHIS.                                             RAW-LIS:   FULL HISTORY
LCNM.                                                  DA:   LOGGING CONTRACTOR
TOOL.                             CDL/CNL/GR (COMPOSITED):   TOOL STRING
~Curve Information Block
#MNEM.UNIT                                        API CODE    No Description
#=========                                        ========    == ===========
DEPT.M                                       00 001 00 00:     1  DEPTH
CAL.IN                                                   :     2  Caliper
CNC.%                                                    :     3  Neutron Porosity
CORR.G/CC                                                :     4  Density Correction
DEN.G/CC                                                 :     5  Bulk Density
GR.GAPI                                                  :     6  Gamma Ray
SPD.                                                     :     7  Cable Speed
TEN.LB                                                   :     8  Cable Tension
~ASCII
# ...
 2968.5000     8.5731    19.9436      .0298     2.3214    15.1200     9.1799   -17.8638
 2968.6250     8.5720    19.7748      .0231     2.3311    15.2452     9.1736   -14.1874
 2968.7500     8.5726    19.4490      .0246     2.3481    16.2443     9.1768   -10.4689
 2968.8750     8.5738    19.0515      .0292     2.3668    17.6773     9.1895    -8.3152
 2969.0000     8.5744    18.6377      .0323     2.3827    19.1073     9.2106    -8.6775
 2969.1250     8.5735    18.2137      .0306     2.3906    19.6668     9.2313   -11.3483
 2969.2500     8.5720    17.8171      .0274     2.3915    19.2991     9.2428   -14.8867
 2969.3750     8.5711    17.5275      .0263     2.3853    18.2586     9.2383   -18.2507
 2969.5000     8.5717    17.4515      .0279     2.3748    17.4191     9.2229   -20.7254
 2969.6250     8.5730    17.6317      .0297     2.3608    17.0981     9.2038   -22.1026
 2969.7500     8.5740    17.9316      .0286     2.3425    17.2087     9.1946   -22.1344
 2969.8750     8.5752    18.2421      .0266     2.3209    17.2199     9.2015   -21.4855
 2970.0000     8.5780    18.5475      .0267     2.2979    16.7918     9.2222   -20.7841
 2970.1250     8.5826    18.8876      .0304     2.2771    15.9285     9.2415   -20.3486
 2970.2500     8.5864    19.3187      .0349     2.2608    14.9635     9.2462   -19.7527
 2970.3750     8.5865    19.8455      .0367     2.2514    14.2812     9.2317   -18.1540
 2970.5000     8.5823    20.4519      .0350     2.2480    13.9345     9.2093   -15.3820
 2970.6250     8.5761    21.0556      .0314     2.2491    13.7090     9.1875   -12.1876
 2970.7500     8.5716    21.5021      .0283     2.2527    13.3504     9.1703    -9.7614
 2970.8750     8.5710    21.5720      .0269     2.2573    12.7735     9.1576    -8.8001
 2971.0000     8.5733    21.2168      .0258     2.2615    12.1340     9.1482    -9.2105
 2971.1250     8.5761    20.5100      .0233     2.2645    11.6361     9.1439   -10.5001
 2971.2500     8.5779    19.6784      .0197     2.2660    11.4977     9.1480   -12.6022
 2971.3750     8.5785    18.9149      .0192     2.2671    11.7274     9.1596   -15.2633
 2971.5000     8.5786    18.3670      .0246     2.2690    12.1570     9.1759   -18.0671
 2971.6250     8.5794    18.0716      .0334     2.2723    12.5288     9.1907   -20.2440
 2971.7500     8.5807    17.9871      .0397     2.2765    12.6177     9.2022   -21.4902
 2971.8750     8.5808    18.0077      .0394     2.2806    12.1689     9.2122   -21.5181
 2972.0000     8.5790    18.0034      .0347     2.2842    11.4998     9.2227   -20.4796
 2972.1250     8.5763    17.8420      .0306     2.2871    11.1281     9.2323   -18.5306
 2972.2500     8.5750    17.5565      .0334     2.2896    11.6770     9.2292   -15.5368
 2972.3750     8.5756    17.2509      .0416     2.2923    12.7160     9.2098   -12.4191
 2972.5000     8.5777    17.0934      .0528     2.2954    13.6479     9.1767   -10.1248
 2972.6250     8.5803    17.1396      .0623     2.2985    13.6970     9.1472    -9.5842
 2972.7500     8.5826    17.4833      .0671     2.3004    13.0635     9.1359   -10.2110
 2972.8750     8.5840    17.9690      .0646     2.2997    12.0981     9.1521   -11.4316
 2973.0000     8.5843    18.4215      .0570     2.2965    11.4414     9.1800   -12.5570
 2973.1250     8.5837    18.6382      .0486     2.2925    11.2719     9.2059   -13.6025
 2973.2500     8.5832    18.6435      .0445     2.2907    11.6149     9.2155   -14.9653
 2973.3750     8.5838    18.4804      .0430     2.2915    12.1155     9.2139   -16.6231
 2973.5000     8.5858    18.2848      .0407     2.2942    12.6075     9.2075   -18.1666
 2973.6250     8.5864    18.1322      .0330     2.2961    12.8997     9.2035   -18.8814
 2973.7500     8.5835    18.0846      .0202     2.2965    12.9281     9.2036   -18.6706
 2973.8750     8.5759    18.0472      .0055     2.2954    12.6583     9.2079   -17.5522
 2974.0000     8.5664    17.9933     -.0037     2.2944    12.3778     9.2167   -16.1358
 2974.1250     8.5588    17.8971     -.0033     2.2941    12.3512     9.2306   -14.8520
 2974.2500     8.5567    17.8538      .0056     2.2941    12.7519     9.2450   -13.9403
 2974.3750     8.5602    18.1945      .0180     2.2937    13.5774     9.2551   -13.1747
 2974.5000     8.5674    18.9387      .0313     2.2926    14.6506     9.2588   -12.3986
 2974.6250     8.5746    19.8400      .0445     2.2914    15.5337     9.2566   -11.6375
 2974.7500     8.5795    20.3678      .0565     2.2910    15.9544     9.2489   -11.0490
 2974.8750     8.5821    20.3230      .0655     2.2916    15.8185     9.2351   -10.8427
 2975.0000     8.5836    19.9022      .0692     2.2927    15.2484     9.2179   -11.0064
 2975.1250     8.5853    19.5838      .0665     2.2933    14.5684     9.2066   -11.5338
 2975.2500     8.5876    19.6509      .0615     2.2936    14.0912     9.2051   -12.4020
 2975.3750     8.5902    20.1022      .0581     2.2940    13.9992     9.2111   -13.6952
 2975.5000     8.5916    20.5797      .0576     2.2949    14.1280     9.2136   -15.3045
 2975.6250     8.5908    20.8226      .0580     2.2961    14.2549     9.2045   -16.9097
 2975.7500     8.5872    20.7937      .0564     2.2964    14.3408     9.1827   -18.2032
 2975.8750     8.5819    20.6472      .0511     2.2954    14.6034     9.1595   -19.2207
 2976.0000     8.5760    20.5658      .0429     2.2933    15.2936     9.1453   -19.8454
 2976.1250     8.5710    20.5493      .0364     2.2915    16.4096     9.1488   -19.6030
 2976.2500     8.5681    20.4970      .0343     2.2911    17.5592     9.1621   -18.3045
 2976.3750     8.5681    20.3531      .0371     2.2931    18.6372     9.1766   -15.6898
 2976.5000     8.5698    20.2101      .0387     2.2970    19.8745     9.1816   -12.8689
 2976.6250     8.5723    20.3671      .0360     2.3023    21.3293     9.1768   -10.8092
 2976.7500     8.5744    20.8249      .0299     2.3088    22.7252     9.1692   -10.9303
 2976.8750     8.5754    21.3867      .0276     2.3148    23.5545     9.1704   -12.3579
 2977.0000     8.5757    21.7204      .0326     2.3187    23.4439     9.1863   -14.5010
 2977.1250     8.5760    21.8595      .0416     2.3174    22.4862     9.2158   -16.3569
 2977.2500     8.5767    22.0627      .0509     2.3102    21.2703     9.2477   -17.7141
 2977.3750     8.5779    22.3791      .0580     2.2953    20.0988     9.2692   -18.5355
 2977.5000     8.5785    22.6446      .0593     2.2759    18.8973     9.2727   -19.1684
 2977.6250     8.5774    22.6352      .0547     2.2565    17.5684     9.2594   -19.6530
 2977.7500     8.5746    22.4692      .0449     2.2430    16.2509     9.2372   -19.7536
 2977.8750     8.5722    22.3495      .0358     2.2366    15.1764     9.2197   -19.4088
 2978.0000     8.5721    22.4000      .0346     2.2371    14.5606     9.2126   -18.4352
 2978.1250     8.5747    22.5344      .0439     2.2405    14.4396     9.2142   -16.7263
 2978.2500     8.5784    22.5717      .0559     2.2438    14.7349     9.2171   -14.6166
 2978.3750     8.5812    22.4886      .0592     2.2467    15.4591     9.2172   -12.6560
 2978.5000     8.5823    22.3748      .0527     2.2516    16.4949     9.2143   -11.4847
 2978.6250     8.5827    22.3414      .0453     2.2609    17.7209     9.2067   -11.2608
 2978.7500     8.5824    22.2734      .0441     2.2752    18.8983     9.1962   -11.7312
 2978.8750     8.5813    21.9938      .0504     2.2936    19.9378     9.1882   -12.6502
 2979.0000     8.5793    21.5284      .0581     2.3148    20.9335     9.1900   -13.9847
 2979.1250     8.5763    21.0215      .0592     2.3369    21.9478     9.2041   -15.8162
 2979.2500     8.5717    20.7016      .0508     2.3587    22.8626     9.2258   -17.9525
 2979.3750     8.5665    20.6980      .0392     2.3782    23.4342     9.2450   -19.6195
 2979.5000     8.5631    21.0562      .0326     2.3918    23.6406     9.2540   -20.2121
 2979.6250     8.5633    21.7457      .0359     2.3924    23.9460     9.2522   -19.6235
 2979.7500     8.5665    22.7055      .0444     2.3790    24.8218     9.2480   -18.5371
