~VERSION INFORMATION
VERS.                                                 2.0:   CWLS Log ASCII Standard-VERSION 2.0
WRAP.                                                  NO:   One line per depth step
~Well Information Block
STRT.M                                           500.1250:   Top Depth
STOP.M                                          3159.8750:   Bottom Depth
STEP.M                                             .12500:   Depth Increment
NULL.                                            -999.250:   Null Value
FLD .                                             WILDCAT:   Field Name
WELL.                                             15/12-4:   NAME
WBN .                                             15/12-4:   WELLBORE
NATI.                                                 NOR:   COUNTRY
CTRY.                                                 NOR:   COUNTRY
COMP.                                             STATOIL:   OPERATOR
PROV.                                           NORTH SEA:   PROVINCE
COUN.                                      DEEPSEA BERGEN:   RIG NAME
SPUD.                                          1984/09/13:   SPUD DATE
LATI.                                         58 3 9.16 N:   SURF. LATITUDE
LONG.                                        1 54 11.61 E:   SURF. LONGITUDE
PBWE.                                             15/12-4:   PB WELL ID
APIN.                                             15/12-4:   PB WELLBORE ID
PBWS.                                                 all:   PB WELL NAME SET
~PARAMETER INFORMATION (log)
LNAM.                              CDL/CNL/GR  COMPOSITED:   NAME
LTYP.                                         DEPTH MATCH:   LOG TYPE
LSRV.                                             CAL/BGT:   LOG SERVICE
LSOU.                                             SPT/NPD:   LOG SOURCE
LVSN.                                                   1:   LOG VERSION
BHIS.                                                   R:   BRIEF HISTORY
FHIS.                                             RAW-LIS:   FULL HISTORY
LCNM.                                                  DA:   LOGGING CONTRACTOR
TOOL.                             CDL/CNL/GR (COMPOSITED):   TOOL STRING
~Curve Information Block
#MNEM.UNIT                                        API CODE    No Description
#=========                                        ========    == ===========
DEPT.M                                       00 001 00 00:     1  DEPTH
CAL.IN                                                   :     2  Caliper
CNC.%                                                    :     3  Neutron Porosity
CORR.G/CC                                                :     4  Density Correction
DEN.G/CC                                                 :     5  Bulk Density
GR.GAPI                                                  :     6  Gamma Ray
SPD.                                                     :     7  Cable Speed
TEN.LB                                                   :     8  Cable Tension
~ASCII
# ...
 2263.2500    15.5382    34.0474      .1126     2.3009    30.2846     9.2991   -26.3825
 2263.3750    15.3584    33.8289      .1334     2.3115    30.4082     9.3271   -19.4084
 2263.5000    15.1652    33.2660      .1412     2.3024    31.1651     9.3529   -14.2865
 2263.6250    14.9997    33.4977      .1332     2.2772    32.4146     9.3703   -13.5170
 2263.7500    14.9152    34.5636      .1060     2.2414    33.7360     9.3681   -19.1005
 2263.8750    14.8798    36.0926      .0738     2.2078    34.4457     9.3563   -26.1494
 2264.0000    14.8669    36.9091      .0478     2.1830    34.1488     9.3474   -31.6860
 2264.1250    14.8382    36.7037      .0345     2.1691    32.9741     9.3560   -34.3044
 2264.2500    14.7908    35.3511      .0293     2.1619    31.6265     9.3758   -35.5497
 2264.3750    14.7325    33.8733      .0297     2.1588    30.7627     9.3889   -36.2751
 2264.5000    14.6799    32.8535      .0307     2.1555    30.8283     9.3799   -36.4237
 2264.6250    14.6406    32.4637      .0301     2.1502    32.1177     9.3532   -35.5794
 2264.7500    14.6191    32.2916      .0286     2.1440    34.5327     9.3276   -33.6166
 2264.8750    14.6131    31.9131      .0287     2.1408    37.1716     9.3190   -31.1793
 2265.0000    14.6222    31.1808      .0333     2.1468    39.2711     9.3283   -29.1523
 2265.1250    14.6386    30.3153      .0393     2.1658    40.4534     9.3373   -28.3138
 2265.2500    14.6541    29.5783      .0381     2.1978    40.6389     9.3291   -28.7270
 2265.3750    14.6637    29.1319      .0246     2.2429    39.8541     9.2953   -29.7299
 2265.5000    14.6683    29.0382      .0083     2.2940    38.4384     9.2444   -30.1643
 2265.6250    14.6687    29.0460      .0031     2.3320    36.7784     9.1890   -29.5078
 2265.7500    14.6575    28.9157      .0096     2.3363    35.4523     9.1415   -28.5083
 2265.8750    14.6134    28.6620      .0219     2.3029    35.1973     9.1101   -28.3809
 2266.0000    14.5175    28.6608      .0302     2.2484    35.9920     9.0969   -29.6446
 2266.1250    14.3797    29.1831      .0271     2.1917    37.1166     9.0989   -31.1084
 2266.2500    14.2333    30.1492      .0109     2.1453    38.0086     9.1183   -30.6122
 2266.3750    14.1292    31.2718     -.0057     2.1133    38.5711     9.1567   -27.7972
 2266.5000    14.1006    32.3455     -.0141     2.0975    38.9037     9.2173   -23.9823
 2266.6250    14.1609    33.4712     -.0127     2.0988    39.3408     9.2961   -21.5167
 2266.7500    14.2686    34.7218     -.0050     2.1120    39.9195     9.3761   -20.5885
 2266.8750    14.3916    35.8965      .0081     2.1357    40.3507     9.4370   -20.2431
 2267.0000    14.4957    36.3789      .0227     2.1622    40.2914     9.4659   -18.9057
 2267.1250    14.5772    35.5810      .0353     2.1857    39.6728     9.4640   -16.8262
 2267.2500    14.6330    34.1211      .0386     2.1975    38.1559     9.4202   -16.4657
 2267.3750    14.6743    32.8261      .0342     2.2000    36.3187     9.3568   -18.9441
 2267.5000    14.6963    32.6526      .0249     2.1950    34.9768     9.2884   -23.6876
 2267.6250    14.6944    33.5737      .0172     2.1873    35.3279     9.2409   -27.3220
 2267.7500    14.6815    35.1052      .0136     2.1800    37.1257     9.2177   -28.5251
 2267.8750    14.6773    35.9961      .0142     2.1738    39.8703     9.2130   -27.5964
 2268.0000    14.6965    35.4906      .0153     2.1682    41.9525     9.2011   -26.9800
 2268.1250    14.7315    33.6845      .0154     2.1632    42.5510     9.1742   -27.3990
 2268.2500    14.7622    31.7854      .0139     2.1595    41.4978     9.1467   -28.3350
 2268.3750    14.7800    30.8847      .0132     2.1565    40.1627     9.1414   -28.8954
 2268.5000    14.7947    31.1540      .0145     2.1547    39.3647     9.1651   -29.3051
 2268.6250    14.8317    32.3688      .0167     2.1539    39.0538     9.1993   -30.1547
 2268.7500    14.8940    34.2356      .0185     2.1527    38.4490     9.2279   -31.1628
 2268.8750    14.9683    35.6179      .0198     2.1505    36.6936     9.2519   -31.7578
 2269.0000    15.0232    35.8085      .0198     2.1505    33.9147     9.2881   -32.4827
 2269.1250    15.0349    34.9828      .0172     2.1574    30.9774     9.3465   -34.5083
 2269.2500    14.9897    34.1369      .0150     2.1739    28.9929     9.4160   -37.5590
 2269.3750    14.8962    34.0173      .0194     2.1979    28.2620     9.4744   -39.1596
 2269.5000    14.7817    34.5095      .0323     2.2195    28.4772     9.5100   -36.4136
 2269.6250    14.6849    35.1141      .0486     2.2282    29.0119     9.5337   -29.6678
 2269.7500    14.6375    35.4167      .0616     2.2201    29.6121     9.5560   -22.3355
 2269.8750    14.6435    35.6568      .0657     2.2006    30.4095     9.5762   -18.7883
 2270.0000    14.6809    36.1303      .0593     2.1774    31.5874     9.5845   -20.8691
 2270.1250    14.7157    36.3826      .0481     2.1580    33.0539     9.5720   -26.8133
 2270.2500    14.7361    35.4305      .0403     2.1452    34.5008     9.5450   -31.7827
 2270.3750    14.7544    33.0298      .0380     2.1406    35.8395     9.5069   -31.1641
 2270.5000    14.7968    30.4847      .0371     2.1413    37.1796     9.4626   -24.4724
 2270.6250    14.8677    29.2553      .0340     2.1443    38.3838     9.4155   -15.4692
 2270.7500    14.9603    29.4859      .0272     2.1479    39.1528     9.3734   -10.0281
 2270.8750    15.0467    30.7643      .0214     2.1523    39.3934     9.3452   -10.1993
 2271.0000    15.1094    31.8497      .0201     2.1579    39.0176     9.3330   -15.2538
 2271.1250    15.1383    32.2050      .0226     2.1613    38.2913     9.3238   -22.1254
 2271.2500    15.1449    31.8942      .0242     2.1609    37.6265     9.3047   -28.8884
 2271.3750    15.1287    31.5871      .0226     2.1559    37.2949     9.2722   -35.0272
 2271.5000    15.0908    31.5076      .0204     2.1497    37.4043     9.2461   -39.5323
 2271.6250    15.0329    31.7583      .0212     2.1464    37.8740     9.2388   -40.8404
 2271.7500    14.9582    32.2873      .0300     2.1516    38.3540     9.2624   -35.8008
 2271.8750    14.8853    33.0639      .0423     2.1613    38.2381     9.2989   -28.0867
 2272.0000    14.8255    33.3991      .0535     2.1716    37.2856     9.3373   -21.0574
 2272.1250    14.7847    32.9562      .0589     2.1774    35.8648     9.3686   -18.5964
 2272.2500    14.7546    31.7715      .0585     2.1779    34.4738     9.3984   -20.1950
 2272.3750    14.7232    30.8616      .0516     2.1728    33.4662     9.4386   -25.0318
 2272.5000    14.6740    30.7413      .0427     2.1655    32.9392     9.4914   -30.2453
 2272.6250    14.5970    31.5580      .0363     2.1596    32.9766     9.5457   -33.7854
 2272.7500    14.5061    32.6984      .0343     2.1576    33.6777     9.5798   -33.8434
 2272.8750    14.4445    33.1784      .0342     2.1587    34.9790     9.5834   -30.1188
 2273.0000    14.4687    32.4928      .0335     2.1611    36.6574     9.5597   -23.5302
 2273.1250    14.5961    31.0847      .0308     2.1629    38.1670     9.5308   -17.3198
 2273.2500    14.7936    29.6817      .0262     2.1637    38.9074     9.5093   -14.5865
 2273.3750    14.9871    28.8021      .0232     2.1646    38.5772     9.4866   -16.0283
 2273.5000    15.1162    28.7903      .0242     2.1667    37.0627     9.4489   -20.8231
 2273.6250    15.1792    29.4028      .0273     2.1696    34.8410     9.3975   -26.3038
 2273.7500    15.2186    30.0700      .0272     2.1711    32.7298     9.3482   -29.7895
 2273.8750    15.2794    30.3012      .0166     2.1668    31.8344     9.3168   -27.9762
 2274.0000    15.3932    30.0842     -.0038     2.1563    32.4582     9.2982   -21.4319
 2274.1250    15.5701    29.9724     -.0283     2.1431    34.2781     9.2805   -12.7035
 2274.2500    15.7768    30.3309     -.0371     2.1363    36.2262     9.2525    -7.4074
 2274.3750    15.9309    31.3109     -.0233     2.1380    37.4665     9.2228    -7.7512
 2274.5000    15.9191    32.4370      .0136     2.1458    37.6016     9.2067   -14.9701
