~VERSION INFORMATION
VERS.                                                 2.0:   CWLS Log ASCII Standard-VERSION 2.0
WRAP.                                                  NO:   One line per depth step
~Well Information Block
STRT.M                                           500.1250:   Top Depth
STOP.M                                          3159.8750:   Bottom Depth
STEP.M                                             .12500:   Depth Increment
NULL.                                            -999.250:   Null Value
FLD .                                             WILDCAT:   Field Name
WELL.                                             15/12-4:   NAME
WBN .                                             15/12-4:   WELLBORE
NATI.                                                 NOR:   COUNTRY
CTRY.                                                 NOR:   COUNTRY
COMP.                                             STATOIL:   OPERATOR
PROV.                                           NORTH SEA:   PROVINCE
COUN.                                      DEEPSEA BERGEN:   RIG NAME
SPUD.                                          1984/09/13:   SPUD DATE
LATI.                                         58 3 9.16 N:   SURF. LATITUDE
LONG.                                        1 54 11.61 E:   SURF. LONGITUDE
PBWE.                                             15/12-4:   PB WELL ID
APIN.                                             15/12-4:   PB WELLBORE ID
PBWS.                                                 all:   PB WELL NAME SET
~PARAMETER INFORMATION (log)
LNAM.                              CDL/CNL/GR  COMPOSITED:   NAME
LTYP.                                         DEPTH MATCH:   LOG TYPE
LSRV.                                             CAL/BGT:   LOG SERVICE
LSOU.                                             SPT/NPD:   LOG SOURCE
LVSN.                                                   1:   LOG VERSION
BHIS.                                                   R:   BRIEF HISTORY
FHIS.                                             RAW-LIS:   FULL HISTORY
LCNM.                                                  DA:   LOGGING CONTRACTOR
TOOL.                             CDL/CNL/GR (COMPOSITED):   TOOL STRING
~Curve Information Block
#MNEM.UNIT                                        API CODE    No Description
#=========                                        ========    == ===========
DEPT.M                                       00 001 00 00:     1  DEPTH
CAL.IN                                                   :     2  Caliper
CNC.%                                                    :     3  Neutron Porosity
CORR.G/CC                                                :     4  Density Correction
DEN.G/CC                                                 :     5  Bulk Density
GR.GAPI                                                  :     6  Gamma Ray
SPD.                                                     :     7  Cable Speed
TEN.LB                                                   :     8  Cable Tension
~ASCII
# ...
 2797.8750     9.4847    26.2747      .0451     2.5362   125.2135     9.5133    -6.2988
 2798.0000     9.4845    26.2648      .0601     2.5357   125.4483     9.5009    -9.9036
 2798.1250     9.4859    26.1141      .0673     2.5275   128.9337     9.4601   -11.7014
 2798.2500     9.4885    25.7021      .0695     2.5154   133.9862     9.4056   -12.0804
 2798.3750     9.4904    25.2219      .0700     2.5023   139.0060     9.3523   -11.5856
 2798.5000     9.4900    24.9001      .0680     2.4915   142.7607     9.3162   -11.2737
 2798.6250     9.4878    24.9813      .0619     2.4837   145.3365     9.2992   -11.7062
 2798.7500     9.4861    25.3336      .0512     2.4802   146.1289     9.3018   -13.5388
 2798.8750     9.4865    25.7196      .0427     2.4789   145.1309     9.3039   -15.9910
 2799.0000     9.4885    25.7448      .0417     2.4797   141.5978     9.2906   -18.1538
 2799.1250     9.4901    25.4025      .0469     2.4828   135.7304     9.2589   -18.7089
 2799.2500     9.4905    24.8538      .0512     2.4878   128.9193     9.2245   -17.7949
 2799.3750     9.4902    24.4348      .0487     2.4938   122.4737     9.2087   -15.9105
 2799.5000     9.4898    24.3343      .0405     2.4983   118.0436     9.2231   -14.3129
 2799.6250     9.4890    24.6502      .0312     2.4996   116.4998     9.2578   -13.5494
 2799.7500     9.4879    25.1799      .0261     2.4977   118.1917     9.2880   -13.4252
 2799.8750     9.4886    25.6932      .0266     2.4943   121.6050     9.2995   -13.2225
 2800.0000     9.4950    25.8850      .0312     2.4911   125.1249     9.2958   -12.7381
 2800.1250     9.5103    25.7298      .0345     2.4897   127.3873     9.2960   -12.4040
 2800.2500     9.5333    25.4055      .0327     2.4899   128.0190     9.3123   -12.6646
 2800.3750     9.5589    25.2152      .0238     2.4906   127.5073     9.3424   -13.5621
 2800.5000     9.5802    25.2879      .0120     2.4908   126.8897     9.3695   -14.5018
 2800.6250     9.5925    25.4860      .0045     2.4900   126.6268     9.3786   -14.7538
 2800.7500     9.5968    25.5861      .0086     2.4895   126.5933     9.3712   -13.9008
 2800.8750     9.5964    25.4532      .0325     2.4935   126.7760     9.3518   -11.8593
 2801.0000     9.5959    25.2275      .0742     2.5026   127.1885     9.3260    -9.4132
 2801.1250     9.5970    25.0657      .1192     2.5084   127.9230     9.3026    -7.6595
 2801.2500     9.5991    25.0257      .1491     2.5036   129.0595     9.2914    -7.8662
 2801.3750     9.5999    25.1648      .1594     2.4949   130.0122     9.2905    -9.4538
 2801.5000     9.5981    25.5150      .1550     2.4902   130.5215     9.2929   -10.8104
 2801.6250     9.5934    25.9883      .1450     2.4895   131.7801     9.2887    -9.8638
 2801.7500     9.5877    26.4221      .1356     2.4877   135.1307     9.2786    -7.2437
 2801.8750     9.5833    26.7265      .1287     2.4824   141.5087     9.2676    -4.8417
 2802.0000     9.5816    26.8562      .1242     2.4772   148.3586     9.2622    -5.2960
 2802.1250     9.5815    26.7698      .1214     2.4762   153.1258     9.2604    -8.7402
 2802.2500     9.5816    26.4807      .1167     2.4844   151.9104     9.2564   -14.2350
 2802.3750     9.5812    25.8931      .1035     2.4960   146.7976     9.2513   -18.8584
 2802.5000     9.5811    25.0466      .0771     2.5069   139.8416     9.2488   -21.2220
 2802.6250     9.5827    24.1082      .0460     2.5163   134.3156     9.2533   -21.0142
 2802.7500     9.5856    23.3452      .0235     2.5265   130.5420     9.2681   -19.6428
 2802.8750     9.5882    22.7135      .0199     2.5365   127.6726     9.3049   -18.1298
 2803.0000     9.5860    22.1253      .0273     2.5423   124.1726     9.3622   -17.4628
 2803.1250     9.5760    21.5916      .0375     2.5430   120.1158     9.4244   -17.8762
 2803.2500     9.5548    21.2234      .0430     2.5383   116.9695     9.4599   -19.3151
 2803.3750     9.5272    21.2541      .0432     2.5311   115.8602     9.4582   -20.9650
 2803.5000     9.4973    21.6531      .0389     2.5225   117.3928     9.4235   -22.1863
 2803.6250     9.4717    22.2266      .0350     2.5131   120.1676     9.3884   -22.5209
 2803.7500     9.4532    22.7132      .0347     2.5029   122.3389     9.3760   -22.2187
 2803.8750     9.4430    23.0065      .0381     2.4916   122.4988     9.3952   -21.5698
 2804.0000     9.4366    23.1827      .0399     2.4805   120.9096     9.4278   -21.1213
 2804.1250     9.4301    23.3835      .0377     2.4711   118.7955     9.4577   -21.0123
 2804.2500     9.4222    23.5942      .0351     2.4646   117.6884     9.4797   -20.8072
 2804.3750     9.4153    23.7196      .0360     2.4611   117.9970     9.4994   -20.2280
 2804.5000     9.4127    23.6425      .0386     2.4598   118.7753     9.5219   -19.5740
 2804.6250     9.4154    23.3840      .0377     2.4601   118.7366     9.5424   -19.4395
 2804.7500     9.4213    23.1344      .0304     2.4616   117.4726     9.5485   -20.0714
 2804.8750     9.4269    23.1358      .0217     2.4650   115.5636     9.5329   -20.9813
 2805.0000     9.4301    23.5006      .0204     2.4710   114.1952     9.5024   -21.5247
 2805.1250     9.4308    23.9949      .0322     2.4798   114.4165     9.4768   -21.2906
 2805.2500     9.4309    24.3101      .0492     2.4898   115.6123     9.4689   -20.7445
 2805.3750     9.4310    24.2180      .0620     2.5000   117.0272     9.4811   -20.5254
 2805.5000     9.4319    23.7488      .0645     2.5090   117.7303     9.4991   -20.8260
 2805.6250     9.4340    23.2935      .0590     2.5167   117.2134     9.5128   -21.3743
 2805.7500     9.4364    23.2050      .0479     2.5220   115.2526     9.5179   -21.8087
 2805.8750     9.4372    23.5240      .0358     2.5247   113.0983     9.5184   -21.8871
 2806.0000     9.4346    23.8010      .0235     2.5237   111.5834     9.5143   -21.5349
 2806.1250     9.4298    23.6861      .0105     2.5193   110.5741     9.5029   -20.5354
 2806.2500     9.4265    23.0523     -.0031     2.5143   108.9501     9.4862   -18.9345
 2806.3750     9.4294    22.2372     -.0159     2.5126   105.1725     9.4681   -16.7594
 2806.5000     9.4389    21.4350     -.0219     2.5176    98.9959     9.4570   -14.6803
 2806.6250     9.4516    20.7068     -.0164     2.5284    91.8350     9.4557   -13.1546
 2806.7500     9.4614    20.0501      .0081     2.5419    86.9075     9.4658   -12.6053
 2806.8750     9.4654    19.6657      .0385     2.5510    85.4342     9.4791   -12.5658
 2807.0000     9.4633    19.8589      .0631     2.5507    88.3598     9.4939   -12.9933
 2807.1250     9.4583    20.6643      .0707     2.5408    94.6909     9.5124   -13.8201
 2807.2500     9.4532    22.0196      .0658     2.5276   101.9316     9.5331   -14.9863
 2807.3750     9.4492    23.2632      .0564     2.5164   107.6672     9.5496   -16.5873
 2807.5000     9.4464    24.1060      .0520     2.5100   110.0296     9.5540   -18.4138
 2807.6250     9.4447    24.5247      .0519     2.5080   108.8134     9.5442   -20.2233
 2807.7500     9.4456    24.7308      .0511     2.5104   104.8450     9.5247   -21.6143
 2807.8750     9.4505    24.6952      .0467     2.5166   100.5191     9.5042   -22.3756
 2808.0000     9.4598    24.4246      .0397     2.5257    97.4393     9.4854   -22.1679
 2808.1250     9.4711    24.0464      .0342     2.5342    96.0192     9.4674   -20.9502
 2808.2500     9.4822    23.8025      .0322     2.5376    95.6763     9.4507   -19.2233
 2808.3750     9.4915    23.7820      .0333     2.5327    95.5884     9.4362   -17.5694
 2808.5000     9.4991    23.9220      .0343     2.5214    95.3577     9.4271   -16.4071
 2808.6250     9.5050    23.8960      .0337     2.5082    95.2444     9.4281   -16.0049
 2808.7500     9.5093    23.5436      .0327     2.4974    95.2590     9.4402   -16.2529
 2808.8750     9.5120    22.8618      .0319     2.4906    95.2140     9.4603   -16.7385
 2809.0000     9.5133    22.1666      .0297     2.4877    95.0774     9.4769   -16.9318
 2809.1250     9.5136    21.8090      .0254     2.4868    95.0782     9.4789   -16.7650
