~VERSION INFORMATION
VERS.                                                 2.0:   CWLS Log ASCII Standard-VERSION 2.0
WRAP.                                                  NO:   One line per depth step
~Well Information Block
STRT.M                                           500.1250:   Top Depth
STOP.M                                          3159.8750:   Bottom Depth
STEP.M                                             .12500:   Depth Increment
NULL.                                            -999.250:   Null Value
FLD .                                             WILDCAT:   Field Name
WELL.                                             15/12-4:   NAME
WBN .                                             15/12-4:   WELLBORE
NATI.                                                 NOR:   COUNTRY
CTRY.                                                 NOR:   COUNTRY
COMP.                                             STATOIL:   OPERATOR
PROV.                                           NORTH SEA:   PROVINCE
COUN.                                      DEEPSEA BERGEN:   RIG NAME
SPUD.                                          1984/09/13:   SPUD DATE
LATI.                                         58 3 9.16 N:   SURF. LATITUDE
LONG.                                        1 54 11.61 E:   SURF. LONGITUDE
PBWE.                                             15/12-4:   PB WELL ID
APIN.                                             15/12-4:   PB WELLBORE ID
PBWS.                                                 all:   PB WELL NAME SET
~PARAMETER INFORMATION (log)
LNAM.                              CDL/CNL/GR  COMPOSITED:   NAME
LTYP.                                         DEPTH MATCH:   LOG TYPE
LSRV.                                             CAL/BGT:   LOG SERVICE
LSOU.                                             SPT/NPD:   LOG SOURCE
LVSN.                                                   1:   LOG VERSION
BHIS.                                                   R:   BRIEF HISTORY
FHIS.                                             RAW-LIS:   FULL HISTORY
LCNM.                                                  DA:   LOGGING CONTRACTOR
TOOL.                             CDL/CNL/GR (COMPOSITED):   TOOL STRING
~Curve Information Block
#MNEM.UNIT                                        API CODE    No Description
#=========                                        ========    == ===========
DEPT.M                                       00 001 00 00:     1  DEPTH
CAL.IN                                                   :     2  Caliper
CNC.%                                                    :     3  Neutron Porosity
CORR.G/CC                                                :     4  Density Correction
DEN.G/CC                                                 :     5  Bulk Density
GR.GAPI                                                  :     6  Gamma Ray
SPD.                                                     :     7  Cable Speed
TEN.LB                                                   :     8  Cable Tension
~ASCII
# ...
 2445.2500    14.6097    24.7081      .0048     2.2049    37.2233     8.2403   -28.2145
 2445.3750    14.6756    25.9069      .0166     2.2309    38.6232     8.2320   -27.1434
 2445.5000    14.8699    26.8584      .0234     2.2433    40.6142     8.2368   -21.5358
 2445.6250    15.2031    27.3159      .0307     2.2514    42.2007     8.2319   -13.3777
 2445.7500    15.5553    26.8532      .0419     2.2606    42.6987     8.2076    -7.6674
 2445.8750    15.7520    25.6451      .0568     2.2696    41.5768     8.1657    -9.2968
 2446.0000    15.6835    24.1146      .0693     2.2723    39.6460     8.1248   -16.6796
 2446.1250    15.3954    23.3107      .0738     2.2657    37.7081     8.0947   -25.7250
 2446.2500    15.0157    23.3988      .0621     2.2471    36.9885     8.0820   -31.2390
 2446.3750    14.7304    24.4189      .0415     2.2248    37.4536     8.0777   -32.5866
 2446.5000    14.6189    25.3687      .0180     2.2053    38.6239     8.0789   -29.9230
 2446.6250    14.6497    25.6258      .0026     2.1967    39.5958     8.0909   -26.1434
 2446.7500    14.7316    24.9930     -.0003     2.2008    40.4962     8.1208   -24.0123
 2446.8750    14.8196    24.2021      .0161     2.2219    42.0743     8.1787   -24.5779
 2447.0000    14.8890    23.6873      .0509     2.2549    44.6508     8.2461   -24.5051
 2447.1250    14.9486    23.6993      .0989     2.2911    47.9520     8.2948   -20.8279
 2447.2500    15.0284    24.0803      .1464     2.3165    51.1854     8.2921   -13.6580
 2447.3750    15.1335    24.9754      .1776     2.3230    53.4601     8.2377    -7.5127
 2447.5000    15.2279    26.3875      .1802     2.3082    54.0245     8.1550    -7.0161
 2447.6250    15.2586    28.0014      .1546     2.2803    52.6050     8.0931   -12.2097
 2447.7500    15.2035    28.9689      .1106     2.2503    49.3166     8.0789   -18.7526
 2447.8750    15.0820    28.7307      .0645     2.2285    44.6688     8.1029   -22.2146
 2448.0000    14.9520    27.2672      .0318     2.2201    39.8669     8.1278   -22.5607
 2448.1250    14.8683    25.2712      .0238     2.2248    36.3521     8.1253   -22.8462
 2448.2500    14.8409    23.4979      .0402     2.2334    34.3602     8.0966   -24.1348
 2448.3750    14.8898    22.6078      .0750     2.2347    33.7276     8.0515   -24.7749
 2448.5000    15.0579    22.5010      .1127     2.2194    33.9479     8.0132   -22.8577
 2448.6250    15.3487    23.2858      .1425     2.1904    34.7375     7.9926   -19.8283
 2448.7500    15.6988    24.9251      .1523     2.1550    36.1408     7.9857   -19.9755
 2448.8750    15.9439    26.7779      .1385     2.1259    37.7656     7.9742   -25.0202
 2449.0000    15.9622    27.9365      .1029     2.1088    39.2166     7.9489   -32.5858
 2449.1250    15.7177    28.1013      .0605     2.1134    40.0366     7.9174   -35.5660
 2449.2500    15.3777    27.3174      .0284     2.1369    40.3441     7.8981   -32.0739
 2449.3750    15.1130    26.3254      .0228     2.1769    40.4763     7.9140   -23.5685
 2449.5000    15.0425    25.6334      .0429     2.2185    40.6278     7.9670   -16.7653
 2449.6250    15.1414    25.4882      .0792     2.2532    40.4756     8.0401   -13.6718
 2449.7500    15.4176    25.7347      .1242     2.2697    39.2504     8.1055   -13.8216
 2449.8750    15.7818    26.3698      .1677     2.2713    37.4803     8.1510   -13.5315
 2450.0000    16.2072    27.2056      .2021     2.2569    35.7024     8.1740   -12.8111
 2450.1250    16.5736    28.0214      .2113     2.2302    34.5930     8.1813   -14.7817
 2450.2500    16.7754    28.3864      .1977     2.2085    34.2234     8.1806   -19.9918
 2450.3750    16.6823    28.3183      .1665     2.1965    34.6006     8.1777   -26.6705
 2450.5000    16.3719    27.9737      .1384     2.2019    35.2815     8.1798   -30.8195
 2450.6250    15.9818    27.8707      .1236     2.2232    36.1093     8.1848   -32.2013
 2450.7500    15.6906    28.1587      .1194     2.2501    36.8683     8.1827   -32.9040
 2450.8750    15.5374    28.7570      .1124     2.2671    37.4953     8.1686   -33.4619
 2451.0000    15.4894    29.3098      .0962     2.2635    38.4092     8.1379   -31.0054
 2451.1250    15.4513    29.6798      .0734     2.2365    40.1466     8.0932   -22.2969
 2451.2500    15.3867    29.4648      .0518     2.1936    42.3750     8.0464    -9.6476
 2451.3750    15.3065    28.6465      .0393     2.1433    44.1129     8.0128      .9493
 2451.5000    15.2407    27.4465      .0351     2.0996    44.4295     7.9981     3.4652
 2451.6250    15.1965    26.5202      .0313     2.0727    43.2632     8.0006    -1.9994
 2451.7500    15.1610    26.1698      .0199     2.0673    41.3902     8.0103    -9.4627
 2451.8750    15.1202    26.5024      .0007     2.0835    39.6627     8.0132   -13.7316
 2452.0000    15.0875    27.2230     -.0151     2.1171    38.4490     8.0021   -14.5712
 2452.1250    15.0999    28.1106     -.0158     2.1547    37.4653     7.9857   -14.8944
 2452.2500    15.2022    28.8286      .0029     2.1881    36.5257     7.9758   -15.7985
 2452.3750    15.4147    29.2439      .0322     2.2123    35.9827     7.9796   -15.9324
 2452.5000    15.7294    29.2312      .0630     2.2299    36.5181     7.9992   -14.2224
 2452.6250    16.1096    28.7364      .0936     2.2463    38.7904     8.0278   -12.1222
 2452.7500    16.4892    27.9713      .1233     2.2618    42.0283     8.0529   -11.7989
 2452.8750    16.8029    27.3196      .1464     2.2696    45.0690     8.0645   -14.2002
 2453.0000    17.0059    27.0064      .1569     2.2636    46.5104     8.0605   -17.5486
 2453.1250    17.1088    27.0617      .1543     2.2466    46.0725     8.0454   -20.9266
 2453.2500    17.1117    27.4477      .1431     2.2290    43.9847     8.0196   -24.3742
 2453.3750    17.0591    28.2239      .1360     2.2168    42.0298     7.9871   -26.4256
 2453.5000    16.9677    28.9954      .1374     2.2061    41.0672     7.9500   -24.3954
 2453.6250    16.8939    29.5814      .1444     2.1859    41.2286     7.9166   -16.1696
 2453.7500    16.8807    30.2270      .1509     2.1550    41.6771     7.8992    -5.6247
 2453.8750    16.9686    31.2244      .1533     2.1178    41.7720     7.9117     1.1165
 2454.0000    17.1190    32.6290      .1496     2.0875    41.4527     7.9363     -.6702
 2454.1250    17.2790    33.7937      .1381     2.0684    41.1538     7.9498    -9.4886
 2454.2500    17.3741    33.8960      .1172     2.0714    41.9663     7.9200   -20.8783
 2454.3750    17.4196    32.3211      .0952     2.0932    43.4586     7.8655   -29.2934
 2454.5000    17.4638    30.2343      .0781     2.1341    44.8376     7.8056   -32.6292
 2454.6250    17.5759    28.5792      .0714     2.1837    45.4091     7.7654   -31.5872
 2454.7500    17.7504    28.2980      .0722     2.2286    45.6926     7.7522   -29.4051
 2454.8750    17.9621    28.8646      .0773     2.2543    46.5773     7.7757   -29.2976
 2455.0000    18.1193    29.9592      .0850     2.2679    48.2052     7.8268   -32.4617
 2455.1250    18.1377    30.7699      .0979     2.2763    49.8119     7.8958   -36.7841
 2455.2500    17.9651    30.9468      .1161     2.2855    49.9416     7.9639   -37.8878
 2455.3750    17.6812    30.3087      .1352     2.2982    48.2433     8.0141   -34.3533
 2455.5000    17.3887    29.4349      .1513     2.3152    45.6029     8.0394   -28.2948
 2455.6250    17.1806    28.7145      .1624     2.3349    43.6688     8.0513   -24.9347
 2455.7500    17.0576    28.2318      .1675     2.3530    43.0630     8.0631   -26.5675
 2455.8750    16.9419    27.8514      .1622     2.3620    43.2998     8.0729   -30.6905
 2456.0000    16.7357    27.5606      .1425     2.3546    43.2138     8.0698   -31.4025
 2456.1250    16.4153    27.3891      .1088     2.3328    42.0544     8.0504   -25.5845
 2456.2500    16.0587    27.2230      .0712     2.3085    40.0993     8.0218   -17.0910
 2456.3750    15.7459    26.7040      .0408     2.2936    38.0768     7.9891   -11.9127
 2456.5000    15.5257    25.7973      .0286     2.2947    36.7584     7.9532   -13.7030
