~VERSION INFORMATION
VERS.                                                 2.0:   CWLS Log ASCII Standard-VERSION 2.0
WRAP.                                                  NO:   One line per depth step
~Well Information Block
STRT.M                                           500.1250:   Top Depth
STOP.M                                          3159.8750:   Bottom Depth
STEP.M                                             .12500:   Depth Increment
NULL.                                            -999.250:   Null Value
FLD .                                             WILDCAT:   Field Name
WELL.                                             15/12-4:   NAME
WBN .                                             15/12-4:   WELLBORE
NATI.                                                 NOR:   COUNTRY
CTRY.                                                 NOR:   COUNTRY
COMP.                                             STATOIL:   OPERATOR
PROV.                                           NORTH SEA:   PROVINCE
COUN.                                      DEEPSEA BERGEN:   RIG NAME
SPUD.                                          1984/09/13:   SPUD DATE
LATI.                                         58 3 9.16 N:   SURF. LATITUDE
LONG.                                        1 54 11.61 E:   SURF. LONGITUDE
PBWE.                                             15/12-4:   PB WELL ID
APIN.                                             15/12-4:   PB WELLBORE ID
PBWS.                                                 all:   PB WELL NAME SET
~PARAMETER INFORMATION (log)
LNAM.                              CDL/CNL/GR  COMPOSITED:   NAME
LTYP.                                         DEPTH MATCH:   LOG TYPE
LSRV.                                             CAL/BGT:   LOG SERVICE
LSOU.                                             SPT/NPD:   LOG SOURCE
LVSN.                                                   1:   LOG VERSION
BHIS.                                                   R:   BRIEF HISTORY
FHIS.                                             RAW-LIS:   FULL HISTORY
LCNM.                                                  DA:   LOGGING CONTRACTOR
TOOL.                             CDL/CNL/GR (COMPOSITED):   TOOL STRING
~Curve Information Block
#MNEM.UNIT                                        API CODE    No Description
#=========                                        ========    == ===========
DEPT.M                                       00 001 00 00:     1  DEPTH
CAL.IN                                                   :     2  Caliper
CNC.%                                                    :     3  Neutron Porosity
CORR.G/CC                                                :     4  Density Correction
DEN.G/CC                                                 :     5  Bulk Density
GR.GAPI                                                  :     6  Gamma Ray
SPD.                                                     :     7  Cable Speed
TEN.LB                                                   :     8  Cable Tension
~ASCII
# ...
 2092.6250    14.3082    31.1057      .0533     2.2221    37.9664     9.1012   -22.2326
 2092.7500    14.2617    30.6369      .0399     2.1710    40.3935     9.0951   -25.1805
 2092.8750    14.1942    30.7261      .0323     2.1445    42.8931     9.0600   -27.2086
 2093.0000    14.1364    31.3158      .0310     2.1440    45.0334     9.0003   -26.5400
 2093.1250    14.1377    32.2200      .0349     2.1567    46.4061     8.9398   -22.2281
 2093.2500    14.2000    33.4248      .0393     2.1698    46.9513     8.8984   -16.4062
 2093.3750    14.3193    34.5092      .0400     2.1734    46.6208     8.8891   -11.4850
 2093.5000    14.4424    34.9773      .0369     2.1672    46.2500     8.8989    -9.6210
 2093.6250    14.5378    34.2121      .0333     2.1551    46.3370     8.9174   -11.0900
 2093.7500    14.5770    32.6509      .0323     2.1444    47.1662     8.9411   -15.6968
 2093.8750    14.5818    31.1156      .0313     2.1379    48.2294     8.9722   -21.0937
 2094.0000    14.5629    30.6051      .0298     2.1350    49.5254     9.0145   -26.2369
 2094.1250    14.5334    31.1140      .0282     2.1338    51.3262     9.0700   -29.9911
 2094.2500    14.4983    32.1237      .0273     2.1333    53.4770     9.1325   -31.6784
 2094.3750    14.4615    32.7757      .0282     2.1352    55.5887     9.1873   -29.7268
 2094.5000    14.4373    32.9861      .0298     2.1413    57.0491     9.2186   -24.7837
 2094.6250    14.4353    33.3484      .0311     2.1514    57.6020     9.2226   -19.1741
 2094.7500    14.4438    33.9896      .0325     2.1634    57.5357     9.2093   -16.5467
 2094.8750    14.4316    34.4612      .0350     2.1743    57.3033     9.1985   -18.3341
 2095.0000    14.3718    34.1377      .0383     2.1815    56.8938     9.2024   -22.5538
 2095.1250    14.2707    33.1397      .0394     2.1841    56.1959     9.2184   -24.5808
 2095.2500    14.1615    32.2438      .0377     2.1830    55.4546     9.2347   -22.2393
 2095.3750    14.0825    32.0113      .0353     2.1784    55.1350     9.2454   -17.5343
 2095.5000    14.0460    32.5494      .0353     2.1735    55.3297     9.2530   -14.2195
 2095.6250    14.0392    33.5745      .0402     2.1747    55.6977     9.2558   -14.5170
 2095.7500    14.0398    34.6312      .0471     2.1843    55.7930     9.2507   -16.8665
 2095.8750    14.0388    35.2695      .0500     2.2031    55.1475     9.2346   -19.1823
 2096.0000    14.0342    35.4280      .0459     2.2283    53.7108     9.2105   -20.4240
 2096.1250    14.0270    35.5008      .0382     2.2540    51.9480     9.1840   -21.9669
 2096.2500    14.0172    35.8340      .0346     2.2743    50.2459     9.1646   -25.5430
 2096.3750    14.0045    36.4901      .0387     2.2853    48.7903     9.1615   -29.6074
 2096.5000    13.9915    37.0647      .0492     2.2894    47.7660     9.1797   -31.7681
 2096.6250    13.9932    37.0274      .0601     2.2877    47.5626     9.2203   -30.1374
 2096.7500    14.0160    35.9471      .0674     2.2822    48.1867     9.2725   -26.5336
 2096.8750    14.0576    34.1879      .0691     2.2728    49.9276     9.3258   -23.3227
 2097.0000    14.0836    32.2093      .0670     2.2608    52.5427     9.3719   -22.7901
 2097.1250    14.0737    30.6763      .0626     2.2455    55.7062     9.4139   -24.7069
 2097.2500    14.0212    29.7224      .0569     2.2271    58.9819     9.4541   -27.1625
 2097.3750    14.0003    29.6394      .0524     2.2103    62.3046     9.4869   -27.2798
 2097.5000    14.0860    30.1389      .0509     2.1991    65.7126     9.4984   -23.8597
 2097.6250    14.3294    30.7937      .0519     2.1943    68.8738     9.4749   -18.8352
 2097.7500    14.6555    30.9892      .0529     2.1924    71.4770     9.4285   -15.9446
 2097.8750    14.9671    30.6947      .0528     2.1924    72.9370     9.3754   -18.7204
 2098.0000    15.1432    30.0644      .0507     2.1931    73.0796     9.3397   -24.6446
 2098.1250    15.1474    29.6458      .0422     2.1952    71.7120     9.3260   -28.8612
 2098.2500    15.0016    29.6489      .0227     2.2012    68.4702     9.3283   -25.9466
 2098.3750    14.8358    30.0541      .0013     2.2127    64.3667     9.3306   -18.0820
 2098.5000    14.7400    30.4915     -.0072     2.2294    60.5121     9.3275   -10.1236
 2098.6250    14.7484    30.7938      .0069     2.2451    58.1299     9.3204    -7.9658
 2098.7500    14.8136    30.7736      .0344     2.2526    57.3260     9.3088   -11.8069
 2098.8750    14.8714    30.5591      .0596     2.2457    57.5873     9.2862   -18.4848
 2099.0000    14.8825    30.4408      .0708     2.2282    57.7321     9.2535   -22.3003
 2099.1250    14.8610    30.9477      .0700     2.2076    57.0604     9.2192   -21.0203
 2099.2500    14.8412    32.2281      .0689     2.1924    55.9407     9.1954   -16.9197
 2099.3750    14.8293    34.3203      .0740     2.1856    55.1819     9.1953   -13.7968
 2099.5000    14.7906    36.2885      .0828     2.1850    55.1844     9.2309   -14.4579
 2099.6250    14.6879    37.1522      .0877     2.1858    55.7733     9.2990   -18.2754
 2099.7500    14.5020    36.7655      .0844     2.1887    56.8518     9.3857   -22.6472
 2099.8750    14.2711    35.9780      .0767     2.1905    58.3613     9.4634   -24.7458
 2100.0000    14.0490    35.5613      .0688     2.1932    60.2051     9.5149   -24.0329
 2100.1250    13.8975    35.7204      .0650     2.1994    62.0670     9.5377   -22.2581
 2100.2500    13.8276    36.0083      .0652     2.2076    63.6901     9.5502   -21.1651
 2100.3750    13.8629    35.9901      .0681     2.2143    64.8563     9.5630   -21.1545
 2100.5000    13.9954    35.7740      .0700     2.2179    65.5398     9.5675   -21.1002
 2100.6250    14.2059    35.8607      .0701     2.2189    65.8396     9.5496   -20.0798
 2100.7500    14.4815    36.2392      .0696     2.2176    65.8752     9.4965   -17.6703
 2100.8750    14.7544    36.7699      .0705     2.2152    65.7272     9.4341   -16.1194
 2101.0000    14.9748    37.1421      .0727     2.2124    65.1970     9.3850   -17.9015
 2101.1250    15.0789    37.2481      .0731     2.2127    63.9508     9.3672   -24.1839
 2101.2500    15.0692    36.7735      .0711     2.2171    61.8015     9.3662   -31.2556
 2101.3750    14.9297    35.8454      .0665     2.2263    58.3720     9.3641   -33.8799
 2101.5000    14.7342    34.7809      .0593     2.2341    54.6307     9.3408   -29.6943
 2101.6250    14.5479    33.9464      .0498     2.2345    51.8033     9.2950   -21.2299
 2101.7500    14.4598    33.4248      .0380     2.2210    51.6110     9.2309   -14.6158
 2101.8750    14.4604    33.3448      .0283     2.2024    53.2772     9.1676   -13.0423
 2102.0000    14.5307    33.6714      .0263     2.1875    56.2252     9.1170   -16.0432
 2102.1250    14.6133    34.4999      .0340     2.1837    59.0415     9.0865   -19.1296
 2102.2500    14.6741    36.0890      .0470     2.1868    61.0593     9.0749   -20.4767
 2102.3750    14.6833    37.6572      .0578     2.1892    62.3113     9.0874   -21.2427
 2102.5000    14.6241    38.3383      .0603     2.1863    63.1656     9.1193   -23.5492
 2102.6250    14.4925    37.4903      .0577     2.1856    63.2577     9.1689   -25.9382
 2102.7500    14.3122    36.1996      .0621     2.2080    61.7712     9.2339   -24.3686
 2102.8750    14.1367    36.0502      .0847     2.2707    58.7608     9.3056   -17.7103
 2103.0000    14.0150    37.7687      .1287     2.3847    54.7505     9.3699    -8.8890
 2103.1250    13.9592    40.5347      .1833     2.5260    50.7590     9.4095    -3.8503
 2103.2500    13.9471    42.3411      .2319     2.6461    47.5236     9.4113    -5.1302
 2103.3750    13.9569    41.4970      .2395     2.6835    45.1865     9.3726    -9.7732
 2103.5000    13.9953    38.8310      .1937     2.6202    43.3733     9.3157   -11.9689
 2103.6250    14.1015    36.3497      .1390     2.4860    42.0773     9.2711    -8.9298
 2103.7500    14.2788    34.9265      .1049     2.3509    41.5390     9.2515    -4.1659
 2103.8750    14.5007    34.6309      .0858     2.2535    41.8933     9.2569    -2.3256
