~VERSION INFORMATION
VERS.                                                 2.0:   CWLS Log ASCII Standard-VERSION 2.0
WRAP.                                                  NO:   One line per depth step
~Well Information Block
STRT.M                                           500.1250:   Top Depth
STOP.M                                          3159.8750:   Bottom Depth
STEP.M                                             .12500:   Depth Increment
NULL.                                            -999.250:   Null Value
FLD .                                             WILDCAT:   Field Name
WELL.                                             15/12-4:   NAME
WBN .                                             15/12-4:   WELLBORE
NATI.                                                 NOR:   COUNTRY
CTRY.                                                 NOR:   COUNTRY
COMP.                                             STATOIL:   OPERATOR
PROV.                                           NORTH SEA:   PROVINCE
COUN.                                      DEEPSEA BERGEN:   RIG NAME
SPUD.                                          1984/09/13:   SPUD DATE
LATI.                                         58 3 9.16 N:   SURF. LATITUDE
LONG.                                        1 54 11.61 E:   SURF. LONGITUDE
PBWE.                                             15/12-4:   PB WELL ID
APIN.                                             15/12-4:   PB WELLBORE ID
PBWS.                                                 all:   PB WELL NAME SET
~PARAMETER INFORMATION (log)
LNAM.                              CDL/CNL/GR  COMPOSITED:   NAME
LTYP.                                         DEPTH MATCH:   LOG TYPE
LSRV.                                             CAL/BGT:   LOG SERVICE
LSOU.                                             SPT/NPD:   LOG SOURCE
LVSN.                                                   1:   LOG VERSION
BHIS.                                                   R:   BRIEF HISTORY
FHIS.                                             RAW-LIS:   FULL HISTORY
LCNM.                                                  DA:   LOGGING CONTRACTOR
TOOL.                             CDL/CNL/GR (COMPOSITED):   TOOL STRING
~Curve Information Block
#MNEM.UNIT                                        API CODE    No Description
#=========                                        ========    == ===========
DEPT.M                                       00 001 00 00:     1  DEPTH
CAL.IN                                                   :     2  Caliper
CNC.%                                                    :     3  Neutron Porosity
CORR.G/CC                                                :     4  Density Correction
DEN.G/CC                                                 :     5  Bulk Density
GR.GAPI                                                  :     6  Gamma Ray
SPD.                                                     :     7  Cable Speed
TEN.LB                                                   :     8  Cable Tension
~ASCII
# ...
 2615.8750    12.4849     8.2107     -.0164     2.5463     4.6565     8.2100   -21.2752
 2616.0000    12.4853     8.2641     -.0193     2.5368     4.8903     8.1579   -21.9985
 2616.1250    12.4857     8.1777     -.0243     2.5279     5.0307     8.1056   -23.1838
 2616.2500    12.4850     7.9587     -.0332     2.5204     4.9163     8.0892   -23.1005
 2616.3750    12.4828     7.6125     -.0426     2.5152     4.7200     8.1023   -21.2987
 2616.5000    12.4785     7.2453     -.0494     2.5144     4.6074     8.1295   -18.0210
 2616.6250    12.4723     6.9271     -.0498     2.5199     4.6916     8.1331   -15.1169
 2616.7500    12.4660     6.7519     -.0451     2.5299     4.8696     8.1011   -13.9790
 2616.8750    12.4614     6.6504     -.0365     2.5439     5.0836     8.0340   -15.7783
 2617.0000    12.4594     6.5930     -.0272     2.5591     5.3053     7.9701   -18.9216
 2617.1250    12.4594     6.5965     -.0180     2.5729     5.4794     7.9318   -21.2854
 2617.2500    12.4602     6.7007     -.0097     2.5807     5.5144     7.9224   -21.0257
 2617.3750    12.4605     6.9622     -.0045     2.5808     5.4103     7.9222   -18.7153
 2617.5000    12.4595     7.3058     -.0060     2.5745     5.2321     7.9205   -15.6546
 2617.6250    12.4584     7.6278     -.0130     2.5645     5.1471     7.9202   -13.4984
 2617.7500    12.4582     7.7723     -.0209     2.5542     5.2373     7.9294   -12.3596
 2617.8750    12.4584     7.7099     -.0262     2.5466     5.4301     7.9513   -11.3389
 2618.0000    12.4574     7.4604     -.0277     2.5430     5.5573     7.9793    -9.8586
 2618.1250    12.4543     7.1679     -.0264     2.5421     5.6237     8.0134    -8.8970
 2618.2500    12.4503     6.9879     -.0251     2.5430     5.6902     8.0606    -9.5823
 2618.3750    12.4468     7.0477     -.0260     2.5459     5.7500     8.1229   -12.1142
 2618.5000    12.4447     7.3027     -.0276     2.5492     5.8204     8.1854   -15.5665
 2618.6250    12.4433     7.6349     -.0274     2.5512     6.0133     8.2266   -18.8162
 2618.7500    12.4418     7.8950     -.0246     2.5517     6.4294     8.2231   -21.1203
 2618.8750    12.4404     8.0232     -.0207     2.5510     6.9426     8.1806   -22.5475
 2619.0000    12.4406     8.0673     -.0176     2.5487     7.3302     8.1178   -23.1922
 2619.1250    12.4432     8.1328     -.0177     2.5459     7.3193     8.0659   -22.9128
 2619.2500    12.4472     8.2500     -.0196     2.5448     7.0151     8.0355   -21.7300
 2619.3750    12.4516     8.3129     -.0198     2.5479     6.6401     8.0263   -19.6352
 2619.5000    12.4555     8.2326     -.0159     2.5551     6.5081     8.0158   -17.5218
 2619.6250    12.4588     7.9932     -.0101     2.5638     6.6241     7.9907   -16.0896
 2619.7500    12.4603     7.6609     -.0068     2.5692     6.7777     7.9426   -16.3721
 2619.8750    12.4604     7.2960     -.0078     2.5709     6.7727     7.8908   -18.0089
 2620.0000    12.4601     6.9874     -.0141     2.5680     6.5812     7.8513   -20.9072
 2620.1250    12.4605     6.7435     -.0228     2.5649     6.3084     7.8419   -24.2510
 2620.2500    12.4619     6.5962     -.0289     2.5659     6.1145     7.8578   -26.8777
 2620.3750    12.4631     6.5731     -.0288     2.5719     6.1292     7.8961   -27.4522
 2620.5000    12.4630     6.7281     -.0256     2.5757     6.4170     7.9379   -25.7642
 2620.6250    12.4617     7.0729     -.0231     2.5732     6.9982     7.9714   -22.3366
 2620.7500    12.4610     7.5219     -.0250     2.5610     7.8193     7.9855   -18.1031
 2620.8750    12.4619     8.0578     -.0298     2.5432     8.6023     7.9946   -14.5142
 2621.0000    12.4637     8.6287     -.0353     2.5247     9.0835     8.0138   -12.5869
 2621.1250    12.4643     9.2032     -.0372     2.5122     9.0877     8.0476   -13.1098
 2621.2500    12.4641     9.7074     -.0346     2.5076     8.8182     8.0812   -15.6356
 2621.3750    12.4641    10.1175     -.0259     2.5124     8.4873     8.0978   -19.6672
 2621.5000    12.4650    10.4050     -.0130     2.5223     8.2585     8.0965   -23.5671
 2621.6250    12.4662    10.6079     -.0001     2.5315     8.0661     8.0875   -26.1848
 2621.7500    12.4665    10.7850      .0068     2.5341     7.8118     8.0844   -27.1179
 2621.8750    12.4654    10.9834      .0062     2.5298     7.5047     8.0910   -26.7312
 2622.0000    12.4638    11.2372      .0012     2.5225     7.1865     8.0999   -25.1796
 2622.1250    12.4631    11.5277     -.0034     2.5174     6.8741     8.1026   -22.8709
 2622.2500    12.4644    11.8167     -.0050     2.5170     6.5625     8.0971   -20.6079
 2622.3750    12.4668    12.0146     -.0045     2.5197     6.2918     8.0826   -19.5978
 2622.5000    12.4689    12.0384     -.0039     2.5228     6.1535     8.0546   -20.1748
 2622.6250    12.4698    11.9631     -.0046     2.5247     6.2217     8.0055   -21.5013
 2622.7500    12.4701    11.9443     -.0055     2.5253     6.4434     7.9458   -22.7213
 2622.8750    12.4701    12.1069     -.0063     2.5252     6.8079     7.8962   -23.9357
 2623.0000    12.4699    12.4502     -.0077     2.5246     7.3665     7.8811   -25.7153
 2623.1250    12.4695    12.8652     -.0104     2.5232     8.1233     7.9032   -27.5297
 2623.2500    12.4694    13.2226     -.0166     2.5187     9.0447     7.9561   -27.3060
 2623.3750    12.4706    13.4354     -.0251     2.5109     9.8837     8.0111   -24.4390
 2623.5000    12.4738    13.4809     -.0332     2.5022    10.3594     8.0535   -19.8778
 2623.6250    12.4782    13.3676     -.0372     2.4970    10.2769     8.0790   -16.6631
 2623.7500    12.4818    12.9949     -.0369     2.4956     9.9033     8.0995   -15.6316
 2623.8750    12.4829    12.4099     -.0329     2.4958     9.4447     8.1218   -16.1405
 2624.0000    12.4815    11.7688     -.0289     2.4968     9.0736     8.1445   -16.1128
 2624.1250    12.4787    11.3312     -.0265     2.4976     8.7854     8.1630   -15.2655
 2624.2500    12.4760    11.1237     -.0275     2.4987     8.5595     8.1612   -14.4400
 2624.3750    12.4741    11.1418     -.0285     2.5021     8.3278     8.1419   -14.5015
 2624.5000    12.4736    11.2386     -.0268     2.5090     8.0958     8.1108   -15.6559
 2624.6250    12.4740    11.3289     -.0210     2.5191     7.9406     8.0897   -17.0754
 2624.7500    12.4751    11.3760     -.0133     2.5300     7.8966     8.0851   -17.7450
 2624.8750    12.4772    11.4224     -.0071     2.5395     7.9834     8.0897   -17.0119
 2625.0000    12.4799    11.4937     -.0057     2.5457     8.1591     8.0828   -15.7567
 2625.1250    12.4828    11.5926     -.0072     2.5486     8.3415     8.0562   -15.1011
 2625.2500    12.4849    11.6598     -.0073     2.5495     8.3615     8.0163   -15.9683
 2625.3750    12.4860    11.6391     -.0039     2.5491     8.2496     7.9834   -17.5545
 2625.5000    12.4864    11.5654      .0017     2.5459     8.1212     7.9667   -18.4537
 2625.6250    12.4867    11.4918      .0037     2.5390     8.0680     7.9621   -17.8337
 2625.7500    12.4867    11.4876      .0002     2.5305     8.0525     7.9610   -16.7444
 2625.8750    12.4860    11.5499     -.0067     2.5215     8.0264     7.9634   -16.7775
 2626.0000    12.4847    11.6657     -.0113     2.5177     8.0203     7.9742   -18.2725
 2626.1250    12.4835    11.7389     -.0113     2.5199     8.0793     7.9927   -20.5899
 2626.2500    12.4830    11.6867     -.0081     2.5251     8.1563     8.0138   -23.0664
 2626.3750    12.4832    11.5582     -.0040     2.5309     8.1284     8.0368   -25.3279
 2626.5000    12.4842    11.5288     -.0006     2.5325     7.8871     8.0694   -26.7229
 2626.6250    12.4855    11.7437      .0012     2.5281     7.5966     8.1134   -26.6648
 2626.7500    12.4865    12.2986     -.0002     2.5188     7.6825     8.1570   -25.0027
 2626.8750    12.4861    13.1141     -.0052     2.5059     8.2790     8.1838   -22.8620
 2627.0000    12.4838    13.9787     -.0127     2.4919     9.1282     8.1883   -21.0543
 2627.1250    12.4792    14.7050     -.0194     2.4801     9.6324     8.1766   -19.5892
