~VERSION INFORMATION
VERS.                                                 2.0:   CWLS Log ASCII Standard-VERSION 2.0
WRAP.                                                  NO:   One line per depth step
~Well Information Block
STRT.M                                           500.1250:   Top Depth
STOP.M                                          3159.8750:   Bottom Depth
STEP.M                                             .12500:   Depth Increment
NULL.                                            -999.250:   Null Value
FLD .                                             WILDCAT:   Field Name
WELL.                                             15/12-4:   NAME
WBN .                                             15/12-4:   WELLBORE
NATI.                                                 NOR:   COUNTRY
CTRY.                                                 NOR:   COUNTRY
COMP.                                             STATOIL:   OPERATOR
PROV.                                           NORTH SEA:   PROVINCE
COUN.                                      DEEPSEA BERGEN:   RIG NAME
SPUD.                                          1984/09/13:   SPUD DATE
LATI.                                         58 3 9.16 N:   SURF. LATITUDE
LONG.                                        1 54 11.61 E:   SURF. LONGITUDE
PBWE.                                             15/12-4:   PB WELL ID
APIN.                                             15/12-4:   PB WELLBORE ID
PBWS.                                                 all:   PB WELL NAME SET
~PARAMETER INFORMATION (log)
LNAM.                              CDL/CNL/GR  COMPOSITED:   NAME
LTYP.                                         DEPTH MATCH:   LOG TYPE
LSRV.                                             CAL/BGT:   LOG SERVICE
LSOU.                                             SPT/NPD:   LOG SOURCE
LVSN.                                                   1:   LOG VERSION
BHIS.                                                   R:   BRIEF HISTORY
FHIS.                                             RAW-LIS:   FULL HISTORY
LCNM.                                                  DA:   LOGGING CONTRACTOR
TOOL.                             CDL/CNL/GR (COMPOSITED):   TOOL STRING
~Curve Information Block
#MNEM.UNIT                                        API CODE    No Description
#=========                                        ========    == ===========
DEPT.M                                       00 001 00 00:     1  DEPTH
CAL.IN                                                   :     2  Caliper
CNC.%                                                    :     3  Neutron Porosity
CORR.G/CC                                                :     4  Density Correction
DEN.G/CC                                                 :     5  Bulk Density
GR.GAPI                                                  :     6  Gamma Ray
SPD.                                                     :     7  Cable Speed
TEN.LB                                                   :     8  Cable Tension
~ASCII
# ...
  852.7500    17.8517  -999.2500      .0390     2.0900    67.4029    10.8026   -37.4276
  852.8750    17.8459  -999.2500      .0390     2.0918    66.2617    10.7831   -36.0233
  853.0000    17.8471  -999.2500      .0427     2.0956    65.0216    10.7564   -34.9087
  853.1250    17.8574  -999.2500      .0493     2.1002    63.5675    10.7265   -34.3098
  853.2500    17.8722  -999.2500      .0546     2.1032    62.1006    10.6954   -34.0899
  853.3750    17.8894  -999.2500      .0543     2.1022    60.7979    10.6665   -34.3345
  853.5000    17.9095  -999.2500      .0503     2.0994    59.6979    10.6496   -34.9677
  853.6250    17.9354  -999.2500      .0478     2.0958    58.8862    10.6536   -35.7195
  853.7500    17.9683  -999.2500      .0524     2.0941    58.5559    10.6836   -35.8757
  853.8750    17.9945  -999.2500      .0639     2.0940    58.6495    10.7207   -35.4714
  854.0000    17.9891  -999.2500      .0810     2.0943    59.1412    10.7529   -35.0228
  854.1250    17.9287  -999.2500      .0991     2.0930    59.7251    10.7858   -35.1348
  854.2500    17.8238  -999.2500      .1143     2.0897    60.1185    10.8340   -35.4730
  854.3750    17.6967  -999.2500      .1240     2.0829    60.1153    10.9062   -35.1128
  854.5000    17.5880  -999.2500      .1307     2.0698    59.8633    10.9851   -33.9930
  854.6250    17.5202  -999.2500      .1357     2.0472    59.4696    11.0523   -33.2109
  854.7500    17.4913  -999.2500      .1383     2.0160    58.9389    11.1018   -33.5377
  854.8750    17.4827  -999.2500      .1345     1.9823    58.4491    11.1410   -34.5687
  855.0000    17.4780  -999.2500      .1190     1.9558    58.2585    11.1730   -35.3891
  855.1250    17.4713  -999.2500      .0952     1.9448    58.4250    11.1884   -35.5822
  855.2500    17.4646  -999.2500      .0752     1.9559    58.9427    11.1758   -35.2647
  855.3750    17.4615  -999.2500      .0713     1.9853    59.7916    11.1412   -35.0401
  855.5000    17.4634  -999.2500      .0839     2.0220    60.9085    11.1040   -35.2603
  855.6250    17.4648  -999.2500      .0997     2.0508    62.1315    11.0798   -35.2189
  855.7500    17.4588  -999.2500      .1070     2.0667    63.2760    11.0610   -34.6080
  855.8750    17.4392  -999.2500      .1005     2.0690    64.1563    11.0327   -33.9605
  856.0000    17.4091  -999.2500      .0873     2.0663    64.8698    10.9863   -33.7320
  856.1250    17.3767  -999.2500      .0764     2.0653    65.5592    10.9289   -33.5352
  856.2500    17.3530  -999.2500      .0745     2.0699    66.1769    10.8759   -32.7692
  856.3750    17.3401  -999.2500      .0787     2.0766    66.5858    10.8344   -31.6344
  856.5000    17.3349  -999.2500      .0852     2.0820    66.7082    10.8023   -30.8368
  856.6250    17.3265  -999.2500      .0889     2.0841    66.7392    10.7723   -31.9170
  856.7500    17.3091  -999.2500      .0908     2.0849    66.9342    10.7453   -34.5149
  856.8750    17.2781  -999.2500      .0934     2.0860    67.5484    10.7275   -37.0537
  857.0000    17.2419  -999.2500      .0965     2.0870    68.3374    10.7239   -37.3841
  857.1250    17.2104  -999.2500      .0977     2.0866    68.9914    10.7405   -35.5474
  857.2500    17.1970  -999.2500      .0949     2.0843    69.4908    10.7922   -32.6852
  857.3750    17.1996  -999.2500      .0920     2.0806    70.0487    10.8589   -30.9101
  857.5000    17.2208  -999.2500      .0914     2.0772    70.8174    10.9256   -31.1144
  857.6250    17.2605  -999.2500      .0928     2.0751    71.9832    10.9787   -32.4136
  857.7500    17.3110  -999.2500      .0929     2.0725    73.4572    11.0239   -33.5754
  857.8750    17.3645  -999.2500      .0866     2.0660    74.9945    11.0727   -34.2644
  858.0000    17.4097  -999.2500      .0738     2.0561    76.1424    11.1298   -34.7425
  858.1250    17.4415  -999.2500      .0598     2.0468    76.9024    11.1783   -35.1604
  858.2500    17.4597  -999.2500      .0542     2.0447    77.6903    11.1895   -35.5940
  858.3750    17.4722  -999.2500      .0590     2.0506    78.8008    11.1683   -36.0712
  858.5000    17.4818  -999.2500      .0698     2.0611    80.1171    11.1399   -36.5511
  858.6250    17.4906  -999.2500      .0775     2.0704    80.9604    11.1280   -36.6750
  858.7500    17.5049  -999.2500      .0773     2.0769    80.8114    11.1270   -36.0562
  858.8750    17.5435  -999.2500      .0701     2.0856    79.6417    11.1152   -34.7955
  859.0000    17.6329  -999.2500      .0631     2.0958    78.1487    11.0807   -33.9056
  859.1250    17.7942  -999.2500      .0633     2.1059    77.2073    11.0329   -34.0399
  859.2500    18.0070  -999.2500      .0704     2.1180    77.1113    10.9900   -34.6164
  859.3750    18.2324  -999.2500      .0805     2.1293    77.6851    10.9568   -34.7674
  859.5000    18.4159  -999.2500      .0895     2.1352    78.3484    10.9184   -34.2508
  859.6250    18.5335  -999.2500      .0957     2.1342    78.6312    10.8629   -33.7882
  859.7500    18.5758  -999.2500      .0973     2.1265    78.4607    10.7949   -34.5139
  859.8750    18.5750  -999.2500      .0934     2.1182    78.0906    10.7377   -36.2048
  860.0000    18.5534  -999.2500      .0850     2.1090    77.6777    10.7047   -38.0321
  860.1250    18.5269  -999.2500      .0777     2.1033    77.2247    10.6958   -39.2584
  860.2500    18.5026  -999.2500      .0770     2.1002    76.5002    10.7011   -40.0530
  860.3750    18.4845  -999.2500      .0883     2.1063    75.2158    10.7247   -40.3347
  860.5000    18.4649  -999.2500      .1072     2.1167    73.4346    10.7717   -39.7490
  860.6250    18.4319  -999.2500      .1258     2.1251    71.3475    10.8419   -38.1632
  860.7500    18.3609  -999.2500      .1321     2.1228    69.2276    10.9361   -35.4711
  860.8750    18.2632  -999.2500      .1273     2.1150    67.3826    11.0281   -32.8808
  861.0000    18.1506  -999.2500      .1157     2.1066    66.1486    11.1038   -31.2858
  861.1250    18.0464  -999.2500      .1089     2.1024    65.4332    11.1586   -30.5995
  861.2500    17.9576  -999.2500      .1109     2.0985    64.7711    11.1992   -30.0631
  861.3750    17.8853  -999.2500      .1231     2.0958    63.9347    11.2193   -29.4930
  861.5000    17.8127  -999.2500      .1373     2.0869    62.9397    11.2141   -29.1284
  861.6250    17.7271  -999.2500      .1467     2.0686    61.9294    11.1826   -29.2818
  861.7500    17.6113  -999.2500      .1432     2.0453    61.1327    11.1249   -30.7370
  861.8750    17.4696  -999.2500      .1287     2.0174    60.5646    11.0630   -33.1970
  862.0000    17.3090  -999.2500      .1051     1.9893    60.2723    11.0171   -35.6559
  862.1250    17.1577  -999.2500      .0803     1.9678    60.6237    10.9997   -36.7793
  862.2500    17.0397  -999.2500      .0611     1.9569    61.8151    11.0050   -36.6820
  862.3750    16.9773  -999.2500      .0546     1.9614    63.7287    11.0211   -35.4624
  862.5000    16.9577  -999.2500      .0599     1.9778    65.3917    11.0221   -34.0533
  862.6250    16.9630  -999.2500      .0727     2.0009    66.1494    10.9944   -33.1682
  862.7500    16.9760  -999.2500      .0877     2.0239    65.9977    10.9396   -32.6273
  862.8750    16.9921  -999.2500      .1002     2.0419    65.5757    10.8732   -31.6646
  863.0000    17.0177  -999.2500      .1067     2.0537    65.5212    10.8119   -30.2850
  863.1250    17.0572  -999.2500      .1066     2.0613    65.9034    10.7656   -29.1703
  863.2500    17.1071  -999.2500      .1008     2.0661    66.3670    10.7366   -28.3693
  863.3750    17.1535  -999.2500      .0921     2.0675    66.6509    10.7217   -27.8675
  863.5000    17.1852  -999.2500      .0832     2.0650    66.8214    10.7244   -28.0151
  863.6250    17.1992  -999.2500      .0772     2.0603    67.1043    10.7495   -28.3421
  863.7500    17.2055  -999.2500      .0754     2.0563    67.3941    10.7889   -28.2855
  863.8750    17.2109  -999.2500      .0764     2.0544    67.4303    10.8418   -27.9200
  864.0000    17.2173  -999.2500      .0764     2.0535    67.2861    10.9110   -27.5268
