~VERSION INFORMATION
VERS.                                                 2.0:   CWLS Log ASCII Standard-VERSION 2.0
WRAP.                                                  NO:   One line per depth step
~Well Information Block
STRT.M                                           500.1250:   Top Depth
STOP.M                                          3159.8750:   Bottom Depth
STEP.M                                             .12500:   Depth Increment
NULL.                                            -999.250:   Null Value
FLD .                                             WILDCAT:   Field Name
WELL.                                             15/12-4:   NAME
WBN .                                             15/12-4:   WELLBORE
NATI.                                                 NOR:   COUNTRY
CTRY.                                                 NOR:   COUNTRY
COMP.                                             STATOIL:   OPERATOR
PROV.                                           NORTH SEA:   PROVINCE
COUN.                                      DEEPSEA BERGEN:   RIG NAME
SPUD.                                          1984/09/13:   SPUD DATE
LATI.                                         58 3 9.16 N:   SURF. LATITUDE
LONG.                                        1 54 11.61 E:   SURF. LONGITUDE
PBWE.                                             15/12-4:   PB WELL ID
APIN.                                             15/12-4:   PB WELLBORE ID
PBWS.                                                 all:   PB WELL NAME SET
~PARAMETER INFORMATION (log)
LNAM.                              CDL/CNL/GR  COMPOSITED:   NAME
LTYP.                                         DEPTH MATCH:   LOG TYPE
LSRV.                                             CAL/BGT:   LOG SERVICE
LSOU.                                             SPT/NPD:   LOG SOURCE
LVSN.                                                   1:   LOG VERSION
BHIS.                                                   R:   BRIEF HISTORY
FHIS.                                             RAW-LIS:   FULL HISTORY
LCNM.                                                  DA:   LOGGING CONTRACTOR
TOOL.                             CDL/CNL/GR (COMPOSITED):   TOOL STRING
~Curve Information Block
#MNEM.UNIT                                        API CODE    No Description
#=========                                        ========    == ===========
DEPT.M                                       00 001 00 00:     1  DEPTH
CAL.IN                                                   :     2  Caliper
CNC.%                                                    :     3  Neutron Porosity
CORR.G/CC                                                :     4  Density Correction
DEN.G/CC                                                 :     5  Bulk Density
GR.GAPI                                                  :     6  Gamma Ray
SPD.                                                     :     7  Cable Speed
TEN.LB                                                   :     8  Cable Tension
~ASCII
# ...
 1558.0000    17.4157  -999.2500      .0645     2.1819    75.5225     9.8416   -29.3105
 1558.1250    17.4265  -999.2500      .0579     2.1817    75.5025     9.8403   -31.4126
 1558.2500    17.4366  -999.2500      .0567     2.1885    76.3278     9.8396   -34.4023
 1558.3750    17.4479  -999.2500      .0621     2.1995    77.6554     9.8341   -36.5801
 1558.5000    17.4579  -999.2500      .0686     2.2111    78.5141     9.8333   -37.0525
 1558.6250    17.4653  -999.2500      .0725     2.2183    78.4152     9.8469   -36.2460
 1558.7500    17.4691  -999.2500      .0717     2.2167    76.9717     9.8861   -33.9500
 1558.8750    17.4702  -999.2500      .0687     2.2108    75.0426     9.9386   -29.8692
 1559.0000    17.4694  -999.2500      .0637     2.2018    73.3002     9.9917   -24.1662
 1559.1250    17.4676  -999.2500      .0565     2.1926    72.4029    10.0266   -19.4412
 1559.2500    17.4644  -999.2500      .0475     2.1855    72.0622    10.0413   -17.2501
 1559.3750    17.4603  -999.2500      .0333     2.1837    71.6310    10.0358   -17.8765
 1559.5000    17.4585  -999.2500      .0118     2.1904    70.4448    10.0192   -19.4077
 1559.6250    17.4607  -999.2500     -.0098     2.2083    68.5719     9.9941   -21.5097
 1559.7500    17.4664  -999.2500     -.0166     2.2346    66.8910     9.9597   -24.9968
 1559.8750    17.4732  -999.2500     -.0021     2.2578    66.5259     9.9199   -30.0071
 1560.0000    17.4783  -999.2500      .0288     2.2646    68.2590     9.8869   -35.0193
 1560.1250    17.4783  -999.2500      .0611     2.2522    71.6131     9.8740   -37.5735
 1560.2500    17.4717  -999.2500      .0819     2.2264    75.3902     9.8840   -37.1082
 1560.3750    17.4604  -999.2500      .0859     2.1969    78.3497     9.9046   -35.0863
 1560.5000    17.4491  -999.2500      .0803     2.1724    79.8381     9.9172   -32.6999
 1560.6250    17.4450  -999.2500      .0770     2.1584    79.5489     9.9069   -29.7276
 1560.7500    17.4498  -999.2500      .0780     2.1520    78.1359     9.8766   -26.1940
 1560.8750    17.4616  -999.2500      .0802     2.1510    76.1729     9.8322   -22.9884
 1561.0000    17.4696  -999.2500      .0785     2.1540    74.4471     9.7906   -21.5358
 1561.1250    17.4676  -999.2500      .0728     2.1642    73.1613     9.7645   -21.6654
 1561.2500    17.4550  -999.2500      .0660     2.1903    72.1843     9.7686   -22.3606
 1561.3750    17.4443  -999.2500      .0623     2.2322    71.1576     9.7907   -22.7154
 1561.5000    17.4444  -999.2500      .0658     2.2865    70.0679     9.8136   -23.0431
 1561.6250    17.4588  -999.2500      .0776     2.3381    69.3669     9.8225   -23.6081
 1561.7500    17.4788  -999.2500      .0893     2.3691    69.4378     9.8289   -23.6715
 1561.8750    17.4962  -999.2500      .0937     2.3609    70.7169     9.8531   -22.6116
 1562.0000    17.5046  -999.2500      .0940     2.3269    72.7709     9.9022   -21.6101
 1562.1250    17.5062  -999.2500      .0946     2.2855    74.9844     9.9636   -21.5462
 1562.2500    17.5044  -999.2500      .0942     2.2539    76.5752    10.0054   -23.2011
 1562.3750    17.5036  -999.2500      .0904     2.2307    77.4560    10.0168   -25.1324
 1562.5000    17.5045  -999.2500      .0827     2.2133    77.6624    10.0003   -26.2427
 1562.6250    17.5059  -999.2500      .0715     2.1980    77.6215     9.9836   -26.0587
 1562.7500    17.5057  -999.2500      .0608     2.1850    77.6058     9.9838   -25.4489
 1562.8750    17.5004  -999.2500      .0554     2.1774    77.5654    10.0046   -25.3452
 1563.0000    17.4916  -999.2500      .0535     2.1740    77.3203    10.0289   -26.1028
 1563.1250    17.4843  -999.2500      .0500     2.1713    76.9157    10.0424   -27.3808
 1563.2500    17.4860  -999.2500      .0414     2.1668    76.6332    10.0301   -28.4787
 1563.3750    17.4983  -999.2500      .0317     2.1630    76.7846     9.9973   -28.8735
 1563.5000    17.5194  -999.2500      .0270     2.1636    77.5518     9.9467   -28.7594
 1563.6250    17.5399  -999.2500      .0307     2.1676    78.6406     9.8853   -29.0692
 1563.7500    17.5529  -999.2500      .0399     2.1745    79.5668     9.8255   -30.2040
 1563.8750    17.5543  -999.2500      .0500     2.1816    79.8126     9.7866   -31.8208
 1564.0000    17.5483  -999.2500      .0567     2.1869    79.2738     9.7800   -32.8785
 1564.1250    17.5390  -999.2500      .0586     2.1904    78.2722     9.8022   -33.2661
 1564.2500    17.5312  -999.2500      .0568     2.1952    77.3746     9.8340   -34.0492
 1564.3750    17.5294  -999.2500      .0537     2.2046    76.7847     9.8536   -36.0015
 1564.5000    17.5369  -999.2500      .0508     2.2204    76.2177     9.8475   -38.6104
 1564.6250    17.5520  -999.2500      .0487     2.2412    75.4744     9.8248   -40.4931
 1564.7500    17.5696  -999.2500      .0478     2.2623    74.6583     9.8088   -40.3234
 1564.8750    17.5828  -999.2500      .0479     2.2755    74.1228     9.8230   -38.4776
 1565.0000    17.5877  -999.2500      .0484     2.2748    74.1993     9.8765   -36.3012
 1565.1250    17.5849  -999.2500      .0471     2.2591    75.0016     9.9609   -35.3208
 1565.2500    17.5800  -999.2500      .0440     2.2367    76.2695    10.0464   -35.0675
 1565.3750    17.5766  -999.2500      .0386     2.2151    78.0161    10.1013   -34.0778
 1565.5000    17.5756  -999.2500      .0320     2.2003    79.9516    10.1101   -31.5936
 1565.6250    17.5742  -999.2500      .0271     2.1922    81.6364    10.0825   -28.6853
 1565.7500    17.5661  -999.2500      .0280     2.1896    82.2272    10.0360   -27.2396
 1565.8750    17.5504  -999.2500      .0339     2.1906    81.9410    10.0011   -26.7570
 1566.0000    17.5283  -999.2500      .0437     2.1940    81.1144     9.9913   -25.5294
 1566.1250    17.5054  -999.2500      .0539     2.1976    80.2571    10.0079   -22.0119
 1566.2500    17.4835  -999.2500      .0620     2.2002    79.5235    10.0348   -17.9606
 1566.3750    17.4633  -999.2500      .0663     2.2009    79.0336    10.0619   -16.4654
 1566.5000    17.4485  -999.2500      .0672     2.2004    78.9761    10.0840   -18.8130
 1566.6250    17.4421  -999.2500      .0668     2.1998    79.5390    10.0988   -23.1605
 1566.7500    17.4476  -999.2500      .0671     2.1999    80.7253    10.0930   -26.1982
 1566.8750    17.4601  -999.2500      .0681     2.1999    81.8107    10.0604   -27.0675
 1567.0000    17.4774  -999.2500      .0688     2.1999    82.0684     9.9899   -26.0073
 1567.1250    17.4964  -999.2500      .0692     2.2016    80.7844     9.8920   -23.6856
 1567.2500    17.5154  -999.2500      .0706     2.2072    78.3109     9.7984   -20.5742
 1567.3750    17.5294  -999.2500      .0746     2.2189    74.9212     9.7476   -17.5234
 1567.5000    17.5276  -999.2500      .0806     2.2334    71.4724     9.7521   -16.1155
 1567.6250    17.5012  -999.2500      .0872     2.2449    68.7278     9.7951   -16.7504
 1567.7500    17.4493  -999.2500      .0913     2.2457    67.3207     9.8442   -18.3079
 1567.8750    17.3836  -999.2500      .0925     2.2351    67.2367     9.8815   -19.2496
 1568.0000    17.3104  -999.2500      .0948     2.2166    68.2222     9.9101   -19.6960
 1568.1250    17.2295  -999.2500      .1021     2.1966    69.5327     9.9481   -20.9874
 1568.2500    17.1350  -999.2500      .1120     2.1788    70.4364    10.0015   -23.3458
 1568.3750    17.0231  -999.2500      .1171     2.1645    70.4014    10.0540   -25.2855
 1568.5000    16.9044  -999.2500      .1118     2.1528    69.6669    10.0848   -25.1945
 1568.6250    16.8043  -999.2500      .0963     2.1401    69.0385    10.0864   -23.5611
 1568.7500    16.7415  -999.2500      .0781     2.1292    69.2049    10.0729   -22.5446
 1568.8750    16.7295  -999.2500      .0653     2.1251    70.5179    10.0536   -23.1997
 1569.0000    16.7575  -999.2500      .0643     2.1291    72.2530    10.0300   -24.3754
 1569.1250    16.8048  -999.2500      .0734     2.1380    73.6340    10.0032   -25.1764
 1569.2500    16.8570  -999.2500      .0876     2.1467    74.2433     9.9791   -26.4145
