~VERSION INFORMATION
VERS.                                                 2.0:   CWLS Log ASCII Standard-VERSION 2.0
WRAP.                                                  NO:   One line per depth step
~Well Information Block
STRT.M                                           500.1250:   Top Depth
STOP.M                                          3159.8750:   Bottom Depth
STEP.M                                             .12500:   Depth Increment
NULL.                                            -999.250:   Null Value
FLD .                                             WILDCAT:   Field Name
WELL.                                             15/12-4:   NAME
WBN .                                             15/12-4:   WELLBORE
NATI.                                                 NOR:   COUNTRY
CTRY.                                                 NOR:   COUNTRY
COMP.                                             STATOIL:   OPERATOR
PROV.                                           NORTH SEA:   PROVINCE
COUN.                                      DEEPSEA BERGEN:   RIG NAME
SPUD.                                          1984/09/13:   SPUD DATE
LATI.                                         58 3 9.16 N:   SURF. LATITUDE
LONG.                                        1 54 11.61 E:   SURF. LONGITUDE
PBWE.                                             15/12-4:   PB WELL ID
APIN.                                             15/12-4:   PB WELLBORE ID
PBWS.                                                 all:   PB WELL NAME SET
~PARAMETER INFORMATION (log)
LNAM.                              CDL/CNL/GR  COMPOSITED:   NAME
LTYP.                                         DEPTH MATCH:   LOG TYPE
LSRV.                                             CAL/BGT:   LOG SERVICE
LSOU.                                             SPT/NPD:   LOG SOURCE
LVSN.                                                   1:   LOG VERSION
BHIS.                                                   R:   BRIEF HISTORY
FHIS.                                             RAW-LIS:   FULL HISTORY
LCNM.                                                  DA:   LOGGING CONTRACTOR
TOOL.                             CDL/CNL/GR (COMPOSITED):   TOOL STRING
~Curve Information Block
#MNEM.UNIT                                        API CODE    No Description
#=========                                        ========    == ===========
DEPT.M                                       00 001 00 00:     1  DEPTH
CAL.IN                                                   :     2  Caliper
CNC.%                                                    :     3  Neutron Porosity
CORR.G/CC                                                :     4  Density Correction
DEN.G/CC                                                 :     5  Bulk Density
GR.GAPI                                                  :     6  Gamma Ray
SPD.                                                     :     7  Cable Speed
TEN.LB                                                   :     8  Cable Tension
~ASCII
# ...
  682.1250    17.6728  -999.2500      .1326     2.1019    65.8501    11.2367   -32.4493
  682.2500    17.5854  -999.2500      .1384     2.1083    66.9489    11.3207   -32.5655
  682.3750    17.5304  -999.2500      .1305     2.1063    67.1210    11.3471   -33.7786
  682.5000    17.5030  -999.2500      .1200     2.1015    66.3350    11.3537   -34.7947
  682.6250    17.4951  -999.2500      .1127     2.0967    65.0145    11.3660   -35.4548
  682.7500    17.5119  -999.2500      .1135     2.0941    63.6036    11.3973   -36.2578
  682.8750    17.5481  -999.2500      .1195     2.0939    62.3704    11.4251   -37.1137
  683.0000    17.6047  -999.2500      .1297     2.0968    61.2854    11.4327   -37.2225
  683.1250    17.6699  -999.2500      .1406     2.1009    60.2921    11.4055   -35.8796
  683.2500    17.7298  -999.2500      .1480     2.1025    59.4596    11.3513   -34.0644
  683.3750    17.7716  -999.2500      .1458     2.0974    58.9575    11.2752   -33.1873
  683.5000    17.7960  -999.2500      .1332     2.0864    58.6917    11.1961   -33.7831
  683.6250    17.8101  -999.2500      .1149     2.0738    58.5928    11.1266   -35.0668
  683.7500    17.8198  -999.2500      .0986     2.0662    58.7233    11.0805   -35.6712
  683.8750    17.8274  -999.2500      .0884     2.0657    59.1165    11.0516   -35.6397
  684.0000    17.8327  -999.2500      .0846     2.0724    59.7560    11.0291   -35.8674
  684.1250    17.8381  -999.2500      .0842     2.0837    60.3304    11.0000   -36.6356
  684.2500    17.8513  -999.2500      .0861     2.0963    60.5156    10.9612   -37.4137
  684.3750    17.8847  -999.2500      .0915     2.1115    60.1291    10.9096   -38.0266
  684.5000    17.9455  -999.2500      .0995     2.1270    59.4991    10.8476   -38.3525
  684.6250    18.0365  -999.2500      .1070     2.1381    59.2128    10.7904   -38.4528
  684.7500    18.1463  -999.2500      .1103     2.1427    59.4425    10.7662   -38.9512
  684.8750    18.2550  -999.2500      .1083     2.1420    60.0236    10.8032   -39.7285
  685.0000    18.3389  -999.2500      .1033     2.1393    60.7348    10.9145   -39.8478
  685.1250    18.3892  -999.2500      .0987     2.1358    61.6375    11.0766   -39.0713
  685.2500    18.4072  -999.2500      .0965     2.1314    62.8404    11.2458   -37.6702
  685.3750    18.4089  -999.2500      .0954     2.1255    64.0052    11.3688   -36.1954
  685.5000    18.4086  -999.2500      .0946     2.1183    64.6114    11.4190   -35.2108
  685.6250    18.4211  -999.2500      .0945     2.1124    64.1847    11.3967   -35.5170
  685.7500    18.4494  -999.2500      .0945     2.1092    63.0416    11.3420   -36.3979
  685.8750    18.4979  -999.2500      .0937     2.1088    61.6464    11.2859   -36.3429
  686.0000    18.5602  -999.2500      .0905     2.1083    60.5992    11.2575   -34.9122
  686.1250    18.6263  -999.2500      .0846     2.1058    59.9228    11.2566   -33.2139
  686.2500    18.6833  -999.2500      .0771     2.0996    59.5882    11.2713   -33.0218
  686.3750    18.7297  -999.2500      .0713     2.0924    59.7145    11.2836   -34.6749
  686.5000    18.7690  -999.2500      .0687     2.0862    60.5578    11.2953   -37.8114
  686.6250    18.8015  -999.2500      .0704     2.0816    61.9188    11.3136   -40.3780
  686.7500    18.8209  -999.2500      .0752     2.0815    63.1937    11.3331   -41.3425
  686.8750    18.8128  -999.2500      .0819     2.0868    63.8883    11.3328   -40.4916
  687.0000    18.7748  -999.2500      .0873     2.0939    64.1038    11.2897   -39.2391
  687.1250    18.7117  -999.2500      .0907     2.1004    64.2717    11.2046   -38.3774
  687.2500    18.6274  -999.2500      .0942     2.1061    64.9861    11.0951   -38.2676
  687.3750    18.5361  -999.2500      .0996     2.1116    66.0600    11.0018   -38.2760
  687.5000    18.4413  -999.2500      .1048     2.1160    67.2685    10.9442   -38.0101
  687.6250    18.3463  -999.2500      .1059     2.1189    68.5779    10.9171   -37.7614
  687.7500    18.2585  -999.2500      .1032     2.1229    69.9803    10.9017   -37.9531
  687.8750    18.1930  -999.2500      .0991     2.1268    71.3285    10.8935   -38.8386
  688.0000    18.1576  -999.2500      .0991     2.1290    72.3480    10.8966   -40.1902
  688.1250    18.1524  -999.2500      .1038     2.1296    72.8010    10.9157   -41.4011
  688.2500    18.1679  -999.2500      .1097     2.1268    72.6884    10.9544   -41.8274
  688.3750    18.1852  -999.2500      .1122     2.1195    72.5129    11.0119   -41.7532
  688.5000    18.1895  -999.2500      .1104     2.1100    72.7067    11.0869   -41.7142
  688.6250    18.1761  -999.2500      .1075     2.1018    73.1927    11.1662   -41.7984
  688.7500    18.1461  -999.2500      .1064     2.0954    73.4700    11.2289   -41.7734
  688.8750    18.0971  -999.2500      .1073     2.0907    72.9898    11.2558   -41.3936
  689.0000    18.0223  -999.2500      .1088     2.0882    71.3598    11.2478   -40.3684
  689.1250    17.9109  -999.2500      .1082     2.0873    68.6329    11.2304   -38.8776
  689.2500    17.7716  -999.2500      .1047     2.0866    65.8267    11.2316   -37.8186
  689.3750    17.6153  -999.2500      .0978     2.0852    63.9846    11.2579   -37.6780
  689.5000    17.4641  -999.2500      .0890     2.0828    63.7602    11.2873   -38.1844
  689.6250    17.3332  -999.2500      .0803     2.0798    64.9388    11.3005   -39.1423
  689.7500    17.2398  -999.2500      .0750     2.0781    66.8851    11.2866   -40.3078
  689.8750    17.1800  -999.2500      .0754     2.0795    68.4391    11.2627   -41.3045
  690.0000    17.1498  -999.2500      .0829     2.0850    69.0196    11.2442   -42.0544
  690.1250    17.1409  -999.2500      .0950     2.0932    68.4695    11.2324   -41.9114
  690.2500    17.1412  -999.2500      .1067     2.1001    67.3398    11.2138   -40.3903
  690.3750    17.1448  -999.2500      .1132     2.1019    66.1357    11.1773   -37.4915
  690.5000    17.1481  -999.2500      .1129     2.0982    65.4945    11.1306   -34.5857
  690.6250    17.1556  -999.2500      .1074     2.0921    65.4048    11.0812   -32.2674
  690.7500    17.1855  -999.2500      .1009     2.0878    65.6761    11.0349   -31.4000
  690.8750    17.2374  -999.2500      .0985     2.0875    66.1231    10.9931   -31.5771
  691.0000    17.3093  -999.2500      .1028     2.0922    66.8400    10.9586   -32.3075
  691.1250    17.3825  -999.2500      .1124     2.1027    67.7818    10.9360   -32.6892
  691.2500    17.4416  -999.2500      .1220     2.1135    68.7908    10.9263   -32.8405
  691.3750    17.4737  -999.2500      .1251     2.1182    69.7054    10.9302   -33.4039
  691.5000    17.4872  -999.2500      .1206     2.1162    70.4372    10.9440   -34.7887
  691.6250    17.4920  -999.2500      .1118     2.1107    71.0359    10.9716   -37.2524
  691.7500    17.4936  -999.2500      .1048     2.1063    71.5812    11.0230   -40.5681
  691.8750    17.4929  -999.2500      .1012     2.1042    71.9391    11.0922   -43.3806
  692.0000    17.4884  -999.2500      .0988     2.1028    71.7253    11.1639   -44.9652
  692.1250    17.4791  -999.2500      .0932     2.0994    70.7525    11.2099   -45.3737
  692.2500    17.4669  -999.2500      .0848     2.0944    69.4164    11.2198   -44.8504
  692.3750    17.4547  -999.2500      .0777     2.0903    68.3940    11.1912   -43.3371
  692.5000    17.4462  -999.2500      .0767     2.0891    68.2926    11.1501   -41.1576
  692.6250    17.4428  -999.2500      .0824     2.0908    69.2459    11.1218   -38.7712
  692.7500    17.4434  -999.2500      .0902     2.0937    70.6871    11.1176   -36.5359
  692.8750    17.4455  -999.2500      .0959     2.0961    71.7788    11.1300   -34.4892
  693.0000    17.4475  -999.2500      .0993     2.0977    72.0723    11.1393   -32.5552
  693.1250    17.4495  -999.2500      .1024     2.0986    71.9187    11.1295   -30.7996
  693.2500    17.4535  -999.2500      .1054     2.0981    71.9185    11.0950   -29.6775
  693.3750    17.4629  -999.2500      .1066     2.0958    72.3002    11.0491   -29.6633
