~VERSION INFORMATION
VERS.                                                 2.0:   CWLS Log ASCII Standard-VERSION 2.0
WRAP.                                                  NO:   One line per depth step
~Well Information Block
STRT.M                                           500.1250:   Top Depth
STOP.M                                          3159.8750:   Bottom Depth
STEP.M                                             .12500:   Depth Increment
NULL.                                            -999.250:   Null Value
FLD .                                             WILDCAT:   Field Name
WELL.                                             15/12-4:   NAME
WBN .                                             15/12-4:   WELLBORE
NATI.                                                 NOR:   COUNTRY
CTRY.                                                 NOR:   COUNTRY
COMP.                                             STATOIL:   OPERATOR
PROV.                                           NORTH SEA:   PROVINCE
COUN.                                      DEEPSEA BERGEN:   RIG NAME
SPUD.                                          1984/09/13:   SPUD DATE
LATI.                                         58 3 9.16 N:   SURF. LATITUDE
LONG.                                        1 54 11.61 E:   SURF. LONGITUDE
PBWE.                                             15/12-4:   PB WELL ID
APIN.                                             15/12-4:   PB WELLBORE ID
PBWS.                                                 all:   PB WELL NAME SET
~PARAMETER INFORMATION (log)
LNAM.                              CDL/CNL/GR  COMPOSITED:   NAME
LTYP.                                         DEPTH MATCH:   LOG TYPE
LSRV.                                             CAL/BGT:   LOG SERVICE
LSOU.                                             SPT/NPD:   LOG SOURCE
LVSN.                                                   1:   LOG VERSION
BHIS.                                                   R:   BRIEF HISTORY
FHIS.                                             RAW-LIS:   FULL HISTORY
LCNM.                                                  DA:   LOGGING CONTRACTOR
TOOL.                             CDL/CNL/GR (COMPOSITED):   TOOL STRING
~Curve Information Block
#MNEM.UNIT                                        API CODE    No Description
#=========                                        ========    == ===========
DEPT.M                                       00 001 00 00:     1  DEPTH
CAL.IN                                                   :     2  Caliper
CNC.%                                                    :     3  Neutron Porosity
CORR.G/CC                                                :     4  Density Correction
DEN.G/CC                                                 :     5  Bulk Density
GR.GAPI                                                  :     6  Gamma Ray
SPD.                                                     :     7  Cable Speed
TEN.LB                                                   :     8  Cable Tension
~ASCII
# ...
 3150.5000     8.5736    18.9553      .1035     2.5048    88.3181     8.7628    78.9723
 3150.6250     8.5504    19.1286      .1119     2.4837    83.9884     8.7208    80.9449
 3150.7500     8.5331    19.4951      .1199     2.4618    82.2973     8.6798    81.6872
 3150.8750     8.5200    19.8177      .1257     2.4404    84.2660     8.6556    81.4969
 3151.0000     8.5112    19.9794      .1298     2.4238    87.9753     8.6493    81.0683
 3151.1250     8.5078    20.0120      .1321     2.4142    91.4201     8.6538    80.5218
 3151.2500     8.5104    19.9455      .1304     2.4164    92.2668     8.6695    79.9055
 3151.3750     8.5141    19.6953      .1286     2.4259    91.4057     8.6996    79.6016
 3151.5000     8.5164    19.4000      .1298     2.4429    89.8123     8.7500    79.9732
 3151.6250     8.5144    19.2578      .1342     2.4683    88.7926     8.8129    81.0981
 3151.7500     8.5079    19.5997      .1391     2.5007    88.1740     8.8678    82.5852
 3151.8750     8.4940    20.1836      .1424     2.5384    87.2347     8.8871    84.2685
 3152.0000     8.4702    20.7442      .1437     2.5717    85.5027     8.8673    86.2507
 3152.1250     8.4347    20.9389      .1436     2.5917    83.4247     8.8206    88.5370
 3152.2500     8.3886    20.8959      .1444     2.5900    82.5030     8.7700    90.7445
 3152.3750     8.3395    20.9383      .1461     2.5735    83.6456     8.7342    92.3364
 3152.5000     8.2920    21.2993      .1458     2.5512    87.0992     8.7221    93.0469
 3152.6250     8.2461    21.8130      .1418     2.5343    91.8007     8.7304    93.2230
 3152.7500     8.1983    22.1130      .1368     2.5269    96.2550     8.7482    93.4339
 3152.8750     8.1463    22.0704      .1357     2.5283    99.1981     8.7670    94.4241
 3153.0000     8.0958    21.7017      .1424     2.5344   100.5096     8.7803    96.9566
 3153.1250     8.0625    21.2161      .1563     2.5437   100.8098     8.7831   101.3114
 3153.2500     8.0650    20.7703      .1710     2.5559   100.8313     8.7760   106.4763
 3153.3750     8.1226    20.4391      .1781     2.5712   100.8313     8.7606   110.5996
 3153.5000     8.2403    20.1965      .1712     2.5865   100.8313     8.7414   111.9659
 3153.6250     8.3954    19.9816      .1509     2.5969   100.8313     8.7199   111.0075
 3153.7500     8.5512    19.7005      .1200     2.5991   100.8313     8.6949   109.5486
 3153.8750     8.6676    19.0678      .0872     2.5980   100.8313     8.6695   109.6888
 3154.0000     8.7237    18.4085      .0608     2.5974   100.8313     8.6501   111.9036
 3154.1250     8.7168    18.6015      .0498     2.5931   100.8313     8.6474   115.2446
 3154.2500     8.6774    20.1071      .0508     2.5797   100.8313     8.6611   118.4874
 3154.3750     8.6244    22.4419      .0589     2.5548   100.8313     8.6868   121.2181
 3154.5000     8.5775    24.7576      .0627     2.5296   100.8313     8.7049   123.8542
 3154.6250     8.5415    25.9153      .0577     2.5118   100.8313     8.7059   126.6082
 3154.7500     8.5229    25.8096      .0446     2.5088   100.8313     8.6842   129.0488
 3154.8750     8.5148    24.8491      .0350     2.5117   100.8313     8.6548   131.0084
 3155.0000     8.5147    24.2819      .0353     2.5137   100.8313     8.6297   132.7101
 3155.1250     8.5169    24.1912      .0445     2.5080   100.8313     8.6258   134.7974
 3155.2500     8.5178    24.1905      .0556     2.4968   100.8313     8.6448   137.3876
 3155.3750     8.5138    24.1955      .0649     2.4827   100.8313     8.6839   140.3743
 3155.5000     8.5010    24.2111      .0720     2.4698   100.8313     8.7205   143.2550
 3155.6250     8.4732    24.2530      .0782     2.4589   100.8313     8.7407   145.8229
 3155.7500     8.4011    24.3392      .0824     2.4505   100.8313     8.7282   147.8327
 3155.8750     8.2644    24.5252      .0818     2.4442   100.8313     8.6948   149.1915
 3156.0000     8.0332    24.8365      .0752     2.4403   100.8313     8.6504   149.3276
 3156.1250     7.7145    25.2738      .0661     2.4386   100.8313     8.6094   147.5201
 3156.2500     7.3719    25.7886      .0586     2.4378   100.8313     8.5815   144.0078
 3156.3750     7.0736    26.2398      .0548     2.4359   100.8313     8.5745   138.8270
 3156.5000     6.8669    26.5534      .0536     2.4318   100.8313     8.5858   132.5378
 3156.6250     6.7547    26.7139      .0545     2.4274   100.8313     8.6107   125.2131
 3156.7500     6.7084    26.7889      .0580     2.4250   100.8313     8.6373   117.0091
 3156.8750     6.6888    26.8161      .0677     2.4305   100.8313     8.6553   108.3018
 3157.0000     6.6775    26.8335      .1051     2.4545   100.8313     8.6617    99.5342
 3157.1250     6.6377    26.8896      .1716     2.4769   100.8313     8.6616    90.0790
 3157.2500     6.4598    27.1683      .2367     2.4611   100.8313     8.6589    76.4169
 3157.3750     6.0172    27.9019      .2645     2.4073   100.8313     8.6573    54.2084
 3157.5000     5.3013    29.2031      .2420     2.3737   100.8313     8.6609    23.2566
 3157.6250     4.4469    30.1323      .1797     2.3613   100.8313     8.6713   -11.1435
 3157.7500     3.6798    30.2386      .1123     2.3423   100.8313     8.6868   -41.0123
 3157.8750     3.1827    30.2386      .0710     2.3343   100.8313     8.7074   -59.9312
 3158.0000     2.9686    30.2386      .0631     2.3575   100.8313     8.7251   -67.9994
 3158.1250     2.9131    30.2386      .0668     2.4095   100.8313     8.7288   -70.0819
 3158.2500     2.9115    30.2386      .0790     2.4895   100.8313     8.7127   -70.1430
 3158.3750     2.9115    30.2386      .0800     2.5268   100.8313     8.6983   -70.1430
 3158.5000     2.9115    30.2386      .0800     2.5322   100.8313     8.7052   -70.1430
 3158.6250     2.9115    30.2386      .0800     2.5293   100.8313     8.7491   -70.1430
 3158.7500     2.9115    30.2386      .0800     2.5288   100.8313     8.8149   -70.1430
 3158.8750     2.9115    30.2386      .0800     2.5298   100.8313     8.8591   -70.1430
 3159.0000     2.9115    30.2386      .0800     2.5293   100.8313     8.6723   -70.1430
 3159.1250     2.9115    30.2386      .0800     2.5267   100.8313     8.0635   -70.1430
 3159.2500     2.9115    30.2386      .0800     2.5229   100.8313     6.6521   -70.1430
 3159.3750     2.9115    30.2386      .0800     2.5200   100.8313     4.8576   -70.1430
 3159.5000     2.9115    30.2386      .0800     2.5189   100.8313     3.0220   -70.1430
 3159.6250     2.9115    30.2386      .0800     2.5191   100.8313     1.6958   -70.1430
 3159.7500     2.9115    30.2386      .0800     2.5196   100.8313      .9378   -70.1430
 3159.8750     2.9115  -999.2500      .0800     2.5199   100.8313      .7292   -70.1430
