~VERSION INFORMATION
VERS.                                                 2.0:   CWLS Log ASCII Standard-VERSION 2.0
WRAP.                                                  NO:   One line per depth step
~Well Information Block
STRT.M                                           385.1636:   Top Depth
STOP.M                                          3744.9740:   Bottom Depth
STEP.M                                             .15240:   Depth Increment
NULL.                                            -999.250:   Null Value
FLD .                                             WILDCAT:   Field Name
WELL.                                              15/9-1:   NAME
WBN .                                              15/9-1:   WELLBORE
NATI.                                                 NOR:   COUNTRY
CTRY.                                                 NOR:   COUNTRY
COMP.                                             STATOIL:   OPERATOR
PROV.                                           NORTH SEA:   PROVINCE
COUN.                                            ROSS RIG:   RIG NAME
SPUD.                                          1977/02/24:   SPUD DATE
LATI.                                       58 28 19.00 N:   SURF. LATITUDE
LONG.                                        1 45 11.76 E:   SURF. LONGITUDE
PBWE.                                              15/9-1:   PB WELL ID
APIN.                                              15/9-1:   PB WELLBORE ID
PBWS.                                                 all:   PB WELL NAME SET
~PARAMETER INFORMATION (log)
LNAM.                              FDC/CNL/GR  COMPOSITED:   NAME
LTYP.                                         DEPTH MATCH:   LOG TYPE
LSRV.                                            DEN/NEUT:   LOG SERVICE
LSOU.                                             SPT/NPD:   LOG SOURCE
LVSN.                                                   1:   LOG VERSION
BHIS.                                                   R:   BRIEF HISTORY
FHIS.                                             RAW-LIS:   FULL HISTORY
LCNM.                                        SCHLUMBERGER:   LOGGING CONTRACTOR
TOOL.                             FDC/CNL/GR (COMPOSITED):   TOOL STRING
QCST.                                               final:   QC STATUS
~Curve Information Block
#MNEM.UNIT                                        API CODE    No Description
#=========                                        ========    == ===========
DEPT.M                                       00 001 00 00:     1  DEPTH
CALI.IN                                                  :     2  Caliper
DRHO.G/CC                                                :     3  Bulk density correction
GR.GAPI                                                  :     4  Gamma Ray
NPHI.%                                                   :     5  Neutron porosity
RHOB.G/CC                                                :     6  Bulk density
TENS.LB                                                  :     7  Cable Tension
~ASCII
# ...
 3507.5348    11.7311      .0881    88.8094    32.4308     2.1941   639.1461
 3507.6872    11.5885      .0789    88.5147    32.0596     2.1967   696.1990
 3507.8396    11.4376      .0986    88.3306    31.8395     2.2321   653.9652
 3507.9920    11.3348      .1082    85.7304    32.2852     2.2395   614.5657
 3508.1444    11.4296      .1120    86.3449    32.7361     2.2532   456.6473
 3508.2968    11.6033      .1033    86.1518    33.1614     2.2706   489.0713
 3508.4492    11.5243      .0817    85.9814    33.6916     2.2765  1063.0769
 3508.6016    11.5237      .0570    88.7268    33.4044     2.2578  1530.3115
 3508.7540    11.6062      .0473    90.9130    32.8176     2.2458  1475.8630
 3508.9064    11.6095      .0678    89.9055    31.8061     2.2600  1327.4631
 3509.0588    11.6108      .0550    86.4204    30.8942     2.2486  1212.6030
 3509.2112    11.6281      .0485    88.2329    32.0471     2.2361  1106.6177
 3509.3636    11.6303      .0451    90.8304    32.8572     2.2318   994.7916
 3509.5160    11.6574      .0311    91.4431    32.2160     2.2109   868.0292
 3509.6684    11.7201      .0486    92.5101    31.8457     2.1938   687.0299
 3509.8208    11.7982      .0798    92.4723    32.2553     2.1989   737.2703
 3509.9732    11.8658      .0571    91.7190    33.5469     2.1947   851.7394
 3510.1256    11.8310      .0147    89.6495    33.6646     2.1767   938.4578
 3510.2780    11.6112      .0187    86.5454    33.3934     2.1724   833.8427
 3510.4304    11.6218      .0408    86.4165    33.5390     2.1958   695.5427
 3510.5828    11.6556      .0715    85.8690    33.5275     2.2250   609.8018
 3510.7352    11.1676      .0940    85.0787    32.1294     2.2264   748.8761
 3510.8876    11.2181      .1101    86.0798    31.1770     2.2315   859.0253
 3511.0400    11.4511      .1131    86.1647    32.0267     2.2390   775.8613
 3511.1924    11.3279      .1017    85.6600    32.6944     2.2301   656.3351
 3511.3448    11.1481      .0675    87.1093    33.2680     2.2070   447.0155
 3511.4972    11.0888      .0441    88.3447    33.7832     2.1691   -60.8399
 3511.6496    11.2670      .0706    87.8369    33.0492     2.1484   207.1136
 3511.8020    11.4436      .0708    89.5077    31.6454     2.1307   437.2761
 3511.9544    11.4919      .0559    91.5564    30.3341     2.1184   430.6205
 3512.1068    11.4333      .0367    92.3761    29.5609     2.1011   437.8870
 3512.2592    11.3731      .0623    95.3216    29.0632     2.1193   158.5471
 3512.4116    11.4826      .0616    93.9279    28.7763     2.1345    62.4096
 3512.5640    11.6083      .0903    93.0943    29.1095     2.1727   -63.8286
 3512.7164    11.6321      .0849    94.5076    29.6162     2.1753   -14.5551
 3512.8688    11.5432      .0753    95.6073    29.7931     2.1472    89.3128
 3513.0212    10.8918      .0558    96.0786    29.6726     2.1426   333.5225
 3513.1736    11.1350      .0517    94.5095    29.9176     2.1609    28.7071
 3513.3260    11.3251      .0502    92.0496    30.3525     2.1855   -76.5578
 3513.4784    11.4418      .0402    90.2928    30.9604     2.2311   -75.0230
 3513.6308    11.6545      .0160    89.7182    30.9969     2.2901   -73.4882
 3513.7832    11.4173      .0250    91.7877    30.4992     2.3264   -71.9534
 3513.9356    11.3061      .0561    94.8345    30.0445     2.3372   -70.4161
 3514.0880    10.8795      .0906    96.3926    29.6534     2.3114   -68.8813
 3514.2404    11.0860      .1171    97.1289    29.2519     2.3141   -35.9400
 3514.3928    10.9825      .1634    96.8695    29.0951     2.3523   502.0273
 3514.5452    10.9621      .1870    94.2704    30.1218     2.3599   795.4230
 3514.6976    11.1105      .1600    91.7759    31.3246     2.3367   970.8829
 3514.8500    11.0890      .1584    88.8031    32.1270     2.3206   923.1290
 3515.0024    11.0676      .1673    87.8678    32.5290     2.3415   826.8597
 3515.1548    11.1333      .1570    88.7800    32.3997     2.3235   687.3580
 3515.3072    11.1700      .1391    85.3462    32.0407     2.3062    79.6232
 3515.4596    11.1777      .1171    84.0251    31.9199     2.2734   312.3818
 3515.6120    11.1778      .1060    86.3273    32.2551     2.2508   194.9772
 3515.7644    11.1780      .1041    91.1490    32.7675     2.2382   123.0739
 3515.9168    11.1682      .1120    94.7324    32.7353     2.2398   -41.8798
 3516.0692    11.0609      .1313    94.4513    32.3484     2.2602   -14.0116
 3516.2216    11.1635      .1147    93.0484    32.7893     2.2724   264.1852
 3516.3740    11.9780      .0743    91.7255    32.9872     2.2618   984.7157
 3516.5264    11.9193      .0919    92.4132    32.4969     2.2426   934.9987
 3516.6788    11.9800      .1137    88.0549    32.6081     2.2686   821.9994
 3516.8312    12.0252      .1112    87.5675    33.5722     2.2815   713.7330
 3516.9836    12.0495      .1324    89.1862    34.2764     2.2748   608.9177
 3517.1360    12.0549      .0912    87.3647    34.0826     2.2350   504.6617
 3517.2884    12.0551      .0750    85.9293    33.8078     2.2274   378.4442
 3517.4408    12.0670      .0984    84.4587    34.7872     2.2418   241.1372
 3517.5932    12.0554      .0760    86.3304    36.0294     2.2288    79.7242
 3517.7456    11.7896      .0700    83.1134    36.7013     2.2391    10.4739
 3517.8980    11.4575      .0513    76.1143    36.3572     2.2846   152.0675
 3518.0504    11.0207      .0750    69.9057    32.4836     2.2480   527.3512
 3518.2028    10.9365      .0815    67.4405    30.2057     2.2161   452.4083
 3518.3552    11.1574      .0786    72.6568    30.5941     2.2210   329.6688
 3518.5076    11.3018      .0798    78.7791    32.9031     2.2355   228.8123
 3518.6600    11.4271      .0917    84.8371    33.6957     2.2697   103.9719
 3518.8124    11.5392      .0695    85.6357    33.7180     2.2685   -31.1218
 3518.9648    11.6194      .0624    83.0853    32.2392     2.2372    -3.7666
 3519.1172    11.1232      .0765    78.2522    29.8444     2.1994   299.1759
 3519.2696    11.4263      .0841    78.3572    27.2154     2.1568   931.5845
 3519.4220    11.8108      .0912    82.5019    27.3942     2.1764   883.5886
 3519.5744    12.0387      .0998    88.4478    30.3868     2.1857   767.0458
 3519.7268    12.0907      .1067    92.3068    32.7781     2.1999   652.5375
 3519.8792    12.1429      .1007    91.7684    34.8394     2.2038   553.0801
 3520.0316    12.1808      .0952    87.6869    36.4591     2.2152   452.2726
 3520.1840    12.2133      .0987    85.1281    37.3859     2.2325   319.8250
 3520.3364    12.2436      .0932    82.6104    37.6344     2.2592   171.4877
 3520.4888    12.2313      .0791    77.8953    37.0516     2.3023    54.1469
 3520.6412    12.0186      .0413    73.4811    34.9669     2.3541    97.6642
 3520.7936    11.5918      .0522    78.6530    33.2224     2.4104    92.7690
 3520.9460    11.6813      .1053    85.4455    34.2226     2.3869   136.4038
 3521.0984    11.5334      .0826    88.5250    35.4371     2.3163   220.9304
 3521.2508    11.2370      .0569    89.4640    33.9113     2.3501   311.6956
 3521.4032    10.9361      .0969    82.1368    32.0731     2.3834   127.4463
 3521.5556    10.9047      .1363    75.7253    30.3588     2.4227   162.9199
 3521.7080    10.6640      .1386    72.1242    27.8787     2.4305   153.4459
 3521.8604    10.4494      .1270    65.0976    25.9404     2.4734   112.5582
 3522.0128    10.4970      .1341    64.7417    25.8396     2.5485   116.4258
 3522.1652    10.2584      .1074    70.3033    25.9811     2.5224   136.2804
 3522.3176    10.0931      .1261    73.3331    25.5381     2.5056    89.3666
 3522.4700    10.0420      .1141    69.5594    26.7777     2.5512   201.6160
 3522.6224     9.8811      .1327    64.6527    27.5490     2.5806    88.9402
 3522.7748     9.8330      .1367    64.4800    27.8242     2.5953    74.8897
 3522.9272     9.7897      .1938    66.1772    27.0681     2.6436   133.0925
 3523.0796     9.7749      .1778    65.1124    26.2029     2.6863   148.2845
 3523.2320     9.8328      .1503    70.4379    26.6483     2.7318   204.9154
