~VERSION INFORMATION
VERS.                                                 2.0:   CWLS Log ASCII Standard-VERSION 2.0
WRAP.                                                  NO:   One line per depth step
~Well Information Block
STRT.M                                           385.1636:   Top Depth
STOP.M                                          3744.9740:   Bottom Depth
STEP.M                                             .15240:   Depth Increment
NULL.                                            -999.250:   Null Value
FLD .                                             WILDCAT:   Field Name
WELL.                                              15/9-1:   NAME
WBN .                                              15/9-1:   WELLBORE
NATI.                                                 NOR:   COUNTRY
CTRY.                                                 NOR:   COUNTRY
COMP.                                             STATOIL:   OPERATOR
PROV.                                           NORTH SEA:   PROVINCE
COUN.                                            ROSS RIG:   RIG NAME
SPUD.                                          1977/02/24:   SPUD DATE
LATI.                                       58 28 19.00 N:   SURF. LATITUDE
LONG.                                        1 45 11.76 E:   SURF. LONGITUDE
PBWE.                                              15/9-1:   PB WELL ID
APIN.                                              15/9-1:   PB WELLBORE ID
PBWS.                                                 all:   PB WELL NAME SET
~PARAMETER INFORMATION (log)
LNAM.                              FDC/CNL/GR  COMPOSITED:   NAME
LTYP.                                         DEPTH MATCH:   LOG TYPE
LSRV.                                            DEN/NEUT:   LOG SERVICE
LSOU.                                             SPT/NPD:   LOG SOURCE
LVSN.                                                   1:   LOG VERSION
BHIS.                                                   R:   BRIEF HISTORY
FHIS.                                             RAW-LIS:   FULL HISTORY
LCNM.                                        SCHLUMBERGER:   LOGGING CONTRACTOR
TOOL.                             FDC/CNL/GR (COMPOSITED):   TOOL STRING
QCST.                                               final:   QC STATUS
~Curve Information Block
#MNEM.UNIT                                        API CODE    No Description
#=========                                        ========    == ===========
DEPT.M                                       00 001 00 00:     1  DEPTH
CALI.IN                                                  :     2  Caliper
DRHO.G/CC                                                :     3  Bulk density correction
GR.GAPI                                                  :     4  Gamma Ray
NPHI.%                                                   :     5  Neutron porosity
RHOB.G/CC                                                :     6  Bulk density
TENS.LB                                                  :     7  Cable Tension
~ASCII
# ...
 2619.9572    13.0220      .0821    41.7832  -999.2500     2.2848  -999.2500
 2620.1096    12.5720      .0491    41.7015  -999.2500     2.2703  -999.2500
 2620.2620    12.5835      .0152    38.0772  -999.2500     2.2977  -999.2500
 2620.4144    12.7582      .0308    36.2608  -999.2500     2.3074  -999.2500
 2620.5668    13.3937      .0354    39.4867  -999.2500     2.2611  -999.2500
 2620.7192    13.9755      .0225    44.1030  -999.2500     2.2140  -999.2500
 2620.8716    14.0310      .0316    47.2478  -999.2500     2.1728  -999.2500
 2621.0240    12.7966      .0334    44.9643  -999.2500     2.1421  -999.2500
 2621.1764    12.7302      .0117    40.9759  -999.2500     2.1373  -999.2500
 2621.3288    13.0306      .0458    36.4984  -999.2500     2.1691  -999.2500
 2621.4812    13.0553      .0555    37.2828  -999.2500     2.1469  -999.2500
 2621.6336    12.7371      .0146    40.0237  -999.2500     2.1261  -999.2500
 2621.7860    12.7807      .0266    39.3929  -999.2500     2.2074  -999.2500
 2621.9384    12.9983      .0948    36.1267  -999.2500     2.3245  -999.2500
 2622.0908    12.5681      .0977    36.2841  -999.2500     2.3322  -999.2500
 2622.2432    12.5218      .0753    38.3474  -999.2500     2.3088  -999.2500
 2622.3956    12.4834      .0115    40.1116  -999.2500     2.3016  -999.2500
 2622.5480    12.4687      .0083    39.8355  -999.2500     2.3403  -999.2500
 2622.7004    12.6564      .0336    39.4543  -999.2500     2.3096  -999.2500
 2622.8528    13.3844      .0770    40.0159  -999.2500     2.2275  -999.2500
 2623.0052    13.9117      .1212    41.9778  -999.2500     2.1347  -999.2500
 2623.1576    13.4579      .1025    42.7407  -999.2500     2.0730  -999.2500
 2623.3100    13.4537      .0649    42.1290  -999.2500     2.0595  -999.2500
 2623.4624    13.8965      .0222    42.9605  -999.2500     2.0666  -999.2500
 2623.6148    12.6838      .0085    44.1356  -999.2500     2.1205  -999.2500
 2623.7672    13.3315      .0481    44.5601  -999.2500     2.1572  -999.2500
 2623.9196    13.5179      .0625    46.3277  -999.2500     2.1164  -999.2500
 2624.0720    12.3042      .0126    46.4468  -999.2500     2.1271  -999.2500
 2624.2244    12.2828     -.0079    45.2027  -999.2500     2.2069  -999.2500
 2624.3768    12.1104     -.0025    44.6755  -999.2500     2.2536  -999.2500
 2624.5292    12.1572      .0065    47.0810  -999.2500     2.2574  -999.2500
 2624.6816    12.0820      .0172    50.1990  -999.2500     2.2783  -999.2500
 2624.8340    12.1323      .0323    50.8016  -999.2500     2.2925  -999.2500
 2624.9864    12.2169      .0304    50.4754  -999.2500     2.2874  -999.2500
 2625.1388    12.1579      .0116    49.0711  -999.2500     2.2497  -999.2500
 2625.2912    12.2135      .0134    45.1732  -999.2500     2.2435  -999.2500
 2625.4436    12.2043      .0171    39.6888  -999.2500     2.2303  -999.2500
 2625.5960    12.0898      .0225    34.1854  -999.2500     2.2302  -999.2500
 2625.7484    12.0487      .0207    31.2046  -999.2500     2.2279  -999.2500
 2625.9008    12.0571      .0255    30.2386  -999.2500     2.2357  -999.2500
 2626.0532    12.0662      .0249    28.4376  -999.2500     2.2346  -999.2500
 2626.2056    12.0844      .0294    27.4146  -999.2500     2.2320  -999.2500
 2626.3580    12.1039      .0219    25.1982  -999.2500     2.2195  -999.2500
 2626.5104    12.0958      .0353    26.6990  -999.2500     2.2227  -999.2500
 2626.6628    12.0721      .0361    29.1253  -999.2500     2.2183  -999.2500
 2626.8152    12.0482      .0303    29.7035  -999.2500     2.2184  -999.2500
 2626.9676    12.0294      .0329    29.4718  -999.2500     2.2265  -999.2500
 2627.1200    12.0280      .0388    28.8983  -999.2500     2.2296  -999.2500
 2627.2724    12.0283      .0369    27.8053  -999.2500     2.2261  -999.2500
 2627.4248    12.0285      .0316    27.3198  -999.2500     2.2208  -999.2500
 2627.5772    12.0288      .0397    27.3389  -999.2500     2.2179  -999.2500
 2627.7296    12.0356      .0295    29.5506  -999.2500     2.1987  -999.2500
 2627.8820    12.0111      .0371    32.6345  -999.2500     2.2094  -999.2500
 2628.0344    11.9953      .0215    32.1465  -999.2500     2.2099  -999.2500
 2628.1868    12.0194      .0095    32.7942  -999.2500     2.2016  -999.2500
 2628.3392    12.0499      .0160    33.8023  -999.2500     2.2138  -999.2500
 2628.4916    12.0803      .0272    34.2354  -999.2500     2.2331  -999.2500
 2628.6440    12.1039      .0430    34.2639  -999.2500     2.2555  -999.2500
 2628.7964    12.0693      .0675    33.0147  -999.2500     2.2773  -999.2500
 2628.9488    12.0639      .0636    31.4242  -999.2500     2.2834  -999.2500
 2629.1012    12.0813      .0366    29.8912  -999.2500     2.2356  -999.2500
 2629.2536    12.0737      .0359    29.6994  -999.2500     2.2310  -999.2500
 2629.4060    12.0156      .0346    29.2456  -999.2500     2.2245  -999.2500
 2629.5584    12.0210      .0337    28.2611  -999.2500     2.2199  -999.2500
 2629.7108    12.0322      .0199    28.0685  -999.2500     2.2010  -999.2500
 2629.8632    12.0217      .0215    29.4547  -999.2500     2.1912  -999.2500
 2630.0156    12.0078      .0239    29.0424  -999.2500     2.1857  -999.2500
 2630.1680    11.9999      .0201    27.7414  -999.2500     2.1825  -999.2500
 2630.3204    11.9948      .0152    28.7754  -999.2500     2.1815  -999.2500
 2630.4728    12.0005      .0193    30.3843  -999.2500     2.1915  -999.2500
 2630.6252    12.0067      .0209    31.1960  -999.2500     2.1981  -999.2500
 2630.7776    12.0130      .0368    29.5275  -999.2500     2.2101  -999.2500
 2630.9300    12.0115      .0291    28.0676  -999.2500     2.2079  -999.2500
 2631.0824    11.9948      .0239    28.1310  -999.2500     2.2083  -999.2500
 2631.2348    11.9766      .0164    28.8571  -999.2500     2.2105  -999.2500
 2631.3872    11.9763      .0191    29.6268  -999.2500     2.2135  -999.2500
 2631.5396    11.9796      .0090    29.7930  -999.2500     2.2063  -999.2500
 2631.6920    11.9830      .0152    29.7261  -999.2500     2.2111  -999.2500
 2631.8444    11.9863      .0176    29.7697  -999.2500     2.2129  -999.2500
 2631.9968    11.9896      .0168    29.2222  -999.2500     2.2199  -999.2500
 2632.1492    11.9930      .0182    29.6422  -999.2500     2.2137  -999.2500
 2632.3016    11.9959      .0264    32.3737  -999.2500     2.2084  -999.2500
 2632.4540    11.9828      .0278    32.1680  -999.2500     2.2075  -999.2500
 2632.6064    11.9685      .0245    32.6354  -999.2500     2.2175  -999.2500
 2632.7588    11.9542      .0259    33.3786  -999.2500     2.2202  -999.2500
 2632.9112    11.9399      .0251    30.9866  -999.2500     2.2032  -999.2500
 2633.0636    11.9379      .0249    31.1730  -999.2500     2.1982  -999.2500
 2633.2160    11.9382      .0261    32.4516  -999.2500     2.1926  -999.2500
 2633.3684    11.9384      .0317    33.0692  -999.2500     2.1964  -999.2500
 2633.5208    11.9386      .0193    33.9000  -999.2500     2.1971  -999.2500
 2633.6732    11.9389      .0166    32.8938  -999.2500     2.2112  -999.2500
 2633.8256    11.9391      .0169    31.2806  -999.2500     2.2224  -999.2500
 2633.9780    11.9394      .0230    30.5530  -999.2500     2.2166  -999.2500
 2634.1304    11.9396      .0318    31.6255  -999.2500     2.2017  -999.2500
 2634.2828    11.9392      .0185    31.0853  -999.2500     2.1954  -999.2500
 2634.4352    11.9347      .0253    31.2949  -999.2500     2.2144  -999.2500
 2634.5876    11.9302      .0220    32.7220  -999.2500     2.2105  -999.2500
 2634.7400    11.9256      .0303    34.3407  -999.2500     2.2065  -999.2500
 2634.8924    11.9216      .0473    35.2285  -999.2500     2.2173  -999.2500
 2635.0448    11.9376      .0327    34.2223  -999.2500     2.2170  -999.2500
 2635.1972    11.9545      .0242    33.9931  -999.2500     2.2153  -999.2500
 2635.3496    11.9715      .0255    33.9825  -999.2500     2.2153  -999.2500
 2635.5020    11.9884      .0281    32.9147  -999.2500     2.2154  -999.2500
 2635.6544    12.0065      .0475    31.9671  -999.2500     2.2425  -999.2500
