~VERSION INFORMATION
VERS.                                                 2.0:   CWLS Log ASCII Standard-VERSION 2.0
WRAP.                                                  NO:   One line per depth step
~Well Information Block
STRT.M                                           385.1636:   Top Depth
STOP.M                                          3744.9740:   Bottom Depth
STEP.M                                             .15240:   Depth Increment
NULL.                                            -999.250:   Null Value
FLD .                                             WILDCAT:   Field Name
WELL.                                              15/9-1:   NAME
WBN .                                              15/9-1:   WELLBORE
NATI.                                                 NOR:   COUNTRY
CTRY.                                                 NOR:   COUNTRY
COMP.                                             STATOIL:   OPERATOR
PROV.                                           NORTH SEA:   PROVINCE
COUN.                                            ROSS RIG:   RIG NAME
SPUD.                                          1977/02/24:   SPUD DATE
LATI.                                       58 28 19.00 N:   SURF. LATITUDE
LONG.                                        1 45 11.76 E:   SURF. LONGITUDE
PBWE.                                              15/9-1:   PB WELL ID
APIN.                                              15/9-1:   PB WELLBORE ID
PBWS.                                                 all:   PB WELL NAME SET
~PARAMETER INFORMATION (log)
LNAM.                              FDC/CNL/GR  COMPOSITED:   NAME
LTYP.                                         DEPTH MATCH:   LOG TYPE
LSRV.                                            DEN/NEUT:   LOG SERVICE
LSOU.                                             SPT/NPD:   LOG SOURCE
LVSN.                                                   1:   LOG VERSION
BHIS.                                                   R:   BRIEF HISTORY
FHIS.                                             RAW-LIS:   FULL HISTORY
LCNM.                                        SCHLUMBERGER:   LOGGING CONTRACTOR
TOOL.                             FDC/CNL/GR (COMPOSITED):   TOOL STRING
QCST.                                               final:   QC STATUS
~Curve Information Block
#MNEM.UNIT                                        API CODE    No Description
#=========                                        ========    == ===========
DEPT.M                                       00 001 00 00:     1  DEPTH
CALI.IN                                                  :     2  Caliper
DRHO.G/CC                                                :     3  Bulk density correction
GR.GAPI                                                  :     4  Gamma Ray
NPHI.%                                                   :     5  Neutron porosity
RHOB.G/CC                                                :     6  Bulk density
TENS.LB                                                  :     7  Cable Tension
~ASCII
# ...
 2176.1684    11.6408      .0619    49.7544  -999.2500     2.0239  -999.2500
 2176.3208    11.2283      .0448    52.4470  -999.2500     2.0074  -999.2500
 2176.4732    11.0339      .0597    53.4280  -999.2500     2.0184  -999.2500
 2176.6256    11.0199      .0547    56.1139  -999.2500     2.0197  -999.2500
 2176.7780    11.1114      .0433    57.0702  -999.2500     2.0202  -999.2500
 2176.9304    11.2608      .0321    54.1468  -999.2500     2.0312  -999.2500
 2177.0828    11.3767      .0244    51.5445  -999.2500     2.0384  -999.2500
 2177.2352    11.5261      .0141    52.4387  -999.2500     2.0410  -999.2500
 2177.3876    11.6530      .0287    50.8159  -999.2500     2.0347  -999.2500
 2177.5400    11.6864      .0410    50.7770  -999.2500     2.0201  -999.2500
 2177.6924    11.7876      .0661    52.6249  -999.2500     2.0375  -999.2500
 2177.8448    11.8777      .0476    52.6593  -999.2500     2.0297  -999.2500
 2177.9972    11.8735      .0328    52.2289  -999.2500     2.0289  -999.2500
 2178.1496    11.9416      .0289    54.7947  -999.2500     2.0224  -999.2500
 2178.3020    12.1196      .0265    57.8670  -999.2500     1.9983  -999.2500
 2178.4544    12.7255      .0222    61.9680  -999.2500     1.9945  -999.2500
 2178.6068    13.8771      .0182    62.8250  -999.2500     1.9921  -999.2500
 2178.7592    13.5593      .0288    62.5312  -999.2500     2.0136  -999.2500
 2178.9116    13.0274      .0431    65.1797  -999.2500     2.0326  -999.2500
 2179.0640    13.1763      .0501    64.7306  -999.2500     2.0382  -999.2500
 2179.2164    13.6871      .0507    63.5949  -999.2500     2.0382  -999.2500
 2179.3688    13.8261      .0548    62.4351  -999.2500     2.0518  -999.2500
 2179.5212    13.9409      .0594    59.2842  -999.2500     2.0609  -999.2500
 2179.6736    14.2708      .0617    56.8560  -999.2500     2.0720  -999.2500
 2179.8260    13.4657      .0348    58.1738  -999.2500     2.0561  -999.2500
 2179.9784    13.2236      .0403    57.6431  -999.2500     2.0593  -999.2500
 2180.1308    12.9744      .0214    55.9460  -999.2500     2.0543  -999.2500
 2180.2832    13.2167      .0233    56.0819  -999.2500     2.0526  -999.2500
 2180.4356    12.9402      .0386    56.1725  -999.2500     2.0622  -999.2500
 2180.5880    12.9546      .0422    57.7821  -999.2500     2.0636  -999.2500
 2180.7404    13.0753      .0431    55.8569  -999.2500     2.0717  -999.2500
 2180.8928    13.4221      .0563    54.4881  -999.2500     2.1017  -999.2500
 2181.0452    13.2989      .0716    53.9802  -999.2500     2.1408  -999.2500
 2181.1976    13.4469      .0705    51.2956  -999.2500     2.1401  -999.2500
 2181.3500    13.2849      .0610    49.7270  -999.2500     2.1277  -999.2500
 2181.5024    13.1471      .0622    53.6913  -999.2500     2.1137  -999.2500
 2181.6548    12.9384      .0528    53.6088  -999.2500     2.1076  -999.2500
 2181.8072    13.1541      .0547    49.1032  -999.2500     2.1311  -999.2500
 2181.9596    13.0447      .0419    44.6669  -999.2500     2.1391  -999.2500
 2182.1120    12.8686      .0458    41.4855  -999.2500     2.1532  -999.2500
 2182.2644    12.9204      .0530    40.1166  -999.2500     2.1664  -999.2500
 2182.4168    12.9354      .0753    39.5075  -999.2500     2.1724  -999.2500
 2182.5692    13.1191      .0922    40.1027  -999.2500     2.1569  -999.2500
 2182.7216    13.2618      .0820    39.8317  -999.2500     2.1277  -999.2500
 2182.8740    12.9597      .0738    39.4576  -999.2500     2.0776  -999.2500
 2183.0264    13.2684      .0832    40.1257  -999.2500     2.0277  -999.2500
 2183.1788    13.8211      .0657    38.8902  -999.2500     1.9841  -999.2500
 2183.3312    13.5957      .0345    38.4697  -999.2500     1.9505  -999.2500
 2183.4836    13.2522      .0475    39.4075  -999.2500     1.9448  -999.2500
 2183.6360    13.5739      .0702    40.2085  -999.2500     1.9560  -999.2500
 2183.7884    13.6214      .0784    41.1767  -999.2500     1.9753  -999.2500
 2183.9408    13.2621      .0731    42.8707  -999.2500     2.0166  -999.2500
 2184.0932    13.7417      .0764    41.1187  -999.2500     2.0638  -999.2500
 2184.2456    13.2537      .0675    38.1979  -999.2500     2.0908  -999.2500
 2184.3980    13.3336      .0814    36.1021  -999.2500     2.1239  -999.2500
 2184.5504    13.9057      .0775    36.2193  -999.2500     2.1465  -999.2500
 2184.7028    13.6463      .0693    35.9824  -999.2500     2.1678  -999.2500
 2184.8552    13.5039      .0697    37.2847  -999.2500     2.2036  -999.2500
 2185.0076    13.1428      .0358    38.8330  -999.2500     2.1959  -999.2500
 2185.1600    13.0379      .0208    40.6353  -999.2500     2.2011  -999.2500
 2185.3124    12.9760      .0229    40.6875  -999.2500     2.1880  -999.2500
 2185.4648    12.9177      .0339    39.9088  -999.2500     2.1694  -999.2500
 2185.6172    12.7834      .0220    38.2251  -999.2500     2.1453  -999.2500
 2185.7696    12.8031      .0239    37.4502  -999.2500     2.1204  -999.2500
 2185.9220    12.7463      .0136    38.5551  -999.2500     2.1345  -999.2500
 2186.0744    12.5250      .0308    38.9745  -999.2500     2.1544  -999.2500
 2186.2268    12.5879      .0534    38.2864  -999.2500     2.1372  -999.2500
 2186.3792    12.9790      .0991    37.5943  -999.2500     2.0990  -999.2500
 2186.5316    13.3443      .0881    37.3577  -999.2500     2.0385  -999.2500
 2186.6840    13.4731      .0564    38.2786  -999.2500     1.9906  -999.2500
 2186.8364    13.5522      .0663    40.3516  -999.2500     2.0131  -999.2500
 2186.9888    13.4182      .0764    40.9751  -999.2500     2.0138  -999.2500
 2187.1412    13.3784      .0600    39.9249  -999.2500     1.9891  -999.2500
 2187.2936    13.3297      .0523    40.2452  -999.2500     1.9895  -999.2500
 2187.4460    13.3117      .0495    40.3412  -999.2500     1.9965  -999.2500
 2187.5984    13.1810      .0371    41.3568  -999.2500     1.9994  -999.2500
 2187.7508    13.0835      .0628    42.5932  -999.2500     2.0277  -999.2500
 2187.9032    12.5719      .0527    44.0159  -999.2500     2.0224  -999.2500
 2188.0556    12.6397      .0626    45.9307  -999.2500     2.0501  -999.2500
 2188.2080    12.8589      .0851    47.9605  -999.2500     2.0822  -999.2500
 2188.3604    13.0584      .0704    49.1111  -999.2500     2.0619  -999.2500
 2188.5128    13.0002      .0568    47.2424  -999.2500     2.0539  -999.2500
 2188.6652    13.1844      .0349    45.7661  -999.2500     2.0417  -999.2500
 2188.8176    13.3141      .0577    46.1850  -999.2500     2.0571  -999.2500
 2188.9700    13.1222      .0565    47.3891  -999.2500     2.0535  -999.2500
 2189.1224    13.0475      .0447    48.4361  -999.2500     2.0381  -999.2500
 2189.2748    13.2112      .0580    48.3791  -999.2500     2.0434  -999.2500
 2189.4272    13.3938      .0323    48.4009  -999.2500     2.0229  -999.2500
 2189.5796    13.1934      .0226    47.6852  -999.2500     2.0365  -999.2500
 2189.7320    12.9018      .0476    45.5208  -999.2500     2.0740  -999.2500
 2189.8844    12.8081      .0637    43.0942  -999.2500     2.0937  -999.2500
 2190.0368    12.5339      .0501    42.4224  -999.2500     2.1123  -999.2500
 2190.1892    12.4177      .0660    40.9813  -999.2500     2.1503  -999.2500
 2190.3416    12.6779      .0834    39.8933  -999.2500     2.1590  -999.2500
 2190.4940    12.6168      .0403    40.1636  -999.2500     2.1188  -999.2500
 2190.6464    12.4067      .0423    40.8056  -999.2500     2.1168  -999.2500
 2190.7988    12.4807      .0725    42.1986  -999.2500     2.1040  -999.2500
 2190.9512    12.6148      .1122    43.0120  -999.2500     2.0877  -999.2500
 2191.1036    12.6798      .1108    42.7754  -999.2500     2.0617  -999.2500
 2191.2560    12.7771      .0889    42.9970  -999.2500     2.0203  -999.2500
 2191.4084    12.7640      .0594    44.4228  -999.2500     1.9936  -999.2500
 2191.5608    12.7393      .0508    44.9757  -999.2500     2.0022  -999.2500
 2191.7132    12.8665      .0519    45.9740  -999.2500     2.0148  -999.2500
 2191.8656    13.3980      .0344    47.1695  -999.2500     2.0207  -999.2500
