~VERSION INFORMATION
VERS.                                                 2.0:   CWLS Log ASCII Standard-VERSION 2.0
WRAP.                                                  NO:   One line per depth step
~Well Information Block
STRT.M                                           385.1636:   Top Depth
STOP.M                                          3744.9740:   Bottom Depth
STEP.M                                             .15240:   Depth Increment
NULL.                                            -999.250:   Null Value
FLD .                                             WILDCAT:   Field Name
WELL.                                              15/9-1:   NAME
WBN .                                              15/9-1:   WELLBORE
NATI.                                                 NOR:   COUNTRY
CTRY.                                                 NOR:   COUNTRY
COMP.                                             STATOIL:   OPERATOR
PROV.                                           NORTH SEA:   PROVINCE
COUN.                                            ROSS RIG:   RIG NAME
SPUD.                                          1977/02/24:   SPUD DATE
LATI.                                       58 28 19.00 N:   SURF. LATITUDE
LONG.                                        1 45 11.76 E:   SURF. LONGITUDE
PBWE.                                              15/9-1:   PB WELL ID
APIN.                                              15/9-1:   PB WELLBORE ID
PBWS.                                                 all:   PB WELL NAME SET
~PARAMETER INFORMATION (log)
LNAM.                              FDC/CNL/GR  COMPOSITED:   NAME
LTYP.                                         DEPTH MATCH:   LOG TYPE
LSRV.                                            DEN/NEUT:   LOG SERVICE
LSOU.                                             SPT/NPD:   LOG SOURCE
LVSN.                                                   1:   LOG VERSION
BHIS.                                                   R:   BRIEF HISTORY
FHIS.                                             RAW-LIS:   FULL HISTORY
LCNM.                                        SCHLUMBERGER:   LOGGING CONTRACTOR
TOOL.                             FDC/CNL/GR (COMPOSITED):   TOOL STRING
QCST.                                               final:   QC STATUS
~Curve Information Block
#MNEM.UNIT                                        API CODE    No Description
#=========                                        ========    == ===========
DEPT.M                                       00 001 00 00:     1  DEPTH
CALI.IN                                                  :     2  Caliper
DRHO.G/CC                                                :     3  Bulk density correction
GR.GAPI                                                  :     4  Gamma Ray
NPHI.%                                                   :     5  Neutron porosity
RHOB.G/CC                                                :     6  Bulk density
TENS.LB                                                  :     7  Cable Tension
~ASCII
# ...
 3729.4292     9.6639      .0300    85.0996    20.5098     2.4618   203.3535
 3729.5816     9.4051      .0269    86.6153    17.7054     2.4485   149.0129
 3729.7340     9.1903      .0474    87.2593    15.6452     2.4320   189.5081
 3729.8864     8.9449      .0689    87.2540    13.9798     2.4129   332.7298
 3730.0388     8.7087      .0348    87.2487    13.9912     2.3985   433.1616
 3730.1912     8.4891      .0169    87.2121    14.5155     2.4383   666.5442
 3730.3436     8.2905      .0140    87.1719    14.9341     2.4355   763.7111
 3730.4960     8.3083      .0234    87.1317    15.1543     2.4429   688.9084
 3730.6484     8.3336      .0365    87.0914    15.1801     2.4642   592.3151
 3730.8008     8.3411      .0328    87.0512    14.8517     2.4627   493.1462
 3730.9532     8.3486      .0256    87.0230    14.0460     2.4484   386.8243
 3731.1056     8.3300      .0123    87.0443    14.1253     2.4290   269.4788
 3731.2580     8.3070      .0036    87.0655    14.4657     2.4064   160.4838
 3731.4104     8.2673      .0014    87.0868    14.3819     2.3846   126.4990
 3731.5628     8.2116      .0001    87.1081    14.2228     2.3729   142.6650
 3731.7152     8.2117      .0018    87.1294    14.1105     2.3672    26.2604
 3731.8676     8.2873      .0059    87.1507    14.0071     2.3750     1.4035
 3732.0200     8.3835      .0101    87.1720    13.9345     2.3747   -26.6183
 3732.1724     8.4886      .0146    87.1999    13.8618     2.3848   -65.5302
 3732.3248     8.4537      .0198    87.2305    13.8055     2.3858   -42.4192
 3732.4772     8.3234      .0258    87.2611    13.7539     2.3876   -27.6189
 3732.6296     8.3010      .0364    87.2917    13.7198     2.4072     4.1482
 3732.7820     8.4510      .0443    87.3224    13.7032     2.4402    62.5962
 3732.9344     8.5929      .0362    87.3402    13.6866     2.4779   136.9894
 3733.0868     8.6840      .0423    87.2928    13.6887     2.5143   198.1298
 3733.2392     8.7017      .0486    87.2454    13.8811     2.4960   133.5872
 3733.3916     8.5300      .0287    87.1980    13.9923     2.4630   154.9279
 3733.5440     8.3631      .0068    87.1505    14.0836     2.4264   157.9482
 3733.6964     8.2698      .0015    87.1386    14.1633     2.3986   217.1095
 3733.8488     8.0336      .0006    87.1715    14.1856     2.3845    61.7567
 3734.0012     7.8729      .0011    87.2043    14.1048     2.3879   -14.5137
 3734.1536     7.8763      .0024    87.2373    14.0670     2.3853   -13.4476
 3734.3060     8.0678      .0088    87.2701    14.0342     2.3949   -12.3832
 3734.4584     8.1983      .0224    87.2843    13.9983     2.4075   -11.3188
 3734.6108     8.2590      .0286    87.2363    13.9606     2.4146   -10.2544
 3734.7632     8.2818      .0228    87.1883    13.9213     2.4179   107.5619
 3734.9156     8.2565      .0267    87.1402    13.9872     2.4347   104.4502
 3735.0680     8.2824      .0138    87.0922    14.1678     2.4376    57.5904
 3735.2204     8.3657      .0063    87.1014    14.3327     2.4104    11.7666
 3735.3728     8.1275      .0052    87.1426    14.4977     2.3815    29.3182
 3735.5252     7.8089      .0041    87.1839    14.6746     2.3715   107.7027
 3735.6776     7.8186      .0031    87.2251    15.0040     2.3635   147.6957
 3735.8300     7.6317      .0021    87.2469    15.3612     2.3491   301.5435
 3735.9824     6.8717      .0011    87.1126    15.5532     2.3457  2243.8081
 3736.1348     6.6511     -.0009    86.8626    15.5454     2.3458  2128.7192
 3736.2872     6.5505     -.0054    86.5367    15.3440     2.3402  2036.2463
 3736.4396     6.5178     -.0088    85.9330    15.0689     2.3363  1891.4517
 3736.5920     6.5220     -.0135    83.5902    14.4252     2.3307  1796.7200
 3736.7444     6.5262     -.0137    74.5210    12.1538     2.3272  1690.8613
 3736.8968     6.5304     -.0083    35.9703      .5145     2.3321  1584.5896
 3737.0492     6.5347     -.0029      .2011    -2.8344     2.3464  1475.3584
 3737.2016     6.5292     -.0013      .2360    -2.8337     2.3444  1331.5474
 3737.3540     6.5157     -.0048      .2709    -2.8329     2.3315  1271.0881
 3737.5064     6.4950     -.0090      .3058    -2.8322     2.3210  1175.0845
 3737.6588     6.4743     -.0127      .3407    -2.8315     2.3166  1083.4670
 3737.8112     6.4537     -.0134      .3756    -2.8308     2.3152  1000.2670
 3737.9636     6.4371     -.0117      .3869    -2.8300     2.3154   915.5615
 3738.1160     6.4371     -.0182      .3589    -2.8293     2.3196   875.4026
 3738.2684     6.4371     -.0112      .3310    -2.8286     2.3288   858.1589
 3738.4208     6.4307     -.0070      .3031    -2.8278     2.3324   862.5585
 3738.5732     6.4233     -.0063      .2752    -2.8271     2.3273   869.7476
 3738.7256     6.4172     -.0079      .2473    -2.8264     2.3226   835.4385
 3738.8780     6.4172     -.0103      .2193    -2.8137     2.3151   806.8525
 3739.0304     6.4172     -.0111      .1914    -2.7932     2.3096   795.7112
 3739.1828     6.4204     -.0087      .1635    -2.7727     2.3032   807.4355
 3739.3352     6.4807     -.0082      .1355    -2.6951     2.2947   806.7871
 3739.4876     7.2388     -.0108      .1076    -2.5925     2.2722   781.3748
 3739.6400     8.0602     -.0006      .0796    -2.6525     2.2364   752.0343
 3739.7924     8.0403      .0207      .0517    -2.7615     2.2031   756.7341
 3739.9448     8.0285      .0411      .0238    -2.5676     2.4986   791.2719
 3740.0972     8.0383      .0074      .0000     -.1230     2.4986   785.5885
 3740.2496     8.0481      .0029      .0000     -.0661     2.4986   801.9092
 3740.4020     8.0579      .0026      .0000     -.0654     2.4986   825.6152
 3740.5544     8.0641      .0023      .0000     -.0647     2.4986   801.0392
 3740.7068     8.0593      .0021      .0000     -.0640     2.4986   771.4996
 3740.8592     8.0545      .0021      .0000     -.0633     2.4986   732.6396
 3741.0116     8.0497      .0020      .0000     -.0627     2.4986   707.4272
 3741.1640     8.0455      .0020      .0000     -.0620     2.4987   700.8784
 3741.3164     8.0495      .0020      .0000     -.0613     2.4988   720.9594
 3741.4688     8.0535      .0020      .0000     -.0606     2.4989   736.2975
 3741.6212     8.0575      .0020      .0000     -.0599     2.4990   704.2046
 3741.7736     8.0616      .0020      .0000     -.0592     2.4991   535.7656
 3741.9260     8.0640      .0020      .0000     -.0586     2.4992   153.1903
 3742.0784     8.0602      .0020      .0000     -.0579     2.4993   158.3144
 3742.2308     8.0564      .0020      .0000     -.0572     2.4994   159.4230
 3742.3832     8.0527      .0019      .0000     -.0565     2.4994   138.8877
 3742.5356     8.0489      .0019      .0000     -.0558     2.4992   115.9677
 3742.6880     8.0451      .0018      .0000     -.0551     2.4991   118.3385
 3742.8404     8.0445      .0017      .0000     -.0544     2.4989   141.1653
 3742.9928     8.0445      .0017      .0000     -.0538     2.4987   133.6355
 3743.1452     8.0444      .0016      .0000     -.0531     2.4986   143.2449
 3743.2976     8.0443      .0015      .0000     -.0524     2.4984   167.5750
 3743.4500     8.0448      .0014      .0000     -.0517     2.4984   187.6867
 3743.6024     8.0485      .0013      .0000     -.0510     2.4984   169.3056
 3743.7548     8.0521      .0013      .0000     -.0503     2.4984   240.4577
 3743.9072     8.0558      .0012      .0000     -.0496     2.4984   493.4432
 3744.0596     8.0594      .0011      .0000     -.0490     2.4984   737.9791
 3744.2120     8.0631      .0010      .0000     -.0483     2.4984   853.5129
 3744.3644     8.0602      .0009      .0000     -.0476     2.4984   852.3622
 3744.5168     8.0558      .0009      .0000     -.0469     2.4984   826.4158
 3744.6692     8.0513      .0008      .0000     -.0493     2.4984   804.3678
 3744.8216     8.0469      .0013      .0414     -.0760     2.4984   823.9060
 3744.9740  -999.2500  -999.2500  -999.2500     -.1026  -999.2500  -999.2500
