~VERSION INFORMATION
VERS.                                                 2.0:   CWLS Log ASCII Standard-VERSION 2.0
WRAP.                                                  NO:   One line per depth step
~Well Information Block
STRT.M                                           385.1636:   Top Depth
STOP.M                                          3744.9740:   Bottom Depth
STEP.M                                             .15240:   Depth Increment
NULL.                                            -999.250:   Null Value
FLD .                                             WILDCAT:   Field Name
WELL.                                              15/9-1:   NAME
WBN .                                              15/9-1:   WELLBORE
NATI.                                                 NOR:   COUNTRY
CTRY.                                                 NOR:   COUNTRY
COMP.                                             STATOIL:   OPERATOR
PROV.                                           NORTH SEA:   PROVINCE
COUN.                                            ROSS RIG:   RIG NAME
SPUD.                                          1977/02/24:   SPUD DATE
LATI.                                       58 28 19.00 N:   SURF. LATITUDE
LONG.                                        1 45 11.76 E:   SURF. LONGITUDE
PBWE.                                              15/9-1:   PB WELL ID
APIN.                                              15/9-1:   PB WELLBORE ID
PBWS.                                                 all:   PB WELL NAME SET
~PARAMETER INFORMATION (log)
LNAM.                              FDC/CNL/GR  COMPOSITED:   NAME
LTYP.                                         DEPTH MATCH:   LOG TYPE
LSRV.                                            DEN/NEUT:   LOG SERVICE
LSOU.                                             SPT/NPD:   LOG SOURCE
LVSN.                                                   1:   LOG VERSION
BHIS.                                                   R:   BRIEF HISTORY
FHIS.                                             RAW-LIS:   FULL HISTORY
LCNM.                                        SCHLUMBERGER:   LOGGING CONTRACTOR
TOOL.                             FDC/CNL/GR (COMPOSITED):   TOOL STRING
QCST.                                               final:   QC STATUS
~Curve Information Block
#MNEM.UNIT                                        API CODE    No Description
#=========                                        ========    == ===========
DEPT.M                                       00 001 00 00:     1  DEPTH
CALI.IN                                                  :     2  Caliper
DRHO.G/CC                                                :     3  Bulk density correction
GR.GAPI                                                  :     4  Gamma Ray
NPHI.%                                                   :     5  Neutron porosity
RHOB.G/CC                                                :     6  Bulk density
TENS.LB                                                  :     7  Cable Tension
~ASCII
# ...
 1716.5300    12.2874      .0346    56.7684  -999.2500     1.9541  -999.2500
 1716.6824    12.3432      .0512    58.4258  -999.2500     1.9813  -999.2500
 1716.8348    12.3029      .0441    59.6218  -999.2500     1.9730  -999.2500
 1716.9872    12.3073      .0487    59.9626  -999.2500     1.9582  -999.2500
 1717.1396    12.4608      .0663    57.2154  -999.2500     1.9625  -999.2500
 1717.2920    12.0286      .0682    57.5200  -999.2500     1.9654  -999.2500
 1717.4444    11.9581      .0707    59.6176  -999.2500     1.9787  -999.2500
 1717.5968    12.1361      .0638    58.8057  -999.2500     1.9971  -999.2500
 1717.7492    12.5418      .0461    59.7401  -999.2500     2.0110  -999.2500
 1717.9016    12.8197      .0365    61.0228  -999.2500     2.0222  -999.2500
 1718.0540    13.1739      .0564    61.3094  -999.2500     2.0424  -999.2500
 1718.2064    13.2053      .0785    59.2048  -999.2500     2.0602  -999.2500
 1718.3588    12.6531      .0777    56.5450  -999.2500     2.0729  -999.2500
 1718.5112    12.4118      .0562    57.0361  -999.2500     2.0701  -999.2500
 1718.6636    12.3164      .0705    57.1105  -999.2500     2.0818  -999.2500
 1718.8160    12.2265      .0698    54.7970  -999.2500     2.0533  -999.2500
 1718.9684    12.1632      .0598    54.1984  -999.2500     2.0199  -999.2500
 1719.1208    12.1218      .0550    55.2626  -999.2500     2.0073  -999.2500
 1719.2732    12.2299      .0520    56.3563  -999.2500     2.0013  -999.2500
 1719.4256    12.2056      .0496    59.4942  -999.2500     1.9902  -999.2500
 1719.5780    12.2948      .0514    61.6394  -999.2500     1.9791  -999.2500
 1719.7304    12.3108      .0424    60.0919  -999.2500     1.9629  -999.2500
 1719.8828    12.3085      .0314    59.2774  -999.2500     1.9660  -999.2500
 1720.0352    12.3049      .0157    60.1757  -999.2500     1.9685  -999.2500
 1720.1876    12.2771      .0130    59.4802  -999.2500     1.9716  -999.2500
 1720.3400    12.3119      .0233    59.3696  -999.2500     1.9878  -999.2500
 1720.4924    12.3969      .0182    60.0824  -999.2500     1.9904  -999.2500
 1720.6448    12.5811      .0413    62.2281  -999.2500     2.0000  -999.2500
 1720.7972    12.5452      .0527    62.7147  -999.2500     1.9995  -999.2500
 1720.9496    12.4963      .0635    60.7691  -999.2500     2.0214  -999.2500
 1721.1020    12.5170      .0623    58.7063  -999.2500     2.0720  -999.2500
 1721.2544    12.4309      .0174    56.2957  -999.2500     2.1543  -999.2500
 1721.4068    12.7780     -.0422    53.5420  -999.2500     2.3015  -999.2500
 1721.5592    13.7374     -.0093    50.9289  -999.2500     2.3690  -999.2500
 1721.7116    14.3500      .0799    48.4586  -999.2500     2.3312  -999.2500
 1721.8640    13.9740      .0741    45.8301  -999.2500     2.0904  -999.2500
 1722.0164    13.6940      .0391    45.9163  -999.2500     1.9774  -999.2500
 1722.1688    13.3198      .0355    50.4049  -999.2500     1.9783  -999.2500
 1722.3212    13.3930      .0505    54.8846  -999.2500     2.0001  -999.2500
 1722.4736    13.5893      .0654    58.9838  -999.2500     2.0267  -999.2500
 1722.6260    12.9362      .0524    62.4302  -999.2500     2.0174  -999.2500
 1722.7784    12.5148      .0297    65.1718  -999.2500     1.9963  -999.2500
 1722.9308    12.6586      .0207    62.4313  -999.2500     1.9827  -999.2500
 1723.0832    12.7123      .0227    59.8612  -999.2500     1.9837  -999.2500
 1723.2356    12.3494      .0371    61.8031  -999.2500     1.9979  -999.2500
 1723.3880    12.3515      .0388    65.2702  -999.2500     1.9794  -999.2500
 1723.5404    13.0589      .0421    68.4137  -999.2500     1.9486  -999.2500
 1723.6928    13.0997      .0335    68.5187  -999.2500     1.9323  -999.2500
 1723.8452    14.0262      .0405    68.4228  -999.2500     1.9463  -999.2500
 1723.9976    13.9553      .0678    68.4828  -999.2500     1.9844  -999.2500
 1724.1500    13.5997      .0493    67.8730  -999.2500     1.9714  -999.2500
 1724.3024    13.7220      .0194    66.0694  -999.2500     1.9620  -999.2500
 1724.4548    14.1560      .0458    63.1086  -999.2500     2.0058  -999.2500
 1724.6072    13.8406      .0430    64.1304  -999.2500     2.0162  -999.2500
 1724.7596    13.0948      .0386    66.1446  -999.2500     2.0014  -999.2500
 1724.9120    12.8426      .0517    65.7136  -999.2500     2.0145  -999.2500
 1725.0644    12.8101      .0522    63.9859  -999.2500     2.0179  -999.2500
 1725.2168    12.9377      .0514    63.5865  -999.2500     2.0164  -999.2500
 1725.3692    12.8641      .0608    63.1808  -999.2500     2.0165  -999.2500
 1725.5216    12.9894      .0757    62.6316  -999.2500     2.0383  -999.2500
 1725.6740    13.6111      .0795    64.2393  -999.2500     2.0846  -999.2500
 1725.8264    14.8141      .0455    63.4054  -999.2500     2.0821  -999.2500
 1725.9788    13.7598      .0480    62.7099  -999.2500     2.0885  -999.2500
 1726.1312    14.5960      .0468    60.6751  -999.2500     2.0726  -999.2500
 1726.2836    14.2701      .0510    58.9520  -999.2500     2.0572  -999.2500
 1726.4360    14.3939      .0505    60.3526  -999.2500     2.0587  -999.2500
 1726.5884    13.0443      .0491    60.5512  -999.2500     2.0460  -999.2500
 1726.7408    13.0493      .0594    62.6512  -999.2500     2.0362  -999.2500
 1726.8932    13.2945      .0502    63.2237  -999.2500     1.9931  -999.2500
 1727.0456    13.4024      .0309    62.3092  -999.2500     1.9754  -999.2500
 1727.1980    13.7246      .0360    63.3420  -999.2500     1.9952  -999.2500
 1727.3504    13.6722      .0467    64.8230  -999.2500     2.0285  -999.2500
 1727.5028    13.9583      .0454    65.8395  -999.2500     2.0154  -999.2500
 1727.6552    14.0991      .0694    66.0222  -999.2500     2.0092  -999.2500
 1727.8076    13.6632      .0394    66.4760  -999.2500     1.9963  -999.2500
 1727.9600    13.6512      .0499    65.8519  -999.2500     2.0253  -999.2500
 1728.1124    14.0876      .0526    68.0808  -999.2500     2.0427  -999.2500
 1728.2648    13.6217      .0425    71.3525  -999.2500     2.0285  -999.2500
 1728.4172    14.2403      .0477    71.3525  -999.2500     2.0223  -999.2500
 1728.5696    14.4988      .0566    70.0540  -999.2500     2.0161  -999.2500
 1728.7220    14.0787      .0409    68.6649  -999.2500     1.9945  -999.2500
 1728.8744    14.3612      .0386    67.4232  -999.2500     2.0103  -999.2500
 1729.0268    14.3266      .0331    68.0904  -999.2500     2.0227  -999.2500
 1729.1792    14.0945      .0284    69.5662  -999.2500     2.0269  -999.2500
 1729.3316    13.7570      .0220    69.5214  -999.2500     2.0174  -999.2500
 1729.4840    14.5809      .0249    70.7269  -999.2500     2.0131  -999.2500
 1729.6364    14.1044      .0507    71.3013  -999.2500     2.0105  -999.2500
 1729.7888    13.3281      .0566    70.0365  -999.2500     2.0069  -999.2500
 1729.9412    13.5294      .0580    71.9782  -999.2500     2.0251  -999.2500
 1730.0936    13.2958      .0733    74.3274  -999.2500     2.0511  -999.2500
 1730.2460    13.5047      .0418    73.1117  -999.2500     2.0215  -999.2500
 1730.3984    13.2957      .0329    72.6092  -999.2500     2.0108  -999.2500
 1730.5508    13.4769      .0380    72.7236  -999.2500     2.0131  -999.2500
 1730.7032    13.3945      .0410    75.7989  -999.2500     2.0271  -999.2500
 1730.8556    13.7775      .0360    74.7049  -999.2500     2.0333  -999.2500
 1731.0080    14.2655      .0332    73.3782  -999.2500     2.0369  -999.2500
 1731.1604    14.3106      .0480    73.9152  -999.2500     2.0428  -999.2500
 1731.3128    14.1543      .0504    73.7621  -999.2500     2.0466  -999.2500
 1731.4652    13.6423      .0271    72.6860  -999.2500     2.0325  -999.2500
 1731.6176    13.8093      .0162    71.8177  -999.2500     2.0257  -999.2500
 1731.7700    13.8211      .0347    70.1572  -999.2500     2.0432  -999.2500
 1731.9224    13.4986      .0511    67.5207  -999.2500     2.0684  -999.2500
 1732.0748    13.9357      .0348    68.3011  -999.2500     2.0778  -999.2500
 1732.2272    13.9628      .0239    68.9621  -999.2500     2.1054  -999.2500
