~VERSION INFORMATION
VERS.                                                 2.0:   CWLS Log ASCII Standard-VERSION 2.0
WRAP.                                                  NO:   One line per depth step
~Well Information Block
STRT.M                                           385.1636:   Top Depth
STOP.M                                          3744.9740:   Bottom Depth
STEP.M                                             .15240:   Depth Increment
NULL.                                            -999.250:   Null Value
FLD .                                             WILDCAT:   Field Name
WELL.                                              15/9-1:   NAME
WBN .                                              15/9-1:   WELLBORE
NATI.                                                 NOR:   COUNTRY
CTRY.                                                 NOR:   COUNTRY
COMP.                                             STATOIL:   OPERATOR
PROV.                                           NORTH SEA:   PROVINCE
COUN.                                            ROSS RIG:   RIG NAME
SPUD.                                          1977/02/24:   SPUD DATE
LATI.                                       58 28 19.00 N:   SURF. LATITUDE
LONG.                                        1 45 11.76 E:   SURF. LONGITUDE
PBWE.                                              15/9-1:   PB WELL ID
APIN.                                              15/9-1:   PB WELLBORE ID
PBWS.                                                 all:   PB WELL NAME SET
~PARAMETER INFORMATION (log)
LNAM.                              FDC/CNL/GR  COMPOSITED:   NAME
LTYP.                                         DEPTH MATCH:   LOG TYPE
LSRV.                                            DEN/NEUT:   LOG SERVICE
LSOU.                                             SPT/NPD:   LOG SOURCE
LVSN.                                                   1:   LOG VERSION
BHIS.                                                   R:   BRIEF HISTORY
FHIS.                                             RAW-LIS:   FULL HISTORY
LCNM.                                        SCHLUMBERGER:   LOGGING CONTRACTOR
TOOL.                             FDC/CNL/GR (COMPOSITED):   TOOL STRING
QCST.                                               final:   QC STATUS
~Curve Information Block
#MNEM.UNIT                                        API CODE    No Description
#=========                                        ========    == ===========
DEPT.M                                       00 001 00 00:     1  DEPTH
CALI.IN                                                  :     2  Caliper
DRHO.G/CC                                                :     3  Bulk density correction
GR.GAPI                                                  :     4  Gamma Ray
NPHI.%                                                   :     5  Neutron porosity
RHOB.G/CC                                                :     6  Bulk density
TENS.LB                                                  :     7  Cable Tension
~ASCII
# ...
 1272.7412    13.5854      .0468    67.5042  -999.2500     1.8276  -999.2500
 1272.8936    12.9449      .0269    69.1634  -999.2500     1.8222  -999.2500
 1273.0460    13.1752      .0424    69.8198  -999.2500     1.8616  -999.2500
 1273.1984    13.0662      .0680    71.1372  -999.2500     1.8889  -999.2500
 1273.3508    13.4370      .0729    70.5882  -999.2500     1.8849  -999.2500
 1273.5032    13.3029      .0765    69.1531  -999.2500     1.8759  -999.2500
 1273.6556    14.0085      .0590    69.6696  -999.2500     1.8614  -999.2500
 1273.8080    13.2833      .0648    68.9635  -999.2500     1.8625  -999.2500
 1273.9604    12.9531      .0664    65.8850  -999.2500     1.8590  -999.2500
 1274.1128    13.0292      .0399    63.6465  -999.2500     1.8223  -999.2500
 1274.2652    13.4699      .0277    64.1367  -999.2500     1.8177  -999.2500
 1274.4176    13.8072      .0318    64.4153  -999.2500     1.8453  -999.2500
 1274.5700    13.7500      .0329    64.7323  -999.2500     1.8630  -999.2500
 1274.7224    14.2338      .0479    63.5901  -999.2500     1.9020  -999.2500
 1274.8748    13.0111      .0336    57.6715  -999.2500     1.8773  -999.2500
 1275.0272    12.7689      .0203    58.3526  -999.2500     1.8414  -999.2500
 1275.1796    12.7728      .0285    60.7593  -999.2500     1.8319  -999.2500
 1275.3320    13.1170      .0400    61.4452  -999.2500     1.8256  -999.2500
 1275.4844    13.5231      .0688    59.1748  -999.2500     1.8391  -999.2500
 1275.6368    12.9662      .0550    57.3701  -999.2500     1.8304  -999.2500
 1275.7892    13.4802      .0515    57.0575  -999.2500     1.8466  -999.2500
 1275.9416    13.6306      .0655    56.0507  -999.2500     1.8853  -999.2500
 1276.0940    12.9907      .0745    57.3157  -999.2500     1.8933  -999.2500
 1276.2464    13.1293      .0882    59.6571  -999.2500     1.9038  -999.2500
 1276.3988    13.1593      .0786    60.3023  -999.2500     1.9099  -999.2500
 1276.5512    13.3212      .0734    59.2214  -999.2500     1.8973  -999.2500
 1276.7036    13.8509      .0378    57.1842  -999.2500     1.8589  -999.2500
 1276.8560    13.4432      .0365    55.9399  -999.2500     1.8524  -999.2500
 1277.0084    12.7038      .0602    53.0390  -999.2500     1.8705  -999.2500
 1277.1608    12.7179      .0783    51.6080  -999.2500     1.8676  -999.2500
 1277.3132    13.1534      .0733    52.4203  -999.2500     1.8642  -999.2500
 1277.4656    13.2689      .0644    53.9571  -999.2500     1.8780  -999.2500
 1277.6180    13.3536      .0488    54.9176  -999.2500     1.8741  -999.2500
 1277.7704    13.7981      .0572    55.5227  -999.2500     1.8893  -999.2500
 1277.9228    13.2970      .0580    55.9859  -999.2500     1.8823  -999.2500
 1278.0752    13.2226      .0360    54.6905  -999.2500     1.8464  -999.2500
 1278.2276    13.0430      .0200    53.6948  -999.2500     1.8211  -999.2500
 1278.3800    12.9897      .0222    52.2186  -999.2500     1.8142  -999.2500
 1278.5324    12.7178      .0436    51.7705  -999.2500     1.8187  -999.2500
 1278.6848    12.7793      .0390    52.6237  -999.2500     1.8067  -999.2500
 1278.8372    13.2120      .0609    52.9743  -999.2500     1.8100  -999.2500
 1278.9896    13.4403      .0504    53.4337  -999.2500     1.8060  -999.2500
 1279.1420    13.4037      .0380    54.8541  -999.2500     1.7998  -999.2500
 1279.2944    13.0191      .0293    54.4747  -999.2500     1.8168  -999.2500
 1279.4468    12.9390      .0228    53.7109  -999.2500     1.8232  -999.2500
 1279.5992    13.0059      .0178    53.4036  -999.2500     1.8228  -999.2500
 1279.7516    12.9955      .0186    52.2174  -999.2500     1.8235  -999.2500
 1279.9040    13.2293      .0293    53.2020  -999.2500     1.8558  -999.2500
 1280.0564    12.8289      .0281    51.6860  -999.2500     1.8808  -999.2500
 1280.2088    12.7172      .0072    49.3013  -999.2500     1.9209  -999.2500
 1280.3612    12.6731      .0403    47.9185  -999.2500     1.9854  -999.2500
 1280.5136    13.2836      .0637    48.7396  -999.2500     2.0244  -999.2500
 1280.6660    13.6005      .0629    51.2350  -999.2500     1.9594  -999.2500
 1280.8184    13.5164      .0658    53.1400  -999.2500     1.9360  -999.2500
 1280.9708    12.9505      .0528    53.5479  -999.2500     1.9320  -999.2500
 1281.1232    12.9223      .0366    53.0727  -999.2500     1.9433  -999.2500
 1281.2756    12.9056      .0149    52.3521  -999.2500     1.9418  -999.2500
 1281.4280    12.6759      .0112    52.1986  -999.2500     1.9302  -999.2500
 1281.5804    12.8609      .0263    49.8822  -999.2500     1.9263  -999.2500
 1281.7328    12.5705      .0597    49.2930  -999.2500     1.9364  -999.2500
 1281.8852    12.7484      .0800    52.2911  -999.2500     1.9308  -999.2500
 1282.0376    12.6980      .0779    54.0143  -999.2500     1.9329  -999.2500
 1282.1900    12.7106      .0502    53.7614  -999.2500     1.8989  -999.2500
 1282.3424    13.4594      .0592    52.1512  -999.2500     1.9195  -999.2500
 1282.4948    14.5289      .0468    51.7015  -999.2500     1.9279  -999.2500
 1282.6472    14.0438      .0649    51.7660  -999.2500     1.9417  -999.2500
 1282.7996    13.4963      .0609    51.2693  -999.2500     1.9256  -999.2500
 1282.9520    13.4345      .0714    52.2273  -999.2500     1.9204  -999.2500
 1283.1044    13.5248      .0889    53.7131  -999.2500     1.9318  -999.2500
 1283.2568    12.9620      .0799    52.9560  -999.2500     1.8995  -999.2500
 1283.4092    13.6743      .0883    52.0072  -999.2500     1.8973  -999.2500
 1283.5616    13.6331      .0651    52.4525  -999.2500     1.8693  -999.2500
 1283.7140    13.3532      .0445    52.1246  -999.2500     1.8356  -999.2500
 1283.8664    13.0250      .0250    53.5240  -999.2500     1.8131  -999.2500
 1284.0188    12.8840      .0223    52.7033  -999.2500     1.7888  -999.2500
 1284.1712    12.8626      .0237    53.9142  -999.2500     1.7709  -999.2500
 1284.3236    13.0887      .0335    56.9041  -999.2500     1.7738  -999.2500
 1284.4760    13.0834      .0362    56.1255  -999.2500     1.7478  -999.2500
 1284.6284    13.2972      .0238    53.7577  -999.2500     1.7242  -999.2500
 1284.7808    13.3039      .0357    51.4072  -999.2500     1.7415  -999.2500
 1284.9332    13.7585      .0530    49.3176  -999.2500     1.7724  -999.2500
 1285.0856    14.2562      .0462    47.3917  -999.2500     1.7753  -999.2500
 1285.2380    14.7471      .0363    47.7521  -999.2500     1.7494  -999.2500
 1285.3904    15.2111      .0278    50.6341  -999.2500     1.7237  -999.2500
 1285.5428    15.1032      .0251    53.5162  -999.2500     1.7122  -999.2500
 1285.6952    13.9931      .0355    56.0827  -999.2500     1.7385  -999.2500
 1285.8476    13.8550      .0314    56.7272  -999.2500     1.7706  -999.2500
 1286.0000    14.7045      .0299    56.8135  -999.2500     1.7689  -999.2500
 1286.1524    15.0256      .0199    57.8317  -999.2500     1.7403  -999.2500
 1286.3048    14.4464      .0140    58.3760  -999.2500     1.7148  -999.2500
 1286.4572    13.9299      .0190    61.2477  -999.2500     1.7096  -999.2500
 1286.6096    14.0838      .0354    62.9666  -999.2500     1.7568  -999.2500
 1286.7620    13.7154      .0552    62.1019  -999.2500     1.8071  -999.2500
 1286.9144    13.2654      .0585    60.8674  -999.2500     1.8073  -999.2500
 1287.0668    12.9119      .0355    59.5956  -999.2500     1.7878  -999.2500
 1287.2192    12.9560      .0470    59.5227  -999.2500     1.8333  -999.2500
 1287.3716    12.2112      .0603    59.3855  -999.2500     1.8868  -999.2500
 1287.5240    12.5603      .0483    61.2757  -999.2500     1.9179  -999.2500
 1287.6764    12.6550      .0510    60.7945  -999.2500     1.9405  -999.2500
 1287.8288    12.7723      .0447    63.7722  -999.2500     1.9311  -999.2500
 1287.9812    12.4929      .0610    67.0115  -999.2500     1.9090  -999.2500
 1288.1336    12.3366      .0482    66.4422  -999.2500     1.8751  -999.2500
 1288.2860    12.4651      .0322    64.9069  -999.2500     1.8324  -999.2500
 1288.4384    12.4080      .0230    64.3298  -999.2500     1.7970  -999.2500
