~VERSION INFORMATION
VERS.                                                 2.0:   CWLS Log ASCII Standard-VERSION 2.0
WRAP.                                                  NO:   One line per depth step
~Well Information Block
STRT.M                                           385.1636:   Top Depth
STOP.M                                          3744.9740:   Bottom Depth
STEP.M                                             .15240:   Depth Increment
NULL.                                            -999.250:   Null Value
FLD .                                             WILDCAT:   Field Name
WELL.                                              15/9-1:   NAME
WBN .                                              15/9-1:   WELLBORE
NATI.                                                 NOR:   COUNTRY
CTRY.                                                 NOR:   COUNTRY
COMP.                                             STATOIL:   OPERATOR
PROV.                                           NORTH SEA:   PROVINCE
COUN.                                            ROSS RIG:   RIG NAME
SPUD.                                          1977/02/24:   SPUD DATE
LATI.                                       58 28 19.00 N:   SURF. LATITUDE
LONG.                                        1 45 11.76 E:   SURF. LONGITUDE
PBWE.                                              15/9-1:   PB WELL ID
APIN.                                              15/9-1:   PB WELLBORE ID
PBWS.                                                 all:   PB WELL NAME SET
~PARAMETER INFORMATION (log)
LNAM.                              FDC/CNL/GR  COMPOSITED:   NAME
LTYP.                                         DEPTH MATCH:   LOG TYPE
LSRV.                                            DEN/NEUT:   LOG SERVICE
LSOU.                                             SPT/NPD:   LOG SOURCE
LVSN.                                                   1:   LOG VERSION
BHIS.                                                   R:   BRIEF HISTORY
FHIS.                                             RAW-LIS:   FULL HISTORY
LCNM.                                        SCHLUMBERGER:   LOGGING CONTRACTOR
TOOL.                             FDC/CNL/GR (COMPOSITED):   TOOL STRING
QCST.                                               final:   QC STATUS
~Curve Information Block
#MNEM.UNIT                                        API CODE    No Description
#=========                                        ========    == ===========
DEPT.M                                       00 001 00 00:     1  DEPTH
CALI.IN                                                  :     2  Caliper
DRHO.G/CC                                                :     3  Bulk density correction
GR.GAPI                                                  :     4  Gamma Ray
NPHI.%                                                   :     5  Neutron porosity
RHOB.G/CC                                                :     6  Bulk density
TENS.LB                                                  :     7  Cable Tension
~ASCII
# ...
 2841.8516    12.5365      .0197    13.9984  -999.2500     2.5579  -999.2500
 2842.0040    12.5550      .0072    13.2177  -999.2500     2.5502  -999.2500
 2842.1564    12.5284     -.0050    11.7337  -999.2500     2.5330  -999.2500
 2842.3088    12.4922     -.0093    10.1673  -999.2500     2.5256  -999.2500
 2842.4612    12.4706      .0034     9.3126  -999.2500     2.5487  -999.2500
 2842.6136    12.4687      .0111     9.2313  -999.2500     2.5789  -999.2500
 2842.7660    12.4770      .0031     9.8244  -999.2500     2.5841  -999.2500
 2842.9184    12.4856      .0195    10.3551  -999.2500     2.5950  -999.2500
 2843.0708    12.5262      .0118    11.7615  -999.2500     2.5912  -999.2500
 2843.2232    12.5611      .0013    12.5587  -999.2500     2.5775  -999.2500
 2843.3756    12.5382     -.0079    12.2535  -999.2500     2.5517  -999.2500
 2843.5280    12.5080      .0013    11.3635  -999.2500     2.5499  -999.2500
 2843.6804    12.5012      .0021    10.4717  -999.2500     2.5455  -999.2500
 2843.8328    12.5365     -.0052    10.1678  -999.2500     2.5282  -999.2500
 2843.9852    12.5402     -.0018    10.4168  -999.2500     2.5478  -999.2500
 2844.1376    12.5332      .0043    11.1653  -999.2500     2.5558  -999.2500
 2844.2900    12.5262      .0067    10.5629  -999.2500     2.5547  -999.2500
 2844.4424    12.5262     -.0034     9.5933  -999.2500     2.5457  -999.2500
 2844.5948    12.5264      .0047     9.0050  -999.2500     2.5543  -999.2500
 2844.7472    12.5257     -.0011     9.4012  -999.2500     2.5694  -999.2500
 2844.8996    12.5266     -.0110    10.3467  -999.2500     2.5858  -999.2500
 2845.0520    12.5268     -.0166    10.8313  -999.2500     2.5966  -999.2500
 2845.2044    12.5070     -.0054    10.7011  -999.2500     2.5933  -999.2500
 2845.3568    12.4776     -.0028    10.3703  -999.2500     2.5745  -999.2500
 2845.5092    12.4535     -.0097    10.6982  -999.2500     2.5614  -999.2500
 2845.6616    12.4790     -.0074    11.3405  -999.2500     2.5785  -999.2500
 2845.8140    12.5061     -.0110    10.3042  -999.2500     2.5989  -999.2500
 2845.9664    12.5268      .0031    10.3387  -999.2500     2.5765  -999.2500
 2846.1188    12.5471      .0162    12.7756  -999.2500     2.5680  -999.2500
 2846.2712    12.5281      .0083    13.9626  -999.2500     2.5668  -999.2500
 2846.4236    12.5080      .0006    11.6186  -999.2500     2.5489  -999.2500
 2846.5760    12.4611      .0101     9.0307  -999.2500     2.5758  -999.2500
 2846.7284    12.4285      .0209     8.8973  -999.2500     2.5821  -999.2500
 2846.8808    12.4287      .0139     9.4281  -999.2500     2.5728  -999.2500
 2847.0332    12.4659      .0019    10.6688  -999.2500     2.5394  -999.2500
 2847.1856    12.5087      .0031    11.8786  -999.2500     2.5456  -999.2500
 2847.3380    12.4542      .0106    11.1994  -999.2500     2.5695  -999.2500
 2847.4904    12.4449      .0099    10.0972  -999.2500     2.5921  -999.2500
 2847.6428    12.4875      .0043     9.5770  -999.2500     2.5817  -999.2500
 2847.7952    12.4408      .0031     9.2105  -999.2500     2.5688  -999.2500
 2847.9476    12.4144      .0067     8.2841  -999.2500     2.5861  -999.2500
 2848.1000    12.4239      .0091     8.4332  -999.2500     2.5925  -999.2500
 2848.2524    12.4695      .0114    10.0165  -999.2500     2.5943  -999.2500
 2848.4048    12.5153      .0250    10.2626  -999.2500     2.5921  -999.2500
 2848.5572    12.5487      .0126    11.1353  -999.2500     2.5654  -999.2500
 2848.7096    12.4980     -.0022    12.3505  -999.2500     2.5500  -999.2500
 2848.8620    12.4515     -.0047    12.3778  -999.2500     2.5549  -999.2500
 2849.0144    12.4401      .0036    11.0902  -999.2500     2.5674  -999.2500
 2849.1668    12.4632      .0174     9.7875  -999.2500     2.5633  -999.2500
 2849.3192    12.4854      .0184     9.4347  -999.2500     2.5674  -999.2500
 2849.4716    12.4622      .0122    11.2130  -999.2500     2.5736  -999.2500
 2849.6240    12.4332      .0267    12.9912  -999.2500     2.5896  -999.2500
 2849.7764    12.4130      .0316    13.3812  -999.2500     2.5917  -999.2500
 2849.9288    12.3920      .0099    12.5788  -999.2500     2.5667  -999.2500
 2850.0812    12.3990      .0034    12.9886  -999.2500     2.5363  -999.2500
 2850.2336    12.4046      .0249    12.5106  -999.2500     2.5180  -999.2500
 2850.3860    12.3461      .0147    13.0333  -999.2500     2.5328  -999.2500
 2850.5384    12.3341      .0027    13.4289  -999.2500     2.5387  -999.2500
 2850.6908    12.3377      .0265    11.6328  -999.2500     2.5630  -999.2500
 2850.8432    12.3427      .0282    10.0240  -999.2500     2.5796  -999.2500
 2850.9956    12.3477      .0273     9.4437  -999.2500     2.5773  -999.2500
 2851.1480    12.3526      .0068     9.5118  -999.2500     2.5548  -999.2500
 2851.3004    12.3564     -.0022     9.7386  -999.2500     2.5373  -999.2500
 2851.4528    12.3569     -.0061     9.3304  -999.2500     2.5257  -999.2500
 2851.6052    12.3513      .0078     8.6271  -999.2500     2.5358  -999.2500
 2851.7576    12.3379      .0068     9.9456  -999.2500     2.5419  -999.2500
 2851.9100    12.3383      .0225    11.5737  -999.2500     2.5448  -999.2500
 2852.0624    12.3388      .0147    12.3222  -999.2500     2.5307     4.3041
 2852.2148    12.3393      .0076    12.2977  -999.2500     2.5157     2.1233
 2852.3672    12.3398     -.0002    11.2867  -999.2500     2.5112     -.0575
 2852.5196    12.3717      .0048    10.4563  -999.2500     2.5108      .3283
 2852.6720    12.4168      .0268    12.0464  -999.2500     2.5238     1.3359
 2852.8244    12.3652      .0205    13.6195  -999.2500     2.5190     2.3435
 2852.9768    12.3417      .0004    14.9796  -999.2500     2.4940     3.3511
 2853.1292    12.3422     -.0038    16.2649  -999.2500     2.4993     4.3604
 2853.2816    12.3444      .0037    17.3982  -999.2500     2.5073     2.5586
 2853.4340    12.3583      .0086    16.2150  -999.2500     2.5088      .7568
 2853.5864    12.3635      .0100    13.0741  -999.2500     2.4826    -1.1446
 2853.7388    12.3703      .0181    11.3821  -999.2500     2.4610    -3.4919
 2853.8912    12.3784      .0322    11.7473  -999.2500     2.4707    -5.8743
 2854.0436    12.3849      .0172    11.2160  -999.2500     2.4769    -9.2524
 2854.1960    12.3854      .0161    11.0945  -999.2500     2.4944    -9.1980
 2854.3484    12.3835      .0020    11.5993  -999.2500     2.5008    -6.2203
 2854.5008    12.3798     -.0017    11.7462  -999.2500     2.4911   -83.1114
 2854.6532    12.3761      .0133    11.6381  -999.2500     2.4839   -81.9535
 2854.8056    12.3724      .0221    12.2147  -999.2500     2.4896   -85.5495
 2854.9580    12.3687      .0100    13.4482  -999.2500     2.4999   -85.3088
 2855.1104    12.3683     -.0011    13.8625  -999.2500     2.5049   -85.0676
 2855.2628    12.3688      .0141    13.2882  -999.2500     2.5051   -84.8268
 2855.4152    12.3692      .0078    12.5559  -999.2500     2.4568   -84.5860
 2855.5676    12.3697      .0130    13.3009  -999.2500     2.4413   -84.3452
 2855.7200    12.3702      .0122    14.3291  -999.2500     2.4257   -84.1044
 2855.8724    12.3707      .0090    14.7586  -999.2500     2.4129   -83.8633
 2856.0248    12.3711      .0137    14.7599  -999.2500     2.4221   -83.6225
 2856.1772    12.3813      .0081    13.6316  -999.2500     2.4357   -83.3817
 2856.3296    12.3920      .0075    13.4189  -999.2500     2.4381   -83.1409
 2856.4820    12.3925      .0367    13.7958  -999.2500     2.4603   -82.8997
 2856.6344    12.3930      .0347    13.9018  -999.2500     2.4670   -82.6589
 2856.7868    12.3934      .0047    13.2918  -999.2500     2.4429   -82.4181
 2856.9392    12.3939      .0167    12.3930  -999.2500     2.4498   -82.1774
 2857.0916    12.3944      .0152    11.6518  -999.2500     2.4585   -81.9362
 2857.2440    12.3949      .0154    12.1515  -999.2500     2.4519   -81.6954
 2857.3964    12.3953      .0015    12.7002  -999.2500     2.4523   -81.4546
 2857.5488    12.3948      .0228    13.1430  -999.2500     2.4781   -58.7294
