~VERSION INFORMATION
VERS.                                                 2.0:   CWLS Log ASCII Standard-VERSION 2.0
WRAP.                                                  NO:   One line per depth step
~Well Information Block
STRT.M                                           385.1636:   Top Depth
STOP.M                                          3744.9740:   Bottom Depth
STEP.M                                             .15240:   Depth Increment
NULL.                                            -999.250:   Null Value
FLD .                                             WILDCAT:   Field Name
WELL.                                              15/9-1:   NAME
WBN .                                              15/9-1:   WELLBORE
NATI.                                                 NOR:   COUNTRY
CTRY.                                                 NOR:   COUNTRY
COMP.                                             STATOIL:   OPERATOR
PROV.                                           NORTH SEA:   PROVINCE
COUN.                                            ROSS RIG:   RIG NAME
SPUD.                                          1977/02/24:   SPUD DATE
LATI.                                       58 28 19.00 N:   SURF. LATITUDE
LONG.                                        1 45 11.76 E:   SURF. LONGITUDE
PBWE.                                              15/9-1:   PB WELL ID
APIN.                                              15/9-1:   PB WELLBORE ID
PBWS.                                                 all:   PB WELL NAME SET
~PARAMETER INFORMATION (log)
LNAM.                              FDC/CNL/GR  COMPOSITED:   NAME
LTYP.                                         DEPTH MATCH:   LOG TYPE
LSRV.                                            DEN/NEUT:   LOG SERVICE
LSOU.                                             SPT/NPD:   LOG SOURCE
LVSN.                                                   1:   LOG VERSION
BHIS.                                                   R:   BRIEF HISTORY
FHIS.                                             RAW-LIS:   FULL HISTORY
LCNM.                                        SCHLUMBERGER:   LOGGING CONTRACTOR
TOOL.                             FDC/CNL/GR (COMPOSITED):   TOOL STRING
QCST.                                               final:   QC STATUS
~Curve Information Block
#MNEM.UNIT                                        API CODE    No Description
#=========                                        ========    == ===========
DEPT.M                                       00 001 00 00:     1  DEPTH
CALI.IN                                                  :     2  Caliper
DRHO.G/CC                                                :     3  Bulk density correction
GR.GAPI                                                  :     4  Gamma Ray
NPHI.%                                                   :     5  Neutron porosity
RHOB.G/CC                                                :     6  Bulk density
TENS.LB                                                  :     7  Cable Tension
~ASCII
# ...
 3063.7460     9.2124      .0192    15.2580  -999.2500     2.5630   241.5789
 3063.8984     9.2156      .0201    16.5084  -999.2500     2.5719   249.0088
 3064.0508     9.2188      .0075    15.9187  -999.2500     2.5666   299.8895
 3064.2032     9.2202      .0051    15.6244  -999.2500     2.5655   317.7310
 3064.3556     9.2207      .0088    14.4523  -999.2500     2.5710   257.4339
 3064.5080     9.2213      .0016    13.3837  -999.2500     2.5545   280.2690
 3064.6604     9.2218      .0016    13.3882  -999.2500     2.5402   231.8741
 3064.8128     9.2223      .0080    13.5712  -999.2500     2.5551   222.9787
 3064.9652     9.2229      .0111    14.2120  -999.2500     2.5650   252.0241
 3065.1176     9.2234      .0120    15.8258  -999.2500     2.5614   308.5138
 3065.2700     9.2239      .0124    16.6873  -999.2500     2.5502   235.9870
 3065.4224     9.2245      .0117    16.5668  -999.2500     2.5575   207.2827
 3065.5748     9.2250      .0130    16.5727  -999.2500     2.5665   217.4807
 3065.7272     9.2255      .0103    16.9539  -999.2500     2.5741   248.3939
 3065.8796     9.2261      .0033    18.3036  -999.2500     2.5584   226.3543
 3066.0320     9.2266      .0204    19.2756  -999.2500     2.5730   239.5798
 3066.1844     9.2271      .0380    19.8431  -999.2500     2.6021   309.4105
 3066.3368     9.2294      .0120    19.7155  -999.2500     2.5644   304.3737
 3066.4892     9.2323     -.0038    18.9504  -999.2500     2.5339   289.2587
 3066.6416     9.2352     -.0010    17.9019  -999.2500     2.5416   279.0707
 3066.7940     9.2380      .0036    16.7920  -999.2500     2.5490   270.2374
 3066.9464     9.2409      .0082    16.4179  -999.2500     2.5477   230.4452
 3067.0988     9.2437      .0128    15.6480  -999.2500     2.5322   175.1225
 3067.2512     9.2466      .0182    14.0579  -999.2500     2.5321   198.7565
 3067.4036     9.2495      .0116    14.6626  -999.2500     2.5301   212.4850
 3067.5560     9.2512      .0009    15.4085  -999.2500     2.5116   232.3958
 3067.7084     9.2493      .0007    14.5027  -999.2500     2.4891   277.6856
 3067.8608     9.2474      .0039    14.6599  -999.2500     2.4888   251.8894
 3068.0132     9.2455      .0113    15.6524  -999.2500     2.5338   209.2613
 3068.1656     9.2436      .0111    16.7532  -999.2500     2.5547   124.2958
 3068.3180     9.2417      .0033    17.8411  -999.2500     2.5634   196.8046
 3068.4704     9.2398      .0058    18.8396  -999.2500     2.5564   490.1517
 3068.6228     9.2379      .0087    19.7807  -999.2500     2.5781   574.1273
 3068.7752     9.2361      .0115    20.5196  -999.2500     2.5751   477.1901
 3068.9276     9.2367      .0130    20.7606  -999.2500     2.5665   335.5952
 3069.0800     9.2372      .0097    20.4641  -999.2500     2.5797   215.6841
 3069.2324     9.2377      .0026    19.4919  -999.2500     2.5540   272.2302
 3069.3848     9.2383      .0065    17.8704  -999.2500     2.5497   353.7529
 3069.5372     9.2388      .0081    17.2059  -999.2500     2.5589   280.0745
 3069.6896     9.2393      .0018    17.0510  -999.2500     2.5659   168.0735
 3069.8420     9.2398     -.0028    18.2560  -999.2500     2.5765   184.2153
 3069.9944     9.2404     -.0065    17.1904  -999.2500     2.5784   328.0161
 3070.1468     9.2409     -.0078    16.8589  -999.2500     2.5685   432.1755
 3070.2992     9.2414     -.0044    17.6741  -999.2500     2.5806   305.9485
 3070.4516     9.2419     -.0008    17.6198  -999.2500     2.5898   311.9599
 3070.6040     9.2425      .0041    16.8489  -999.2500     2.5833   276.9265
 3070.7564     9.2430      .0100    16.8332  -999.2500     2.5711   176.5173
 3070.9088     9.2435      .0151    17.7822  -999.2500     2.5605   -12.2510
 3071.0612     9.2451      .0063    19.1977  -999.2500     2.5223   116.7868
 3071.2136     9.2479      .0208    19.9422  -999.2500     2.5059   588.7814
 3071.3660     9.2507      .0186    19.7898  -999.2500     2.4951   958.3525
 3071.5184     9.2535      .0034    18.9364  -999.2500     2.4781   828.9491
 3071.6708     9.2563     -.0019    18.0765  -999.2500     2.4858   744.8029
 3071.8232     9.2592     -.0028    18.0037  -999.2500     2.4812   628.4401
 3071.9756     9.2620     -.0005    18.5249  -999.2500     2.4982   506.4874
 3072.1280     9.2648      .0025    17.7083  -999.2500     2.5191   378.0751
 3072.2804     9.2676      .0086    16.1446  -999.2500     2.5252   262.9087
 3072.4328     9.2664      .0167    15.6455  -999.2500     2.5380   187.0872
 3072.5852     9.2643      .0055    16.0875  -999.2500     2.5534   198.5276
 3072.7376     9.2621      .0115    16.3425  -999.2500     2.5549   230.5829
 3072.8900     9.2599      .0035    15.1717  -999.2500     2.5360   178.6884
 3073.0424     9.2578     -.0032    15.2326  -999.2500     2.5056   160.9753
 3073.1948     9.2556      .0017    16.0637  -999.2500     2.4982   228.7623
 3073.3472     9.2534      .0187    17.6781  -999.2500     2.5131   200.1148
 3073.4996     9.2513      .0146    18.8182  -999.2500     2.4848     9.6898
 3073.6520     9.2492      .0056    19.7539  -999.2500     2.4652   153.9880
 3073.8044     9.2471      .0077    21.1279  -999.2500     2.4608   839.2230
 3073.9568     9.2450      .0036    22.4855  -999.2500     2.4444   935.6680
 3074.1092     9.2429      .0066    24.5580  -999.2500     2.4605   789.7965
 3074.2616     9.2408      .0117    24.8966  -999.2500     2.4731   641.4469
 3074.4140     9.2387      .0190    25.6263  -999.2500     2.4892   500.0549
 3074.5664     9.2365      .0123    25.7093  -999.2500     2.4929   366.3233
 3074.7188     9.2388      .0060    24.0380  -999.2500     2.4987   232.0549
 3074.8712     9.2416      .0056    23.8577  -999.2500     2.5154   142.0825
 3075.0236     9.2444      .0113    22.2525  -999.2500     2.5227   165.3037
 3075.1760     9.2472      .0119    20.3019  -999.2500     2.5253   244.8319
 3075.3284     9.2500      .0061    19.6865  -999.2500     2.5205   308.7069
 3075.4808     9.2529      .0039    18.6748  -999.2500     2.5169   266.5352
 3075.6332     9.2557      .0039    17.7030  -999.2500     2.5138   238.3176
 3075.7856     9.2585      .0039    17.5570  -999.2500     2.5010   185.5927
 3075.9380     9.2566      .0033    17.0314  -999.2500     2.5092   281.6722
 3076.0904     9.2520      .0012    16.3532  -999.2500     2.5201   274.8440
 3076.2428     9.2475     -.0060    15.2605  -999.2500     2.5240   396.0421
 3076.3952     9.2430     -.0043    14.4509  -999.2500     2.5174   288.3913
 3076.5476     9.2384      .0011    15.0559  -999.2500     2.5453   123.5629
 3076.7000     9.2339      .0011    15.6606  -999.2500     2.5472    60.0309
 3076.8524     9.2294      .0016    16.9382  -999.2500     2.5536   320.0397
 3077.0048     9.2249      .0022    17.8162  -999.2500     2.5633   754.5796
 3077.1572     9.2242      .0051    17.5843  -999.2500     2.5767   651.0277
 3077.3096     9.2266      .0087    17.4271  -999.2500     2.5886   519.6627
 3077.4620     9.2291      .0155    17.6973  -999.2500     2.5720   382.2446
 3077.6144     9.2316      .0262    17.3609  -999.2500     2.5871   254.6156
 3077.7668     9.2340      .0331    16.7260  -999.2500     2.6100   260.3135
 3077.9192     9.2365      .0301    17.3845  -999.2500     2.6149   285.5253
 3078.0716     9.2390      .0244    17.7964  -999.2500     2.6134   265.9713
 3078.2240     9.2414      .0321    17.2853  -999.2500     2.6063   201.9163
 3078.3764     9.2439      .0424    17.0576  -999.2500     2.6148   193.6218
 3078.5288     9.2464      .0271    17.0152  -999.2500     2.5951   216.6020
 3078.6812     9.2488      .0036    17.1300  -999.2500     2.5606   240.4805
 3078.8336     9.2513      .0134    17.4223  -999.2500     2.5679   196.6927
 3078.9860     9.2538      .0178    17.1935  -999.2500     2.5731   162.8069
 3079.1384     9.2562      .0123    15.8893  -999.2500     2.5698   222.9137
 3079.2908     9.2587      .0087    15.0531  -999.2500     2.5607   269.1359
 3079.4432     9.2612      .0075    16.1108  -999.2500     2.5570   232.5092
