~VERSION INFORMATION
VERS.                                                 2.0:   CWLS Log ASCII Standard-VERSION 2.0
WRAP.                                                  NO:   One line per depth step
~Well Information Block
STRT.M                                           385.1636:   Top Depth
STOP.M                                          3744.9740:   Bottom Depth
STEP.M                                             .15240:   Depth Increment
NULL.                                            -999.250:   Null Value
FLD .                                             WILDCAT:   Field Name
WELL.                                              15/9-1:   NAME
WBN .                                              15/9-1:   WELLBORE
NATI.                                                 NOR:   COUNTRY
CTRY.                                                 NOR:   COUNTRY
COMP.                                             STATOIL:   OPERATOR
PROV.                                           NORTH SEA:   PROVINCE
COUN.                                            ROSS RIG:   RIG NAME
SPUD.                                          1977/02/24:   SPUD DATE
LATI.                                       58 28 19.00 N:   SURF. LATITUDE
LONG.                                        1 45 11.76 E:   SURF. LONGITUDE
PBWE.                                              15/9-1:   PB WELL ID
APIN.                                              15/9-1:   PB WELLBORE ID
PBWS.                                                 all:   PB WELL NAME SET
~PARAMETER INFORMATION (log)
LNAM.                              FDC/CNL/GR  COMPOSITED:   NAME
LTYP.                                         DEPTH MATCH:   LOG TYPE
LSRV.                                            DEN/NEUT:   LOG SERVICE
LSOU.                                             SPT/NPD:   LOG SOURCE
LVSN.                                                   1:   LOG VERSION
BHIS.                                                   R:   BRIEF HISTORY
FHIS.                                             RAW-LIS:   FULL HISTORY
LCNM.                                        SCHLUMBERGER:   LOGGING CONTRACTOR
TOOL.                             FDC/CNL/GR (COMPOSITED):   TOOL STRING
QCST.                                               final:   QC STATUS
~Curve Information Block
#MNEM.UNIT                                        API CODE    No Description
#=========                                        ========    == ===========
DEPT.M                                       00 001 00 00:     1  DEPTH
CALI.IN                                                  :     2  Caliper
DRHO.G/CC                                                :     3  Bulk density correction
GR.GAPI                                                  :     4  Gamma Ray
NPHI.%                                                   :     5  Neutron porosity
RHOB.G/CC                                                :     6  Bulk density
TENS.LB                                                  :     7  Cable Tension
~ASCII
# ...
  828.9524    19.9630      .0545    29.3402  -999.2500     1.8823  -999.2500
  829.1048    19.0233      .0242    32.3002  -999.2500     1.9120  -999.2500
  829.2572    19.0284      .0389    34.5713  -999.2500     1.9354  -999.2500
  829.4096    19.0574      .0498    32.3295  -999.2500     1.9511  -999.2500
  829.5620    18.6559      .0278    29.5681  -999.2500     1.9456  -999.2500
  829.7144    18.3628      .0157    30.6404  -999.2500     1.9685  -999.2500
  829.8668    18.2411      .0272    33.4135  -999.2500     1.9806  -999.2500
  830.0192    18.6446      .0591    34.7118  -999.2500     2.0032  -999.2500
  830.1716    18.9699      .0867    32.7478  -999.2500     1.9737  -999.2500
  830.3240    18.5944      .0682    30.7839  -999.2500     1.9453  -999.2500
  830.4764    18.0861      .0456    32.1518  -999.2500     1.9606  -999.2500
  830.6288    17.9345      .0254    35.0154  -999.2500     1.9791  -999.2500
  830.7812    17.9187      .0334    35.0120  -999.2500     1.9970  -999.2500
  830.9336    17.9912      .0251    33.3403  -999.2500     2.0016  -999.2500
  831.0860    17.9194      .0290    32.1431  -999.2500     2.0115  -999.2500
  831.2384    17.8092      .0263    33.4710  -999.2500     2.0079  -999.2500
  831.3908    17.8747      .0259    31.5205  -999.2500     1.9953  -999.2500
  831.5432    17.9908      .0356    28.6022  -999.2500     1.9992  -999.2500
  831.6956    18.1848      .0536    28.3914  -999.2500     2.0079  -999.2500
  831.8480    18.5891      .0858    29.8363  -999.2500     2.0194  -999.2500
  832.0004    18.9669      .0961    30.5735  -999.2500     2.0205  -999.2500
  832.1528    18.9775      .0857    28.9567  -999.2500     2.0014  -999.2500
  832.3052    18.9609      .0827    26.4033  -999.2500     1.9887  -999.2500
  832.4576    18.9442      .0584    27.6825  -999.2500     1.9635  -999.2500
  832.6100    18.7561      .0358    28.7828  -999.2500     1.9517  -999.2500
  832.7624    18.7360      .0620    28.3636  -999.2500     1.9673  -999.2500
  832.9148    18.9615      .0609    28.3896  -999.2500     1.9726  -999.2500
  833.0672    18.5399      .0510    29.2895  -999.2500     1.9508  -999.2500
  833.2196    17.9429      .0318    29.8318  -999.2500     1.9570  -999.2500
  833.3720    18.0271      .0603    30.5613  -999.2500     1.9941  -999.2500
  833.5244    18.0574      .0587    31.8923  -999.2500     1.9889  -999.2500
  833.6768    18.1119      .0280    31.2720  -999.2500     1.9667  -999.2500
  833.8292    18.5321      .0187    30.1308  -999.2500     1.9708  -999.2500
  833.9816    19.5757      .0240    29.3759  -999.2500     1.9688  -999.2500
  834.1340    20.2521      .0415    28.6565  -999.2500     1.9774  -999.2500
  834.2864    19.3748      .0573    29.5145  -999.2500     1.9817  -999.2500
  834.4388    19.0590      .0474    28.9628  -999.2500     1.9602  -999.2500
  834.5912    18.9738      .0422    27.9468  -999.2500     1.9530  -999.2500
  834.7436    18.8824      .0518    27.2423  -999.2500     1.9561  -999.2500
  834.8960    18.8109      .0662    27.5485  -999.2500     1.9654  -999.2500
  835.0484    18.7498      .0765    29.1043  -999.2500     1.9808  -999.2500
  835.2008    18.8994      .0643    30.0972  -999.2500     1.9919  -999.2500
  835.3532    19.3096      .0506    29.2783  -999.2500     1.9936  -999.2500
  835.5056    19.4186      .0448    28.6770  -999.2500     1.9968  -999.2500
  835.6580    19.6267      .0582    30.2445  -999.2500     1.9965  -999.2500
  835.8104    19.7348      .0514    31.1312  -999.2500     1.9816  -999.2500
  835.9628    19.7494      .0613    29.4099  -999.2500     1.9852  -999.2500
  836.1152    19.7639      .0502    27.3796  -999.2500     1.9633  -999.2500
  836.2676    19.8166      .0438    26.0044  -999.2500     1.9533  -999.2500
  836.4200    19.8876      .0674    27.5579  -999.2500     1.9583  -999.2500
  836.5724    19.8334      .0928    30.2328  -999.2500     1.9522  -999.2500
  836.7248    19.4858      .0747    30.5047  -999.2500     1.9115  -999.2500
  836.8772    19.1106      .0405    31.2708  -999.2500     1.9069  -999.2500
  837.0296    18.9171      .0246    30.6665  -999.2500     1.9399  -999.2500
  837.1820    18.9521      .0264    28.6349  -999.2500     1.9581  -999.2500
  837.3344    19.3209      .0718    26.4787  -999.2500     1.9558  -999.2500
  837.4868    20.0407      .1229    26.0343  -999.2500     1.9501  -999.2500
  837.6392    20.9366      .1423    28.2235  -999.2500     1.8593  -999.2500
  837.7916    22.6849      .1044    29.8509  -999.2500     1.8094  -999.2500
  837.9440    22.6925      .0715    29.4613  -999.2500     1.8185  -999.2500
  838.0964    22.3390      .0638    28.6478  -999.2500     1.8326  -999.2500
  838.2488    21.1634      .0573    28.8476  -999.2500     1.8286  -999.2500
  838.4012    20.0645      .0210    28.4059  -999.2500     1.8064  -999.2500
  838.5536    19.9427      .0161    28.6671  -999.2500     1.8097  -999.2500
  838.7060    19.6480      .0422    29.6976  -999.2500     1.8082  -999.2500
  838.8584    19.0590      .0155    30.7282  -999.2500     1.7778  -999.2500
  839.0108    18.9946      .0397    31.4960  -999.2500     1.7508  -999.2500
  839.1632    18.6184      .0320    32.5425  -999.2500     1.6934  -999.2500
  839.3156    18.5922      .0168    34.8285  -999.2500     1.6690  -999.2500
  839.4680    18.1779      .0528    36.2094  -999.2500     1.7469  -999.2500
  839.6204    17.9942      .0293    38.4668  -999.2500     1.8651  -999.2500
  839.7728    17.6470      .0206    41.0307  -999.2500     1.9934  -999.2500
  839.9252    17.6753      .0174    40.2511  -999.2500     2.0626  -999.2500
  840.0776    17.7398      .0312    37.5672  -999.2500     2.0695  -999.2500
  840.2300    17.7882      .0319    34.8822  -999.2500     2.0157  -999.2500
  840.3824    17.5520      .0051    34.9552  -999.2500     1.9708  -999.2500
  840.5348    17.4845      .0017    37.5102  -999.2500     1.9620  -999.2500
  840.6872    17.8981      .0105    36.3540  -999.2500     1.9613  -999.2500
  840.8396    18.2269      .0326    32.6860  -999.2500     1.9692  -999.2500
  840.9920    18.0336      .0631    32.6845  -999.2500     1.9731  -999.2500
  841.1444    18.2244      .0626    30.6507  -999.2500     1.9656  -999.2500
  841.2968    18.8447      .0655    28.6169  -999.2500     1.9659  -999.2500
  841.4492    18.9825      .0573    26.6670  -999.2500     1.9370  -999.2500
  841.6016    18.7738      .0418    26.6651  -999.2500     1.9099  -999.2500
  841.7540    18.6110      .0272    29.7780  -999.2500     1.8828  -999.2500
  841.9064    18.6226      .0379    33.1264  -999.2500     1.8690  -999.2500
  842.0588    18.5058      .0544    36.4736  -999.2500     1.8723  -999.2500
  842.2112    18.0208      .0303    39.5409  -999.2500     1.8869  -999.2500
  842.3636    18.0871     -.0074    37.9227  -999.2500     1.9279  -999.2500
  842.5160    17.6652     -.0127    35.2350  -999.2500     1.9750  -999.2500
  842.6684    17.5208     -.0040    34.6959  -999.2500     1.9947  -999.2500
  842.8208    17.6238      .0028    34.2862  -999.2500     2.0026  -999.2500
  842.9732    17.6260      .0043    31.7759  -999.2500     1.9922  -999.2500
  843.1256    17.7591      .0120    29.2552  -999.2500     1.9973  -999.2500
  843.2780    17.8148      .0201    29.2776  -999.2500     1.9903  -999.2500
  843.4304    17.9401      .0392    32.4848  -999.2500     2.0024  -999.2500
  843.5828    18.3394      .0501    34.5965  -999.2500     2.0123  -999.2500
  843.7352    18.4597      .0412    33.2436  -999.2500     2.0055  -999.2500
  843.8876    18.6897      .0454    31.1935  -999.2500     2.0059  -999.2500
  844.0400    18.9614      .0286    30.1386  -999.2500     1.9990  -999.2500
  844.1924    18.3809      .0167    30.3973  -999.2500     1.9785  -999.2500
  844.3448    17.8069      .0309    32.6510  -999.2500     1.9837  -999.2500
  844.4972    17.3336      .0423    33.4176  -999.2500     1.9831  -999.2500
  844.6496    16.9430      .0304    32.5990  -999.2500     1.9700  -999.2500
