~VERSION INFORMATION
VERS.                                                 2.0:   CWLS Log ASCII Standard-VERSION 2.0
WRAP.                                                  NO:   One line per depth step
~Well Information Block
STRT.M                                           385.1636:   Top Depth
STOP.M                                          3744.9740:   Bottom Depth
STEP.M                                             .15240:   Depth Increment
NULL.                                            -999.250:   Null Value
FLD .                                             WILDCAT:   Field Name
WELL.                                              15/9-1:   NAME
WBN .                                              15/9-1:   WELLBORE
NATI.                                                 NOR:   COUNTRY
CTRY.                                                 NOR:   COUNTRY
COMP.                                             STATOIL:   OPERATOR
PROV.                                           NORTH SEA:   PROVINCE
COUN.                                            ROSS RIG:   RIG NAME
SPUD.                                          1977/02/24:   SPUD DATE
LATI.                                       58 28 19.00 N:   SURF. LATITUDE
LONG.                                        1 45 11.76 E:   SURF. LONGITUDE
PBWE.                                              15/9-1:   PB WELL ID
APIN.                                              15/9-1:   PB WELLBORE ID
PBWS.                                                 all:   PB WELL NAME SET
~PARAMETER INFORMATION (log)
LNAM.                              FDC/CNL/GR  COMPOSITED:   NAME
LTYP.                                         DEPTH MATCH:   LOG TYPE
LSRV.                                            DEN/NEUT:   LOG SERVICE
LSOU.                                             SPT/NPD:   LOG SOURCE
LVSN.                                                   1:   LOG VERSION
BHIS.                                                   R:   BRIEF HISTORY
FHIS.                                             RAW-LIS:   FULL HISTORY
LCNM.                                        SCHLUMBERGER:   LOGGING CONTRACTOR
TOOL.                             FDC/CNL/GR (COMPOSITED):   TOOL STRING
QCST.                                               final:   QC STATUS
~Curve Information Block
#MNEM.UNIT                                        API CODE    No Description
#=========                                        ========    == ===========
DEPT.M                                       00 001 00 00:     1  DEPTH
CALI.IN                                                  :     2  Caliper
DRHO.G/CC                                                :     3  Bulk density correction
GR.GAPI                                                  :     4  Gamma Ray
NPHI.%                                                   :     5  Neutron porosity
RHOB.G/CC                                                :     6  Bulk density
TENS.LB                                                  :     7  Cable Tension
~ASCII
# ...
 1050.8468    17.0306      .0310    35.9609  -999.2500     2.0106  -999.2500
 1050.9992    17.0308      .0050    37.3144  -999.2500     1.9799  -999.2500
 1051.1516    17.0193      .0075    35.3052  -999.2500     1.9809  -999.2500
 1051.3040    17.0095      .0196    34.9051  -999.2500     1.9860  -999.2500
 1051.4564    17.1280      .0317    35.2447  -999.2500     1.9783  -999.2500
 1051.6088    17.1430      .0619    34.6339  -999.2500     1.9726  -999.2500
 1051.7612    17.1263      .0437    34.6978  -999.2500     1.9393  -999.2500
 1051.9136    17.1596      .0208    35.3129  -999.2500     1.9253  -999.2500
 1052.0660    17.4744      .0542    35.2886  -999.2500     1.9592  -999.2500
 1052.2184    18.4879      .0890    36.8849  -999.2500     1.9639  -999.2500
 1052.3708    18.7356      .0768    39.4229  -999.2500     1.9311  -999.2500
 1052.5232    18.8964      .0366    39.9594  -999.2500     1.9165  -999.2500
 1052.6756    17.1575      .0099    39.1724  -999.2500     1.9622  -999.2500
 1052.8280    17.0935      .0149    37.9657  -999.2500     1.9982  -999.2500
 1052.9804    17.1601      .0395    38.3499  -999.2500     2.0372  -999.2500
 1053.1328    17.1530      .0308    36.5736  -999.2500     2.0391  -999.2500
 1053.2852    17.1252      .0206    38.3955  -999.2500     2.0270  -999.2500
 1053.4376    17.1556      .0350    39.4829  -999.2500     2.0429  -999.2500
 1053.5900    17.1872      .0269    38.6338  -999.2500     2.0365  -999.2500
 1053.7424    17.2180      .0065    38.3222  -999.2500     2.0220  -999.2500
 1053.8948    17.2488      .0150    37.7820  -999.2500     2.0209  -999.2500
 1054.0472    17.2795      .0224    37.6438  -999.2500     2.0146  -999.2500
 1054.1996    17.2435      .0122    38.7277  -999.2500     2.0101  -999.2500
 1054.3520    17.1057      .0044    37.6182  -999.2500     1.9955  -999.2500
 1054.5044    17.0746      .0027    36.4906  -999.2500     1.9967  -999.2500
 1054.6568    17.0987      .0110    37.5221  -999.2500     2.0014  -999.2500
 1054.8092    17.1890      .0200    36.5684  -999.2500     2.0100  -999.2500
 1054.9616    17.1902      .0273    35.0838  -999.2500     2.0136  -999.2500
 1055.1140    17.3651      .0469    36.6937  -999.2500     2.0322  -999.2500
 1055.2664    17.4629      .0470    38.8442  -999.2500     2.0333  -999.2500
 1055.4188    17.2151      .0359    40.2473  -999.2500     2.0280  -999.2500
 1055.5712    17.0575      .0263    39.4037  -999.2500     2.0245  -999.2500
 1055.7236    17.1200      .0189    39.5039  -999.2500     2.0268  -999.2500
 1055.8760    17.2041      .0064    39.9029  -999.2500     2.0295  -999.2500
 1056.0284    17.2533      .0039    39.8356  -999.2500     2.0260  -999.2500
 1056.1808    17.3232      .0162    41.2028  -999.2500     2.0231  -999.2500
 1056.3332    17.4218      .0293    41.1781  -999.2500     2.0079  -999.2500
 1056.4856    17.3003      .0194    39.1266  -999.2500     1.9924  -999.2500
 1056.6380    17.1917      .0107    35.8761  -999.2500     1.9861  -999.2500
 1056.7904    17.1361      .0311    33.3490  -999.2500     2.0053  -999.2500
 1056.9428    17.0949      .0247    33.3701  -999.2500     2.0101  -999.2500
 1057.0952    17.2046      .0266    34.8500  -999.2500     2.0081  -999.2500
 1057.2476    17.2667      .0217    35.5790  -999.2500     2.0029  -999.2500
 1057.4000    17.2786      .0108    35.5984  -999.2500     1.9917  -999.2500
 1057.5524    17.4594      .0131    35.0411  -999.2500     1.9970  -999.2500
 1057.7048    17.5573      .0177    35.5062  -999.2500     1.9913  -999.2500
 1057.8572    17.3548      .0270    36.7021  -999.2500     2.0001  -999.2500
 1058.0096    17.5426      .0176    38.0571  -999.2500     1.9836  -999.2500
 1058.1620    17.6631      .0266    39.2931  -999.2500     1.9814  -999.2500
 1058.3144    17.7101      .0487    37.2937  -999.2500     2.0007  -999.2500
 1058.4668    17.4362      .0366    34.5308  -999.2500     1.9891  -999.2500
 1058.6192    17.3004      .0118    34.1064  -999.2500     1.9767  -999.2500
 1058.7716    17.1119      .0060    35.0592  -999.2500     1.9771  -999.2500
 1058.9240    17.1112      .0053    35.9992  -999.2500     1.9840  -999.2500
 1059.0764    17.1733     -.0015    34.0659  -999.2500     1.9766  -999.2500
 1059.2288    17.1860     -.0062    33.4892  -999.2500     1.9744  -999.2500
 1059.3812    17.2419     -.0088    36.1693  -999.2500     1.9862  -999.2500
 1059.5336    17.3934     -.0094    39.6597  -999.2500     1.9958  -999.2500
 1059.6860    17.5755     -.0045    39.2800  -999.2500     1.9958  -999.2500
 1059.8384    17.6507      .0083    35.4318  -999.2500     2.0087  -999.2500
 1059.9908    17.8258      .0015    36.0636  -999.2500     2.0092  -999.2500
 1060.1432    17.9691      .0058    39.3709  -999.2500     2.0135  -999.2500
 1060.2956    18.0622      .0186    42.9433  -999.2500     2.0215  -999.2500
 1060.4480    18.1593      .0178    46.7747  -999.2500     2.0293  -999.2500
 1060.6004    18.2528      .0055    49.5182  -999.2500     2.0665  -999.2500
 1060.7528    17.6384     -.0019    42.4851  -999.2500     2.0937  -999.2500
 1060.9052    17.7191      .0065    44.7211  -999.2500     2.1184  -999.2500
 1061.0576    17.7322      .0079    44.2669  -999.2500     2.1241  -999.2500
 1061.2100    18.0329      .0003    41.6553  -999.2500     2.0948  -999.2500
 1061.3624    18.3734      .0010    36.8474  -999.2500     2.0647  -999.2500
 1061.5148    17.8078      .0163    34.7887  -999.2500     2.0395  -999.2500
 1061.6672    18.2245      .0357    34.8971  -999.2500     2.0367  -999.2500
 1061.8196    18.6251      .0531    34.3630  -999.2500     2.0263  -999.2500
 1061.9720    19.0115      .0473    33.2525  -999.2500     1.9967  -999.2500
 1062.1244    19.0566      .0397    33.7000  -999.2500     1.9755  -999.2500
 1062.2768    18.4981      .0527    32.7948  -999.2500     1.9754  -999.2500
 1062.4292    17.9398      .0290    32.8443  -999.2500     1.9536  -999.2500
 1062.5816    18.2502      .0008    37.2672  -999.2500     1.9643  -999.2500
 1062.7340    18.9664      .0292    40.6546  -999.2500     1.9972  -999.2500
 1062.8864    19.3441      .0841    43.5403  -999.2500     2.0296  -999.2500
 1063.0388    20.1966      .1045    46.1034  -999.2500     2.0223  -999.2500
 1063.1912    19.0123      .0886    47.6550  -999.2500     1.9835  -999.2500
 1063.3436    19.1648      .0727    44.9105  -999.2500     1.9740  -999.2500
 1063.4960    19.1978      .0591    41.3311  -999.2500     1.9648  -999.2500
 1063.6484    19.1145      .0334    39.0047  -999.2500     1.9488  -999.2500
 1063.8008    19.0976      .0465    36.5842  -999.2500     1.9586  -999.2500
 1063.9532    19.2044      .0539    34.4140  -999.2500     1.9309  -999.2500
 1064.1056    19.2930      .0273    33.9264  -999.2500     1.8810  -999.2500
 1064.2580    19.3983      .0430    35.2696  -999.2500     1.8696  -999.2500
 1064.4104    19.1262      .0764    41.4094  -999.2500     1.8747  -999.2500
 1064.5628    19.6544      .0631    48.8848  -999.2500     1.8862  -999.2500
 1064.7152    19.6230      .0472    57.2796  -999.2500     1.9441  -999.2500
 1064.8676    21.0843      .0447    62.8342  -999.2500     2.0197  -999.2500
 1065.0200    21.1737      .0503    63.9013  -999.2500     1.9938  -999.2500
 1065.1724    21.5461      .0900    63.2636  -999.2500     1.9931  -999.2500
 1065.3248    21.9656      .0959    63.9939  -999.2500     1.9815  -999.2500
 1065.4772    20.9761      .0558    64.6794  -999.2500     1.9943  -999.2500
 1065.6296    20.3442      .0163    64.6752  -999.2500     2.0240  -999.2500
 1065.7820    21.3967      .0451    65.2547  -999.2500     2.0332  -999.2500
 1065.9344    22.5401      .0969    65.6172  -999.2500     1.9877  -999.2500
 1066.0868    21.5706      .0473    64.7087  -999.2500     1.9069  -999.2500
 1066.2392    20.4992      .0384    63.7871  -999.2500     1.9388  -999.2500
 1066.3916    19.5010      .0492    60.7007  -999.2500     1.9799  -999.2500
 1066.5440    19.3804      .0348    59.1190  -999.2500     1.9726  -999.2500
