~VERSION INFORMATION
VERS.                                                 2.0:   CWLS Log ASCII Standard-VERSION 2.0
WRAP.                                                  NO:   One line per depth step
~Well Information Block
STRT.M                                           385.1636:   Top Depth
STOP.M                                          3744.9740:   Bottom Depth
STEP.M                                             .15240:   Depth Increment
NULL.                                            -999.250:   Null Value
FLD .                                             WILDCAT:   Field Name
WELL.                                              15/9-1:   NAME
WBN .                                              15/9-1:   WELLBORE
NATI.                                                 NOR:   COUNTRY
CTRY.                                                 NOR:   COUNTRY
COMP.                                             STATOIL:   OPERATOR
PROV.                                           NORTH SEA:   PROVINCE
COUN.                                            ROSS RIG:   RIG NAME
SPUD.                                          1977/02/24:   SPUD DATE
LATI.                                       58 28 19.00 N:   SURF. LATITUDE
LONG.                                        1 45 11.76 E:   SURF. LONGITUDE
PBWE.                                              15/9-1:   PB WELL ID
APIN.                                              15/9-1:   PB WELLBORE ID
PBWS.                                                 all:   PB WELL NAME SET
~PARAMETER INFORMATION (log)
LNAM.                              FDC/CNL/GR  COMPOSITED:   NAME
LTYP.                                         DEPTH MATCH:   LOG TYPE
LSRV.                                            DEN/NEUT:   LOG SERVICE
LSOU.                                             SPT/NPD:   LOG SOURCE
LVSN.                                                   1:   LOG VERSION
BHIS.                                                   R:   BRIEF HISTORY
FHIS.                                             RAW-LIS:   FULL HISTORY
LCNM.                                        SCHLUMBERGER:   LOGGING CONTRACTOR
TOOL.                             FDC/CNL/GR (COMPOSITED):   TOOL STRING
QCST.                                               final:   QC STATUS
~Curve Information Block
#MNEM.UNIT                                        API CODE    No Description
#=========                                        ========    == ===========
DEPT.M                                       00 001 00 00:     1  DEPTH
CALI.IN                                                  :     2  Caliper
DRHO.G/CC                                                :     3  Bulk density correction
GR.GAPI                                                  :     4  Gamma Ray
NPHI.%                                                   :     5  Neutron porosity
RHOB.G/CC                                                :     6  Bulk density
TENS.LB                                                  :     7  Cable Tension
~ASCII
# ...
 2398.0628    11.9848      .0011    30.8390  -999.2500     2.1808  -999.2500
 2398.2152    12.0061     -.0069    31.0809  -999.2500     2.1801  -999.2500
 2398.3676    12.0249     -.0002    31.6001  -999.2500     2.1880  -999.2500
 2398.5200    12.0388     -.0020    30.4964  -999.2500     2.1967  -999.2500
 2398.6724    12.0298      .0011    30.0051  -999.2500     2.2025  -999.2500
 2398.8248    12.0100      .0078    27.5779  -999.2500     2.2028  -999.2500
 2398.9772    11.9907      .0108    26.0099  -999.2500     2.2067  -999.2500
 2399.1296    11.9861      .0248    26.6281  -999.2500     2.2212  -999.2500
 2399.2820    11.9950      .0395    26.9208  -999.2500     2.2336  -999.2500
 2399.4344    12.0067      .0261    27.6999  -999.2500     2.2203  -999.2500
 2399.5868    12.0184      .0109    29.3173  -999.2500     2.1967  -999.2500
 2399.7392    12.0184      .0051    30.7417  -999.2500     2.1939  -999.2500
 2399.8916    11.9907      .0146    29.9880  -999.2500     2.2008  -999.2500
 2400.0440    11.9708      .0117    29.2157  -999.2500     2.2070  -999.2500
 2400.1964    11.9902      .0219    26.2727  -999.2500     2.2113  -999.2500
 2400.3488    12.0097      .0156    28.7123  -999.2500     2.1967  -999.2500
 2400.5012    12.0279      .0210    31.6411  -999.2500     2.2015  -999.2500
 2400.6536    12.0227      .0264    32.0952  -999.2500     2.2104  -999.2500
 2400.8060    12.0175      .0300    30.7756  -999.2500     2.2152  -999.2500
 2400.9584    12.0123      .0210    29.8115  -999.2500     2.2016  -999.2500
 2401.1108    12.0095      .0142    32.0810  -999.2500     2.2046  -999.2500
 2401.2632    12.0098      .0112    33.1864  -999.2500     2.1968  -999.2500
 2401.4156    12.0101      .0086    31.5909  -999.2500     2.1911  -999.2500
 2401.5680    12.0104      .0117    31.2786  -999.2500     2.2018  -999.2500
 2401.7204    12.0095      .0250    33.0569  -999.2500     2.2187  -999.2500
 2401.8728    11.9030      .0568    34.2280  -999.2500     2.2232  -999.2500
 2402.0252    11.8135      .0311    34.2137  -999.2500     2.1995  -999.2500
 2402.1776    11.8785      .0080    32.5367  -999.2500     2.1878  -999.2500
 2402.3300    11.9323      .0016    29.3221  -999.2500     2.1810  -999.2500
 2402.4824    11.9326      .0068    28.5593  -999.2500     2.1905  -999.2500
 2402.6348    11.9329      .0018    29.1992  -999.2500     2.2003  -999.2500
 2402.7872    11.9332      .0128    32.3866  -999.2500     2.2079  -999.2500
 2402.9396    11.9335      .0061    31.8058  -999.2500     2.2011  -999.2500
 2403.0920    11.9338      .0053    30.0643  -999.2500     2.2048  -999.2500
 2403.2444    11.9326     -.0003    30.6973  -999.2500     2.2040  -999.2500
 2403.3968    11.9306      .0035    30.6078  -999.2500     2.2190  -999.2500
 2403.5492    11.9286      .0160    32.3210  -999.2500     2.2542  -999.2500
 2403.7016    11.9266      .0283    33.8934  -999.2500     2.2531  -999.2500
 2403.8540    11.9246      .0156    31.5195  -999.2500     2.2297  -999.2500
 2404.0064    11.9226      .0072    30.2509  -999.2500     2.2136  -999.2500
 2404.1588    11.9206      .0214    31.4303  -999.2500     2.2258  -999.2500
 2404.3112    11.9187      .0391    31.4227  -999.2500     2.2319  -999.2500
 2404.4636    11.9167      .0273    32.1478  -999.2500     2.2131  -999.2500
 2404.6160    11.9169      .0112    32.0137  -999.2500     2.1959  -999.2500
 2404.7684    11.9172      .0251    30.4098  -999.2500     2.2070  -999.2500
 2404.9208    11.9175      .0387    29.9112  -999.2500     2.2170  -999.2500
 2405.0732    11.9178      .0240    29.4357  -999.2500     2.2012  -999.2500
 2405.2256    11.9615      .0132    30.0144  -999.2500     2.1988  -999.2500
 2405.3780    11.9782      .0194    29.8488  -999.2500     2.2011  -999.2500
 2405.5304    11.9785      .0183    30.0306  -999.2500     2.2034  -999.2500
 2405.6828    11.9788      .0222    31.3470  -999.2500     2.2176  -999.2500
 2405.8352    11.9816      .0157    34.0137  -999.2500     2.2175  -999.2500
 2405.9876    11.9851      .0029    35.0689  -999.2500     2.2000  -999.2500
 2406.1400    11.9886      .0029    34.6215  -999.2500     2.1964  -999.2500
 2406.2924    11.9921      .0168    35.5854  -999.2500     2.2024  -999.2500
 2406.4448    11.9956      .0210    35.7018  -999.2500     2.2210  -999.2500
 2406.5972    11.9991      .0262    35.0274  -999.2500     2.2261  -999.2500
 2406.7496    11.9977      .0220    37.8180  -999.2500     2.2264  -999.2500
 2406.9020    11.9925      .0088    37.1672  -999.2500     2.2127  -999.2500
 2407.0544    11.9873      .0156    35.0791  -999.2500     2.2212  -999.2500
 2407.2068    11.9821      .0220    32.9450  -999.2500     2.2278  -999.2500
 2407.3592    11.9821      .0284    31.6635  -999.2500     2.2313  -999.2500
 2407.5116    11.9824      .0385    31.3542  -999.2500     2.2334  -999.2500
 2407.6640    11.9827      .0262    30.4893  -999.2500     2.2068  -999.2500
 2407.8164    11.9465      .0114    30.6663  -999.2500     2.1996  -999.2500
 2407.9688    11.9418      .0134    30.0829  -999.2500     2.2011  -999.2500
 2408.1212    11.9768      .0141    31.0089  -999.2500     2.2013  -999.2500
 2408.2736    12.0198      .0177    32.6512  -999.2500     2.2023  -999.2500
 2408.4260    11.9694      .0453    32.5796  -999.2500     2.2216  -999.2500
 2408.5784    11.9513      .0299    30.9763  -999.2500     2.2110  -999.2500
 2408.7308    12.0027      .0153    31.1282  -999.2500     2.1989  -999.2500
 2408.8832    12.0020      .0224    32.6739  -999.2500     2.1923  -999.2500
 2409.0356    11.9955      .0121    33.4999  -999.2500     2.1817  -999.2500
 2409.1880    11.9891      .0260    33.8825  -999.2500     2.1959  -999.2500
 2409.3404    11.9802      .0361    31.6426  -999.2500     2.2138  -999.2500
 2409.4928    11.9471      .0419    30.4271  -999.2500     2.2239  -999.2500
 2409.6452    11.9877      .0439    30.5770  -999.2500     2.2315  -999.2500
 2409.7976    12.0091      .0149    32.1097  -999.2500     2.2040  -999.2500
 2409.9500    12.0135      .0060    33.1087  -999.2500     2.2053  -999.2500
 2410.1024    12.0178      .0114    34.0030  -999.2500     2.2101  -999.2500
 2410.2548    12.0222      .0143    34.5480  -999.2500     2.2037  -999.2500
 2410.4072    12.0265      .0134    34.5080  -999.2500     2.2001  -999.2500
 2410.5596    12.0308      .0073    34.1691  -999.2500     2.1950  -999.2500
 2410.7120    12.0350      .0105    34.4697  -999.2500     2.1959  -999.2500
 2410.8644    12.0392      .0128    35.6554  -999.2500     2.2006  -999.2500
 2411.0168    12.0434      .0063    38.1159  -999.2500     2.1920  -999.2500
 2411.1692    12.0476      .0003    37.4809  -999.2500     2.1794  -999.2500
 2411.3216    12.0501      .0047    36.0971  -999.2500     2.1910  -999.2500
 2411.4740    12.0504      .0010    34.7154  -999.2500     2.1967  -999.2500
 2411.6264    12.0508      .0133    33.5200  -999.2500     2.2048  -999.2500
 2411.7788    12.0511      .0171    32.9557  -999.2500     2.2158  -999.2500
 2411.9312    12.0514      .0222    34.0299  -999.2500     2.2245  -999.2500
 2412.0836    12.0533      .0344    35.7535  -999.2500     2.2411  -999.2500
 2412.2360    12.0584      .0470    35.7546  -999.2500     2.2467  -999.2500
 2412.3884    12.0635      .0503    35.2922  -999.2500     2.2275  -999.2500
 2412.5408    12.0686      .0511    34.9594  -999.2500     2.2298  -999.2500
 2412.6932    12.0663      .0339    34.1751  -999.2500     2.2167  -999.2500
 2412.8456    12.0316      .0268    33.9668  -999.2500     2.2141  -999.2500
 2412.9980    12.0348      .0222    34.6414  -999.2500     2.2209  -999.2500
 2413.1504    12.1233      .0117    36.0789  -999.2500     2.2195  -999.2500
 2413.3028    12.1853      .0201    36.4090  -999.2500     2.2271  -999.2500
 2413.4552    12.1136      .0228    32.9735  -999.2500     2.2295  -999.2500
 2413.6076    12.0990      .0316    32.6727  -999.2500     2.2358  -999.2500
 2413.7600    12.1152      .0401    33.7721  -999.2500     2.2460  -999.2500
