~VERSION INFORMATION
VERS.                                                 2.0:   CWLS Log ASCII Standard-VERSION 2.0
WRAP.                                                  NO:   One line per depth step
~Well Information Block
STRT.M                                           385.1636:   Top Depth
STOP.M                                          3744.9740:   Bottom Depth
STEP.M                                             .15240:   Depth Increment
NULL.                                            -999.250:   Null Value
FLD .                                             WILDCAT:   Field Name
WELL.                                              15/9-1:   NAME
WBN .                                              15/9-1:   WELLBORE
NATI.                                                 NOR:   COUNTRY
CTRY.                                                 NOR:   COUNTRY
COMP.                                             STATOIL:   OPERATOR
PROV.                                           NORTH SEA:   PROVINCE
COUN.                                            ROSS RIG:   RIG NAME
SPUD.                                          1977/02/24:   SPUD DATE
LATI.                                       58 28 19.00 N:   SURF. LATITUDE
LONG.                                        1 45 11.76 E:   SURF. LONGITUDE
PBWE.                                              15/9-1:   PB WELL ID
APIN.                                              15/9-1:   PB WELLBORE ID
PBWS.                                                 all:   PB WELL NAME SET
~PARAMETER INFORMATION (log)
LNAM.                              FDC/CNL/GR  COMPOSITED:   NAME
LTYP.                                         DEPTH MATCH:   LOG TYPE
LSRV.                                            DEN/NEUT:   LOG SERVICE
LSOU.                                             SPT/NPD:   LOG SOURCE
LVSN.                                                   1:   LOG VERSION
BHIS.                                                   R:   BRIEF HISTORY
FHIS.                                             RAW-LIS:   FULL HISTORY
LCNM.                                        SCHLUMBERGER:   LOGGING CONTRACTOR
TOOL.                             FDC/CNL/GR (COMPOSITED):   TOOL STRING
QCST.                                               final:   QC STATUS
~Curve Information Block
#MNEM.UNIT                                        API CODE    No Description
#=========                                        ========    == ===========
DEPT.M                                       00 001 00 00:     1  DEPTH
CALI.IN                                                  :     2  Caliper
DRHO.G/CC                                                :     3  Bulk density correction
GR.GAPI                                                  :     4  Gamma Ray
NPHI.%                                                   :     5  Neutron porosity
RHOB.G/CC                                                :     6  Bulk density
TENS.LB                                                  :     7  Cable Tension
~ASCII
  385.1636  -999.2500      .0001  -999.2500  -999.2500     2.5020  -999.2500
  385.3160  -999.2500     -.0000      .2025  -999.2500     2.5021  -999.2500
  385.4684    14.0583     -.0001      .2155  -999.2500     2.5021  -999.2500
  385.6208    14.0568     -.0002      .2285  -999.2500     2.5022  -999.2500
  385.7732    14.0552     -.0003      .2416  -999.2500     2.5023  -999.2500
  385.9256    14.0537     -.0004      .2546  -999.2500     2.5024  -999.2500
  386.0780    14.0522     -.0004      .2676  -999.2500     2.5024  -999.2500
  386.2304    14.0506      .0001      .2806  -999.2500     2.5025  -999.2500
  386.3828    14.0491      .0007      .2937  -999.2500     2.5026  -999.2500
  386.5352    14.0476     -.0006      .3067  -999.2500     2.5027  -999.2500
  386.6876    14.0460     -.0020      .3197  -999.2500     2.5028  -999.2500
  386.8400    14.0445     -.0021      .3327  -999.2500     2.5028  -999.2500
  386.9924    14.0430     -.0011      .3458  -999.2500     2.5029  -999.2500
  387.1448    14.0414      .0001      .3588  -999.2500     2.5030  -999.2500
  387.2972    14.0399      .0002      .3718  -999.2500     2.5031  -999.2500
  387.4496    14.0384     -.0007      .3848  -999.2500     2.5031  -999.2500
  387.6020    14.0368     -.0017      .3979  -999.2500     2.5032  -999.2500
  387.7544    14.0353     -.0020      .3776  -999.2500     2.5033  -999.2500
  387.9068    14.0338     -.0024      .3550  -999.2500     2.5034  -999.2500
  388.0592    14.0322     -.0017      .3323  -999.2500     2.5034  -999.2500
  388.2116    14.0307     -.0004      .3097  -999.2500     2.5035  -999.2500
  388.3640    14.0291      .0008      .2871  -999.2500     2.5036  -999.2500
  388.5164    14.0276      .0015      .2645  -999.2500     2.5037  -999.2500
  388.6688    14.0261      .0014      .2418  -999.2500     2.5037  -999.2500
  388.8212    14.0245      .0002      .2192  -999.2500     2.5031  -999.2500
  388.9736    14.0230     -.0713      .1995  -999.2500     2.4372  -999.2500
  389.1260    14.0215     -.2779      .1995  -999.2500     2.1036  -999.2500
  389.2784    14.0207     -.2789      .1995  -999.2500     2.1291  -999.2500
  389.4308    14.3978     -.2778      .1995  -999.2500     2.1369  -999.2500
  389.5832    16.0021     -.2768     2.4054  -999.2500     2.1489  -999.2500
  389.7356    17.6064     -.2757    26.6456  -999.2500     2.1434  -999.2500
  389.8880    18.9443     -.2754    37.1048  -999.2500     2.1402  -999.2500
  390.0404    18.9539     -.2764    37.3491  -999.2500     2.1313  -999.2500
  390.1928    18.9305     -.2775    37.5231  -999.2500     2.1222  -999.2500
  390.3452    18.9072     -.2786    37.9220  -999.2500     2.1331  -999.2500
  390.4976    18.8838     -.2784    37.5830  -999.2500     2.1215  -999.2500
  390.6500    18.8759     -.2777    37.6988  -999.2500     2.1217  -999.2500
  390.8024    18.8895     -.2770    37.9018  -999.2500     2.1222  -999.2500
  390.9548    18.9030     -.2763    37.7373  -999.2500     2.1263  -999.2500
  391.1072    18.9102     -.2762    36.8031  -999.2500     2.1308  -999.2500
  391.2596    18.9102     -.2770    37.0443  -999.2500     2.1303  -999.2500
  391.4120    18.9102     -.2778    37.9241  -999.2500     2.1350  -999.2500
  391.5644    18.9102     -.2775    37.4301  -999.2500     2.1461  -999.2500
  391.7168    18.9140     -.2772    35.1951  -999.2500     2.1561  -999.2500
  391.8692    18.9211     -.2769    36.6199  -999.2500     2.1625  -999.2500
  392.0216    18.9283     -.2771    38.9136  -999.2500     2.1597  -999.2500
  392.1740    18.9355     -.2774    36.5822  -999.2500     2.1702  -999.2500
  392.3264    18.9426     -.2776    35.1677  -999.2500     2.1751  -999.2500
  392.4788    18.9498     -.2778    36.2973  -999.2500     2.1499  -999.2500
  392.6312    18.9569     -.2771    37.4268  -999.2500     2.1371  -999.2500
  392.7836    18.9641     -.2765    36.8794  -999.2500     2.1298  -999.2500
  392.9360    18.9671     -.2758    35.1370  -999.2500     2.1134  -999.2500
  393.0884    18.9489     -.2752    34.2863  -999.2500     2.1071  -999.2500
  393.2408    18.8603     -.2752    35.6540  -999.2500     2.0990  -999.2500
  393.3932    18.7339     -.2762    35.5507  -999.2500     2.0935  -999.2500
  393.5456    18.6677     -.2771    33.8702  -999.2500     2.0969  -999.2500
  393.6980    18.6542     -.2775    32.5363  -999.2500     2.0964  -999.2500
  393.8504    18.6643     -.2768    32.7177  -999.2500     2.1070  -999.2500
  394.0028    18.6828     -.2761    34.1196  -999.2500     2.1243  -999.2500
  394.1552    18.7012     -.2754    35.5750  -999.2500     2.1374  -999.2500
  394.3076    18.7197     -.2747    35.1059  -999.2500     2.1276  -999.2500
  394.4600    18.7382     -.2740    33.9670  -999.2500     2.1263  -999.2500
  394.6124    18.7443     -.2742    32.8049  -999.2500     2.1223  -999.2500
  394.7648    18.7256     -.2751    31.6425  -999.2500     2.1056  -999.2500
  394.9172    18.7164     -.2759    30.6000  -999.2500     2.0928  -999.2500
  395.0696    18.7458     -.2766    30.7987  -999.2500     2.0859  -999.2500
  395.2220    18.7752     -.2759    32.7240  -999.2500     2.0875  -999.2500
  395.3744    18.8046     -.2752    33.6916  -999.2500     2.0914  -999.2500
  395.5268    18.8340     -.2744    34.0979  -999.2500     2.0962  -999.2500
  395.6792    18.8503     -.2737    35.7562  -999.2500     2.1002  -999.2500
  395.8316    18.8503     -.2737    36.3107  -999.2500     2.0928  -999.2500
  395.9840    18.8455     -.2737    35.6379  -999.2500     2.0786  -999.2500
  396.1364    18.8303     -.2737    34.5856  -999.2500     2.0627  -999.2500
  396.2888    18.8182     -.2741    33.6286  -999.2500     2.0433  -999.2500
  396.4412    18.8049     -.2745    34.0093  -999.2500     2.0201  -999.2500
  396.5936    18.7882     -.2750    35.2223  -999.2500     2.0072  -999.2500
  396.7460    18.7397     -.2755    36.4406  -999.2500     1.9945  -999.2500
  396.8984    18.7106     -.2730    37.1166  -999.2500     1.9592  -999.2500
  397.0508    18.7309     -.2060    36.8850  -999.2500     1.9127  -999.2500
  397.2032    18.7944     -.1000    36.5329  -999.2500     1.9317  -999.2500
  397.3556    19.1626      .0105    36.4112  -999.2500     1.9457  -999.2500
  397.5080    19.1525      .0029    37.6176  -999.2500     1.8653  -999.2500
  397.6604    17.9322     -.0050    42.4840  -999.2500     1.7561  -999.2500
  397.8128    17.5546      .0071    47.3503  -999.2500     1.7167  -999.2500
  397.9652    17.4191     -.0012    52.2168  -999.2500     1.7091  -999.2500
  398.1176    17.3174     -.0032    53.6433  -999.2500     1.7000  -999.2500
  398.2700    16.8736      .0106    52.1319  -999.2500     1.7147  -999.2500
  398.4224    16.6705      .0261    50.8398  -999.2500     1.7260  -999.2500
  398.5748    17.3114      .0208    52.1760  -999.2500     1.7176  -999.2500
  398.7272    18.1717      .0028    55.5737  -999.2500     1.7284  -999.2500
  398.8796    17.6254      .0012    59.0625  -999.2500     1.7545  -999.2500
  399.0320    17.4227      .0108    63.6113  -999.2500     1.7705  -999.2500
  399.1844    17.0115      .0231    68.2203  -999.2500     1.7768  -999.2500
  399.3368    17.4812      .0596    69.4868  -999.2500     1.8046  -999.2500
  399.4892    18.2573      .1010    64.4577  -999.2500     1.8213  -999.2500
  399.6416    19.9175      .1031    59.6242  -999.2500     1.7841  -999.2500
  399.7940    22.5513      .0856    57.2379  -999.2500     1.7346  -999.2500
  399.9464    22.2884      .0673    52.6558  -999.2500     1.7090  -999.2500
  400.0988    21.8847      .0592    50.9484  -999.2500     1.6536  -999.2500
  400.2512    22.4663      .0576    53.7788  -999.2500     1.6152  -999.2500
  400.4036    22.4599      .0441    53.5498  -999.2500     1.5435  -999.2500
  400.5560    22.4091      .0238    50.9854  -999.2500     1.4694  -999.2500
  400.7084    22.4717      .0213    47.4337  -999.2500     1.4433  -999.2500
  400.8608    22.5169      .0130    44.7609  -999.2500     1.4362  -999.2500
