~VERSION INFORMATION
VERS.                                                 2.0:   CWLS Log ASCII Standard-VERSION 2.0
WRAP.                                                  NO:   One line per depth step
~Well Information Block
STRT.M                                           385.1636:   Top Depth
STOP.M                                          3744.9740:   Bottom Depth
STEP.M                                             .15240:   Depth Increment
NULL.                                            -999.250:   Null Value
FLD .                                             WILDCAT:   Field Name
WELL.                                              15/9-1:   NAME
WBN .                                              15/9-1:   WELLBORE
NATI.                                                 NOR:   COUNTRY
CTRY.                                                 NOR:   COUNTRY
COMP.                                             STATOIL:   OPERATOR
PROV.                                           NORTH SEA:   PROVINCE
COUN.                                            ROSS RIG:   RIG NAME
SPUD.                                          1977/02/24:   SPUD DATE
LATI.                                       58 28 19.00 N:   SURF. LATITUDE
LONG.                                        1 45 11.76 E:   SURF. LONGITUDE
PBWE.                                              15/9-1:   PB WELL ID
APIN.                                              15/9-1:   PB WELLBORE ID
PBWS.                                                 all:   PB WELL NAME SET
~PARAMETER INFORMATION (log)
LNAM.                              FDC/CNL/GR  COMPOSITED:   NAME
LTYP.                                         DEPTH MATCH:   LOG TYPE
LSRV.                                            DEN/NEUT:   LOG SERVICE
LSOU.                                             SPT/NPD:   LOG SOURCE
LVSN.                                                   1:   LOG VERSION
BHIS.                                                   R:   BRIEF HISTORY
FHIS.                                             RAW-LIS:   FULL HISTORY
LCNM.                                        SCHLUMBERGER:   LOGGING CONTRACTOR
TOOL.                             FDC/CNL/GR (COMPOSITED):   TOOL STRING
QCST.                                               final:   QC STATUS
~Curve Information Block
#MNEM.UNIT                                        API CODE    No Description
#=========                                        ========    == ===========
DEPT.M                                       00 001 00 00:     1  DEPTH
CALI.IN                                                  :     2  Caliper
DRHO.G/CC                                                :     3  Bulk density correction
GR.GAPI                                                  :     4  Gamma Ray
NPHI.%                                                   :     5  Neutron porosity
RHOB.G/CC                                                :     6  Bulk density
TENS.LB                                                  :     7  Cable Tension
~ASCII
# ...
  607.0580    19.7666      .0086    70.1537  -999.2500     2.0996  -999.2500
  607.2104    20.4217      .0131    72.7705  -999.2500     2.1380  -999.2500
  607.3628    19.6308      .0147    75.1329  -999.2500     2.1687  -999.2500
  607.5152    20.0576      .0261    74.4365  -999.2500     2.1985  -999.2500
  607.6676    19.9113      .0234    72.4614  -999.2500     2.1921  -999.2500
  607.8200    17.9198      .0115    70.4768  -999.2500     2.1595  -999.2500
  607.9724    17.9082      .0133    69.6703  -999.2500     2.1536  -999.2500
  608.1248    17.9248      .0131    70.2437  -999.2500     2.1483  -999.2500
  608.2772    17.9503      .0022    69.4501  -999.2500     2.1418  -999.2500
  608.4296    17.9895      .0131    69.7763  -999.2500     2.1447  -999.2500
  608.5820    17.9007      .0214    70.1292  -999.2500     2.1516  -999.2500
  608.7344    17.8184      .0115    69.1095  -999.2500     2.1264  -999.2500
  608.8868    17.7587      .0140    68.5208  -999.2500     2.1036  -999.2500
  609.0392    17.9102      .0257    69.8222  -999.2500     2.0906  -999.2500
  609.1916    17.9609      .0216    73.7356  -999.2500     2.0711  -999.2500
  609.3440    17.7415      .0257    76.7943  -999.2500     2.0785  -999.2500
  609.4964    18.5556      .0142    74.4533  -999.2500     2.0732  -999.2500
  609.6488    18.4965      .0343    75.3494  -999.2500     2.1000  -999.2500
  609.8012    18.0345      .0217    75.7763  -999.2500     2.1115  -999.2500
  609.9536    17.8809      .0183    78.1679  -999.2500     2.1270  -999.2500
  610.1060    18.2109      .0271    76.6519  -999.2500     2.1271  -999.2500
  610.2584    18.6797      .0258    74.7686  -999.2500     2.1266  -999.2500
  610.4108    18.9890      .0284    74.3455  -999.2500     2.1242  -999.2500
  610.5632    18.5756      .0344    73.9182  -999.2500     2.1123  -999.2500
  610.7156    17.9633      .0258    72.1202  -999.2500     2.0921  -999.2500
  610.8680    17.9627      .0326    70.3363  -999.2500     2.0979  -999.2500
  611.0204    17.8417      .0433    69.6481  -999.2500     2.1094  -999.2500
  611.1728    18.2310      .0541    69.3395  -999.2500     2.1247  -999.2500
  611.3252    18.4427      .0516    72.5485  -999.2500     2.1215  -999.2500
  611.4776    17.7042      .0455    75.7576  -999.2500     2.1047  -999.2500
  611.6300    17.7337      .0499    74.1409  -999.2500     2.1088  -999.2500
  611.7824    17.8820      .0545    72.2152  -999.2500     2.1103  -999.2500
  611.9348    17.6146      .0506    73.0791  -999.2500     2.0995  -999.2500
  612.0872    17.4857      .0320    74.2188  -999.2500     2.0894  -999.2500
  612.2396    17.4943      .0138    71.3788  -999.2500     2.0826  -999.2500
  612.3920    17.5266      .0155    67.8406  -999.2500     2.0850  -999.2500
  612.5444    17.8537      .0388    65.5831  -999.2500     2.1048  -999.2500
  612.6968    17.8539      .0426    62.6685  -999.2500     2.1195  -999.2500
  612.8492    17.6712      .0227    60.4468  -999.2500     2.1030  -999.2500
  613.0016    18.5785      .0153    61.8139  -999.2500     2.0960  -999.2500
  613.1540    19.5275      .0255    62.6735  -999.2500     2.0902  -999.2500
  613.3064    20.0456      .0472    61.7903  -999.2500     2.1056  -999.2500
  613.4588    19.7464      .0597    63.7911  -999.2500     2.1105  -999.2500
  613.6112    18.8816      .0585    61.8228  -999.2500     2.1153  -999.2500
  613.7636    18.8000      .0436    59.2880  -999.2500     2.1021  -999.2500
  613.9160    17.9355      .0360    61.0908  -999.2500     2.1139  -999.2500
  614.0684    17.9880      .0108    61.2007  -999.2500     2.1006  -999.2500
  614.2208    18.2399      .0136    60.4730  -999.2500     2.1100  -999.2500
  614.3732    18.3929      .0185    61.0282  -999.2500     2.1261  -999.2500
  614.5256    18.8120      .0333    61.0698  -999.2500     2.1273  -999.2500
  614.6780    19.4689      .0435    61.2087  -999.2500     2.1256  -999.2500
  614.8304    18.4325      .0364    61.6833  -999.2500     2.1130  -999.2500
  614.9828    18.5375      .0253    61.9649  -999.2500     2.1261  -999.2500
  615.1352    18.5965      .0286    62.5700  -999.2500     2.1380  -999.2500
  615.2876    18.4423      .0360    61.2027  -999.2500     2.1215  -999.2500
  615.4400    18.2956      .0513    61.1325  -999.2500     2.1023  -999.2500
  615.5924    17.9700      .0400    62.0721  -999.2500     2.0760  -999.2500
  615.7448    17.6827      .0236    64.4171  -999.2500     2.0519  -999.2500
  615.8972    17.5137      .0221    65.8982  -999.2500     2.0379  -999.2500
  616.0496    17.7490      .0338    64.5089  -999.2500     2.0280  -999.2500
  616.2020    18.2955      .0608    62.6193  -999.2500     1.9940  -999.2500
  616.3544    18.3516      .1126    60.7199  -999.2500     1.9836  -999.2500
  616.5068    18.1191      .0929    59.9205  -999.2500     1.8927  -999.2500
  616.6592    17.4750      .0469    61.4753  -999.2500     1.8820  -999.2500
  616.8116    17.3848      .0191    61.8432  -999.2500     1.9618  -999.2500
  616.9640    17.4148      .0364    63.2915  -999.2500     2.0363  -999.2500
  617.1164    17.4407      .0233    65.8919  -999.2500     2.0260  -999.2500
  617.2688    17.4666      .0248    68.2056  -999.2500     2.0262  -999.2500
  617.4212    17.4573      .0329    71.4797  -999.2500     2.0293  -999.2500
  617.5736    17.4253      .0290    72.2115  -999.2500     2.0363  -999.2500
  617.7260    17.4021      .0271    69.7958  -999.2500     2.0445  -999.2500
  617.8784    17.4328      .0229    69.7201  -999.2500     2.0648  -999.2500
  618.0308    17.4524      .0392    72.2779  -999.2500     2.1001  -999.2500
  618.1832    17.4174      .0259    74.0457  -999.2500     2.1107  -999.2500
  618.3356    17.4012      .0113    74.4142  -999.2500     2.1102  -999.2500
  618.4880    17.6599      .0129    74.5069  -999.2500     2.1052  -999.2500
  618.6404    17.9398      .0138    74.4087  -999.2500     2.0975  -999.2500
  618.7928    18.0527      .0103    74.8981  -999.2500     2.0790  -999.2500
  618.9452    18.9148      .0156    75.0184  -999.2500     2.0675  -999.2500
  619.0976    18.4732      .0267    73.2909  -999.2500     2.0542  -999.2500
  619.2500    17.9461      .0363    72.1302  -999.2500     2.0268  -999.2500
  619.4024    18.3273      .0493    71.4973  -999.2500     2.0032  -999.2500
  619.5548    17.8440      .0445    69.7531  -999.2500     1.9893  -999.2500
  619.7072    17.4470      .0561    68.4081  -999.2500     1.9825  -999.2500
  619.8596    18.0115      .0676    70.5027  -999.2500     1.9941  -999.2500
  620.0120    18.2565      .0658    73.7840  -999.2500     2.0137  -999.2500
  620.1644    17.7624      .0461    71.9164  -999.2500     2.0304  -999.2500
  620.3168    18.3191      .0301    69.8038  -999.2500     2.0484  -999.2500
  620.4692    18.4790      .0091    69.8612  -999.2500     2.0673  -999.2500
  620.6216    18.4188     -.0001    69.9508  -999.2500     2.1010  -999.2500
  620.7740    18.4748      .0027    69.3635  -999.2500     2.1043  -999.2500
  620.9264    18.7024      .0194    67.9292  -999.2500     2.0898  -999.2500
  621.0788    18.3313      .1179    67.9540  -999.2500     2.1105  -999.2500
  621.2312    18.5641      .1560    65.4511  -999.2500     2.0891  -999.2500
  621.3836    18.8261      .1188    61.8332  -999.2500     2.0100  -999.2500
  621.5360    19.6056      .1293    59.4973  -999.2500     1.9647  -999.2500
  621.6884    19.8243      .1363    61.1975  -999.2500     1.9445  -999.2500
  621.8408    19.0426      .1300    62.1363  -999.2500     1.8969  -999.2500
  621.9932    18.7407      .1368    61.2630  -999.2500     1.8989  -999.2500
  622.1456    18.6506      .1189    60.3897  -999.2500     1.8879  -999.2500
  622.2980    18.6644      .1042    59.6293  -999.2500     1.8655  -999.2500
  622.4504    18.5714      .0936    60.5825  -999.2500     1.8166  -999.2500
  622.6028    18.0630      .0697    61.8355  -999.2500     1.7720  -999.2500
  622.7552    17.6443      .0458    60.0235  -999.2500     1.7876  -999.2500
