~VERSION INFORMATION
VERS.                                                 2.0:   CWLS Log ASCII Standard-VERSION 2.0
WRAP.                                                  NO:   One line per depth step
~Well Information Block
STRT.M                                           385.1636:   Top Depth
STOP.M                                          3744.9740:   Bottom Depth
STEP.M                                             .15240:   Depth Increment
NULL.                                            -999.250:   Null Value
FLD .                                             WILDCAT:   Field Name
WELL.                                              15/9-1:   NAME
WBN .                                              15/9-1:   WELLBORE
NATI.                                                 NOR:   COUNTRY
CTRY.                                                 NOR:   COUNTRY
COMP.                                             STATOIL:   OPERATOR
PROV.                                           NORTH SEA:   PROVINCE
COUN.                                            ROSS RIG:   RIG NAME
SPUD.                                          1977/02/24:   SPUD DATE
LATI.                                       58 28 19.00 N:   SURF. LATITUDE
LONG.                                        1 45 11.76 E:   SURF. LONGITUDE
PBWE.                                              15/9-1:   PB WELL ID
APIN.                                              15/9-1:   PB WELLBORE ID
PBWS.                                                 all:   PB WELL NAME SET
~PARAMETER INFORMATION (log)
LNAM.                              FDC/CNL/GR  COMPOSITED:   NAME
LTYP.                                         DEPTH MATCH:   LOG TYPE
LSRV.                                            DEN/NEUT:   LOG SERVICE
LSOU.                                             SPT/NPD:   LOG SOURCE
LVSN.                                                   1:   LOG VERSION
BHIS.                                                   R:   BRIEF HISTORY
FHIS.                                             RAW-LIS:   FULL HISTORY
LCNM.                                        SCHLUMBERGER:   LOGGING CONTRACTOR
TOOL.                             FDC/CNL/GR (COMPOSITED):   TOOL STRING
QCST.                                               final:   QC STATUS
~Curve Information Block
#MNEM.UNIT                                        API CODE    No Description
#=========                                        ========    == ===========
DEPT.M                                       00 001 00 00:     1  DEPTH
CALI.IN                                                  :     2  Caliper
DRHO.G/CC                                                :     3  Bulk density correction
GR.GAPI                                                  :     4  Gamma Ray
NPHI.%                                                   :     5  Neutron porosity
RHOB.G/CC                                                :     6  Bulk density
TENS.LB                                                  :     7  Cable Tension
~ASCII
# ...
 1494.6356    13.7301      .0509    60.4847  -999.2500     1.9027  -999.2500
 1494.7880    13.7153      .0608    60.3903  -999.2500     1.8711  -999.2500
 1494.9404    13.5917      .0494    57.0510  -999.2500     1.8532  -999.2500
 1495.0928    13.3478      .0564    55.9601  -999.2500     1.9038  -999.2500
 1495.2452    13.3934      .0457    58.3537  -999.2500     1.9441  -999.2500
 1495.3976    13.5996      .0750    59.8840  -999.2500     1.9591  -999.2500
 1495.5500    13.6000      .0732    59.8091  -999.2500     1.9532  -999.2500
 1495.7024    13.4767      .0890    58.1360  -999.2500     1.9798  -999.2500
 1495.8548    13.4721      .0644    56.2678  -999.2500     1.9779  -999.2500
 1496.0072    13.5828      .0464    56.6475  -999.2500     1.9574  -999.2500
 1496.1596    13.5564      .0599    57.2698  -999.2500     1.9476  -999.2500
 1496.3120    13.4858      .0572    57.6359  -999.2500     1.9366  -999.2500
 1496.4644    13.3982      .0288    59.8538  -999.2500     1.9086  -999.2500
 1496.6168    13.4121      .0196    60.8148  -999.2500     1.9272  -999.2500
 1496.7692    13.4294      .0299    61.3685  -999.2500     1.9426  -999.2500
 1496.9216    13.4891      .0396    62.2449  -999.2500     1.9393  -999.2500
 1497.0740    13.3989      .0466    63.8744  -999.2500     1.8999  -999.2500
 1497.2264    13.2084      .0472    64.2004  -999.2500     1.8660  -999.2500
 1497.3788    12.9588      .0446    64.1738  -999.2500     1.8737  -999.2500
 1497.5312    12.9778      .0371    62.8704  -999.2500     1.9258  -999.2500
 1497.6836    13.2618      .0480    60.8198  -999.2500     1.9696  -999.2500
 1497.8360    13.4668      .0439    59.5809  -999.2500     1.9834  -999.2500
 1497.9884    13.6648      .0568    57.7140  -999.2500     1.9816  -999.2500
 1498.1408    13.6554      .0591    56.2378  -999.2500     1.9669  -999.2500
 1498.2932    13.6614      .0796    55.0035  -999.2500     1.9637  -999.2500
 1498.4456    13.8414      .0780    55.4293  -999.2500     1.9356  -999.2500
 1498.5980    13.6162      .0524    57.5168  -999.2500     1.9225  -999.2500
 1498.7504    13.5809      .0476    57.8849  -999.2500     1.9292  -999.2500
 1498.9028    13.5416      .0749    58.1481  -999.2500     1.9636  -999.2500
 1499.0552    13.2801      .1035    58.6519  -999.2500     1.9916  -999.2500
 1499.2076    13.3351      .0918    58.5946  -999.2500     2.0086  -999.2500
 1499.3600    13.4685      .0760    59.0296  -999.2500     2.0003  -999.2500
 1499.5124    13.4588      .0716    61.3715  -999.2500     1.9887  -999.2500
 1499.6648    13.4759      .0684    62.6394  -999.2500     1.9795  -999.2500
 1499.8172    13.3237      .0568    62.3534  -999.2500     1.9676  -999.2500
 1499.9696    13.3342      .0527    61.5121  -999.2500     1.9653  -999.2500
 1500.1220    13.4966      .0536    62.1974  -999.2500     1.9647  -999.2500
 1500.2744    13.3586      .0338    64.8850  -999.2500     1.9474  -999.2500
 1500.4268    13.5108      .0351    64.3252  -999.2500     1.9415  -999.2500
 1500.5792    13.6798      .0575    63.1096  -999.2500     1.9651  -999.2500
 1500.7316    13.7341      .0705    63.2682  -999.2500     1.9648  -999.2500
 1500.8840    13.7202      .0554    63.1101  -999.2500     1.9385  -999.2500
 1501.0364    13.6853      .0651    58.7712  -999.2500     1.9261  -999.2500
 1501.1888    13.4981      .0872    57.0002  -999.2500     1.9256  -999.2500
 1501.3412    13.6359      .0791    58.2046  -999.2500     1.9252  -999.2500
 1501.4936    13.5961      .0612    57.2038  -999.2500     1.9156  -999.2500
 1501.6460    13.4613      .0485    56.2934  -999.2500     1.9106  -999.2500
 1501.7984    13.4368      .0332    57.6933  -999.2500     1.8954  -999.2500
 1501.9508    13.6970      .0359    59.4741  -999.2500     1.8785  -999.2500
 1502.1032    13.4945      .0298    56.3894  -999.2500     1.8506  -999.2500
 1502.2556    12.8727      .0308    54.5379  -999.2500     1.8467  -999.2500
 1502.4080    12.6359      .0427    55.2404  -999.2500     1.8908  -999.2500
 1502.5604    12.4723      .0551    59.9497  -999.2500     1.9333  -999.2500
 1502.7128    12.8060      .0609    64.3643  -999.2500     1.9476  -999.2500
 1502.8652    12.9847      .0533    63.8795  -999.2500     1.9487  -999.2500
 1503.0176    13.2299      .0481    65.4133  -999.2500     1.9216  -999.2500
 1503.1700    13.0128      .0622    68.1953  -999.2500     1.8958  -999.2500
 1503.3224    12.5841      .0586    66.6859  -999.2500     1.8903  -999.2500
 1503.4748    12.7379      .0671    64.2277  -999.2500     1.9330  -999.2500
 1503.6272    12.9441      .0812    62.1734  -999.2500     1.9561  -999.2500
 1503.7796    12.8466      .0736    62.4432  -999.2500     1.9415  -999.2500
 1503.9320    12.6548      .0522    62.0740  -999.2500     1.9236  -999.2500
 1504.0844    12.6288      .0529    61.3008  -999.2500     1.9287  -999.2500
 1504.2368    12.4925      .0635    62.0715  -999.2500     1.9358  -999.2500
 1504.3892    12.4673      .0654    62.8917  -999.2500     1.9451  -999.2500
 1504.5416    12.3185      .0573    64.0616  -999.2500     1.9357  -999.2500
 1504.6940    12.2685      .0448    62.4071  -999.2500     1.9407  -999.2500
 1504.8464    12.3347      .0430    58.5349  -999.2500     1.9502  -999.2500
 1504.9988    12.1489      .0382    57.4200  -999.2500     1.9496  -999.2500
 1505.1512    12.2554      .0483    58.5109  -999.2500     1.9728  -999.2500
 1505.3036    12.4353      .0439    60.6390  -999.2500     1.9755  -999.2500
 1505.4560    12.7412      .0615    62.2279  -999.2500     1.9923  -999.2500
 1505.6084    12.9355      .0771    65.1165  -999.2500     2.0097  -999.2500
 1505.7608    13.1904      .0532    63.9043  -999.2500     2.0144  -999.2500
 1505.9132    13.4726      .0210    62.5821  -999.2500     2.0223  -999.2500
 1506.0656    13.6398     -.0160    63.5737  -999.2500     2.0348  -999.2500
 1506.2180    13.7778      .0159    62.6060  -999.2500     2.0261  -999.2500
 1506.3704    13.6482      .0543    61.5716  -999.2500     1.9695  -999.2500
 1506.5228    13.4142      .0346    61.5787  -999.2500     1.9112  -999.2500
 1506.6752    13.4137      .0383    58.6231  -999.2500     1.9468  -999.2500
 1506.8276    13.5345      .0215    57.2566  -999.2500     1.9388  -999.2500
 1506.9800    13.6336      .0285    55.8607  -999.2500     1.9250  -999.2500
 1507.1324    13.6941      .0215    58.1910  -999.2500     1.8998  -999.2500
 1507.2848    13.7426      .0328    62.3248  -999.2500     1.8822  -999.2500
 1507.4372    13.6411      .0290    64.1641  -999.2500     1.8762  -999.2500
 1507.5896    13.6454      .0423    68.2973  -999.2500     1.9027  -999.2500
 1507.7420    13.7394      .0549    67.7545  -999.2500     1.9054  -999.2500
 1507.8944    13.6168      .0576    66.6246  -999.2500     1.9102  -999.2500
 1508.0468    13.5257      .0514    67.1936  -999.2500     1.9239  -999.2500
 1508.1992    13.5546      .0421    66.0138  -999.2500     1.9434  -999.2500
 1508.3516    13.7278      .0531    63.5081  -999.2500     1.9580  -999.2500
 1508.5040    13.7815      .0472    63.2577  -999.2500     1.9464  -999.2500
 1508.6564    13.9366      .0383    65.3469  -999.2500     1.9299  -999.2500
 1508.8088    13.9677      .0492    64.0378  -999.2500     1.9245  -999.2500
 1508.9612    13.9872      .0366    62.8832  -999.2500     1.9104  -999.2500
 1509.1136    13.9826      .0188    62.0139  -999.2500     1.8895  -999.2500
 1509.2660    13.8145      .0294    63.0677  -999.2500     1.8733  -999.2500
 1509.4184    13.9513      .0423    63.9988  -999.2500     1.8602  -999.2500
 1509.5708    14.0181      .0380    64.5484  -999.2500     1.8444  -999.2500
 1509.7232    13.8682      .0569    66.7053  -999.2500     1.8426  -999.2500
 1509.8756    13.8619      .0539    64.7644  -999.2500     1.8648  -999.2500
 1510.0280    14.0274      .0460    60.7808  -999.2500     1.8821  -999.2500
 1510.1804    13.8534      .0376    61.4833  -999.2500     1.8918  -999.2500
 1510.3328    13.9347      .0287    63.5115  -999.2500     1.9076  -999.2500
