~VERSION INFORMATION
VERS.                                                 2.0:   CWLS Log ASCII Standard-VERSION 2.0
WRAP.                                                  NO:   One line per depth step
~Well Information Block
STRT.M                                           385.1636:   Top Depth
STOP.M                                          3744.9740:   Bottom Depth
STEP.M                                             .15240:   Depth Increment
NULL.                                            -999.250:   Null Value
FLD .                                             WILDCAT:   Field Name
WELL.                                              15/9-1:   NAME
WBN .                                              15/9-1:   WELLBORE
NATI.                                                 NOR:   COUNTRY
CTRY.                                                 NOR:   COUNTRY
COMP.                                             STATOIL:   OPERATOR
PROV.                                           NORTH SEA:   PROVINCE
COUN.                                            ROSS RIG:   RIG NAME
SPUD.                                          1977/02/24:   SPUD DATE
LATI.                                       58 28 19.00 N:   SURF. LATITUDE
LONG.                                        1 45 11.76 E:   SURF. LONGITUDE
PBWE.                                              15/9-1:   PB WELL ID
APIN.                                              15/9-1:   PB WELLBORE ID
PBWS.                                                 all:   PB WELL NAME SET
~PARAMETER INFORMATION (log)
LNAM.                              FDC/CNL/GR  COMPOSITED:   NAME
LTYP.                                         DEPTH MATCH:   LOG TYPE
LSRV.                                            DEN/NEUT:   LOG SERVICE
LSOU.                                             SPT/NPD:   LOG SOURCE
LVSN.                                                   1:   LOG VERSION
BHIS.                                                   R:   BRIEF HISTORY
FHIS.                                             RAW-LIS:   FULL HISTORY
LCNM.                                        SCHLUMBERGER:   LOGGING CONTRACTOR
TOOL.                             FDC/CNL/GR (COMPOSITED):   TOOL STRING
QCST.                                               final:   QC STATUS
~Curve Information Block
#MNEM.UNIT                                        API CODE    No Description
#=========                                        ========    == ===========
DEPT.M                                       00 001 00 00:     1  DEPTH
CALI.IN                                                  :     2  Caliper
DRHO.G/CC                                                :     3  Bulk density correction
GR.GAPI                                                  :     4  Gamma Ray
NPHI.%                                                   :     5  Neutron porosity
RHOB.G/CC                                                :     6  Bulk density
TENS.LB                                                  :     7  Cable Tension
~ASCII
# ...
 3285.6404     9.2490      .0098    32.6380     -.0709     2.5760   412.6112
 3285.7928     9.2496      .0065    29.6457     -.0609     2.5767   381.2661
 3285.9452     9.2502      .0047    25.9417     -.0509     2.5817   342.1177
 3286.0976     9.2507      .0097    27.1343     -.0410     2.5914   375.4948
 3286.2500     9.2549      .0241    29.3442     -.0310     2.6025   397.2833
 3286.4024     9.2595      .0183    30.8556     -.0211     2.5814   403.2527
 3286.5548     9.2640      .0129    30.9494     -.0111     2.5876   413.5008
 3286.7072     9.2686      .0078    29.0874     -.0011     2.6000   439.9824
 3286.8596     9.2731      .0034    26.8096      .0088     2.5887   470.9700
 3287.0120     9.2777      .0006    27.3640      .0188     2.5857   429.5751
 3287.1644     9.2823     -.0001    28.5032      .0287     2.6097   406.3342
 3287.3168     9.2868      .0002    26.2528      .0231     2.6312   400.0744
 3287.4692     9.2914      .0024    28.0397      .0086     2.6219   392.4736
 3287.6216     9.2959      .0066    28.5544     -.0059     2.6104   380.9183
 3287.7740     9.2968      .0189    30.4688     -.0204     2.6216   356.3862
 3287.9264     9.2974      .0283    32.8783     -.0349     2.6244   359.1512
 3288.0788     9.2979      .0169    34.4608     -.0494     2.5983   394.5793
 3288.2312     9.2985      .0090    33.6054     -.0640     2.5739   406.0125
 3288.3836     9.2991      .0130    31.8673     -.0785     2.5852   423.5071
 3288.5360     9.2996      .0105    29.9727     -.0930     2.5975   448.6219
 3288.6884     9.3002      .0115    29.4249     -.0984     2.6132   458.1111
 3288.8408     9.3113      .0234    29.7390     -.0934     2.6217   422.3313
 3288.9932     9.3238      .0230    29.5161     -.0883     2.6323   389.7252
 3289.1456     9.3363      .0133    27.6707     -.0832     2.6311   383.5044
 3289.2980     9.3488      .0110    27.2620     -.0782     2.6235   385.1731
 3289.4504     9.3612      .0214    29.8157     -.0731     2.6220   386.8418
 3289.6028     9.3737      .0159    34.8665     -.0680     2.5903   391.0593
 3289.7552     9.3862      .0059    38.9719     -.0630     2.5616   397.3482
 3289.9076     9.3987      .0088    40.1499     -.0579     2.5552   403.6270
 3290.0600     9.4047      .0196    36.7969     -.0530     2.5766   405.9095
 3290.2124     9.4053      .0277    33.2620     -.0483     2.5856   403.0203
 3290.3648     9.4058      .0302    31.4753     -.0437     2.6044   404.6422
 3290.5172     9.4064      .0232    33.4933     -.0391     2.6036   421.5143
 3290.6696     9.4073      .0141    36.6127     -.0344     2.5948   464.1140
 3290.8220     9.4108      .0083    36.8615     -.0298     2.5777   469.1036
 3290.9744     9.4142      .0033    35.8690     -.0252     2.5672   433.4664
 3291.1268     9.4177     -.0008    35.9079     -.0206     2.5654   403.3078
 3291.2792     9.4212      .0046    36.5223     -.0159     2.5693   390.7574
 3291.4316     9.4246      .0129    37.4758     -.0113     2.5823   386.0607
 3291.5840     9.4281      .0125    36.2505     -.0094     2.5849   388.2720
 3291.7364     9.4312      .0092    33.9361     -.0109     2.5904   408.9287
 3291.8888     9.4334      .0040    33.6366     -.0124     2.6004   423.7406
 3292.0412     9.4356      .0008    34.8628     -.0138     2.5822   409.3130
 3292.1936     9.4379      .0019    37.5022     -.0153     2.5713   396.9162
 3292.3460     9.4401      .0098    40.4815     -.0168     2.5890   413.8409
 3292.4984     9.4423      .0248    43.9883     -.0182     2.6075   424.4179
 3292.6508     9.4445      .0153    47.2940     -.0197     2.5971   416.0367
 3292.8032     9.4467      .0304    49.4641     -.0211     2.6015   408.0406
 3292.9556     9.4489      .0225    50.2819     -.0226     2.5944   404.8035
 3293.1080     9.4511      .0189    49.1025     -.0241     2.5821   415.7535
 3293.2604     9.4533      .0154    47.8395     -.0285     2.5856   437.1254
 3293.4128     9.4555      .0149    46.0954     -.0363     2.5890   444.3594
 3293.5652     9.4580      .0303    44.1053     -.0441     2.5851   429.2922
 3293.7176     9.4621      .0280    43.4183     -.0518     2.6257   414.8162
 3293.8700     9.4661      .0094    41.5654     -.0596     2.5965   400.8185
 3294.0224     9.4702     -.0001    38.5338     -.0674     2.5862   385.6065
 3294.1748     9.4743     -.0057    38.1731     -.0751     2.5819   377.5325
 3294.3272     9.4784      .0041    38.9965     -.0829     2.5783   426.3393
 3294.4796     9.4825      .0090    42.0625     -.0906     2.5706   461.8829
 3294.6320     9.4866      .0066    45.4468     -.0984     2.5527   441.9691
 3294.7844     9.4907      .0148    49.3417     -.0877     2.5423   444.2684
 3294.9368     9.4947      .0231    50.2444     -.0765     2.5456   464.3981
 3295.0892     9.4988      .0167    45.8560     -.0654     2.5457   462.9904
 3295.2416     9.5029      .0133    42.6410     -.0542     2.5374   452.3719
 3295.3940     9.5026      .0089    40.6191     -.0431     2.5428   427.8071
 3295.5464     9.5014      .0045    39.5943     -.0320     2.5505   432.0031
 3295.6988     9.5002      .0015    39.0517     -.0208     2.5712   408.0228
 3295.8512     9.4990      .0065    38.9531     -.0097     2.5858   384.1320
 3296.0036     9.4978      .0127    39.6871      .0015     2.5992   385.8918
 3296.1560     9.4966      .0186    41.2943      .0036     2.6043   434.0458
 3296.3084     9.4954      .0201    44.4106     -.0041     2.6211   452.9011
 3296.4608     9.4942      .0121    48.3114     -.0119     2.6255   423.7814
 3296.6132     9.4931      .0072    52.1400     -.0197     2.6058   422.1430
 3296.7656     9.4919      .0050    52.5629     -.0274     2.5854   455.1019
 3296.9180     9.4907      .0246    51.4014     -.0352     2.5960   469.3343
 3297.0704     9.4915      .0285    51.0000     -.0429     2.6011   416.4886
 3297.2228     9.4940      .0197    50.6096     -.0507     2.5766   425.9159
 3297.3752     9.4965      .0144    49.4340     -.0585     2.5859   423.7900
 3297.5276     9.4991      .0141    50.1829     -.0662     2.5953   397.4655
 3297.6800     9.5016      .0250    50.9345     -.0567     2.5905   371.7859
 3297.8324     9.5041      .0424    52.7193     -.0468     2.6051   416.2850
 3297.9848     9.5066      .0328    54.8834     -.0368     2.5942   452.6378
 3298.1372     9.5092      .0352    54.3844     -.0269     2.5859   444.1094
 3298.2896     9.5117      .0256    52.9066     -.0169     2.5738   423.2124
 3298.4420     9.5142      .0178    52.8242     -.0069     2.5552   415.9796
 3298.5944     9.5148      .0102    51.4600      .0030     2.5272   419.7582
 3298.7468     9.5123      .0243    52.2919      .0130     2.5199   427.9626
 3298.8992     9.5099      .0123    53.6345      .0229     2.4970   416.2029
 3299.0516     9.5074      .0354    53.0119      .0329     2.4896   394.0317
 3299.2040     9.5050      .0283    52.9907      .0350     2.5002   393.3646
 3299.3564     9.5025      .0235    52.6474      .0289     2.5389   373.3857
 3299.5088     9.5001      .0386    49.7322      .0228     2.5931   344.4861
 3299.6612     9.4976      .0094    46.7362      .0167     2.5919   347.4502
 3299.8136     9.4951      .0204    44.4383      .0105     2.6102   397.4427
 3299.9660     9.4927      .0273    42.4367      .0044     2.5983   412.5342
 3300.1184     9.4902      .0313    40.4176     -.0017     2.6107   400.5543
 3300.2708     9.4878      .0228    38.0176     -.0079     2.6043   415.8298
 3300.4232     9.4853      .0113    35.3582     -.0140     2.6177   443.2210
 3300.5756     9.4843      .0059    35.4410     -.0201     2.6089   463.0954
 3300.7280     9.4875      .0119    38.6109     -.0262     2.5979   451.8212
 3300.8804     9.4907      .0195    42.7493     -.0324     2.5933   436.2429
 3301.0328     9.4940      .0086    46.3390     -.0366     2.5926   419.2106
 3301.1852     9.4972      .0189    48.2544     -.0327     2.5914   410.9200
 3301.3376     9.5004      .0138    47.7062     -.0288     2.5647   386.8312
