~VERSION INFORMATION
VERS.                                                 2.0:   CWLS Log ASCII Standard-VERSION 2.0
WRAP.                                                  NO:   One line per depth step
~Well Information Block
STRT.M                                           385.1636:   Top Depth
STOP.M                                          3744.9740:   Bottom Depth
STEP.M                                             .15240:   Depth Increment
NULL.                                            -999.250:   Null Value
FLD .                                             WILDCAT:   Field Name
WELL.                                              15/9-1:   NAME
WBN .                                              15/9-1:   WELLBORE
NATI.                                                 NOR:   COUNTRY
CTRY.                                                 NOR:   COUNTRY
COMP.                                             STATOIL:   OPERATOR
PROV.                                           NORTH SEA:   PROVINCE
COUN.                                            ROSS RIG:   RIG NAME
SPUD.                                          1977/02/24:   SPUD DATE
LATI.                                       58 28 19.00 N:   SURF. LATITUDE
LONG.                                        1 45 11.76 E:   SURF. LONGITUDE
PBWE.                                              15/9-1:   PB WELL ID
APIN.                                              15/9-1:   PB WELLBORE ID
PBWS.                                                 all:   PB WELL NAME SET
~PARAMETER INFORMATION (log)
LNAM.                              FDC/CNL/GR  COMPOSITED:   NAME
LTYP.                                         DEPTH MATCH:   LOG TYPE
LSRV.                                            DEN/NEUT:   LOG SERVICE
LSOU.                                             SPT/NPD:   LOG SOURCE
LVSN.                                                   1:   LOG VERSION
BHIS.                                                   R:   BRIEF HISTORY
FHIS.                                             RAW-LIS:   FULL HISTORY
LCNM.                                        SCHLUMBERGER:   LOGGING CONTRACTOR
TOOL.                             FDC/CNL/GR (COMPOSITED):   TOOL STRING
QCST.                                               final:   QC STATUS
~Curve Information Block
#MNEM.UNIT                                        API CODE    No Description
#=========                                        ========    == ===========
DEPT.M                                       00 001 00 00:     1  DEPTH
CALI.IN                                                  :     2  Caliper
DRHO.G/CC                                                :     3  Bulk density correction
GR.GAPI                                                  :     4  Gamma Ray
NPHI.%                                                   :     5  Neutron porosity
RHOB.G/CC                                                :     6  Bulk density
TENS.LB                                                  :     7  Cable Tension
~ASCII
# ...
 1938.4244    13.4196      .0353    42.8516  -999.2500     1.9803  -999.2500
 1938.5768    12.3214      .0459    42.2804  -999.2500     1.9857  -999.2500
 1938.7292    12.2378      .0297    41.6001  -999.2500     1.9780  -999.2500
 1938.8816    12.2741      .0297    40.4924  -999.2500     1.9891  -999.2500
 1939.0340    12.2890      .0452    40.2663  -999.2500     2.0074  -999.2500
 1939.1864    12.4180      .0474    41.0349  -999.2500     2.0261  -999.2500
 1939.3388    12.3288      .0577    40.3170  -999.2500     2.0666  -999.2500
 1939.4912    12.1813      .0373    39.3761  -999.2500     2.0845  -999.2500
 1939.6436    12.2745      .0459    37.9713  -999.2500     2.1013  -999.2500
 1939.7960    12.3837      .0407    38.8327  -999.2500     2.0914  -999.2500
 1939.9484    12.2490      .0168    39.7362  -999.2500     2.0685  -999.2500
 1940.1008    12.2692      .0183    39.4368  -999.2500     2.0827  -999.2500
 1940.2532    12.2372      .0412    39.2842  -999.2500     2.0764  -999.2500
 1940.4056    12.1938      .0492    40.4702  -999.2500     2.0533  -999.2500
 1940.5580    12.2442      .0146    41.2651  -999.2500     2.0326  -999.2500
 1940.7104    12.2932      .0099    41.2149  -999.2500     2.0569  -999.2500
 1940.8628    12.2317      .0462    40.6372  -999.2500     2.0889  -999.2500
 1941.0152    12.1684      .0437    39.5647  -999.2500     2.1224  -999.2500
 1941.1676    12.0783      .0079    38.6473  -999.2500     2.1357  -999.2500
 1941.3200    12.0500      .0004    36.7418  -999.2500     2.1471  -999.2500
 1941.4724    12.1195      .0273    36.3797  -999.2500     2.1228  -999.2500
 1941.6248    12.2182      .0702    35.7873  -999.2500     2.0971  -999.2500
 1941.7772    12.2355      .0796    34.7910  -999.2500     2.0854  -999.2500
 1941.9296    12.2177      .0825    34.8461  -999.2500     2.1590  -999.2500
 1942.0820    12.3105      .0329    36.4058  -999.2500     2.2579  -999.2500
 1942.2344    12.4594      .0122    35.1540  -999.2500     2.3530  -999.2500
 1942.3868    12.3768      .0362    30.1942  -999.2500     2.3943  -999.2500
 1942.5392    12.4333     -.0076    29.0368  -999.2500     2.3178  -999.2500
 1942.6916    12.5097      .0224    31.8776  -999.2500     2.2038  -999.2500
 1942.8440    12.3149      .0670    35.1774  -999.2500     2.0658  -999.2500
 1942.9964    13.0614      .0492    39.1553  -999.2500     1.9769  -999.2500
 1943.1488    13.6572      .0406    40.2172  -999.2500     1.9501  -999.2500
 1943.3012    14.5044      .0335    42.5519  -999.2500     1.9359  -999.2500
 1943.4536    14.9777      .0147    42.9764  -999.2500     1.9114  -999.2500
 1943.6060    15.5841      .0126    42.5502  -999.2500     1.9075  -999.2500
 1943.7584    15.1123      .0100    42.7094  -999.2500     1.8991  -999.2500
 1943.9108    15.3610      .0023    43.7393  -999.2500     1.9010  -999.2500
 1944.0632    15.4159      .0160    42.9721  -999.2500     1.9163  -999.2500
 1944.2156    14.0335      .0218    43.4872  -999.2500     1.9370  -999.2500
 1944.3680    12.3121      .0131    43.5883  -999.2500     1.9424  -999.2500
 1944.5204    12.1731      .0418    40.3491  -999.2500     1.9904  -999.2500
 1944.6728    12.1952      .0544    36.9130  -999.2500     2.0027  -999.2500
 1944.8252    12.3063      .0354    35.8993  -999.2500     1.9693  -999.2500
 1944.9776    12.8129      .0319    38.8294  -999.2500     1.9478  -999.2500
 1945.1300    13.7295      .0292    40.5140  -999.2500     1.9452  -999.2500
 1945.2824    14.7282      .0458    41.2768  -999.2500     1.9705  -999.2500
 1945.4348    14.5208      .0535    40.3120  -999.2500     1.9959  -999.2500
 1945.5872    14.2803      .0596    39.2145  -999.2500     2.0238  -999.2500
 1945.7396    14.4338      .0754    38.9398  -999.2500     2.0809  -999.2500
 1945.8920    13.8900      .0927    38.3642  -999.2500     2.1690  -999.2500
 1946.0444    13.7383      .0772    35.9768  -999.2500     2.2723  -999.2500
 1946.1968    13.9091      .0665    35.7251  -999.2500     2.3371  -999.2500
 1946.3492    14.1857      .0610    38.1019  -999.2500     2.1887  -999.2500
 1946.5016    14.3096      .0278    41.4437  -999.2500     2.0209  -999.2500
 1946.6540    14.8516      .0355    44.2156  -999.2500     1.9837  -999.2500
 1946.8064    14.2140      .0439    43.8667  -999.2500     1.9926  -999.2500
 1946.9588    14.4528      .0486    43.2630  -999.2500     2.0035  -999.2500
 1947.1112    14.7614      .0538    43.9925  -999.2500     2.0106  -999.2500
 1947.2636    14.9987      .0410    44.5998  -999.2500     1.9941  -999.2500
 1947.4160    15.1804      .0308    46.4828  -999.2500     1.9816  -999.2500
 1947.5684    14.7757      .0233    45.7630  -999.2500     1.9706  -999.2500
 1947.7208    14.3693      .0245    43.5731  -999.2500     1.9595  -999.2500
 1947.8732    14.2438      .0287    44.5646  -999.2500     1.9564  -999.2500
 1948.0256    14.4249      .0388    42.7431  -999.2500     1.9679  -999.2500
 1948.1780    14.7222      .0408    41.0960  -999.2500     1.9579  -999.2500
 1948.3304    14.6548      .0273    42.1566  -999.2500     1.9467  -999.2500
 1948.4828    14.1471      .0257    43.1131  -999.2500     1.9495  -999.2500
 1948.6352    14.2441      .0233    44.2687  -999.2500     1.9585  -999.2500
 1948.7876    13.5636      .0239    45.7236  -999.2500     1.9680  -999.2500
 1948.9400    13.4269      .0226    46.1543  -999.2500     1.9934  -999.2500
 1949.0924    12.8760      .0416    46.3452  -999.2500     2.0170  -999.2500
 1949.2448    12.2139      .0320    45.6414  -999.2500     1.9979  -999.2500
 1949.3972    12.2144      .0113    43.7608  -999.2500     1.9438  -999.2500
 1949.5496    12.1750      .0049    42.4850  -999.2500     1.9033  -999.2500
 1949.7020    12.1632      .0120    42.5173  -999.2500     1.8654  -999.2500
 1949.8544    12.1877      .0148    40.4733  -999.2500     1.8069  -999.2500
 1950.0068    12.2873      .0273    39.9785  -999.2500     1.7500  -999.2500
 1950.1592    12.5709      .0417    39.7595  -999.2500     1.7281  -999.2500
 1950.3116    12.8682      .0418    39.3936  -999.2500     1.7453  -999.2500
 1950.4640    13.0875      .0344    37.6969  -999.2500     1.7790  -999.2500
 1950.6164    13.1263      .0298    36.5051  -999.2500     1.8034  -999.2500
 1950.7688    13.0987      .0236    35.3146  -999.2500     1.8070  -999.2500
 1950.9212    12.7403      .0270    37.0046  -999.2500     1.7901  -999.2500
 1951.0736    11.8448      .0128    39.8748  -999.2500     1.7952  -999.2500
 1951.2260    11.7717      .0214    41.3786  -999.2500     1.8794  -999.2500
 1951.3784    11.8972      .0169    44.1887  -999.2500     1.9176  -999.2500
 1951.5308    11.9698      .0089    45.1774  -999.2500     1.9116  -999.2500
 1951.6832    12.0351      .0066    42.9266  -999.2500     1.9047  -999.2500
 1951.8356    12.0956      .0092    41.9454  -999.2500     1.8975  -999.2500
 1951.9880    12.1465      .0139    42.3635  -999.2500     1.8898  -999.2500
 1952.1404    12.1127      .0178    41.9068  -999.2500     1.8834  -999.2500
 1952.2928    12.0536      .0106    40.7377  -999.2500     1.8721  -999.2500
 1952.4452    12.3605      .0088    40.2354  -999.2500     1.8597  -999.2500
 1952.5976    12.4489      .0053    39.1603  -999.2500     1.8403  -999.2500
 1952.7500    12.6658      .0180    38.1086  -999.2500     1.7982  -999.2500
 1952.9024    12.9353      .0217    37.0588  -999.2500     1.7535  -999.2500
 1953.0548    12.8866      .0136    36.7912  -999.2500     1.7403  -999.2500
 1953.2072    13.3776      .0078    37.5842  -999.2500     1.7971  -999.2500
 1953.3596    14.3903      .0172    39.3906  -999.2500     1.8708  -999.2500
 1953.5120    14.8573      .0164    39.1550  -999.2500     1.9165  -999.2500
 1953.6644    14.7873      .0247    41.5391  -999.2500     1.9454  -999.2500
 1953.8168    14.8032      .0272    43.4200  -999.2500     1.9584  -999.2500
 1953.9692    14.4514      .0216    44.4474  -999.2500     1.9524  -999.2500
 1954.1216    14.2934      .0274    44.1719  -999.2500     1.9545  -999.2500
