~VERSION INFORMATION
VERS.                                                 2.0:   CWLS Log ASCII Standard-VERSION 2.0
WRAP.                                                  NO:   One line per depth step
~Well Information Block
STRT.M                                           474.3176:   Top Depth
STOP.M                                          3047.2868:   Bottom Depth
STEP.M                                             .15240:   Depth Increment
NULL.                                            -999.250:   Null Value
FLD .                                            SLEIPNER:   Field Name
WELL.                                              15/9-9:   NAME
WBN .                                              15/9-9:   WELLBORE
NATI.                                                 NOR:   COUNTRY
CTRY.                                                 NOR:   COUNTRY
COMP.                                             STATOIL:   OPERATOR
PROV.                                     OFFSHORE NORWAY:   PROVINCE
COUN.                                           NORDDRAUG:   RIG NAME
SPUD.                                          1981/05/04:   SPUD DATE
LATI.                                       58 20 47.40 N:   SURF. LATITUDE
LONG.                                        1 53 24.60 E:   SURF. LONGITUDE
PBWE.                                              15/9-9:   PB WELL ID
APIN.                                              15/9-9:   PB WELLBORE ID
PBWS.                                                 all:   PB WELL NAME SET
~PARAMETER INFORMATION (log)
LNAM.                              FDC/CNL/GR  COMPOSITED:   NAME
LTYP.                                         DEPTH MATCH:   LOG TYPE
LSRV.                                            DEN/NEUT:   LOG SERVICE
LSOU.                                             SPT/NPD:   LOG SOURCE
LVSN.                                                   1:   LOG VERSION
BHIS.                                                   R:   BRIEF HISTORY
FHIS.                                             RAW-LIS:   FULL HISTORY
LCNM.                                                 SCH:   LOGGING CONTRACTOR
TOOL.                             FDC/CNL/GR (COMPOSITED):   TOOL STRING
~Curve Information Block
#MNEM.UNIT                                        API CODE    No Description
#=========                                        ========    == ===========
DEPT.M                                       00 001 00 00:     1  DEPTH
CALI.IN                                                  :     2  Caliper
CS.                                                      :     3  Cable Speed
DRHO.G/CC                                                :     4  Bulk density correction
GR.GAPI                                                  :     5  Gamma Ray
NPHI.%                                                   :     6  Neutron porosity
RHOB.G/CC                                                :     7  Bulk density
TENS.LB                                                  :     8  Cable Tension
~ASCII
# ...
 2360.4200    12.6406  2322.0000     -.0130    27.9218    45.5555     2.1933  2394.0000
 2360.5724    12.6354  2322.0000     -.0112    28.4467    39.0050     2.2018  2387.3491
 2360.7248    12.6172  2322.0000     -.0080    27.6536    35.7280     2.2070  2384.0000
 2360.8772    12.6094  2323.3301     -.0117    25.2025    35.2056     2.2038  2381.3398
 2361.0296    12.5886  2325.3276     -.0179    23.4355    35.9828     2.1895  2373.3599
 2361.1820    12.5573  2326.0000     -.0225    22.2207    34.8021     2.1758  2376.6504
 2361.3344    12.5053  2326.0000     -.0350    23.1738    32.7179     2.1563  2386.6504
 2361.4868    12.4844  2326.0000     -.0379    24.4413    29.8394     2.1536  2386.0093
 2361.6392    12.4948  2326.0000     -.0343    25.5345    29.1980     2.1601  2381.3398
 2361.7916    12.5000  2324.6685     -.0238    23.8263    30.3859     2.1699  2382.6621
 2361.9440    12.5208  2324.0000     -.0207    22.9319    32.3207     2.1738  2387.9902
 2362.0964    12.5313  2325.3301     -.0212    23.8366    32.9592     2.1738  2383.3491
 2362.2488    12.5313  2326.0000     -.0226    25.7776    31.2215     2.1738  2380.0000
 2362.4012    12.5313  2326.0000     -.0244    25.8085    29.2661     2.1725  2386.6558
 2362.5536    12.5416  2327.3301     -.0304    26.7261    27.8017     2.1745  2392.6602
 2362.7060    12.5729  2329.3301     -.0342    29.3182    25.8824     2.1745  2424.5928
 2362.8584    12.6015  2332.6602     -.0399    31.3360    23.6202     2.1738  2413.3975
 2363.0108    12.6042  2335.3276     -.0412    34.0692    23.6621     2.1803  2389.3760
 2363.1632    12.5808  2338.6602     -.0428    35.9773    27.3846     2.1875  2377.3491
 2363.3156    12.5599  2342.6602     -.0413    38.3494    31.7481     2.2063  2377.9902
 2363.4680    12.5702  2345.3267     -.0349    38.7840    32.8463     2.2356  2380.0000
 2363.6204    12.6613  2348.6602     -.0189    38.4584    33.9258     2.2942  2389.3110
 2363.7728    12.8539  2351.3311     -.0080    36.7527    39.7820     2.3652  2394.0000
 2363.9252    13.4285  2355.9902     -.0039    32.1445    45.7745     2.4367  2400.6504
 2364.0776    13.3004  2361.9902     -.0088    29.2108    47.4934     2.4895  2397.3491
 2364.2300    13.1094  2369.3203     -.0062    29.2071    40.5604     2.5286  2378.0381
 2364.3824    13.1822  2377.3247      .0034    31.8607    33.3880     2.5631  2356.6880
 2364.5348    13.4733  2383.9902      .0312    35.4526    27.6136     2.5820  2372.6123
 2364.6872    13.4353  2392.6504      .0733    41.0207    26.2842     2.5600  2441.1953
 2364.8396    13.3983  2402.6504      .0699    46.1700    29.6963     2.4546  2563.1089
 2364.9920    13.3389  2415.2959      .0314    48.4863    35.6594     2.3317  2576.7998
 2365.1444    13.3125  2427.9805      .0007    46.6409    40.8782     2.2553  2480.1924
 2365.2968    13.3515  2441.3110     -.0031    45.2506    44.2663     2.2454  2442.6602
 2365.4492    13.3984  2453.9805      .0049    43.9819    45.0525     2.2643  2414.7368
 2365.6016    13.4400  2468.6406      .0000    43.4894    45.9449     2.2598  2402.6602
 2365.7540    14.6647  2485.9805     -.0033    43.2401    46.1430     2.2422  2404.0000
 2365.9064    14.7746  2505.3013     -.0029    43.1561    50.5100     2.2285  2407.9902
 2366.0588    14.1130  2525.3013      .0026    44.2474    62.4279     2.2155  2419.3110
 2366.2112    14.0673  2549.2915     -.0040    44.2617    66.7006     2.1876  2434.6406
 2366.3636    15.0376  2576.6367     -.0091    47.2032    65.5937     2.1641  2442.6626
 2366.5160    14.2634  2605.9517     -.0106    49.1242    61.1263     2.1764  2444.0000
 2366.6684    13.5809  2637.2817     -.0103    50.6114    70.5674     2.2076  2428.0381
 2366.8208    13.3390  2669.2822     -.0065    49.6602    75.8356     2.2421  2429.3110
 2366.9732    13.0317  2702.6123     -.0023    48.2826    70.2405     2.2396  2444.6411
 2367.1256    12.9297  2735.2993      .0010    46.6480    53.7331     2.2324  2436.6880
 2367.2780    12.8725  2764.6216      .0052    44.0983    44.1794     2.2389  2419.3589
 2367.4304    12.8230  2791.2915     -.0042    39.6439    46.9628     2.2344  2427.3013
 2367.5828    12.7969  2817.2915     -.0176    33.6352    48.2765     2.1902  2407.3975
 2367.7352    12.7163  2837.9810     -.0358    29.6072    42.2779     2.1283  2420.6240
 2367.8876    12.5394  2846.6602     -.0452    27.0767    30.2955     2.0918  2437.9902
 2368.0400    12.4687  2848.0000     -.0376    26.5410    22.1764     2.1035  2440.0000
 2368.1924    12.4791  2848.0000     -.0361    25.5911    20.3127     2.1159  2442.6602
 2368.3448    12.5312  2848.0000     -.0340    24.9845    20.6537     2.1211  2430.6880
 2368.4972    12.5703  2848.0000     -.0322    24.6829    20.3950     2.1179  2408.0386
 2368.6496    12.5989  2848.0000     -.0313    25.6276    19.0944     2.1139  2402.6602
 2368.8020    12.6302  2848.0000     -.0288    26.2030    18.2624     2.1068  2407.9902
 2368.9544    12.6406  2848.0000     -.0392    25.3874    18.4075     2.1035  2410.0000
 2369.1068    12.6562  2848.0000     -.0332    23.9079    18.7497     2.1243  2416.6558
 2369.2592    12.6641  2849.3301     -.0251    23.3854    18.4904     2.1594  2413.3491
 2369.4116    12.6641  2848.6699     -.0191    24.4714    18.0183     2.1849  2410.0000
 2369.5640    12.6329  2849.3301     -.0234    26.1275    18.4231     2.1849  2416.6504
 2369.7164    12.6068  2847.3374     -.0295    28.5595    19.5137     2.1777  2413.3438
 2369.8688    12.5652  2846.0000     -.0295    29.7806    20.1490     2.1758  2410.0000
 2370.0212    12.4689  2843.3394     -.0246    28.2696    20.3270     2.1810  2412.6602
 2370.1736    12.4037  2843.3301     -.0163    25.0370    19.8105     2.1940  2411.3398
 2370.3260    12.4322  2844.0000     -.0077    23.2665    19.5637     2.2057  2406.0063
 2370.4784    12.6246  2845.3301     -.0065    22.9948    19.9048     2.2064  2401.3398
 2370.6308    12.7785  2844.6699     -.0125    23.4988    21.2374     2.1999  2400.0000
 2370.7832    12.8333  2845.3301     -.0252    24.8619    22.2483     2.1713  2400.0000
 2370.9356    12.8438  2846.0000     -.0293    25.6817    23.8898     2.1530  2415.9614
 2371.0880    12.8438  2847.3311     -.0197    27.1957    26.8194     2.1595  2434.6494
 2371.2404    12.8334  2846.6699     -.0106    27.5581    29.6833     2.1822  2440.0000
 2371.3928    12.7242  2846.0000     -.0119    29.0221    33.3916     2.1836  2426.6987
 2371.5452    12.5887  2843.3398     -.0257    30.3218    35.4964     2.1550  2422.6602
 2371.6976    12.5105  2842.0000     -.0340    29.8137    36.1973     2.1335  2414.6816
 2371.8500    12.4506  2842.0000     -.0368    28.3464    36.9615     2.1341  2416.6504
 2372.0024    12.3933  2842.0000     -.0347    26.7785    41.9321     2.1419  2413.3491
 2372.1548    12.3698  2842.0000     -.0335    27.5958    51.4314     2.1406  2410.0000
 2372.3072    12.3672  2840.6699     -.0282    28.0162    61.7839     2.1361  2410.0000
 2372.4596    12.3932  2841.3311     -.0251    30.8546    65.6405     2.1218  2412.6621
 2372.6120    12.4270  2842.0000     -.0272    35.0248    67.2655     2.1087  2411.3398
 2372.7644    12.4998  2842.0000     -.0267    39.3470    67.6440     2.1068  2403.3491
 2372.9168    12.8430  2840.6699     -.0207    38.6407    71.0526     2.1256  2396.0098
 2373.0692    12.7244  2840.0000     -.0112    34.2864    74.7497     2.1400  2394.0000
 2373.2216    12.4093  2840.0000     -.0078    30.9936    85.0176     2.1452  2397.9902
 2373.3740    12.3151  2841.3301     -.0130    29.3873    79.7284     2.1283  2433.2529
 2373.5264    12.3333  2842.0000     -.0218    28.4389    64.7862     2.1230  2463.3013
 2373.6788    12.5413  2843.3311     -.0347    27.1266    41.8419     2.1159  2463.3438
 2373.8312    13.0355  2842.6699     -.0441    26.0482    32.5527     2.1178  2426.7466
 2373.9836    13.5721  2843.3301     -.0448    26.3787    32.3244     2.1328  2410.0000
 2374.1360    13.6642  2842.6694     -.0329    26.9161    31.4635     2.1556  2416.6504
