~VERSION INFORMATION
VERS.                                                 2.0:   CWLS Log ASCII Standard-VERSION 2.0
WRAP.                                                  NO:   One line per depth step
~Well Information Block
STRT.M                                           474.3176:   Top Depth
STOP.M                                          3047.2868:   Bottom Depth
STEP.M                                             .15240:   Depth Increment
NULL.                                            -999.250:   Null Value
FLD .                                            SLEIPNER:   Field Name
WELL.                                              15/9-9:   NAME
WBN .                                              15/9-9:   WELLBORE
NATI.                                                 NOR:   COUNTRY
CTRY.                                                 NOR:   COUNTRY
COMP.                                             STATOIL:   OPERATOR
PROV.                                     OFFSHORE NORWAY:   PROVINCE
COUN.                                           NORDDRAUG:   RIG NAME
SPUD.                                          1981/05/04:   SPUD DATE
LATI.                                       58 20 47.40 N:   SURF. LATITUDE
LONG.                                        1 53 24.60 E:   SURF. LONGITUDE
PBWE.                                              15/9-9:   PB WELL ID
APIN.                                              15/9-9:   PB WELLBORE ID
PBWS.                                                 all:   PB WELL NAME SET
~PARAMETER INFORMATION (log)
LNAM.                              FDC/CNL/GR  COMPOSITED:   NAME
LTYP.                                         DEPTH MATCH:   LOG TYPE
LSRV.                                            DEN/NEUT:   LOG SERVICE
LSOU.                                             SPT/NPD:   LOG SOURCE
LVSN.                                                   1:   LOG VERSION
BHIS.                                                   R:   BRIEF HISTORY
FHIS.                                             RAW-LIS:   FULL HISTORY
LCNM.                                                 SCH:   LOGGING CONTRACTOR
TOOL.                             FDC/CNL/GR (COMPOSITED):   TOOL STRING
~Curve Information Block
#MNEM.UNIT                                        API CODE    No Description
#=========                                        ========    == ===========
DEPT.M                                       00 001 00 00:     1  DEPTH
CALI.IN                                                  :     2  Caliper
CS.                                                      :     3  Cable Speed
DRHO.G/CC                                                :     4  Bulk density correction
GR.GAPI                                                  :     5  Gamma Ray
NPHI.%                                                   :     6  Neutron porosity
RHOB.G/CC                                                :     7  Bulk density
TENS.LB                                                  :     8  Cable Tension
~ASCII
# ...
 2873.5508    10.0863  1857.0000      .0420    69.9159    32.8894     2.5117  2879.9038
 2873.7032     9.9792  1857.3333      .0485    69.7708    33.9097     2.5026  2901.3335
 2873.8556    10.0027  1858.0000      .0513    69.5821    35.3377     2.4935  2867.3281
 2874.0080    10.0100  1857.6682      .0301    72.0995    46.1689     2.4661  2875.9902
 2874.1604    10.1176  1857.0000      .0261    74.7052    62.5864     2.4636  2883.3174
 2874.3128    10.0101  1857.0000      .0197    77.4099    64.8177     2.4512  2884.6919
 2874.4652    10.2238  1857.0000      .0246    79.8132    55.2942     2.4577  2877.3281
 2874.6176    10.3025  1857.3318      .0363    79.0204    37.3913     2.4792  2884.0000
 2874.7700    10.1613  1858.0000      .0347    77.8606    34.1198     2.4844  2882.6729
 2874.9224    10.1566  1858.3315      .0298    76.4108    32.1766     2.4851  2873.3652
 2875.0748    10.0521  1859.3333      .0215    79.0208    31.9794     2.4779  2868.0000
 2875.2272    10.1484  1860.0000      .0285    79.6037    30.4886     2.4857  2879.3408
 2875.3796    10.1095  1860.0000      .0239    79.8765    30.0950     2.4694  2873.3174
 2875.5320    10.1195  1860.0000      .0282    78.7524    30.8184     2.4603  2873.3652
 2875.6844    10.2083  1859.3333      .0334    76.3333    33.2953     2.4596  2866.6665
 2875.8368    10.1563  1858.0000      .0448    72.7928    34.3347     2.4629  2883.3276
 2875.9892    10.1485  1858.0000      .0348    72.1421    33.8668     2.4460  2897.9614
 2876.1416    10.1743  1858.3315      .0331    74.6827    32.6188     2.4330  2906.0381
 2876.2940    10.2889  1859.6633      .0349    75.7338    31.6798     2.4439  2884.6919
 2876.4464    10.3750  1861.0000      .0523    73.2509    32.6994     2.4772  2879.3247
 2876.5988    10.3752  1861.3315      .0470    72.3531    36.0784     2.4837  2883.3652
 2876.7512    10.3434  1862.6633      .0430    73.8492    38.8231     2.4864  2870.0000
 2876.9036    10.4428  1864.0000      .0322    76.1863    39.9682     2.4791  2870.0000
 2877.0560    10.3568  1864.3333      .0291    77.0833    44.4520     2.4987  2878.0000
 2877.2084    10.3931  1865.0000      .0226    77.3966    59.3569     2.5078  2903.9839
 2877.3608    10.5523  1865.6633      .0259    76.8107    72.3743     2.5156  2914.0479
 2877.5132    10.4609  1867.6633      .0400    76.7124    66.6307     2.5169  2870.7788
 2877.6656    10.4323  1869.6665      .0524    75.8333    48.3191     2.5163  2824.0000
 2877.8180    10.3463  1871.6655      .0453    76.7512    32.6029     2.5007  2865.9326
 2877.9704    10.3542  1873.9951      .0266    76.4733    30.4023     2.4766  2956.6343
 2878.1228    10.4579  1876.6633      .0171    78.7094    31.2162     2.4642  2943.4614
 2878.2752    10.7107  1878.6633      .0286    79.1001    31.5746     2.4758  2890.0000
 2878.4276    10.7786  1880.6665      .0430    79.7292    31.4477     2.5013  2890.0000
 2878.5800    10.5601  1882.3328      .0451    77.3545    31.2933     2.5026  2884.6748
 2878.7324    10.3901  1883.9951      .0495    76.6472    30.5909     2.4962  2875.9902
 2878.8848    10.4745  1886.9951      .0525    77.3687    31.1794     2.4798  2876.6826
 2879.0372    10.1797  1890.0000      .0623    79.1875    31.5698     2.4844  2870.0000
 2879.1896    10.1249  1893.3313      .0396    77.1049    33.2824     2.4642  2876.6558
 2879.3420    10.2344  1897.6587      .0339    76.0838    34.7293     2.4603  2883.3652
 2879.4944    10.2447  1902.6587      .0257    77.0361    35.4746     2.4616  2863.3652
 2879.6468    10.2734  1907.3333      .0321    79.1875    34.1954     2.4740  2850.0000
 2879.7992    10.2397  1911.3311      .0345    77.3149    31.5721     2.4740  2873.2959
 2879.9516    10.2002  1914.9951      .0371    73.5868    30.9804     2.4740  2936.5864
 2880.1040    10.3074  1917.3318      .0314    72.4567    32.0189     2.4707  2934.8364
 2880.2564    10.2657  1918.3315      .0291    73.9958    33.5207     2.4753  2864.0000
 2880.4088    10.2318  1919.0000      .0247    76.5000    32.8194     2.4753  2859.3330
 2880.5612    10.1486  1919.0000      .0267    77.7920    30.1276     2.4779  2854.6592
 2880.7136    10.0181  1919.3318      .0290    77.7067    28.2441     2.4857  2869.3076
 2880.8660    10.1144  1920.3315      .0379    78.6445    28.5963     2.4811  2883.3174
 2881.0184    10.2214  1921.3333      .0465    79.3750    29.8340     2.4733  2881.3330
 2881.1708    10.1928  1922.3328      .0425    79.3548    31.8840     2.4564  2862.6685
 2881.3232    10.0469  1923.0000      .0423    77.8368    32.9742     2.4525  2876.5864
 2881.4756     9.9871  1922.6682      .0374    77.6812    33.2840     2.4407  2896.7305
 2881.6280    10.1745  1922.0000      .0402    79.7500    32.3812     2.4434  2870.0000
 2881.7804    10.5081  1921.6670      .0435    78.6042    30.8581     2.4557  2870.0000
 2881.9328    10.1020  1921.0000      .0453    77.0075    32.3527     2.4753  2861.3750
 2882.0852    10.0929  1920.6682      .0376    74.4763    33.4616     2.4629  2853.9517
 2882.2376    10.4842  1919.6682      .0334    75.5009    33.9939     2.4519  2874.0000
 2882.3900    10.6406  1919.0000      .0231    75.3750    32.8027     2.4473  2872.6665
 2882.5424    10.5941  1919.0000      .0200    76.3742    31.6780     2.4681  2866.6719
 2882.6948    10.1043  1919.0000      .0109    76.9396    32.5757     2.4739  2861.3267
 2882.8472    10.2128  1918.6682      .0114    75.9174    32.6535     2.4850  2872.6250
 2882.9996    10.4010  1917.6665      .0238    74.6250    32.9368     2.4902  2893.3330
 2883.1520    10.2083  1917.3328      .0330    72.3546    32.6525     2.4785  2890.0161
 2883.3044    10.3797  1918.0000      .0402    70.9832    32.5337     2.4642  2866.6826
 2883.4568    10.5859  1918.0000      .0358    70.2870    31.9832     2.4544  2864.6440
 2883.6092    10.4141  1918.0000      .0423    73.5417    32.0372     2.4701  2889.3335
 2883.7616    10.0026  1918.0000      .0549    77.5625    32.5300     2.4902  2903.3330
 2883.9140    10.0207  1918.3328      .0513    79.9799    31.6583     2.4915  2868.0029
 2884.0664    10.0917  1918.3364      .0438    78.3161    31.3318     2.4902  2867.3174
 2884.2188    10.0460  1916.6682      .0409    75.3404    31.1364     2.5032  2869.3555
 2884.3712    10.3698  1915.3333      .0381    72.5417    30.8105     2.5234  2863.3335
 2884.5236    10.1383  1913.6670      .0373    73.4158    29.8994     2.5313  2870.0000
 2884.6760     9.8670  1913.3315      .0207    76.1794    28.5344     2.5039  2873.3174
 2884.8284     9.9143  1914.0000      .0199    78.1319    27.8670     2.4935  2876.6826
 2884.9808     9.8568  1914.3333      .0098    74.8958    27.9637     2.4993  2881.3335
 2885.1332    10.0207  1915.3328      .0190    73.5843    35.3391     2.5267  2902.6685
 2885.2856    10.0865  1916.3315      .0405    73.8678    83.4160     2.5391  2888.0576
 2885.4380     9.8878  1917.3318      .0570    77.7665   152.2941     2.5287  2865.9902
 2885.5904     9.9531  1918.0000      .0423    79.8125   150.5996     2.4902  2883.3330
 2885.7428     9.9635  1918.0000      .0309    80.4167   105.4818     2.4707  2916.6665
 2885.8952    10.0104  1917.3345      .0309    79.4810    40.0914     2.4720  2916.6880
 2886.0476    10.0441  1916.0000      .0387    75.4459    43.5206     2.4746  2888.0098
 2886.2000    10.1354  1916.0000      .0316    72.0204    51.6515     2.4649  2879.3560
 2886.3524    10.0417  1916.0000      .0212    72.4583    52.7364     2.4427  2874.6665
 2886.5048     9.9478  1915.6672      .0251    75.7456    49.3289     2.4433  2884.0000
 2886.6572    10.2210  1915.0000      .0305    80.6695    43.1938     2.4518  2884.0000
 2886.8096    10.4630  1915.0000      .0161    79.8317    48.1094     2.4570  2885.9902
 2886.9620    10.5990  1915.3333      .0127    79.4167    51.1974     2.4772  2884.6665
 2887.1144    10.1957  1916.3328      .0161    76.9380    55.0540     2.4844  2880.6558
 2887.2668     9.6852  1917.0000      .0572    76.1259    52.6786     2.5175  2895.9902
