~VERSION INFORMATION
VERS.                                                 2.0:   CWLS Log ASCII Standard-VERSION 2.0
WRAP.                                                  NO:   One line per depth step
~Well Information Block
STRT.M                                           474.3176:   Top Depth
STOP.M                                          3047.2868:   Bottom Depth
STEP.M                                             .15240:   Depth Increment
NULL.                                            -999.250:   Null Value
FLD .                                            SLEIPNER:   Field Name
WELL.                                              15/9-9:   NAME
WBN .                                              15/9-9:   WELLBORE
NATI.                                                 NOR:   COUNTRY
CTRY.                                                 NOR:   COUNTRY
COMP.                                             STATOIL:   OPERATOR
PROV.                                     OFFSHORE NORWAY:   PROVINCE
COUN.                                           NORDDRAUG:   RIG NAME
SPUD.                                          1981/05/04:   SPUD DATE
LATI.                                       58 20 47.40 N:   SURF. LATITUDE
LONG.                                        1 53 24.60 E:   SURF. LONGITUDE
PBWE.                                              15/9-9:   PB WELL ID
APIN.                                              15/9-9:   PB WELLBORE ID
PBWS.                                                 all:   PB WELL NAME SET
~PARAMETER INFORMATION (log)
LNAM.                              FDC/CNL/GR  COMPOSITED:   NAME
LTYP.                                         DEPTH MATCH:   LOG TYPE
LSRV.                                            DEN/NEUT:   LOG SERVICE
LSOU.                                             SPT/NPD:   LOG SOURCE
LVSN.                                                   1:   LOG VERSION
BHIS.                                                   R:   BRIEF HISTORY
FHIS.                                             RAW-LIS:   FULL HISTORY
LCNM.                                                 SCH:   LOGGING CONTRACTOR
TOOL.                             FDC/CNL/GR (COMPOSITED):   TOOL STRING
~Curve Information Block
#MNEM.UNIT                                        API CODE    No Description
#=========                                        ========    == ===========
DEPT.M                                       00 001 00 00:     1  DEPTH
CALI.IN                                                  :     2  Caliper
CS.                                                      :     3  Cable Speed
DRHO.G/CC                                                :     4  Bulk density correction
GR.GAPI                                                  :     5  Gamma Ray
NPHI.%                                                   :     6  Neutron porosity
RHOB.G/CC                                                :     7  Bulk density
TENS.LB                                                  :     8  Cable Tension
~ASCII
# ...
  640.7384    20.1203  2376.1587      .0379    61.7067  -999.2500     2.2322  1067.6079
  640.8908    20.4849  2377.8364      .0468    61.8747  -999.2500     2.2406  1060.8179
  641.0432    20.5863  2378.0000      .0285    60.5805  -999.2500     2.2173  1060.0000
  641.1956    20.4182  2378.0000      .0282    63.6416  -999.2500     2.2137  1060.8069
  641.3480    20.2314  2378.0000      .0186    66.2984  -999.2500     2.2027  1068.4375
  641.5004    20.4498  2378.0000      .0132    68.0249  -999.2500     2.2072  1060.7417
  641.6528    20.0405  2377.8638      .0079    69.0498  -999.2500     2.2134  1062.0398
  641.8052    20.6402  2376.0005     -.0000    67.4893  -999.2500     2.2030  1086.9456
  641.9576    20.8390  2374.1050      .0182    65.5061  -999.2500     2.2154  1070.2690
  642.1100    20.4601  2374.0000      .0168    62.6056  -999.2500     2.2060  1056.6780
  642.2624    21.4961  2374.0601      .0281    61.2759  -999.2500     2.2137  1078.7839
  642.4148    20.5751  2375.9658      .0033    60.8726  -999.2500     2.1880  1065.3406
  642.5672    21.1850  2376.0049     -.0024    63.8970  -999.2500     2.1894  1070.0337
  642.7196    20.8886  2377.9746     -.0017    63.6447  -999.2500     2.1898  1089.0696
  642.8720    20.4299  2378.0000      .0180    64.8475  -999.2500     2.2204  1038.4363
  643.0244    20.2621  2378.0000      .0366    62.9693  -999.2500     2.2421  1104.2139
  643.1768    20.3767  2377.9014      .0436    63.8086  -999.2500     2.2603  1042.4194
  643.3292    20.2583  2376.2339      .0420    61.4865  -999.2500     2.2510  1103.2600
  643.4816    20.2469  2377.7354      .0257    61.8623  -999.2500     2.2275  1072.6543
  643.6340    20.2212  2376.0005      .0189    60.0910  -999.2500     2.2151  1070.0000
  643.7864    20.4230  2374.1543      .0065    61.3096  -999.2500     2.2078  1070.7681
  643.9388    20.7692  2374.1602      .0063    61.9025  -999.2500     2.2088  1079.1953
  644.0912    20.5655  2375.8359      .0075    63.8360  -999.2500     2.2085  1078.3687
  644.2436    20.8047  2376.0000      .0118    64.2346  -999.2500     2.2047  1062.0496
  644.3960    21.0257  2376.0000      .0246    64.2874  -999.2500     2.2151  1063.7932
  644.5484    21.4464  2376.1548      .0159    64.0723  -999.2500     2.2097  1058.4863
  644.7008    22.7311  2377.8530      .0121    63.9284  -999.2500     2.2102  1085.6021
  644.8532    21.1160  2378.1338     -.0018    63.7002  -999.2500     2.2044  1066.3499
  645.0056    20.9051  2379.8799      .0043    63.7070  -999.2500     2.2155  1063.2808
  645.1580    20.6019  2379.8989      .0178    64.9433  -999.2500     2.2376  1104.1726
  645.3104    20.7137  2378.0005      .0273    66.3669  -999.2500     2.2473  1050.4402
  645.4628    21.0909  2376.0571      .0251    67.5592  -999.2500     2.2397  1111.1611
  645.6152    21.3898  2376.0288      .0124    66.5520  -999.2500     2.2153  1051.5479
  645.7676    21.6406  2378.0000      .0146    64.7500  -999.2500     2.2207  1090.0000
  645.9200    20.9452  2378.0000      .0131    65.8508  -999.2500     2.2226  1070.1602
  646.0724    20.7291  2378.0571      .0087    65.4948  -999.2500     2.2203  1061.2891
  646.2248    20.8436  2379.9189      .0028    66.9267  -999.2500     2.2056  1092.3701
  646.3772    20.6437  2380.0000      .0044    66.6574  -999.2500     2.2017  1067.8088
  646.5296    20.9808  2380.0000      .0067    64.8448  -999.2500     2.2075  1087.3074
  646.6820    20.6347  2379.8652      .0133    65.0482  -999.2500     2.2190  1070.0081
  646.8344    20.5591  2378.1465      .0034    63.1694  -999.2500     2.2088  1055.4844
  646.9868    20.4869  2378.0000     -.0066    64.8113  -999.2500     2.1979  1095.6917
  647.1392    20.6081  2377.8394     -.0030    62.0376  -999.2500     2.2141  1049.6643
  647.2916    20.7050  2376.0010      .0035    58.8941  -999.2500     2.2268  1086.8105
  647.4440    20.5256  2374.0010      .0263    56.4029  -999.2500     2.2556  1056.9565
  647.5964    20.5457  2372.1606      .0125    58.7812  -999.2500     2.2274  1087.1890
  647.7488    20.2837  2372.1533      .0125    62.4844  -999.2500     2.2221  1093.0801
  647.9012    20.3649  2374.1431      .0087    64.4074  -999.2500     2.2150  1075.3677
  648.0536    20.5663  2377.6035      .0191    62.3008  -999.2500     2.2305  1061.9797
  648.2060    21.0020  2376.1167      .0185    62.1398  -999.2500     2.2225  1076.1687
  648.3584    21.0379  2376.0000      .0154    61.9768  -999.2500     2.2106  1105.8289
  648.5108    21.4134  2376.0000     -.0004    63.0765  -999.2500     2.1941  1062.5142
  648.6632    20.8754  2375.9478     -.0027    63.8426  -999.2500     2.1955  1074.6050
  648.8156    20.8735  2374.0005      .0024    64.5803  -999.2500     2.2049  1075.0615
  648.9680    20.7661  2372.0054      .0083    66.7394  -999.2500     2.2032  1079.9741
  649.1204    20.8305  2372.0000      .0063    64.9018  -999.2500     2.2126  1075.1755
  649.2728    21.0365  2372.0000      .0017    64.4142  -999.2500     2.2073  1079.3896
  649.4252    21.3830  2372.0850      .0052    61.5167  -999.2500     2.2092  1066.4849
  649.5776    21.2590  2373.8950      .0249    62.9047  -999.2500     2.2164  1083.1614
  649.7300    21.4720  2374.0000      .0347    64.1400  -999.2500     2.2151  1070.9172
  649.8824    20.9171  2374.0000      .0230    67.7966  -999.2500     2.1903  1070.3423
  650.0348    21.0220  2374.1479      .0057    66.0393  -999.2500     2.1766  1076.4810
  650.1872    21.0573  2375.8433      .0047    64.7112  -999.2500     2.1982  1095.3010
  650.3396    20.8695  2376.0000      .0245    60.9463  -999.2500     2.2514  1071.4639
  650.4920    20.7580  2375.8364      .0461    62.7655  -999.2500     2.2793  1100.5808
  650.6444    20.5884  2374.0005      .0590    64.5952  -999.2500     2.2825  1051.0134
  650.7968    20.5293  2372.3188      .0537    65.2880  -999.2500     2.2560  1102.2083
  650.9492    20.6369  2373.8472      .0368    64.3101  -999.2500     2.2296  1128.5059
  651.1016    20.8494  2374.1426      .0275    63.4907  -999.2500     2.2164  1086.4224
  651.2540    20.5903  2376.0000      .0314    66.4946  -999.2500     2.2216  1109.1509
  651.4064    20.4905  2377.8862      .0253    67.2500  -999.2500     2.2150  1063.9839
  651.5588    20.9398  2377.9048      .0096    67.6758  -999.2500     2.2089  1073.5742
  651.7112    20.5947  2376.0732     -.0001    65.7062  -999.2500     2.2017  1062.0166
  651.8636    20.6235  2376.0479      .0016    68.7855  -999.2500     2.2089  1097.7231
  652.0160    20.6154  2377.9795      .0078    70.9943  -999.2500     2.2129  1046.0586
  652.1684    21.1838  2377.9888      .0156    72.5974  -999.2500     2.2226  1094.5867
  652.3208    21.1063  2376.0005      .0134    69.2988  -999.2500     2.2209  1070.6917
  652.4732    21.5984  2374.0654      .0193    68.2178  -999.2500     2.2301  1079.9958
  652.6256    20.9418  2374.0879      .0196    64.6674  -999.2500     2.2301  1088.2351
  652.7780    21.2572  2375.8921      .0202    65.5628  -999.2500     2.2217  1063.7771
  652.9304    21.0215  2376.1250      .0004    63.8362  -999.2500     2.1995  1094.9949
  653.0828    21.4269  2377.8608     -.0009    65.2236  -999.2500     2.2070  1066.2461
  653.2352    21.1836  2378.1494      .0002    65.7734  -999.2500     2.2165  1101.7742
  653.3876    21.0292  2379.8423      .0077    66.4902  -999.2500     2.2205  1061.0249
  653.5400    21.1174  2379.8374      .0015    67.1605  -999.2500     2.2043  1117.4270
  653.6924    21.9375  2378.0000      .0144    68.0028  -999.2500     2.2179  1065.6721
  653.8448    21.2132  2376.1626      .0250    66.9542  -999.2500     2.2256  1101.8652
  653.9972    21.5642  2375.8413      .0208    65.1386  -999.2500     2.2203  1070.5447
  654.1496    22.1409  2374.0000      .0094    62.5230  -999.2500     2.1925  1084.3394
  654.3020    21.8661  2372.1411      .0108    64.5823  -999.2500     2.1974  1048.4441
  654.4544    21.6267  2372.0000      .0189    66.4385  -999.2500     2.2069  1103.9282
