~VERSION INFORMATION
VERS.                                                 2.0:   CWLS Log ASCII Standard-VERSION 2.0
WRAP.                                                  NO:   One line per depth step
~Well Information Block
STRT.M                                           474.3176:   Top Depth
STOP.M                                          3047.2868:   Bottom Depth
STEP.M                                             .15240:   Depth Increment
NULL.                                            -999.250:   Null Value
FLD .                                            SLEIPNER:   Field Name
WELL.                                              15/9-9:   NAME
WBN .                                              15/9-9:   WELLBORE
NATI.                                                 NOR:   COUNTRY
CTRY.                                                 NOR:   COUNTRY
COMP.                                             STATOIL:   OPERATOR
PROV.                                     OFFSHORE NORWAY:   PROVINCE
COUN.                                           NORDDRAUG:   RIG NAME
SPUD.                                          1981/05/04:   SPUD DATE
LATI.                                       58 20 47.40 N:   SURF. LATITUDE
LONG.                                        1 53 24.60 E:   SURF. LONGITUDE
PBWE.                                              15/9-9:   PB WELL ID
APIN.                                              15/9-9:   PB WELLBORE ID
PBWS.                                                 all:   PB WELL NAME SET
~PARAMETER INFORMATION (log)
LNAM.                              FDC/CNL/GR  COMPOSITED:   NAME
LTYP.                                         DEPTH MATCH:   LOG TYPE
LSRV.                                            DEN/NEUT:   LOG SERVICE
LSOU.                                             SPT/NPD:   LOG SOURCE
LVSN.                                                   1:   LOG VERSION
BHIS.                                                   R:   BRIEF HISTORY
FHIS.                                             RAW-LIS:   FULL HISTORY
LCNM.                                                 SCH:   LOGGING CONTRACTOR
TOOL.                             FDC/CNL/GR (COMPOSITED):   TOOL STRING
~Curve Information Block
#MNEM.UNIT                                        API CODE    No Description
#=========                                        ========    == ===========
DEPT.M                                       00 001 00 00:     1  DEPTH
CALI.IN                                                  :     2  Caliper
CS.                                                      :     3  Cable Speed
DRHO.G/CC                                                :     4  Bulk density correction
GR.GAPI                                                  :     5  Gamma Ray
NPHI.%                                                   :     6  Neutron porosity
RHOB.G/CC                                                :     7  Bulk density
TENS.LB                                                  :     8  Cable Tension
~ASCII
# ...
 2526.8408    12.4896  2826.6699      .0130    13.7714    11.4893     2.5313  2580.0000
 2526.9932    12.5078  2827.3301      .0104    13.9368    11.9463     2.5026  2593.3013
 2527.1456    12.5208  2826.6689      .0010    15.4662    12.8567     2.4746  2593.3437
 2527.2980    12.5390  2824.6699     -.0062    15.4297    15.2622     2.4519  2590.0000
 2527.4504    12.5677  2822.6699     -.0015    14.9243    17.4613     2.4414  2583.3491
 2527.6028    12.5781  2822.0000     -.0063    13.9944    17.6767     2.4109  2580.0000
 2527.7552    12.5729  2822.0000     -.0116    14.0159    16.0830     2.3887  2580.0000
 2527.9076    12.5599  2823.3301     -.0135    14.1307    14.9912     2.3887  2576.0098
 2528.0600    12.5547  2824.0000     -.0047    15.0959    14.8923     2.4218  2584.6406
 2528.2124    12.5391  2826.6602     -.0023    15.1310    14.8765     2.4245  2603.3013
 2528.3648    12.5313  2828.0000     -.0067    13.9312    14.7789     2.4037  2599.3760
 2528.5172    12.5260  2828.0000     -.0099    12.1143    15.1042     2.3874  2598.0000
 2528.6696    12.5182  2826.6699     -.0104    12.7511    16.9718     2.3971  2596.0093
 2528.8220    12.5208  2824.6699     -.0122    15.2099    19.4767     2.4121  2591.3394
 2528.9744    12.5390  2822.6699     -.0116    16.6514    21.2854     2.4264  2590.0000
 2529.1268    12.5625  2823.3311     -.0094    16.1438    21.9073     2.4394  2590.0000
 2529.2792    12.5703  2822.6699     -.0029    15.5413    21.3557     2.4486  2599.3105
 2529.4316    12.5911  2822.0000      .0010    16.1178    21.1423     2.4551  2604.0000
 2529.5840    12.6120  2823.3301      .0050    16.5281    20.6718     2.4609  2597.3491
 2529.7364    12.6172  2824.0000      .0114    15.1857    20.7352     2.4811  2591.3374
 2529.8888    12.6172  2825.3301      .0247    14.1332    20.5412     2.4889  2599.3105
 2530.0412    12.6120  2826.0000      .0209    14.0647    19.3222     2.4636  2607.9902
 2530.1936    12.5938  2826.0000      .0025    14.5636    18.0195     2.4135  2616.6504
 2530.3460    12.5859  2824.6719     -.0093    14.8714    17.4324     2.3880  2613.3599
 2530.4984    12.5963  2822.6699     -.0085    14.2681    17.4964     2.3900  2616.6504
 2530.6508    12.5808  2823.3301     -.0049    14.9402    17.6106     2.4121  2611.6313
 2530.8032    12.5703  2825.3301     -.0039    15.3856    18.4063     2.4453  2580.6826
 2530.9556    12.4976  2826.0000     -.0065    14.2991    18.9287     2.4661  2572.6729
 2531.1080    12.4245  2827.3311     -.0052    14.3284    18.9616     2.4694  2571.3311
 2531.2604    12.3959  2828.0000     -.0020    15.2079    17.7763     2.4662  2574.0000
 2531.4128    12.3750  2829.3301      .0146    17.4796    17.5122     2.4817  2572.6729
 2531.5652    12.3672  2828.6699      .0225    17.2501    18.1954     2.4915  2571.3267
 2531.7176    12.3724  2828.0000      .0234    16.6771    18.9120     2.5052  2579.3330
 2531.8700    12.3698  2826.6699      .0077    15.1544    18.9462     2.5052  2588.0029
 2532.0224    12.3568  2824.6694     -.0008    14.1536    18.8460     2.5058  2570.7310
 2532.1748    12.3308  2822.6699     -.0016    14.4180    18.1995     2.4831  2557.2690
 2532.3272    12.2736  2823.3301      .0003    15.8601    18.3907     2.4655  2595.9424
 2532.4796    12.1980  2824.0000     -.0018    17.5628    18.2948     2.4434  2603.3599
 2532.6320    12.0784  2825.3301     -.0054    16.9803    18.6348     2.4375  2564.6924
 2532.7844    11.4129  2827.3301      .0011    16.2719    18.3769     2.4408  2560.6348
 2532.9368    10.0572  2826.6699      .0062    16.1494    19.2193     2.4375  2582.6250
 2533.0892     9.6300  2826.0000      .0075    17.0777    19.4504     2.4251  2583.3599
 2533.2416    10.4798  2824.6699      .0007    17.7181    19.2871     2.4069  2551.3267
 2533.3940    11.6466  2822.6699      .0006    18.0933    19.8716     2.4147  2562.6250
 2533.5464    12.1819  2819.3394      .0060    18.3590    21.3351     2.4336  2581.3267
 2533.6988    12.2474  2816.6719      .0081    18.3549    21.0809     2.4433  2577.3652
 2533.8512    12.2474  2816.0000      .0054    17.6880    20.1022     2.4440  2565.9966
 2534.0036    12.2864  2817.3301      .0075    16.6735    19.9353     2.4525  2566.6826
 2534.1560    12.3047  2818.0000      .0112    16.3681    19.2570     2.4596  2558.0093
 2534.3084    12.3047  2819.3301      .0086    17.0678    18.9628     2.4596  2557.3174
 2534.4608    12.2943  2820.0000      .0029    17.1145    18.9950     2.4473  2569.3247
 2534.6132    12.2839  2821.3301      .0013    16.5503    19.5473     2.4427  2573.3652
 2534.7656    12.2812  2822.0000      .0015    14.8841    20.0841     2.4421  2558.0093
 2534.9180    12.2864  2822.0000      .0024    14.2047    19.4042     2.4336  2555.9805
 2535.0704    12.3019  2819.3374      .0064    14.2078    18.4250     2.4258  2561.3311
 2535.2228    12.5000  2818.0000     -.0162    14.6288    17.4819     2.3978  2565.9902
 2535.3752    12.4766  2818.0000     -.0254    13.9669    17.4650     2.3828  2566.6826
 2535.5276    12.4687  2816.6699     -.0182    13.5525    18.5343     2.4166  2564.6440
 2535.6800    12.4740  2817.3276     -.0085    13.9038    18.8338     2.4453  2572.6729
 2535.8324    12.4557  2816.6699     -.0002    15.1065    19.5746     2.4635  2566.6719
 2535.9848    12.4609  2817.3301      .0070    15.6552    19.4352     2.4726  2566.6348
 2536.1372    12.4558  2816.6699      .0103    15.9511    19.2184     2.4727  2581.3267
 2536.2896    12.4375  2816.0000      .0024    15.5813    18.5261     2.4577  2577.3652
 2536.4420    12.4011  2814.6685     -.0010    15.2736    18.2616     2.4512  2565.9966
 2536.5944    12.3283  2811.3398     -.0047    15.1975    18.0680     2.4381  2571.3267
 2536.7468    12.2630  2808.6699      .0003    15.4501    17.8196     2.4362  2575.9902
 2536.8992    12.2319  2808.0000     -.0007    16.0604    17.4200     2.4199  2578.0093
 2537.0516    12.1953  2808.0000     -.0008    16.5234    17.4117     2.4089  2570.6665
 2537.2040    12.1538  2808.0000     -.0052    15.9788    16.7956     2.3945  2567.3281
 2537.3564    12.0519  2808.0000     -.0021    15.7250    15.7227     2.3984  2579.3076
 2537.5088    12.2365  2809.3301     -.0010    14.0191    14.5219     2.4127  2584.6924
 2537.6612    12.4245  2810.0000     -.0036    13.5759    14.3745     2.4284  2575.9902
 2537.8136    12.4271  2810.0000     -.0067    14.1524    15.3480     2.4394  2576.6719
 2537.9660    12.4609  2810.0000     -.0063    16.6515    16.5507     2.4583  2566.6826
 2538.1184    12.5128  2808.6699     -.0062    18.8117    18.1772     2.4778  2558.0098
 2538.2708    12.5911  2804.0093     -.0078    19.0733    20.1141     2.4896  2565.9424
 2538.4232    12.6016  2803.3311     -.0104    18.1679    21.7601     2.4870  2599.9839
 2538.5756    12.6067  2804.0000     -.0077    17.1073    22.2803     2.4740  2620.0000
 2538.7280    12.6172  2805.3301     -.0073    17.5436    21.3873     2.4623  2610.0479
 2538.8804    12.6016  2807.3301     -.0055    16.7032    20.4793     2.4525  2588.0093
 2539.0328    12.5703  2808.0000     -.0020    16.3307    20.3776     2.4609  2582.6665
 2539.1852    12.5755  2808.0000     -.0007    16.1398    20.9384     2.4674  2576.6719
 2539.3376    12.5859  2808.0000     -.0005    17.3012    21.5841     2.4701  2566.6826
 2539.4900    12.5859  2806.6694     -.0049    17.6614    20.4676     2.4623  2558.0093
 2539.6424    12.5911  2804.6699     -.0041    17.6719    19.9818     2.4551  2559.3076
 2539.7948    12.6068  2801.3374     -.0049    17.8331    19.8768     2.4499  2570.0000
 2539.9472    12.6535  2800.0000     -.0062    18.1614    21.7019     2.4499  2570.0000
 2540.0996    12.6903  2800.0000     -.0047    17.8453    22.5263     2.4635  2570.0000
 2540.2520    12.6172  2800.0000      .0010    17.4311    22.5798     2.4772  2571.3267
 2540.4044    12.6250  2800.0000      .0039    17.9115    22.2194     2.4694  2579.3247
 2540.5568    12.6639  2801.3301      .0024    18.2897    24.2419     2.4512  2586.6826
