~VERSION INFORMATION
VERS.                                                 2.0:   CWLS Log ASCII Standard-VERSION 2.0
WRAP.                                                  NO:   One line per depth step
~Well Information Block
STRT.M                                           474.3176:   Top Depth
STOP.M                                          3047.2868:   Bottom Depth
STEP.M                                             .15240:   Depth Increment
NULL.                                            -999.250:   Null Value
FLD .                                            SLEIPNER:   Field Name
WELL.                                              15/9-9:   NAME
WBN .                                              15/9-9:   WELLBORE
NATI.                                                 NOR:   COUNTRY
CTRY.                                                 NOR:   COUNTRY
COMP.                                             STATOIL:   OPERATOR
PROV.                                     OFFSHORE NORWAY:   PROVINCE
COUN.                                           NORDDRAUG:   RIG NAME
SPUD.                                          1981/05/04:   SPUD DATE
LATI.                                       58 20 47.40 N:   SURF. LATITUDE
LONG.                                        1 53 24.60 E:   SURF. LONGITUDE
PBWE.                                              15/9-9:   PB WELL ID
APIN.                                              15/9-9:   PB WELLBORE ID
PBWS.                                                 all:   PB WELL NAME SET
~PARAMETER INFORMATION (log)
LNAM.                              FDC/CNL/GR  COMPOSITED:   NAME
LTYP.                                         DEPTH MATCH:   LOG TYPE
LSRV.                                            DEN/NEUT:   LOG SERVICE
LSOU.                                             SPT/NPD:   LOG SOURCE
LVSN.                                                   1:   LOG VERSION
BHIS.                                                   R:   BRIEF HISTORY
FHIS.                                             RAW-LIS:   FULL HISTORY
LCNM.                                                 SCH:   LOGGING CONTRACTOR
TOOL.                             FDC/CNL/GR (COMPOSITED):   TOOL STRING
~Curve Information Block
#MNEM.UNIT                                        API CODE    No Description
#=========                                        ========    == ===========
DEPT.M                                       00 001 00 00:     1  DEPTH
CALI.IN                                                  :     2  Caliper
CS.                                                      :     3  Cable Speed
DRHO.G/CC                                                :     4  Bulk density correction
GR.GAPI                                                  :     5  Gamma Ray
NPHI.%                                                   :     6  Neutron porosity
RHOB.G/CC                                                :     7  Bulk density
TENS.LB                                                  :     8  Cable Tension
~ASCII
# ...
 2013.7100    16.3503  2928.6699     -.0005    38.7901    46.8435     2.1081  2137.9902
 2013.8624    15.8653  2925.3418      .0028    39.0835    46.6958     2.1172  2153.2905
 2014.0148    15.7526  2924.0000      .0042    38.7092    47.1507     2.1159  2166.6504
 2014.1672    15.7967  2924.0000      .0024    37.3060    46.7792     2.1068  2163.3545
 2014.3196    16.1165  2925.3301     -.0002    36.0848    45.1223     2.0970  2149.3589
 2014.4720    16.4733  2926.0000     -.0055    34.4314    43.9508     2.1054  2137.3545
 2014.6244    16.0592  2927.3286     -.0091    34.0406    44.7720     2.1152  2140.6426
 2014.7768    15.6098  2928.0000     -.0065    34.0005    46.7738     2.1250  2154.6411
 2014.9292    15.3443  2928.0000     -.0007    35.9206    50.4625     2.1315  2166.6450
 2015.0816    15.4916  2928.0000      .0047    38.0598    49.0305     2.1341  2170.0000
 2015.2340    15.5730  2928.0000      .0005    38.9780    51.1603     2.1270  2159.3672
 2015.3864    15.7261  2926.6699     -.0083    38.9276    52.3940     2.1191  2151.3394
 2015.5388    15.6775  2924.6709     -.0190    36.0713    53.7220     2.1042  2150.0000
 2015.6912    15.6613  2924.0000     -.0207    34.1056    49.7998     2.1042  2150.0000
 2015.8436    15.3500  2925.3291     -.0179    32.8572    47.4121     2.1009  2152.6582
 2015.9960    15.1069  2924.6699     -.0103    34.2663    47.8018     2.1093  2164.6406
 2016.1484    15.0340  2925.3291     -.0046    35.7587    46.6352     2.1178  2156.7095
 2016.3008    15.0572  2926.0000     -.0028    36.8002    42.7324     2.1217  2152.6602
 2016.4532    15.2650  2926.0000     -.0037    35.0278    38.9393     2.1243  2154.0000
 2016.6056    15.2919  2927.3281     -.0063    33.6676    40.7934     2.1289  2160.6426
 2016.7580    15.1851  2928.0000     -.0076    32.2531    45.2078     2.1348  2161.3394
 2016.9104    14.8992  2928.0000     -.0081    33.9041    48.6915     2.1406  2162.6582
 2017.0628    14.7059  2926.6699      .0040    35.3119    50.0967     2.1556  2164.0000
 2017.2152    14.7549  2923.3418      .0171    37.5765    49.6765     2.1660  2164.0000
 2017.3676    15.5139  2923.3301      .0069    39.3837    49.4302     2.1420  2161.3398
 2017.5200    15.2364  2925.3291     -.0227    40.0200    48.5846     2.1068  2173.2905
 2017.6724    14.7790  2926.0000     -.0316    40.4888    46.2373     2.1256  2180.0000
 2017.8248    14.6902  2927.3291     -.0212    40.0748    46.7223     2.1679  2160.0640
 2017.9772    14.6641  2926.6694     -.0075    39.3032    47.4285     2.1687  2146.0093
 2018.1296    14.7341  2926.0000     -.0052    38.7718    50.6244     2.1310  2154.6323
 2018.2820    14.9501  2926.0000     -.0057    37.7937    51.3693     2.1022  2182.6123
 2018.4344    15.3194  2926.0000     -.0037    37.3750    51.5442     2.1048  2171.4058
 2018.5868    15.1236  2923.3428     -.0046    37.1259    48.2228     2.1055  2149.3716
 2018.7392    14.8076  2919.3398     -.0086    37.8729    47.2635     2.1048  2144.0000
 2018.8916    14.6928  2916.6709     -.0281    38.5825    48.4514     2.1327  2167.9233
 2019.0440    14.5316  2916.0000     -.0530    36.9522    49.1529     2.2348  2182.6602
 2019.1964    14.3208  2914.6709     -.0240    36.0210    47.2397     2.4532  2168.0513
 2019.3488    14.1825  2914.0000      .0271    37.3301    44.4703     2.5410  2153.3491
 2019.5012    14.2678  2915.3291      .0321    39.6821    46.7185     2.3840  2143.3545
 2019.6536    14.6866  2914.6694      .0053    39.7415    49.9472     2.2034  2153.3013
 2019.8060    14.7841  2914.0000     -.0099    39.9460    54.4803     2.1121  2169.3032
 2019.9584    14.9344  2914.0000     -.0109    40.6033    54.0095     2.0944  2167.3491
 2020.1108    14.9221  2914.0000     -.0154    41.7165    50.1367     2.0788  2181.2915
 2020.2632    14.7684  2912.6689     -.0145    39.7133    45.9529     2.0768  2179.3545
 2020.4156    14.7655  2909.3398     -.0143    36.8061    47.2915     2.1048  2174.0000
 2020.5680    15.0279  2909.3291     -.0181    33.6014    48.8753     2.1860  2167.3545
 2020.7204    14.9978  2911.3301     -.0091    30.9826    46.9011     2.2740  2157.3491
 2020.8728    14.6831  2912.0000      .0204    29.7049    45.7884     2.3073  2164.6323
 2021.0252    15.2587  2913.3301      .0304    29.6921    47.2773     2.2274  2163.3491
 2021.1776    16.1597  2915.3291      .0102    30.9599    47.9820     2.1168  2166.6450
 2021.3300    16.5518  2918.6602     -.0050    31.5312    45.7085     2.0509  2170.0000
 2021.4824    16.1058  2920.0000     -.0059    31.7908    43.8987     2.0339  2159.3672
 2021.6348    15.6489  2920.0000     -.0029    31.3919    45.2109     2.0410  2193.9038
 2021.7872    15.4690  2918.6709     -.0055    30.3359    45.4933     2.0514  2211.3418
 2021.9396    15.3310  2915.3398     -.0038    29.7505    42.2597     2.0703  2192.7085
 2022.0920    15.5826  2915.3301     -.0036    29.6251    39.6998     2.0794  2184.0000
 2022.2444    16.0047  2917.3306      .0031    32.5306    39.9723     2.0827  2170.6934
 2022.3968    16.5251  2919.3301      .0000    33.6675    42.2968     2.0697  2164.0000
 2022.5492    16.5007  2922.6577     -.0031    34.3307    42.5803     2.0651  2157.3545
 2022.7016    15.9022  2925.3301     -.0013    32.8795    43.0806     2.0729  2164.6411
 2022.8540    15.9366  2927.3286      .0096    33.3289    45.1283     2.0892  2196.5811
 2023.0064    15.9274  2929.3301      .0137    33.7403    46.4668     2.0931  2203.3491
 2023.1588    15.8464  2928.6709      .0034    33.0954    46.1769     2.0814  2200.0000
 2023.3112    16.0828  2929.3301     -.0054    30.9525    44.0474     2.0762  2180.0479
 2023.4636    15.9487  2928.6709     -.0067    29.5016    45.5813     2.0788  2170.0000
 2023.6160    15.2592  2924.0093     -.0015    30.3307    46.8911     2.0853  2172.6602
 2023.7684    15.5009  2922.0000     -.0019    32.1418    46.4034     2.0879  2184.6323
 2023.9208    15.6046  2922.0000     -.0018    33.2593    44.1691     2.0905  2183.3491
 2024.0732    15.6222  2922.0000     -.0065    33.2298    44.0399     2.0853  2173.3491
 2024.2256    15.6355  2923.3291     -.0057    32.2631    44.9691     2.0833  2170.0000
 2024.3780    15.3314  2924.0000     -.0081    31.0540    46.0916     2.0801  2163.3491
 2024.5304    15.8001  2926.6577     -.0200    29.5452    43.6453     2.0872  2166.6450
 2024.6828    16.0470  2928.0000     -.0220    30.6678    42.3499     2.1178  2183.3013
 2024.8352    16.0779  2928.0000     -.0192    30.7265    45.1573     2.1516  2179.3672
 2024.9876    16.0678  2926.6699     -.0059    32.2714    47.1177     2.1543  2174.0000
 2025.1400    15.2785  2923.3418     -.0044    31.6821    48.9696     2.1218  2158.0513
 2025.2924    15.2128  2923.3301     -.0072    31.3998    48.0672     2.0866  2172.6123
 2025.4448    16.0401  2924.0000     -.0115    32.1135    49.8472     2.0671  2181.3398
 2025.5972    16.3022  2924.0000     -.0156    35.0259    52.0815     2.0586  2173.3467
 2025.7496    16.2137  2925.3301     -.0208    37.1648    52.5066     2.0644  2163.3491
 2025.9020    16.1875  2926.0000     -.0158    35.9615    55.2191     2.0879  2169.3145
 2026.0544    16.2602  2927.3301     -.0168    33.2650    57.8583     2.1119  2184.6411
 2026.2068    15.8348  2926.6709     -.0161    31.4922    57.4902     2.1347  2196.6450
 2026.3592    15.3989  2926.0000     -.0098    31.4210    52.1763     2.1686  2186.6987
 2026.5116    14.4870  2927.3291     -.0028    32.2168    47.5170     2.1700  2182.6582
 2026.6640    14.3535  2926.6694      .0034    32.3442    44.6981     2.1485  2181.3398
 2026.8164    14.6168  2924.6709     -.0005    32.4992    44.5940     2.1095  2166.7095
 2026.9688    14.5758  2922.6694     -.0060    31.4300    44.5196     2.0847  2179.9517
 2027.1212    14.5650  2922.0000     -.0034    30.9943    46.4273     2.0827  2170.0640
 2027.2736    14.7834  2924.6602     -.0028    30.2364    49.0969     2.0788  2182.6123
 2027.4260    14.4620  2926.0000     -.0050    30.3217    49.4477     2.0723  2191.3394
