~VERSION INFORMATION
VERS.                                                 2.0:   CWLS Log ASCII Standard-VERSION 2.0
WRAP.                                                  NO:   One line per depth step
~Well Information Block
STRT.M                                           474.3176:   Top Depth
STOP.M                                          3047.2868:   Bottom Depth
STEP.M                                             .15240:   Depth Increment
NULL.                                            -999.250:   Null Value
FLD .                                            SLEIPNER:   Field Name
WELL.                                              15/9-9:   NAME
WBN .                                              15/9-9:   WELLBORE
NATI.                                                 NOR:   COUNTRY
CTRY.                                                 NOR:   COUNTRY
COMP.                                             STATOIL:   OPERATOR
PROV.                                     OFFSHORE NORWAY:   PROVINCE
COUN.                                           NORDDRAUG:   RIG NAME
SPUD.                                          1981/05/04:   SPUD DATE
LATI.                                       58 20 47.40 N:   SURF. LATITUDE
LONG.                                        1 53 24.60 E:   SURF. LONGITUDE
PBWE.                                              15/9-9:   PB WELL ID
APIN.                                              15/9-9:   PB WELLBORE ID
PBWS.                                                 all:   PB WELL NAME SET
~PARAMETER INFORMATION (log)
LNAM.                              FDC/CNL/GR  COMPOSITED:   NAME
LTYP.                                         DEPTH MATCH:   LOG TYPE
LSRV.                                            DEN/NEUT:   LOG SERVICE
LSOU.                                             SPT/NPD:   LOG SOURCE
LVSN.                                                   1:   LOG VERSION
BHIS.                                                   R:   BRIEF HISTORY
FHIS.                                             RAW-LIS:   FULL HISTORY
LCNM.                                                 SCH:   LOGGING CONTRACTOR
TOOL.                             FDC/CNL/GR (COMPOSITED):   TOOL STRING
~Curve Information Block
#MNEM.UNIT                                        API CODE    No Description
#=========                                        ========    == ===========
DEPT.M                                       00 001 00 00:     1  DEPTH
CALI.IN                                                  :     2  Caliper
CS.                                                      :     3  Cable Speed
DRHO.G/CC                                                :     4  Bulk density correction
GR.GAPI                                                  :     5  Gamma Ray
NPHI.%                                                   :     6  Neutron porosity
RHOB.G/CC                                                :     7  Bulk density
TENS.LB                                                  :     8  Cable Tension
~ASCII
# ...
 1153.8692    15.7009  2263.9985     -.0658    42.8853    62.4412     1.7423  1466.6987
 1154.0216    15.8041  2261.9995     -.1294    43.0308    59.3101     1.6616  1473.2905
 1154.1740    16.4752  2260.0723     -.1476    42.2624    55.6886     1.6552  1509.9277
 1154.3264    16.4230  2260.0000     -.1152    41.8230    55.2070     1.7338  1521.6772
 1154.4788    16.0630  2260.0000     -.0709    42.0827    56.6864     1.8225  1493.3975
 1154.6312    15.7453  2260.0000     -.0409    42.4058    53.7846     1.8678  1470.0239
 1154.7836    15.8615  2259.8560     -.0205    43.8099    50.4426     1.8789  1508.2466
 1154.9360    15.2907  2258.1519     -.0090    45.4248    48.3268     1.8682  1539.9758
 1155.0884    15.1270  2257.8403     -.0054    47.8998    50.9335     1.8519  1515.0959
 1155.2408    15.4162  2255.9985     -.0166    48.5945    50.7694     1.8175  1503.3252
 1155.3932    14.9394  2253.8359     -.0400    47.1292    51.9951     1.7768  1501.6772
 1155.5456    14.7212  2249.9971     -.0576    45.0971    49.9262     1.7539  1496.6746
 1155.6980    14.6799  2245.8428     -.0481    43.7417    50.4165     1.7704  1485.0320
 1155.8504    14.7913  2240.1445     -.0326    42.1177    49.0943     1.7800  1506.6025
 1156.0028    14.2229  2236.2729     -.0322    42.2793    46.7313     1.7715  1513.3494
 1156.1552    14.3818  3480.0000     -.0420    44.0182    50.3659     1.7734  1490.0400
 1156.3076    14.5471  3481.3301     -.0319    47.9713    51.4186     1.8433  1499.9519
 1156.4600    14.3207  3483.3306     -.0035    52.0368    53.2505     1.9413  1503.3467
 1156.6124    14.2941  3484.0000      .0132    53.8735    52.3326     2.0016  1500.0000
 1156.7648    15.1546  3485.3306      .0174    56.1627    49.9700     2.0104  1506.6533
 1156.9172    15.0975  3487.3301      .0080    57.2602    48.9917     1.9942  1526.6265
 1157.0696    15.2332  3489.3291      .0058    61.2374    48.4435     1.9905  1498.4507
 1157.2220    15.5310  3488.6699      .0012    63.9046    50.3721     1.9863  1473.3494
 1157.3744    15.6223  3485.3418     -.0039    64.6238    48.4462     1.9873  1476.6453
 1157.5268    14.8820  3482.6699     -.0000    62.4016    43.1569     1.9958  1486.6506
 1157.6792    15.2009  3483.3291     -.0018    62.9111    43.3040     1.9977  1490.0000
 1157.8316    14.8377  3484.0000      .0026    64.3424    47.7132     2.0055  1503.3013
 1157.9840    14.4714  3485.3301      .0039    67.0774    52.1419     2.0111  1483.3975
 1158.1364    14.6299  3486.0000      .0085    66.8571    52.1187     2.0143  1479.9800
 1158.2888    15.2305  3486.0000      .0174    64.5039    49.4351     2.0325  1504.9519
 1158.4412    15.2271  3487.3306      .0150    60.3816    49.4771     2.0358  1498.3667
 1158.5936    14.9794  3488.0000      .0077    58.0745    47.9866     2.0332  1476.6987
 1158.7460    15.1454  3488.0000     -.0070    58.0619    45.4458     2.0033  1463.3467
 1158.8984    15.1643  3484.0098     -.0080    59.2371    43.2164     1.9798  1473.3013
 1159.0508    15.2833  3480.6709     -.0054    59.0855    42.8698     1.9535  1506.5813
 1159.2032    14.8892  3481.3301     -.0024    59.5190    45.3071     1.9385  1520.0000
 1159.3556    14.8301  3483.3291     -.0052    59.9270    46.8249     1.9307  1490.0959
 1159.5080    15.3012  3485.3301     -.0080    58.7321    46.0473     1.9381  1478.3252
 1159.6604    15.7310  3486.0000     -.0044    58.3742    46.5625     1.9531  1476.6772
 1159.8128    16.0646  3487.3301     -.0015    58.1467    46.6157     1.9665  1475.0000
 1159.9652    15.4704  3489.3301      .0094    60.4212    47.8156     1.9863  1465.0239
 1160.1176    15.6006  3491.3306      .0098    60.9701    45.8063     1.9935  1466.6533
 1160.2700    15.7918  3492.0000      .0086    60.6042    46.4769     1.9847  1483.3013
 1160.4224    15.6149  3492.0000     -.0031    59.6373    48.4219     1.9447  1503.3066
 1160.5748    15.4507  3489.3398     -.0164    59.4888    50.7573     1.9027  1500.0239
 1160.7272    15.4634  3486.6694     -.0236    60.0097    50.4095     1.8906  1465.0601
 1160.8796    15.5130  3482.0093     -.0199    58.6288    47.3528     1.9082  1476.6025
 1161.0320    16.2555  3480.0000     -.0067    57.0339    45.1367     1.9300  1496.6453
 1161.1844    16.3029  3480.0000     -.0005    56.9160    45.3758     1.9073  1496.6746
 1161.3368    15.8029  3481.3301     -.0065    56.6676    47.8303     1.8666  1478.3733
 1161.4892    15.6796  3483.3306     -.0130    54.9510    51.2485     1.8509  1446.7134
 1161.6416    15.8382  3485.3301     -.0124    52.2754    51.2399     1.8918  1444.9758
 1161.7940    15.9478  3487.3306      .0053    53.2253    50.0825     1.9612  1486.5933
 1161.9464    15.9532  3489.3301      .0111    56.5152    46.2975     1.9977  1501.6746
 1162.0988    15.9193  3490.0000     -.0006    60.0162    46.1231     1.9870  1483.3667
 1162.2512    15.8803  3488.6699     -.0111    59.5664    44.6182     1.9649  1465.0239
 1162.4036    15.9659  3484.0078     -.0111    58.4797    45.5362     1.9554  1460.0000
 1162.5560    15.8649  3482.0000     -.0085    56.3278    45.0558     1.9470  1473.3013
 1162.7084    15.9814  3482.0000     -.0091    55.0422    45.8790     1.9447  1483.3267
 1162.8608    15.8443  3482.0000     -.0146    53.3475    49.4075     1.9479  1481.6746
 1163.0132    16.0225  3482.0000     -.0087    51.6903    48.7046     1.9706  1480.0000
 1163.1656    15.7406  3483.3301     -.0031    53.4738    49.6372     1.9892  1463.3733
 1163.3180    15.5546  3484.0000      .0047    54.8016    49.3373     1.9906  1468.3013
 1163.4704    15.5495  3482.6689      .0073    58.6903    50.6550     1.9821  1484.9800
 1163.6228    15.6430  3483.3301      .0062    60.0118    50.1332     1.9714  1476.6987
 1163.7752    15.6537  3485.3306      .0036    58.7831    47.5478     1.9665  1476.6533
 1163.9276    15.9186  3486.0000     -.0008    55.3613    47.8649     1.9580  1476.6746
 1164.0800    15.6623  3486.0000      .0005    52.5235    49.2010     1.9515  1475.0000
 1164.2324    15.4402  3483.3398      .0055    53.1531    54.5290     1.9586  1458.3733
 1164.3848    15.5077  3480.6689      .0070    54.3115    55.2120     1.9648  1466.6333
 1164.5372    15.4326  3480.0000      .0062    56.6616    53.9397     1.9606  1488.3013
 1164.6896    15.2348  3482.6582     -.0003    58.9647    50.0932     1.9353  1491.6772
 1164.8420    15.1329  3485.3301     -.0054    60.1341    47.6252     1.9212  1463.3975
 1164.9944    15.2833  3486.0000     -.0041    58.3088    52.6683     1.9316  1453.3225
 1165.1468    15.0658  3487.3301      .0062    54.6729    54.4618     1.9641  1471.6267
 1165.2992    14.8517  3489.3301      .0072    53.0425    54.5884     1.9801  1470.0239
 1165.4516    14.9451  3490.0000      .0005    52.6047    48.1905     1.9847  1468.3267
 1165.6040    15.3248  3488.6699     -.0033    53.4456    43.7851     1.9935  1489.9519
 1165.7564    14.9074  3484.0078      .0003    56.5572    45.1135     2.0003  1490.0200
 1165.9088    14.7575  3479.3394      .0031    60.1404    47.7660     2.0000  1465.0481
 1166.0612    14.4903  3479.3306      .0005    62.2169    49.6399     1.9841  1481.6133
 1166.2136    14.7204  3480.0000     -.0065    59.5077    49.7893     1.9629  1504.9758
 1166.3660    14.9635  3480.0000     -.0151    57.6775    47.8226     1.9515  1496.6934
 1166.5184    14.4180  3480.0000     -.0213    56.3363    49.5176     1.9499  1480.0239
 1166.6708    14.0185  3481.3301     -.0168    57.2775    49.3083     1.9658  1478.3252
 1166.8232    14.3768  3482.0000     -.0107    58.2496    48.7626     1.9827  1476.6733
 1166.9756    15.0640  3483.3301     -.0080    58.2606    49.1042     1.9957  1498.2771
 1167.1280    14.3431  3484.0000     -.0060    56.5346    48.7964     1.9981  1503.3467
 1167.2804    13.9997  3485.3301     -.0067    53.0480    48.3567     1.9769  1480.0481
 1167.4328    13.9923  3484.6689     -.0038    51.1366    46.3255     1.9558  1496.6133
 1167.5852    14.0155  3482.6699     -.0062    51.5712    47.5371     1.9411  1523.3013
