~VERSION INFORMATION
VERS.                                                 2.0:   CWLS Log ASCII Standard-VERSION 2.0
WRAP.                                                  NO:   One line per depth step
~Well Information Block
STRT.M                                           474.3176:   Top Depth
STOP.M                                          3047.2868:   Bottom Depth
STEP.M                                             .15240:   Depth Increment
NULL.                                            -999.250:   Null Value
FLD .                                            SLEIPNER:   Field Name
WELL.                                              15/9-9:   NAME
WBN .                                              15/9-9:   WELLBORE
NATI.                                                 NOR:   COUNTRY
CTRY.                                                 NOR:   COUNTRY
COMP.                                             STATOIL:   OPERATOR
PROV.                                     OFFSHORE NORWAY:   PROVINCE
COUN.                                           NORDDRAUG:   RIG NAME
SPUD.                                          1981/05/04:   SPUD DATE
LATI.                                       58 20 47.40 N:   SURF. LATITUDE
LONG.                                        1 53 24.60 E:   SURF. LONGITUDE
PBWE.                                              15/9-9:   PB WELL ID
APIN.                                              15/9-9:   PB WELLBORE ID
PBWS.                                                 all:   PB WELL NAME SET
~PARAMETER INFORMATION (log)
LNAM.                              FDC/CNL/GR  COMPOSITED:   NAME
LTYP.                                         DEPTH MATCH:   LOG TYPE
LSRV.                                            DEN/NEUT:   LOG SERVICE
LSOU.                                             SPT/NPD:   LOG SOURCE
LVSN.                                                   1:   LOG VERSION
BHIS.                                                   R:   BRIEF HISTORY
FHIS.                                             RAW-LIS:   FULL HISTORY
LCNM.                                                 SCH:   LOGGING CONTRACTOR
TOOL.                             FDC/CNL/GR (COMPOSITED):   TOOL STRING
~Curve Information Block
#MNEM.UNIT                                        API CODE    No Description
#=========                                        ========    == ===========
DEPT.M                                       00 001 00 00:     1  DEPTH
CALI.IN                                                  :     2  Caliper
CS.                                                      :     3  Cable Speed
DRHO.G/CC                                                :     4  Bulk density correction
GR.GAPI                                                  :     5  Gamma Ray
NPHI.%                                                   :     6  Neutron porosity
RHOB.G/CC                                                :     7  Bulk density
TENS.LB                                                  :     8  Cable Tension
~ASCII
# ...
 1334.1584    15.3959  3418.0000     -.0298    42.7278    47.0709     1.9502  1615.0200
 1334.3108    15.3698  3416.6699     -.0171    44.9953    49.8789     1.9668  1596.6987
 1334.4632    15.2814  3416.0000     -.0056    44.7005    54.7133     1.9902  1606.6333
 1334.6156    15.0707  3414.6699     -.0031    45.0809    57.8578     1.9968  1641.6025
 1334.7680    15.0571  3412.6689     -.0033    45.3027    56.9688     1.9821  1635.0400
 1334.9204    15.1613  3410.6699     -.0120    45.5303    53.2637     1.9516  1608.3733
 1335.0728    15.2369  3411.3306     -.0137    46.0722    49.5412     1.9401  1603.3267
 1335.2252    15.1175  3413.3301     -.0073    45.2316    49.7520     1.9515  1608.3252
 1335.3776    15.1820  3414.0000     -.0059    44.3029    50.8943     1.9518  1626.6333
 1335.5300    15.1305  3416.6602     -.0128    42.7013    54.3380     1.9330  1621.6987
 1335.6824    15.1015  3419.3306     -.0226    42.2911    53.9103     1.9118  1608.3467
 1335.8348    14.9509  3421.3301     -.0252    42.3959    51.2572     1.9085  1601.6746
 1335.9872    14.8880  3422.0000     -.0372    43.3510    47.4543     1.8978  1616.6133
 1336.1396    14.9919  3422.0000     -.0438    45.5258    45.9473     1.8910  1634.9680
 1336.2920    15.1221  3422.0000     -.0414    46.4373    49.1583     1.8997  1623.3933
 1336.4444    15.1225  3419.3418     -.0352    45.8457    51.7871     1.9147  1601.7092
 1336.5968    15.1431  3415.3428     -.0392    43.9744    51.6138     1.9160  1601.6426
 1336.7492    15.0135  3414.0000     -.0441    43.5613    50.8477     1.9063  1621.6133
 1336.9016    14.8078  3414.0000     -.0355    44.7049    51.7700     1.9101  1643.2852
 1337.0540    14.9602  3414.0000     -.0233    45.1044    52.4735     1.9218  1653.3225
 1337.2064    15.1118  3414.0000     -.0199    45.3324    52.0525     1.9232  1635.0720
 1337.3588    15.1484  3415.3301     -.0346    43.2034    52.4561     1.8978  1615.0239
 1337.5112    15.1770  3416.0000     -.0469    41.3980    54.8274     1.8754  1600.0320
 1337.6636    15.2135  3416.0000     -.0587    38.7971    55.3723     1.8610  1614.9519
 1337.8160    15.2629  3416.0000     -.0430    39.6291    54.4131     1.8960  1638.2905
 1337.9684    15.0840  3414.6714     -.0285    41.2893    53.4689     1.9309  1628.3933
 1338.1208    14.8079  3412.6709     -.0153    41.6665    52.5848     1.9586  1603.3867
 1338.2732    14.7914  3410.6714     -.0166    40.7949    49.6731     1.9460  1608.2852
 1338.4256    15.1708  3411.3291     -.0285    41.3821    48.2100     1.9145  1638.2585
 1338.5780    15.8004  3413.3286     -.0424    41.5534    49.9933     1.8816  1643.3572
 1338.7304    15.4238  3414.0000     -.0594    40.6482    54.7241     1.8565  1610.0959
 1338.8828    15.2625  3414.0000     -.0606    39.2018    55.6351     1.8606  1598.3213
 1339.0352    15.1594  3414.0000     -.0584    40.5875    59.4750     1.8701  1629.9038
 1339.1876    15.5322  3414.0000     -.0528    41.8946    60.8266     1.8870  1658.2852
 1339.3400    15.6149  3414.0000     -.0527    42.7276    58.6793     1.8880  1655.0239
 1339.4924    15.1030  3414.0000     -.0584    44.3916    52.9778     1.8731  1623.4187
 1339.6448    15.0127  3411.3398     -.0544    45.3742    51.9010     1.8672  1610.0000
 1339.7972    15.1768  3407.3418     -.0477    45.9050    55.2811     1.8717  1623.2905
 1339.9496    15.2733  3404.6714     -.0313    43.8519    55.5054     1.9091  1646.6064
 1340.1020    15.3644  3404.0000     -.0191    44.0893    54.1853     1.9430  1631.7412
 1340.2544    15.4503  3405.3286     -.0156    45.0303    53.5167     1.9538  1620.0000
 1340.4068    15.8348  3407.3291     -.0207    46.6722    51.6170     1.9408  1633.2905
 1340.5592    15.2476  3409.3286     -.0251    48.2886    54.3975     1.9362  1630.0361
 1340.7116    15.3110  3410.0000     -.0194    48.7395    56.1202     1.9622  1621.6772
 1340.8640    15.8764  3411.3286     -.0216    49.7256    57.9683     1.9681  1620.0000
 1341.0164    15.4810  3413.3286     -.0189    49.2427    57.3781     1.9648  1616.6772
 1341.1688    15.1486  3415.3286     -.0155    49.8087    54.6809     1.9551  1615.0000
 1341.3212    14.9276  3414.6699     -.0151    50.0944    53.8086     1.9586  1615.0000
 1341.4736    14.6724  3411.3418     -.0200    51.0694    54.0563     1.9571  1631.6133
 1341.6260    14.6925  3410.0000     -.0280    50.0455    56.5535     1.9385  1653.3013
 1341.7784    15.1575  3410.0000     -.0243    48.3778    55.0705     1.9248  1636.7415
 1341.9308    15.2219  3411.3286     -.0262    48.5395    51.6351     1.9121  1605.0720
 1342.0832    14.9563  3413.3286     -.0317    47.7847    48.8013     1.9085  1614.9358
 1342.2356    15.0618  3414.0000     -.0475    47.1255    50.6898     1.8897  1634.9639
 1342.3880    15.6936  3414.0000     -.0576    44.1136    50.8666     1.8708  1633.3547
 1342.5404    15.5717  3415.3286     -.0623    45.4689    53.3579     1.8558  1620.0359
 1342.6928    15.3282  3414.6699     -.0526    44.9318    56.1981     1.8733  1628.3013
 1342.8452    15.2891  3412.6709     -.0417    45.5573    59.0099     1.8919  1644.9680
 1342.9976    15.0526  3412.0000     -.0397    45.7723    56.2755     1.8962  1640.0239
 1343.1500    14.7921  3409.3418     -.0287    47.4416    52.3988     1.9030  1641.6453
 1343.3024    14.5577  3406.6699     -.0217    47.1905    49.0130     1.9024  1641.6746
 1343.4548    14.5441  3406.0000     -.0203    44.3612    50.9177     1.9004  1640.0000
 1343.6072    14.8376  3406.0000     -.0288    40.9666    54.5336     1.8790  1640.0000
 1343.7596    15.4256  3407.3291     -.0364    39.4387    57.1888     1.8643  1616.7415
 1343.9120    15.2618  3409.3286     -.0417    40.1426    55.0238     1.8552  1621.6064
 1344.0644    15.0002  3411.3291     -.0383    42.1720    52.5746     1.8710  1633.3225
 1344.2168    14.7560  3413.3286     -.0285    43.6123    51.4509     1.9003  1638.3213
 1344.3692    14.7938  3414.0000     -.0174    44.2905    54.1372     1.9147  1646.6453
 1344.5216    14.5662  3414.0000     -.0169    45.7973    56.5145     1.9060  1650.0000
 1344.6740    14.1647  3415.3301     -.0205    48.1106    60.5641     1.8868  1633.3733
 1344.8264    13.6237  3413.3418     -.0218    48.0030    62.3699     1.8760  1638.2905
 1344.9788    14.0687  3410.6699     -.0324    46.9493    60.9247     1.8467  1641.6746
 1345.1312    14.6632  3410.0000     -.0467    45.7633    57.2848     1.8220  1633.3547
 1345.2836    14.1162  3411.3301     -.0503    46.8712    54.8363     1.8268  1623.3494
 1345.4360    14.0486  3412.0000     -.0401    47.5316    53.1451     1.8554  1623.3225
 1345.5884    13.9592  3413.3286     -.0238    46.0572    51.3065     1.8834  1638.2852
 1345.7408    13.8437  3415.3291     -.0155    43.7032    49.4181     1.8858  1654.9680
 1345.8932    13.9994  3416.0000     -.0106    41.9409    51.3416     1.8841  1653.3574
 1346.0456    14.2027  3417.3291     -.0146    42.1125    55.7517     1.8666  1633.3867
 1346.1980    13.9439  3418.0000     -.0195    42.1261    59.6271     1.8535  1628.3213
 1346.3504    13.8955  3418.0000     -.0173    41.9895    59.4931     1.8490  1630.0000
 1346.5028    14.0725  3415.3428     -.0124    42.0415    55.0430     1.8490  1643.2852
 1346.6552    14.1900  3412.6699     -.0163    44.0993    53.1250     1.8470  1646.6746
 1346.8076    14.1980  3412.0000     -.0291    45.2288    51.8595     1.8444  1631.7092
 1346.9600    14.0368  3412.0000     -.0319    47.5258    51.8377     1.8613  1631.6506
 1347.1124    13.9454  3413.3291     -.0226    47.8879    53.2192     1.8818  1644.9680
 1347.2648    13.9323  3414.0000     -.0163    48.9756    52.0711     1.8929  1650.0000
 1347.4172    13.9349  3415.3291     -.0112    47.7875    52.3239     1.8975  1650.0000
 1347.5696    13.8752  3416.0000     -.0093    46.5426    49.8074     1.9023  1636.7146
 1347.7220    13.8334  3416.0000     -.0041    47.0915    49.3066     1.9069  1633.3228
 1347.8744    13.8281  3416.0000     -.0089    51.2985    48.3964     1.9082  1635.0000
