~VERSION INFORMATION
VERS.                                                 2.0:   CWLS Log ASCII Standard-VERSION 2.0
WRAP.                                                  NO:   One line per depth step
~Well Information Block
STRT.M                                           474.3176:   Top Depth
STOP.M                                          3047.2868:   Bottom Depth
STEP.M                                             .15240:   Depth Increment
NULL.                                            -999.250:   Null Value
FLD .                                            SLEIPNER:   Field Name
WELL.                                              15/9-9:   NAME
WBN .                                              15/9-9:   WELLBORE
NATI.                                                 NOR:   COUNTRY
CTRY.                                                 NOR:   COUNTRY
COMP.                                             STATOIL:   OPERATOR
PROV.                                     OFFSHORE NORWAY:   PROVINCE
COUN.                                           NORDDRAUG:   RIG NAME
SPUD.                                          1981/05/04:   SPUD DATE
LATI.                                       58 20 47.40 N:   SURF. LATITUDE
LONG.                                        1 53 24.60 E:   SURF. LONGITUDE
PBWE.                                              15/9-9:   PB WELL ID
APIN.                                              15/9-9:   PB WELLBORE ID
PBWS.                                                 all:   PB WELL NAME SET
~PARAMETER INFORMATION (log)
LNAM.                              FDC/CNL/GR  COMPOSITED:   NAME
LTYP.                                         DEPTH MATCH:   LOG TYPE
LSRV.                                            DEN/NEUT:   LOG SERVICE
LSOU.                                             SPT/NPD:   LOG SOURCE
LVSN.                                                   1:   LOG VERSION
BHIS.                                                   R:   BRIEF HISTORY
FHIS.                                             RAW-LIS:   FULL HISTORY
LCNM.                                                 SCH:   LOGGING CONTRACTOR
TOOL.                             FDC/CNL/GR (COMPOSITED):   TOOL STRING
~Curve Information Block
#MNEM.UNIT                                        API CODE    No Description
#=========                                        ========    == ===========
DEPT.M                                       00 001 00 00:     1  DEPTH
CALI.IN                                                  :     2  Caliper
CS.                                                      :     3  Cable Speed
DRHO.G/CC                                                :     4  Bulk density correction
GR.GAPI                                                  :     5  Gamma Ray
NPHI.%                                                   :     6  Neutron porosity
RHOB.G/CC                                                :     7  Bulk density
TENS.LB                                                  :     8  Cable Tension
~ASCII
# ...
 2693.2616     8.3594  1899.6682     -.0358    36.6354    26.4489     2.3659  2655.9902
 2693.4140     8.3594  1898.0049     -.0361    35.9410    27.6017     2.3470  2656.6826
 2693.5664     8.3594  1895.6682     -.0353    34.9250    30.2171     2.3230  2646.6826
 2693.7188     8.3594  1895.0000     -.0368    35.1385    35.4147     2.3112  2646.6343
 2693.8712     8.3594  1894.6670     -.0304    33.8541    37.3842     2.3307  2661.3311
 2694.0236     8.3594  1894.3315     -.0199    33.6469    41.7888     2.3620  2662.6729
 2694.1760     8.3594  1895.3315     -.0161    33.5296    64.1533     2.3614  2656.6826
 2694.3284     8.3594  1896.0000     -.0193    34.3742   258.6738     2.3315  2650.0000
 2694.4808     8.3594  1896.0000     -.0340    34.2403   657.2223     2.2930  2651.3311
 2694.6332     8.3646  1895.6682     -.0417    33.2401   806.5604     2.2968  2654.0000
 2694.7856     8.3750  1894.6682     -.0445    32.7824   612.6042     2.3313  2652.6729
 2694.9380     8.3776  1893.6682     -.0369    31.7059   211.6702     2.3776  2653.3169
 2695.0904     8.3828  1893.3328     -.0327    29.5433    40.7130     2.3958  2663.3276
 2695.2428     8.3802  1894.3315     -.0288    27.1943    53.3995     2.3868  2664.6919
 2695.3952     8.3776  1895.3315     -.0334    26.0232    74.0318     2.3575  2654.0000
 2695.5476     8.3828  1896.6633     -.0377    25.0468   107.1531     2.3386  2650.6826
 2695.7000     8.3802  1898.6633     -.0449    24.3525   122.0009     2.3255  2645.9902
 2695.8524     8.3750  1900.3328     -.0451    22.8906   125.1715     2.3320  2653.3281
 2696.0048     8.3776  1901.0000     -.0400    22.5537   107.6712     2.3411  2660.0000
 2696.1572     8.3828  1900.3364     -.0365    22.4400    85.2734     2.3515  2660.0000
 2696.3096     8.3828  1898.3364     -.0348    24.3245    60.9479     2.3737  2656.6826
 2696.4620     8.3802  1896.3342     -.0329    26.0673    38.5209     2.3965  2651.3311
 2696.6144     8.3776  1895.3315     -.0299    28.2625    29.7527     2.4147  2655.9902
 2696.7668     8.3802  1896.0000     -.0261    32.7761    27.8637     2.4089  2660.0000
 2696.9192     8.3776  1895.6682     -.0233    35.6526    28.2750     2.3920  2663.3174
 2697.0716     8.3802  1895.0000     -.0296    35.9745    27.5841     2.3692  2670.0000
 2697.2240     8.3776  1895.0000     -.0321    32.8605    28.5460     2.3672  2663.3438
 2697.3764     8.3828  1895.3318     -.0378    31.4425    26.9073     2.3821  2650.0000
 2697.5288     8.3828  1895.6682     -.0275    32.3192    24.1507     2.4095  2650.0000
 2697.6812     8.3828  1894.6682     -.0199    34.5074    20.1837     2.4096  2654.6440
 2697.8336     8.3828  1893.3345     -.0158    37.2684    20.3711     2.3776  2665.9966
 2697.9860     8.3828  1892.0000     -.0172    40.2604    22.5566     2.3457  2668.0093
 2698.1384     8.3828  1892.3318     -.0192    41.1313    24.8312     2.3255  2660.6826
 2698.2908     8.3906  1893.3318     -.0202    41.7138    25.7349     2.3275  2652.6729
 2698.4432     8.3958  1894.3328     -.0257    38.5431    24.7727     2.3385  2650.0000
 2698.5956     8.3750  1895.6633     -.0311    34.6974    23.5667     2.3548  2651.3267
 2698.7480     8.3750  1897.0000     -.0309    29.8213    22.4202     2.3769  2657.3174
 2698.9004     8.3750  1897.3318     -.0296    27.8979    21.9534     2.3874  2662.6729
 2699.0528     8.3776  1898.0000     -.0353    27.6584    21.4264     2.3718  2653.3652
 2699.2052     8.3828  1897.6670     -.0428    29.4991    21.9232     2.3496  2640.0000
 2699.3576     8.3828  1896.3364     -.0521    30.9983    23.0340     2.3288  2646.6343
 2699.5100     8.3828  1895.3318     -.0469    31.6927    25.2066     2.3411  2660.0000
 2699.6624     8.3828  1896.3315     -.0371    31.7239    26.5756     2.3555  2658.0093
 2699.8148     8.3828  1897.3328     -.0283    31.3652    28.1262     2.3496  2659.3247
 2699.9672     8.3828  1898.6633     -.0304    30.0131    30.1103     2.3295  2663.3652
 2700.1196     8.3828  1900.0000     -.0370    28.0199    30.0615     2.3183  2654.6440
 2700.2720     8.3828  1900.3315     -.0329    26.5609    28.7026     2.3379  2664.0000
 2700.4244     8.3828  1901.0000     -.0264    28.1027    24.9058     2.3613  2659.3408
 2700.5768     8.3880  1901.0000     -.0174    29.4292    23.2463     2.3711  2651.3267
 2700.7292     8.3984  1900.6682     -.0186    28.0181    23.4249     2.3555  2657.3174
 2700.8816     8.3984  1899.3364     -.0189    26.2432    25.4221     2.3444  2662.6729
 2701.0340     8.3984  1898.3315     -.0250    25.4135    27.4819     2.3321  2660.0000
 2701.1864     8.3984  1899.3328     -.0326    26.5992    29.8821     2.3171  2656.6719
 2701.3388     8.3984  1900.3315     -.0387    26.5612    35.0681     2.2989  2648.0093
 2701.4912     8.4010  1901.3315     -.0448    27.0315    40.9297     2.2819  2647.3174
 2701.6436     8.4037  1902.0000     -.0360    26.9166    44.2892     2.2917  2659.3076
 2701.7960     8.4010  1902.0000     -.0360    26.1003    44.9619     2.2871  2666.6719
 2701.9484     8.4088  1901.6682     -.0338    24.5618    49.9576     2.2923  2660.0000
 2702.1008     8.4141  1901.0000     -.0418    26.1448    48.5420     2.3085  2656.6826
 2702.2532     8.4141  1900.3364     -.0415    30.0770    42.2984     2.3696  2651.3267
 2702.4056     8.4141  1898.3333     -.0326    32.7188    37.2065     2.4583  2657.3330
 2702.5580     8.4141  1897.0000     -.0259    32.3911    48.3663     2.5143  2662.6685
 2702.7104     8.4244  1897.0000     -.0150    30.9154    89.1219     2.5391  2660.0000
 2702.8628     8.4479  1897.0000     -.0085    30.6703   145.5903     2.5248  2660.0000
 2703.0152     8.4531  1896.6682     -.0052    33.7799   138.0981     2.5124  2661.3267
 2703.1676     8.4531  1896.0000     -.0106    35.8517    97.6384     2.5091  2659.3408
 2703.3200     8.4531  1896.3315     -.0155    37.5377    34.6539     2.5045  2651.3271
 2703.4724     8.4557  1897.0000     -.0150    33.9004    28.2332     2.5007  2659.3076
 2703.6248     8.4609  1897.3318     -.0172    30.2480    31.6513     2.4714  2668.0098
 2703.7772     8.4583  1897.6672     -.0166    26.9891    33.5895     2.4687  2665.9966
 2703.9296     8.4557  1896.6682     -.0086    28.8789    34.2433     2.4902  2664.6924
 2704.0820     8.4609  1896.0000     -.0010    32.1846    35.3381     2.5189  2652.6729
 2704.2344     8.4791  1895.6682     -.0036    33.5409    37.3969     2.5195  2653.3174
 2704.3868     8.5286  1895.0000     -.0098    34.5208    37.2645     2.5046  2660.0000
 2704.5392     8.5807  1895.0000     -.0129    37.1645    39.0563     2.4857  2660.0000
 2704.6916     8.6380  1895.0000     -.0065    40.7562    47.9768     2.4954  2658.0093
 2704.8440     8.6458  1895.3318      .0006    41.5361    50.2175     2.5169  2655.9902
 2704.9964     8.6380  1896.0000      .0129    38.4842    45.9023     2.5508  2660.0000
 2705.1488     8.6016  1896.0000      .0145    35.2726    35.6680     2.5508  2656.6719
 2705.3012     8.5287  1895.0046      .0083    33.4772    35.5590     2.5209  2656.6343
 2705.4536     8.5078  1892.6682     -.0021    34.3021    37.0376     2.4902  2683.2690
 2705.6060     8.5104  1892.3318     -.0037    35.1417    39.7107     2.4909  2706.6826
 2705.7584     8.5338  1893.3328     -.0042    36.7190    46.4496     2.5065  2696.6719
 2705.9108     8.5729  1894.3315     -.0044    36.7691    51.3976     2.5156  2680.0479
 2706.0632     8.5729  1895.3318     -.0042    37.0231    48.3346     2.5007  2660.0000
 2706.2156     8.5444  1896.3318     -.0023    35.6582    37.1113     2.4779  2656.6826
 2706.3680     8.4948  1896.6667     -.0055    35.5000    27.0182     2.4570  2653.3330
 2706.5204     8.4713  1896.3328     -.0117    37.7381    22.7548     2.4369  2663.3276
 2706.6728     8.5180  1897.0000     -.0184    40.8999    21.2746     2.3933  2673.3174
 2706.8252     8.7052  1896.3364     -.0345    43.6038    20.9156     2.3380  2678.0093
 2706.9776     9.0981  1895.3315     -.0534    43.7604    22.6078     2.3066  2674.0000
