~VERSION INFORMATION
VERS.                                                 2.0:   CWLS Log ASCII Standard-VERSION 2.0
WRAP.                                                  NO:   One line per depth step
~Well Information Block
STRT.M                                           474.3176:   Top Depth
STOP.M                                          3047.2868:   Bottom Depth
STEP.M                                             .15240:   Depth Increment
NULL.                                            -999.250:   Null Value
FLD .                                            SLEIPNER:   Field Name
WELL.                                              15/9-9:   NAME
WBN .                                              15/9-9:   WELLBORE
NATI.                                                 NOR:   COUNTRY
CTRY.                                                 NOR:   COUNTRY
COMP.                                             STATOIL:   OPERATOR
PROV.                                     OFFSHORE NORWAY:   PROVINCE
COUN.                                           NORDDRAUG:   RIG NAME
SPUD.                                          1981/05/04:   SPUD DATE
LATI.                                       58 20 47.40 N:   SURF. LATITUDE
LONG.                                        1 53 24.60 E:   SURF. LONGITUDE
PBWE.                                              15/9-9:   PB WELL ID
APIN.                                              15/9-9:   PB WELLBORE ID
PBWS.                                                 all:   PB WELL NAME SET
~PARAMETER INFORMATION (log)
LNAM.                              FDC/CNL/GR  COMPOSITED:   NAME
LTYP.                                         DEPTH MATCH:   LOG TYPE
LSRV.                                            DEN/NEUT:   LOG SERVICE
LSOU.                                             SPT/NPD:   LOG SOURCE
LVSN.                                                   1:   LOG VERSION
BHIS.                                                   R:   BRIEF HISTORY
FHIS.                                             RAW-LIS:   FULL HISTORY
LCNM.                                                 SCH:   LOGGING CONTRACTOR
TOOL.                             FDC/CNL/GR (COMPOSITED):   TOOL STRING
~Curve Information Block
#MNEM.UNIT                                        API CODE    No Description
#=========                                        ========    == ===========
DEPT.M                                       00 001 00 00:     1  DEPTH
CALI.IN                                                  :     2  Caliper
CS.                                                      :     3  Cable Speed
DRHO.G/CC                                                :     4  Bulk density correction
GR.GAPI                                                  :     5  Gamma Ray
NPHI.%                                                   :     6  Neutron porosity
RHOB.G/CC                                                :     7  Bulk density
TENS.LB                                                  :     8  Cable Tension
~ASCII
# ...
 1667.0000    15.3535  3339.3301     -.0013    43.2236    50.5452     1.9769  1901.6265
 1667.1524    15.6507  3341.3306     -.0151    41.8861    51.7588     1.9493  1903.3467
 1667.3048    15.4486  3342.0000     -.0280    41.7187    52.0657     1.9313  1866.7468
 1667.4572    15.1695  3342.0000     -.0205    41.7187    50.0047     1.9544  1863.3066
 1667.6096    15.0964  3342.0000     -.0083    43.0489    50.5168     1.9749  1889.9519
 1667.7620    15.0834  3342.0000     -.0052    41.5148    48.5733     1.9766  1893.3467
 1667.9144    15.0521  3342.0000     -.0106    40.7388    46.8432     1.9639  1899.9758
 1668.0668    15.0911  3340.6680     -.0197    39.6369    44.5338     1.9444  1888.3533
 1668.2192    15.2575  3338.6694     -.0268    39.9980    44.2006     1.9213  1893.3066
 1668.3716    15.3333  3339.3301     -.0356    40.7910    43.1241     1.9020  1876.7227
 1668.5240    15.2008  3341.3306     -.0335    41.2078    42.9721     1.9140  1855.0200
 1668.6764    15.1224  3342.0000     -.0230    41.2814    46.4117     1.9475  1869.9519
 1668.8288    15.0912  3343.3306     -.0168    41.2084    49.5249     1.9697  1893.3066
 1668.9812    14.8131  3345.3301     -.0114    42.1227    49.0914     1.9772  1900.0000
 1669.1336    14.8148  3346.0000     -.0174    44.5274    44.4904     1.9649  1890.0200
 1669.2860    15.0075  3346.0000     -.0283    45.2090    46.0526     1.9515  1885.0000
 1669.4384    15.1223  3344.6689     -.0369    45.7278    48.0140     1.9489  1878.3467
 1669.5908    15.0393  3344.0000     -.0301    44.7947    50.3039     1.9668  1881.6506
 1669.7432    14.9064  3341.3384     -.0202    42.3058    52.1632     1.9905  1891.6533
 1669.8956    14.9971  3340.0000     -.0205    38.5693    55.6890     2.0058  1891.6746
 1670.0480    15.0885  3340.0000     -.0229    39.0290    54.9019     2.0150  1893.3293
 1670.2004    15.1224  3338.6694     -.0169    40.2182    50.9171     2.0215  1891.6733
 1670.3528    15.2627  3339.3301      .0022    40.6139    45.5824     2.0403  1890.0000
 1670.5052    15.2606  3341.3306      .0125    38.2134    46.3324     2.0462  1886.6733
 1670.6576    15.6786  3342.0000     -.0006    36.6465    47.2504     2.0319  1875.0239
 1670.8100    15.9998  3343.3306     -.0179    36.8119    50.8549     2.0059  1883.3066
 1670.9624    17.0860  3345.3301     -.0262    37.3221    53.2703     1.9773  1893.3252
 1671.1148    16.6530  3346.0000     -.0187    39.0802    54.3928     1.9626  1891.6733
 1671.2672    15.9173  3346.0000     -.0171    40.2075    54.7041     1.9457  1890.0000
 1671.4196    15.8462  3343.3384     -.0192    40.4166    52.4644     1.9443  1899.9800
 1671.5720    15.5944  3342.0000     -.0182    39.2736    50.3338     1.9642  1898.3494
 1671.7244    15.4427  3343.3306     -.0091    40.5587    51.0052     1.9960  1908.3066
 1671.8768    15.4115  3344.0000     -.0078    43.0172    51.7087     2.0078  1908.3494
 1672.0292    15.2009  3345.3306     -.0129    44.9456    52.4400     1.9935  1911.6533
 1672.1816    15.3196  3346.0000     -.0263    44.9290    50.1225     1.9714  1901.7092
 1672.3340    15.2117  3346.0000     -.0332    44.9364    46.7683     1.9704  1881.7146
 1672.4864    15.0133  3346.0000     -.0246    45.4468    47.4392     1.9899  1881.6453
 1672.6388    14.9687  3346.0000     -.0116    47.2026    47.7072     2.0110  1868.3933
 1672.7912    15.0103  3346.0000     -.0054    48.3530    47.9637     2.0085  1873.2905
 1672.9436    15.0209  3344.6714     -.0041    48.5520    46.7178     2.0039  1896.6064
 1673.0960    15.0572  3341.3418     -.0088    45.8213    44.5845     1.9909  1891.7092
 1673.2484    15.1300  3340.0000     -.0067    43.7732    46.6210     1.9896  1901.6064
 1673.4008    15.2758  3341.3301     -.0044    44.2896    47.0888     1.9805  1896.6987
 1673.5532    15.3152  3342.0000     -.0044    47.7922    47.3772     1.9623  1880.0320
 1673.7056    15.6476  3343.3301     -.0041    48.3669    48.5333     1.9509  1878.3252
 1673.8580    15.6749  3345.3291     -.0075    46.2967    48.4391     1.9437  1876.6772
 1674.0104    15.6120  3347.3301     -.0051    43.2970    51.6356     1.9486  1884.9758
 1674.1628    15.6068  3348.0000     -.0097    43.1635    50.1244     1.9496  1886.6772
 1674.3152    15.5497  3349.3286     -.0119    43.0750    48.9728     1.9554  1888.3213
 1674.4676    15.4248  3350.0000     -.0129    43.7988    47.5315     1.9674  1883.3547
 1674.6200    15.4632  3348.6714     -.0114    43.1085    48.0725     1.9671  1886.6426
 1674.7724    15.4870  3345.3418     -.0106    44.8259    49.2982     1.9668  1896.6453
 1674.9248    15.4610  3344.0000     -.0140    45.0659    49.9823     1.9704  1893.3572
 1675.0772    15.3389  3345.3291     -.0134    45.4659    50.7469     1.9886  1890.0000
 1675.2296    15.2761  3346.0000     -.0151    45.2005    51.0254     2.0003  1896.6426
 1675.3820    15.1435  3346.0000     -.0182    46.3401    50.8630     1.9968  1893.3494
 1675.5344    14.9951  3347.3291     -.0142    47.0730    50.5866     1.9896  1919.9038
 1675.6868    15.0622  3348.0000     -.0078    47.9770    55.8789     1.9821  1898.4214
 1675.8392    15.2262  3346.6709     -.0000    48.2091    58.7560     1.9808  1893.2905
 1675.9916    15.3540  3347.3301      .0007    47.7820    57.8312     1.9886  1890.0239
 1676.1440    15.4996  3348.0000     -.0011    45.7975    52.2948     1.9935  1888.3228
 1676.2964    15.4924  3346.6714     -.0037    43.2766    48.7179     1.9980  1896.6426
 1676.4488    15.3986  3343.3418      .0039    42.9256    48.2907     2.0065  1903.3228
 1676.6012    15.4139  3342.0000      .0083    42.4712    46.5559     2.0124  1908.3213
 1676.7536    15.3648  3343.3291      .0096    41.1490    45.1351     2.0163  1903.3547
 1676.9060    15.2814  3344.0000      .0008    39.3070    46.0083     1.9988  1880.0720
 1677.0584    15.3097  3345.3291     -.0055    39.5803    46.1927     1.9776  1886.6133
 1677.2108    15.1647  3347.3281     -.0054    40.3946    49.1423     1.9581  1904.9639
 1677.3632    15.1353  3346.6694     -.0068    40.9158    52.4535     1.9486  1893.3733
 1677.5156    15.2367  3347.3291     -.0085    40.4500    55.4294     1.9486  1885.0000
 1677.6680    15.4293  3348.0000     -.0075    41.4551    55.8440     1.9577  1881.6746
 1677.8204    15.5130  3348.0000     -.0029    42.1042    53.7341     1.9729  1876.6772
 1677.9728    15.4793  3346.6699     -.0010    40.5558    51.5277     1.9824  1878.3252
 1678.1252    15.3415  3344.6709     -.0094    37.2893    47.3430     1.9675  1899.9358
 1678.2776    14.9803  3345.3286     -.0234    35.0971    44.1295     1.9376  1916.6426
 1678.4300    15.8042  3346.0000     -.0283    35.8710    41.8183     1.9222  1906.7092
 1678.5824    16.0114  3346.0000     -.0283    36.7283    41.3400     1.9225  1890.0359
 1678.7348    15.8672  3348.6602     -.0299    36.8022    43.0302     1.9258  1865.0481
 1678.8872    16.3915  3350.0000     -.0385    35.5352    47.9197     1.9170  1871.6133
 1679.0396    16.1938  3351.3301     -.0383    34.9270    50.3897     1.9160  1903.2771
 1679.1920    15.8311  3352.0000     -.0270    36.9311    51.4945     1.9361  1915.0000
 1679.3444    15.9215  3353.3301     -.0195    38.9143    49.7124     1.9628  1898.3733
 1679.4968    15.9325  3354.0000     -.0116    41.4206    46.5398     1.9860  1896.6453
 1679.6492    16.1011  3352.6699     -.0080    42.2297    42.4553     1.9964  1873.3975
 1679.8016    15.9695  3349.3418     -.0065    42.5196    42.6053     1.9903  1886.5813
 1679.9540    15.8412  3349.3301     -.0140    40.4534    47.5163     1.9733  1890.0239
 1680.1064    15.6594  3350.0000     -.0174    38.2742    49.4308     1.9700  1898.2905
 1680.2588    15.5080  3351.3286     -.0142    37.4179    46.6083     1.9892  1914.9639
 1680.4112    15.5233  3352.0000     -.0104    37.6238    45.5393     2.0110  1910.0320
 1680.5636    15.5054  3353.3281     -.0086    36.2764    45.9302     2.0202  1895.0359
 1680.7160    15.5207  3354.0000     -.0031    35.2298    45.0382     2.0189  1886.6746
