~VERSION INFORMATION
VERS.                                                 2.0:   CWLS Log ASCII Standard-VERSION 2.0
WRAP.                                                  NO:   One line per depth step
~Well Information Block
STRT.M                                           474.3176:   Top Depth
STOP.M                                          3047.2868:   Bottom Depth
STEP.M                                             .15240:   Depth Increment
NULL.                                            -999.250:   Null Value
FLD .                                            SLEIPNER:   Field Name
WELL.                                              15/9-9:   NAME
WBN .                                              15/9-9:   WELLBORE
NATI.                                                 NOR:   COUNTRY
CTRY.                                                 NOR:   COUNTRY
COMP.                                             STATOIL:   OPERATOR
PROV.                                     OFFSHORE NORWAY:   PROVINCE
COUN.                                           NORDDRAUG:   RIG NAME
SPUD.                                          1981/05/04:   SPUD DATE
LATI.                                       58 20 47.40 N:   SURF. LATITUDE
LONG.                                        1 53 24.60 E:   SURF. LONGITUDE
PBWE.                                              15/9-9:   PB WELL ID
APIN.                                              15/9-9:   PB WELLBORE ID
PBWS.                                                 all:   PB WELL NAME SET
~PARAMETER INFORMATION (log)
LNAM.                              FDC/CNL/GR  COMPOSITED:   NAME
LTYP.                                         DEPTH MATCH:   LOG TYPE
LSRV.                                            DEN/NEUT:   LOG SERVICE
LSOU.                                             SPT/NPD:   LOG SOURCE
LVSN.                                                   1:   LOG VERSION
BHIS.                                                   R:   BRIEF HISTORY
FHIS.                                             RAW-LIS:   FULL HISTORY
LCNM.                                                 SCH:   LOGGING CONTRACTOR
TOOL.                             FDC/CNL/GR (COMPOSITED):   TOOL STRING
~Curve Information Block
#MNEM.UNIT                                        API CODE    No Description
#=========                                        ========    == ===========
DEPT.M                                       00 001 00 00:     1  DEPTH
CALI.IN                                                  :     2  Caliper
CS.                                                      :     3  Cable Speed
DRHO.G/CC                                                :     4  Bulk density correction
GR.GAPI                                                  :     5  Gamma Ray
NPHI.%                                                   :     6  Neutron porosity
RHOB.G/CC                                                :     7  Bulk density
TENS.LB                                                  :     8  Cable Tension
~ASCII
# ...
  821.0276    18.5461  2574.0000      .0587    71.1477  -999.2500     2.0911  1238.4241
  821.1800    18.4305  2574.0000      .0732    72.0110  -999.2500     2.0959  1218.9893
  821.3324    18.4418  2574.0000      .0688    70.8422  -999.2500     2.0758  1249.5244
  821.4848    18.5075  2573.7046      .0839    73.5529  -999.2500     2.0710  1220.5500
  821.6372    18.4954  2570.0015      .0608    73.8640  -999.2500     2.0329  1246.8655
  821.7896    18.5786  2566.3242      .0415    75.8387  -999.2500     2.0121  1242.9863
  821.9420    18.5118  2565.8359      .0276    71.1436  -999.2500     2.0221  1220.7417
  822.0944    18.4059  2564.3262      .0645    65.5868  -999.2500     2.0770  1249.6948
  822.2468    18.4693  2566.0000      .0867    63.0254  -999.2500     2.1028  1233.5874
  822.3992    18.7056  2568.0000      .1029    63.4435  -999.2500     2.0966  1246.9502
  822.5516    18.8114  2570.0000      .1018    65.2548  -999.2500     2.0774  1232.1409
  822.7040    18.9120  2571.8696      .1066    63.5792  -999.2500     2.0710  1237.7244
  822.8564    19.2462  2572.0000      .0999    62.8305  -999.2500     2.0485  1217.5610
  823.0088    18.8058  2572.0000      .0751    64.8973  -999.2500     2.0210  1234.7622
  823.1612    18.2244  2572.0000      .0842    67.4784  -999.2500     2.0217  1249.2727
  823.3136    18.5714  2571.9521      .1118    67.8970  -999.2500     2.0273  1245.2395
  823.4660    18.6832  2570.0010      .0821    66.6136  -999.2500     1.9555  1249.7461
  823.6184    18.3767  2568.0005      .0561    64.1377  -999.2500     1.9201  1230.2126
  823.7708    18.3713  2566.0396      .0113    63.9033  -999.2500     1.9095  1249.0181
  823.9232    18.1830  2566.0654      .0190    63.6488  -999.2500     1.9627  1221.9719
  824.0756    17.8843  2567.9111      .0268    66.6869  -999.2500     1.9848  1248.6677
  824.2280    18.1106  2568.0000      .0531    68.4141  -999.2500     2.0130  1247.8420
  824.3804    18.6514  2568.1250      .0697    67.3748  -999.2500     2.0309  1215.6282
  824.5328    19.2531  2570.0000      .0781    62.9694  -999.2500     2.0424  1255.1418
  824.6852    18.6195  2571.8501      .0905    61.7212  -999.2500     2.0461  1241.1243
  824.8376    18.6921  2571.8423      .0919    59.9919  -999.2500     2.0389  1237.3623
  824.9900    18.6972  2569.8374      .0639    60.8986  -999.2500     2.0108  1254.3218
  825.1424    18.5008  2566.0000      .0538    60.2470  -999.2500     2.0109  1223.1995
  825.2948    18.5700  2562.3252      .0567    61.2660  -999.2500     2.0062  1263.4922
  825.4472    18.2954  2562.0000      .0641    62.1811  -999.2500     2.0027  1247.3833
  825.5996    18.3027  2562.1504      .0479    61.8196  -999.2500     1.9884  1249.2446
  825.7520    18.4051  2563.8589      .0385    62.7660  -999.2500     1.9998  1243.9490
  825.9044    18.4940  2564.0000      .0628    63.1265  -999.2500     2.0566  1227.8606
  826.0568    18.4922  2564.1104      .0749    61.3185  -999.2500     2.0892  1247.7798
  826.2092    18.3780  2565.9077      .0957    59.3527  -999.2500     2.1070  1235.9185
  826.3616    18.6163  2565.9316      .0791    55.8953  -999.2500     2.0785  1240.3398
  826.5140    18.6474  2564.0869      .0870    57.8836  -999.2500     2.0561  1254.4551
  826.6664    18.9651  2565.9849      .0549    56.3675  -999.2500     2.0100  1245.0391
  826.8188    18.7968  2565.9844      .0502    57.9682  -999.2500     1.9992  1240.0391
  826.9712    18.6118  2564.0000      .0324    55.6451  -999.2500     2.0144  1240.4385
  827.1236    18.5313  2562.0698      .0430    55.5683  -999.2500     2.0601  1258.4314
  827.2760    18.4681  2562.0000      .0555    56.5993  -999.2500     2.0935  1237.2910
  827.4284    18.6709  2562.1108      .0567    58.9747  -999.2500     2.0823  1256.9375
  827.5808    18.3751  2563.9990      .0642    60.3796  -999.2500     2.0714  1231.9194
  827.7332    18.0755  2565.9990      .0570    59.6544  -999.2500     2.0519  1231.0530
  827.8856    18.1203  2567.9990      .0747    58.7999  -999.2500     2.0672  1242.7307
  828.0380    18.1295  2569.9990      .0774    58.6137  -999.2500     2.0720  1232.7727
  828.1904    18.0652  2571.8364      .0690    59.6667  -999.2500     2.0697  1247.5535
  828.3428    18.4423  2571.8364      .0381    60.6425  -999.2500     2.0445  1238.3682
  828.4952    18.3521  2569.8389      .0308    61.5280  -999.2500     2.0513  1216.0791
  828.6476    18.8380  2566.0015      .0320    59.9089  -999.2500     2.0473  1250.2756
  828.8000    18.3655  2562.2993      .0415    59.1537  -999.2500     2.0459  1241.1221
  828.9524    18.2188  2562.1387      .0454    59.5052  -999.2500     2.0344  1241.7358
  829.1048    18.1152  2564.0000      .0426    59.6854  -999.2500     2.0375  1260.9478
  829.2572    18.1156  2565.8911      .0413    60.4767  -999.2500     2.0475  1229.8640
  829.4096    18.4733  2566.0874      .0526    57.8490  -999.2500     2.0682  1270.3877
  829.5620    18.6083  2567.9346      .0726    55.1939  -999.2500     2.0854  1222.6101
  829.7144    18.2629  2568.0000      .0726    55.4220  -999.2500     2.0854  1244.5029
  829.8668    18.5293  2568.0093      .0426    56.5314  -999.2500     2.0588  1245.0000
  830.0192    18.4243  2569.9790      .0419    57.7603  -999.2500     2.0687  1244.9497
  830.1716    18.5472  2569.9512      .0812    57.0246  -999.2500     2.1101  1240.3660
  830.3240    18.6726  2567.9277      .0881    57.2576  -999.2500     2.1029  1248.5315
  830.4764    18.4264  2564.0015      .0734    58.4862  -999.2500     2.0796  1222.3853
  830.6288    18.2679  2560.2285      .0342    59.4393  -999.2500     2.0499  1239.1426
  830.7812    18.3937  2560.0000      .0263    59.4517  -999.2500     2.0665  1244.0251
  830.9336    18.5781  2560.1431      .0372    59.5647  -999.2500     2.0838  1237.5039
  831.0860    18.7155  2562.0000      .0229    59.4821  -999.2500     2.0535  1254.2739
  831.2384    18.3716  2563.9990      .0221    60.8386  -999.2500     2.0281  1218.3645
  831.3908    18.6472  2565.8364      .0253    61.6629  -999.2500     2.0143  1256.0254
  831.5432    17.8902  2566.1636      .0416    62.4671  -999.2500     2.0272  1218.1970
  831.6956    18.0921  2567.8379      .0445    60.2541  -999.2500     2.0397  1250.9468
  831.8480    18.0637  2568.0000      .0316    62.4465  -999.2500     2.0401  1248.0537
  832.0004    18.0168  2567.7046      .0215    63.5055  -999.2500     2.0502  1225.5459
  832.1528    18.0024  2564.1372      .0188    63.7741  -999.2500     2.0548  1259.5422
  832.3052    18.2044  2562.2441      .0382    59.7982  -999.2500     2.0602  1233.6648
  832.4576    18.2204  2563.8945      .0678    58.9665  -999.2500     2.0610  1252.9006
  832.6100    18.2605  2564.0000      .1034    60.5754  -999.2500     2.0672  1240.2109
  832.7624    18.5355  2564.0610      .0951    64.4477  -999.2500     2.0485  1230.1526
  832.9148    18.9369  2566.0000      .0818    63.0422  -999.2500     2.0174  1225.6812
  833.0672    18.4228  2568.0000      .0557    65.6170  -999.2500     1.9776  1259.8687
  833.2196    18.2983  2569.9990      .0388    64.9770  -999.2500     1.9516  1240.3154
  833.3720    18.2796  2571.9468      .0387    67.3331  -999.2500     1.9599  1244.4727
  833.5244    18.2092  2572.0000      .0792    65.9982  -999.2500     2.0010  1231.7329
  833.6768    18.2820  2571.9014      .0978    64.3790  -999.2500     2.0178  1257.7710
  833.8292    18.3695  2570.0010      .0566    60.7133  -999.2500     2.0038  1245.0059
  833.9816    18.3760  2567.8687      .0213    59.6442  -999.2500     2.0170  1232.6443
  834.1340    18.3917  2564.2905      .0183    58.9191  -999.2500     2.0482  1250.6570
  834.2864    18.4327  2564.1533      .0365    61.9123  -999.2500     2.0487  1226.5427
  834.4388    18.5674  2565.8389      .0384    63.9192  -999.2500     2.0245  1260.3738
  834.5912    18.4427  2566.0000      .0383    65.5479  -999.2500     2.0139  1211.4465
  834.7436    18.3553  2566.0000      .0539    66.1399  -999.2500     2.0459  1263.8477
