~VERSION INFORMATION
VERS.                                                 2.0:   CWLS Log ASCII Standard-VERSION 2.0
WRAP.                                                  NO:   One line per depth step
~Well Information Block
STRT.M                                           474.3176:   Top Depth
STOP.M                                          3047.2868:   Bottom Depth
STEP.M                                             .15240:   Depth Increment
NULL.                                            -999.250:   Null Value
FLD .                                            SLEIPNER:   Field Name
WELL.                                              15/9-9:   NAME
WBN .                                              15/9-9:   WELLBORE
NATI.                                                 NOR:   COUNTRY
CTRY.                                                 NOR:   COUNTRY
COMP.                                             STATOIL:   OPERATOR
PROV.                                     OFFSHORE NORWAY:   PROVINCE
COUN.                                           NORDDRAUG:   RIG NAME
SPUD.                                          1981/05/04:   SPUD DATE
LATI.                                       58 20 47.40 N:   SURF. LATITUDE
LONG.                                        1 53 24.60 E:   SURF. LONGITUDE
PBWE.                                              15/9-9:   PB WELL ID
APIN.                                              15/9-9:   PB WELLBORE ID
PBWS.                                                 all:   PB WELL NAME SET
~PARAMETER INFORMATION (log)
LNAM.                              FDC/CNL/GR  COMPOSITED:   NAME
LTYP.                                         DEPTH MATCH:   LOG TYPE
LSRV.                                            DEN/NEUT:   LOG SERVICE
LSOU.                                             SPT/NPD:   LOG SOURCE
LVSN.                                                   1:   LOG VERSION
BHIS.                                                   R:   BRIEF HISTORY
FHIS.                                             RAW-LIS:   FULL HISTORY
LCNM.                                                 SCH:   LOGGING CONTRACTOR
TOOL.                             FDC/CNL/GR (COMPOSITED):   TOOL STRING
~Curve Information Block
#MNEM.UNIT                                        API CODE    No Description
#=========                                        ========    == ===========
DEPT.M                                       00 001 00 00:     1  DEPTH
CALI.IN                                                  :     2  Caliper
CS.                                                      :     3  Cable Speed
DRHO.G/CC                                                :     4  Bulk density correction
GR.GAPI                                                  :     5  Gamma Ray
NPHI.%                                                   :     6  Neutron porosity
RHOB.G/CC                                                :     7  Bulk density
TENS.LB                                                  :     8  Cable Tension
~ASCII
# ...
 1500.5792    15.9221  3340.0000     -.0072    39.7558    48.1858     2.0084  1750.0481
 1500.7316    15.6411  3340.0000     -.0089    40.0742    49.8533     2.0078  1746.6533
 1500.8840    14.8272  3340.0000     -.0072    39.7500    50.3895     2.0085  1746.6746
 1501.0364    14.9704  3338.6694     -.0085    39.3965    47.3861     2.0046  1748.3267
 1501.1888    15.3123  3334.0093     -.0137    37.7016    46.5638     1.9890  1753.3252
 1501.3412    15.3802  3333.3301     -.0153    35.7113    47.7520     1.9707  1758.3252
 1501.4936    15.2191  3335.3306     -.0090    34.7819    48.8917     1.9668  1743.3667
 1501.6460    14.8107  3337.3301      .0042    35.8304    48.7805     1.9769  1758.2771
 1501.7984    15.2254  3339.3306      .0112    37.0197    47.3007     1.9847  1750.0400
 1501.9508    16.1911  3341.3301      .0038    38.5595    46.2900     1.9805  1733.3494
 1502.1032    16.2298  3343.3306     -.0005    38.8964    48.4328     1.9938  1749.9600
 1502.2556    15.1896  3344.0000     -.0018    40.0386    51.1356     2.0071  1756.6746
 1502.4080    14.7942  3344.0000      .0015    40.4380    52.3266     2.0163  1738.3667
 1502.5604    15.2879  3344.0000      .0008    42.5779    46.1417     2.0143  1759.9277
 1502.7128    16.0488  3341.3364     -.0005    45.0713    45.4559     2.0156  1761.6826
 1502.8652    16.1566  3338.6689     -.0008    45.2094    46.9884     2.0241  1755.0000
 1503.0176    16.5879  3335.3364      .0023    44.8751    53.0365     2.0234  1751.6707
 1503.1700    16.2772  3335.3306      .0013    43.4923    52.6636     2.0163  1736.6934
 1503.3224    15.5713  3336.0000      .0055    42.7086    49.3503     2.0189  1743.3013
 1503.4748    15.7492  3336.0000      .0038    41.3880    45.9069     2.0176  1759.9800
 1503.6272    16.1272  3337.3301     -.0002    42.3087    45.1321     2.0130  1758.3494
 1503.7796    16.6866  3339.3306     -.0042    42.1581    48.8213     1.9968  1751.6733
 1503.9320    16.1425  3340.0000     -.0124    41.9992    52.2257     1.9698  1733.3733
 1504.0844    15.6876  3340.0000     -.0195    40.9088    52.2640     1.9463  1728.3267
 1504.2368    16.2174  3340.0000     -.0306    41.2581    52.6024     1.9343  1756.6025
 1504.3892    16.3960  3338.6694     -.0313    42.1035    49.5349     1.9316  1746.7134
 1504.5416    15.3617  3335.3398     -.0332    40.1406    50.5305     1.9219  1725.0239
 1504.6940    15.0337  3336.6636     -.0417    38.4174    49.5634     1.8832  1739.9758
 1504.8464    15.3667  3338.0000     -.0543    34.8918    48.6486     1.8526  1763.3066
 1504.9988    15.1285  3338.0000     -.0516    33.5514    50.1432     1.8658  1760.0239
 1505.1512    14.4307  3338.0000     -.0280    33.9578    49.8880     1.9208  1755.0000
 1505.3036    15.0811  3339.3301     -.0106    36.0058    49.2517     1.9674  1758.3252
 1505.4560    15.4195  3341.3306     -.0072    36.3450    47.7730     1.9749  1769.9800
 1505.6084    15.4477  3342.0000     -.0122    35.7403    46.1935     1.9688  1768.3494
 1505.7608    15.6481  3342.0000     -.0108    35.9264    46.4342     1.9746  1748.3667
 1505.9132    14.8225  3342.0000     -.0068    35.8028    47.1346     2.0084  1756.6265
 1506.0656    14.2736  3342.0000      .0104    36.3632    47.8667     2.0728  1765.0000
 1506.2180    14.6214  3340.6694      .0234    38.0281    50.8701     2.1119  1774.9758
 1506.3704    13.6924  3340.0000      .0087    39.5607    50.1457     2.0685  1776.6733
 1506.5228    12.7301  3341.3301     -.0091    40.1663    51.6875     2.0021  1751.7227
 1506.6752    13.7580  3340.6694     -.0202    39.8134    49.4234     1.9574  1743.3267
 1506.8276    12.8798  3340.0000     -.0160    40.5282    47.4452     1.9505  1761.6133
 1506.9800    13.1577  3341.3286     -.0148    41.6435    47.1687     1.9518  1776.6426
 1507.1324    15.0399  3342.0000     -.0145    42.0103    49.8608     1.9583  1773.3547
 1507.2848    15.0831  3342.0000     -.0121    43.0692    55.3887     1.9639  1760.0359
 1507.4372    14.9707  3340.6709     -.0070    44.9436    53.9663     1.9739  1735.0640
 1507.5896    15.6749  3338.6714      .0016    46.0194    48.4997     1.9889  1748.2490
 1507.7420    15.2497  3335.3418      .0003    46.2395    45.1707     1.9851  1813.1624
 1507.8944    14.5611  3334.0000     -.0058    44.0496    48.2609     1.9694  1820.0720
 1508.0468    14.6271  3335.3301     -.0117    42.2309    49.9030     1.9548  1793.3733
 1508.1992    14.1867  3336.0000     -.0179    40.5252    52.7086     1.9502  1758.4187
 1508.3516    14.6648  3337.3301     -.0255    40.7166    54.3941     1.9307  1738.3494
 1508.5040    14.6264  3338.0000     -.0497    41.4470    57.4125     1.8800  1754.9358
 1508.6564    15.8429  3338.0000     -.0602    42.2172    57.8476     1.8503  1801.5786
 1508.8088    16.5729  3338.0000     -.0519    41.9290    53.9496     1.8671  1803.3867
 1508.9612    14.9642  3339.3286     -.0352    39.7360    51.0136     1.9207  1771.7507
 1509.1136    15.4931  3340.0000     -.0259    38.8228    48.2166     1.9573  1769.9678
 1509.2660    15.8916  3340.0000     -.0283    37.2661    50.0058     1.9512  1784.9639
 1509.4184    15.7604  3340.0000     -.0303    36.5311    49.9735     1.9327  1773.3867
 1509.5708    14.8107  3338.6714     -.0351    35.3170    48.9561     1.9235  1774.9639
 1509.7232    13.9232  3339.3291     -.0392    36.8680    47.2870     1.9180  1786.6453
 1509.8756    13.6928  3341.3286     -.0404    40.1484    52.7118     1.9141  1790.0000
 1510.0280    13.6849  3343.3301     -.0350    42.1437    55.3073     1.9222  1773.3733
 1510.1804    13.5889  3345.3291     -.0205    40.1018    55.0617     1.9527  1771.6453
 1510.3328    13.7001  3347.3301     -.0124    36.3082    47.2195     1.9639  1755.0481
 1510.4852    13.7605  3349.3286     -.0145    35.3428    42.8074     1.9460  1741.6772
 1510.6376    13.8695  3350.0000     -.0281    36.7886    40.7921     1.9161  1749.9758
 1510.7900    14.3502  3348.6709     -.0381    38.0605    40.6064     1.9053  1748.3547
 1510.9424    14.9361  3346.6714     -.0420    37.7730    44.6319     1.8994  1748.3213
 1511.0948    14.6526  3343.3418     -.0498    38.1125    46.8737     1.8757  1773.2585
 1511.2472    14.9330  3342.0000     -.0604    39.4339    49.3083     1.8587  1768.3933
 1511.3996    14.7904  3342.0000     -.0695    40.8720    47.2920     1.8477  1743.3867
 1511.5520    15.1257  3342.0000     -.0658    40.6587    49.2061     1.8561  1741.6426
 1511.7044    14.7028  3343.3291     -.0661    41.4754    50.0680     1.8474  1774.9038
 1511.8568    14.8498  3344.0000     -.0766    42.0625    48.8309     1.8243  1786.6787
 1512.0092    15.1951  3344.0000     -.0781    44.2447    46.0344     1.8242  1758.3975
 1512.1616    14.3544  3345.3291     -.0698    45.0322    46.9333     1.8431  1741.6772
 1512.3140    13.9374  3347.3301     -.0560    45.2075    47.8357     1.8740  1746.6506
 1512.4664    14.3788  3346.6709     -.0479    43.8590    47.9161     1.8968  1756.6453
 1512.6188    14.9107  3346.0000     -.0409    44.7148    46.9643     1.9108  1783.2771
 1512.7712    15.1690  3344.6709     -.0400    44.6590    49.4568     1.9092  1775.0640
 1512.9236    14.5389  3342.6714     -.0533    46.4191    55.4087     1.8816  1748.3933
 1513.0760    14.0136  3342.0000     -.0482    47.1574    56.4005     1.8854  1746.6453
 1513.2284    13.9790  3343.3286     -.0344    49.3352    55.2752     1.9137  1769.9277
 1513.3808    14.2468  3344.0000     -.0309    50.1987    52.0417     1.9193  1793.3013
 1513.5332    14.6268  3344.0000     -.0462    47.8300    52.0622     1.8930  1783.3867
 1513.6856    14.3889  3344.0000     -.0586    45.4718    49.9743     1.8633  1761.6987
 1513.8380    13.8553  3344.0000     -.0507    44.5115    48.4378     1.8720  1751.6772
 1513.9904    13.6797  3344.0000     -.0396    45.0088    49.6227     1.8887  1753.3252
 1514.1428    14.4896  3342.6709     -.0353    45.3645    51.8665     1.8991  1771.6133
 1514.2952    15.1634  3339.3398     -.0373    46.3726    53.0428     1.9114  1776.6746
