~VERSION INFORMATION
VERS.                                                 2.0:   CWLS Log ASCII Standard-VERSION 2.0
WRAP.                                                  NO:   One line per depth step
~Well Information Block
STRT.M                                           474.3176:   Top Depth
STOP.M                                          3047.2868:   Bottom Depth
STEP.M                                             .15240:   Depth Increment
NULL.                                            -999.250:   Null Value
FLD .                                            SLEIPNER:   Field Name
WELL.                                              15/9-9:   NAME
WBN .                                              15/9-9:   WELLBORE
NATI.                                                 NOR:   COUNTRY
CTRY.                                                 NOR:   COUNTRY
COMP.                                             STATOIL:   OPERATOR
PROV.                                     OFFSHORE NORWAY:   PROVINCE
COUN.                                           NORDDRAUG:   RIG NAME
SPUD.                                          1981/05/04:   SPUD DATE
LATI.                                       58 20 47.40 N:   SURF. LATITUDE
LONG.                                        1 53 24.60 E:   SURF. LONGITUDE
PBWE.                                              15/9-9:   PB WELL ID
APIN.                                              15/9-9:   PB WELLBORE ID
PBWS.                                                 all:   PB WELL NAME SET
~PARAMETER INFORMATION (log)
LNAM.                              FDC/CNL/GR  COMPOSITED:   NAME
LTYP.                                         DEPTH MATCH:   LOG TYPE
LSRV.                                            DEN/NEUT:   LOG SERVICE
LSOU.                                             SPT/NPD:   LOG SOURCE
LVSN.                                                   1:   LOG VERSION
BHIS.                                                   R:   BRIEF HISTORY
FHIS.                                             RAW-LIS:   FULL HISTORY
LCNM.                                                 SCH:   LOGGING CONTRACTOR
TOOL.                             FDC/CNL/GR (COMPOSITED):   TOOL STRING
~Curve Information Block
#MNEM.UNIT                                        API CODE    No Description
#=========                                        ========    == ===========
DEPT.M                                       00 001 00 00:     1  DEPTH
CALI.IN                                                  :     2  Caliper
CS.                                                      :     3  Cable Speed
DRHO.G/CC                                                :     4  Bulk density correction
GR.GAPI                                                  :     5  Gamma Ray
NPHI.%                                                   :     6  Neutron porosity
RHOB.G/CC                                                :     7  Bulk density
TENS.LB                                                  :     8  Cable Tension
~ASCII
# ...
 2180.1308    13.9936  2860.6699      .0075    34.9794    42.3022     2.2037  2236.6504
 2180.2832    14.0630  2861.3301      .0379    33.3372    42.1062     2.2584  2275.9136
 2180.4356    13.4915  2863.3281      .0312    33.8385    44.2945     2.2605  2400.2397
 2180.5880    13.2864  2864.0000      .0139    37.4304    46.7091     2.2240  2431.3877
 2180.7404    13.9022  2865.3301      .0013    41.8783    44.9602     2.1973  2340.1924
 2180.8928    13.9174  2866.0000      .0159    44.7467    43.8799     2.1966  2286.6987
 2181.0452    13.7631  2866.0000      .0111    45.5413    43.7832     2.1914  2273.3599
 2181.1976    13.9656  2866.0000      .0133    46.1549    43.0192     2.1849  2283.3013
 2181.3500    13.5819  2864.6699      .0057    47.6429    41.7665     2.1602  2290.0000
 2181.5024    13.8295  2861.3398      .0115    48.9358    42.2828     2.1549  2279.3589
 2181.6548    14.3219  2858.6719      .0062    48.4720    43.2922     2.1478  2277.9839
 2181.8072    14.2224  2859.3267      .0057    47.1295    44.4294     2.1711  2276.0190
 2181.9596    13.8912  2860.0000      .0070    43.7674    43.4442     2.2037  2267.3491
 2182.1120    13.6462  2860.0000      .0203    40.8992    44.6730     2.2532  2270.6504
 2182.2644    13.7548  2860.0000      .0277    38.0053    44.0306     2.2747  2287.3013
 2182.4168    13.5221  2861.3281      .0382    37.1345    42.6293     2.2858  2307.2798
 2182.5692    13.5516  2862.0000      .0396    38.8711    43.5639     2.2676  2284.7368
 2182.7216    14.3083  2863.3301      .0344    41.6827    43.1246     2.2325  2289.9517
 2182.8740    14.5419  2862.6699      .0314    46.5740    44.0994     2.1999  2302.6602
 2183.0264    14.4403  2863.3281      .0256    46.9335    43.5762     2.1804  2294.7041
 2183.1788    15.0272  2861.3394      .0197    46.0419    44.6086     2.1758  2292.6602
 2183.3312    14.9255  2860.0000      .0070    42.1343    45.0043     2.1784  2280.6987
 2183.4836    14.5317  2860.0000      .0028    39.0860    42.1775     2.1927  2287.3013
 2183.6360    13.9758  2861.3276      .0024    36.6637    39.4426     2.2057  2300.6396
 2183.7884    13.9236  2863.3267      .0097    36.7969    37.0685     2.2064  2327.8843
 2183.9408    14.3378  2862.6699      .0133    37.8841    37.9191     2.2077  2322.7085
 2184.0932    14.5416  2862.0000      .0073    39.0084    39.5814     2.2038  2298.0386
 2184.2456    14.3131  2862.0000      .0089    38.8971    40.3474     2.2051  2276.6987
 2184.3980    14.2809  2862.0000      .0119    40.3472    39.9762     2.1941  2312.4956
 2184.5504    14.2398  2860.6699      .0207    41.1772    41.0612     2.1966  2318.0386
 2184.7028    14.0758  2860.0000      .0126    41.4264    42.3975     2.1973  2306.0098
 2184.8552    14.0936  2858.6699      .0106    40.1077    46.3292     2.2135  2301.3398
 2185.0076    14.1691  2859.3281      .0101    38.8148    49.2145     2.2201  2300.0000
 2185.1600    14.1096  2861.3301      .0088    36.3490    53.9450     2.2071  2309.3105
 2185.3124    14.0391  2862.0000      .0007    36.1021    55.4702     2.1830  2311.3394
 2185.4648    14.2261  2863.3301     -.0041    34.9309    54.3315     2.1465  2312.6602
 2185.6172    14.3437  2864.0000     -.0050    34.3952    52.2826     2.1276  2304.6890
 2185.7696    14.2167  2864.0000     -.0034    33.2240    50.9795     2.1380  2280.0801
 2185.9220    13.7795  2862.6699     -.0018    33.1029    50.7964     2.1705  2263.3491
 2186.0744    13.8380  2863.3301     -.0070    33.4581    50.5354     2.1823  2282.6118
 2186.2268    13.7375  2861.3398     -.0078    33.1467    48.3123     2.1725  2307.3013
 2186.3792    13.6250  2860.0000     -.0062    33.8195    46.2281     2.1693  2307.3599
 2186.5316    13.7341  2860.0000      .0078    36.2452    44.4366     2.1920  2307.9902
 2186.6840    13.9190  2861.3301      .0179    38.6009    44.0586     2.2109  2292.7080
 2186.8364    13.8805  2863.3301      .0309    41.0686    46.1704     2.2304  2281.3394
 2186.9888    13.9889  2864.0000      .0457    41.4915    46.5844     2.2448  2282.6558
 2187.1412    13.8001  2865.3301      .0480    41.0214    46.0617     2.2377  2284.0000
 2187.2936    13.8927  2867.3301      .0472    39.0773    45.4277     2.2259  2268.0386
 2187.4460    13.8415  2868.0000      .0457    36.8469    45.1011     2.2292  2266.6504
 2187.5984    13.4720  2866.6699      .0352    35.3770    44.1591     2.2246  2285.9614
 2187.7508    13.3852  2866.0000      .0144    33.9313    40.8805     2.2077  2297.9839
 2187.9032    13.9804  2863.3394      .0002    33.3439    40.1351     2.1921  2306.6504
 2188.0556    14.0214  2863.3301      .0019    33.0423    40.8682     2.1992  2296.6987
 2188.2080    13.7737  2864.0000      .0102    34.4858    42.7206     2.2155  2263.3975
 2188.3604    13.7006  2864.0000      .0083    35.3020    43.0684     2.2103  2265.9360
 2188.5128    13.3888  2864.0000      .0010    36.1023    42.3027     2.2038  2291.2915
 2188.6652    13.2707  2864.0000      .0028    35.9596    42.5606     2.2200  2300.0000
 2188.8176    13.2371  2865.3301      .0133    35.6875    40.1269     2.2493  2293.3491
 2188.9700    13.1954  2866.0000      .0160    35.4385    40.9709     2.2611  2292.6558
 2189.1224    13.3590  2867.3301      .0083    35.3541    42.6481     2.2370  2274.0479
 2189.2748    13.4245  2865.3394      .0094    35.1048    45.9379     2.2259  2290.6025
 2189.4272    13.4816  2864.0000      .0098    35.2597    48.0779     2.2058  2304.0000
 2189.5796    13.2558  2862.6699      .0081    34.2424    53.6819     2.1875  2327.9424
 2189.7320    13.2443  2863.3276      .0042    35.0257    56.8016     2.1784  2309.4561
 2189.8844    13.7359  2862.6699      .0018    34.8666    60.0513     2.1732  2231.4839
 2190.0368    13.7401  2862.0000      .0011    35.0194    58.7470     2.1628  2200.0000
 2190.1892    14.0017  2862.0000      .0007    34.2110    59.7273     2.1478  2253.2051
 2190.3416    14.0215  2862.0000      .0024    34.2373    58.5383     2.1568  2446.0000
 2190.4940    13.6517  2863.3301      .0018    34.2611    53.1676     2.1822  2496.7466
 2190.6464    13.7053  2865.3301     -.0013    35.1849    48.3464     2.1940  2420.1440
 2190.7988    13.5813  2866.0000     -.0031    36.0721    50.2525     2.1888  2326.1538
 2190.9512    13.4584  2864.6699      .0021    37.8503    62.2635     2.1933  2304.6406
 2191.1036    14.0303  2862.6685      .0042    38.4066    68.2280     2.1960  2310.0000
 2191.2560    14.2164  2862.0000      .0013    38.1150    68.4087     2.1888  2296.6987
 2191.4084    13.9406  2862.0000      .0000    37.5324    65.7451     2.1700  2286.0098
 2191.5608    14.0152  2862.0000      .0036    39.3388    68.2850     2.1608  2281.3394
 2191.7132    13.9434  2863.3281      .0164    42.5745    68.2695     2.1757  2293.2798
 2191.8656    13.8438  2864.0000      .0181    43.4173    64.9795     2.1966  2309.3110
 2192.0180    13.7632  2864.0000      .0233    41.4523    65.1274     2.2200  2304.6890
 2192.1704    13.9552  2865.3301      .0233    39.7831    83.9694     2.2285  2289.3589
 2192.3228    14.1896  2864.6719      .0199    40.7965   102.7956     2.2181  2287.9839
 2192.4752    14.0526  2864.0000      .0259    42.7054   103.8117     2.2181  2290.0000
 2192.6276    14.2285  2862.6699      .0260    42.9800    87.4371     2.2220  2290.0000
 2192.7800    14.1905  2862.0000      .0277    42.2721   394.9771     2.2266  2279.3589
 2192.9324    14.2003  2860.6694      .0101    41.8337   553.2559     2.1999  2284.6406
 2193.0848    14.2968  2861.3311      .0015    42.0828   545.0649     2.1868  2296.6558
 2193.2372    14.2424  2862.0000      .0020    41.3563   212.4778     2.1953  2300.0000
 2193.3896    14.2395  2863.3301      .0003    39.0773    43.2220     2.2122  2293.3491
 2193.5420    13.6863  2864.0000     -.0015    36.8053    42.3802     2.2123  2283.3491
 2193.6944    13.4762  2864.0000     -.0023    36.1665    42.3688     2.2051  2289.2959
 2193.8468    13.4065  2864.0000      .0070    35.9381    42.8367     2.2070  2287.3491
