~VERSION INFORMATION
VERS.                                                 2.0:   CWLS Log ASCII Standard-VERSION 2.0
WRAP.                                                  NO:   One line per depth step
~Well Information Block
STRT.M                                           474.3176:   Top Depth
STOP.M                                          3047.2868:   Bottom Depth
STEP.M                                             .15240:   Depth Increment
NULL.                                            -999.250:   Null Value
FLD .                                            SLEIPNER:   Field Name
WELL.                                              15/9-9:   NAME
WBN .                                              15/9-9:   WELLBORE
NATI.                                                 NOR:   COUNTRY
CTRY.                                                 NOR:   COUNTRY
COMP.                                             STATOIL:   OPERATOR
PROV.                                     OFFSHORE NORWAY:   PROVINCE
COUN.                                           NORDDRAUG:   RIG NAME
SPUD.                                          1981/05/04:   SPUD DATE
LATI.                                       58 20 47.40 N:   SURF. LATITUDE
LONG.                                        1 53 24.60 E:   SURF. LONGITUDE
PBWE.                                              15/9-9:   PB WELL ID
APIN.                                              15/9-9:   PB WELLBORE ID
PBWS.                                                 all:   PB WELL NAME SET
~PARAMETER INFORMATION (log)
LNAM.                              FDC/CNL/GR  COMPOSITED:   NAME
LTYP.                                         DEPTH MATCH:   LOG TYPE
LSRV.                                            DEN/NEUT:   LOG SERVICE
LSOU.                                             SPT/NPD:   LOG SOURCE
LVSN.                                                   1:   LOG VERSION
BHIS.                                                   R:   BRIEF HISTORY
FHIS.                                             RAW-LIS:   FULL HISTORY
LCNM.                                                 SCH:   LOGGING CONTRACTOR
TOOL.                             FDC/CNL/GR (COMPOSITED):   TOOL STRING
~Curve Information Block
#MNEM.UNIT                                        API CODE    No Description
#=========                                        ========    == ===========
DEPT.M                                       00 001 00 00:     1  DEPTH
CALI.IN                                                  :     2  Caliper
CS.                                                      :     3  Cable Speed
DRHO.G/CC                                                :     4  Bulk density correction
GR.GAPI                                                  :     5  Gamma Ray
NPHI.%                                                   :     6  Neutron porosity
RHOB.G/CC                                                :     7  Bulk density
TENS.LB                                                  :     8  Cable Tension
~ASCII
# ...
 1847.2892    13.9740  2927.3281      .0199    56.1162    46.8770     2.1113  2038.2852
 1847.4416    13.2578  2929.3291      .0014    57.3853    51.9919     2.0886  2041.6772
 1847.5940    14.3969  2930.0000     -.0065    57.6553    52.6563     2.0781  2040.0000
 1847.7464    15.1920  2931.3291     -.0080    56.3484    52.1324     2.0703  2033.3545
 1847.8988    15.9222  2932.0000      .0013    55.0853    49.1805     2.0729  2013.3933
 1848.0512    15.8499  2932.0000      .0015    53.1498    49.7185     2.0502  2011.6506
 1848.2036    15.1319  2932.0000     -.0003    51.5234    50.0186     2.0345  2028.2905
 1848.3560    14.0878  2930.6699      .0078    48.6934    49.9829     2.0657  2038.3252
 1848.5084    15.1074  2930.0000      .0279    46.3681    48.8161     2.1456  2040.0000
 1848.6608    16.1996  2930.0000      .0485    44.7318    45.6765     2.2076  2043.3252
 1848.8132    16.5464  2930.0000      .0391    43.8345    45.9911     2.1720  2035.0320
 1848.9656    16.5419  2930.0000      .0215    44.4668    47.7840     2.0906  2023.3494
 1849.1180    17.3826  2930.0000      .0043    45.9964    51.1772     2.0249  2033.2905
 1849.2704    16.4062  2931.3281     -.0029    46.5417    51.7908     2.0013  2040.0000
 1849.4228    16.7682  2932.0000     -.0034    46.3026    49.3889     2.0153  2026.6987
 1849.5752    17.5928  2932.0000      .0086    46.7690    47.4824     2.0377  2033.2905
 1849.7276    17.7759  2932.0000      .0065    47.3950    51.2756     2.0345  2033.3494
 1849.8800    17.6411  2932.0000      .0034    48.7254    53.3855     2.0332  2026.6772
 1850.0324    15.2659  2932.0000     -.0032    48.8345    55.0903     2.0404  2028.3252
 1850.1848    14.8881  2930.6709     -.0029    47.9915    54.3671     2.0521  2043.2905
 1850.3372    15.9983  2930.0000     -.0055    47.6044    53.3047     2.0605  2046.6746
 1850.4896    16.3801  2931.3291      .0055    47.6663    53.1089     2.0975  2025.0640
 1850.6420    15.3982  2932.0000      .0190    49.1736    49.5365     2.1308  2008.3494
 1850.7944    14.5506  2933.3291      .0335    49.0340    48.9545     2.1387  2021.6133
 1850.9468    14.1412  2934.0000      .0222    46.9727    48.0343     2.0958  2056.6025
 1851.0992    14.6361  2934.0000      .0111    45.3048    49.4721     2.0638  2066.0127
 1851.2516    15.2463  2934.0000      .0153    44.3560    50.4562     2.0508  2031.4512
 1851.4040    15.6115  2934.0000      .0116    44.9666    51.3973     2.0456  2001.6987
 1851.5564    15.1477  2932.6709      .0096    47.3583    52.5533     2.0735  2018.2585
 1851.7088    14.1424  2929.3394      .0122    51.1495    50.6402     2.1308  2063.2529
 1851.8612    14.1239  2926.6709      .0099    53.6631    48.3760     2.1510  2093.2905
 1852.0136    13.8864  2927.3301      .0122    52.5145    47.8027     2.1361  2069.4067
 1852.1660    13.8614  2928.0000      .0057    49.7250    49.1980     2.0991  2014.7927
 1852.3184    14.1142  2928.0000      .0132    47.0666    49.1891     2.0892  2011.6265
 1852.4708    15.0000  2929.3291      .0090    45.9072    49.3471     2.0606  2042.5940
 1852.6232    15.0062  2930.0000      .0003    44.1081    50.0641     2.0099  2060.6504
 1852.7756    15.8690  2931.3291      .0057    43.3020    50.8121     1.9805  2067.9873
 1852.9280    16.9778  2932.0000      .0057    42.7929    52.5031     1.9623  2059.3589
 1853.0804    16.9230  2932.0000     -.0055    44.1718    56.2079     1.9574  2038.0513
 1853.2328    17.0821  2933.3286     -.0132    44.2527    56.1255     1.9794  2016.7146
 1853.3852    16.4187  2931.3398     -.0062    45.2883    51.8800     2.0214  2036.6025
 1853.5376    15.8339  2930.0000      .0289    43.7364    49.1406     2.0644  2065.9487
 1853.6900    16.0202  2931.3301      .0483    45.5865    51.2632     2.0625  2084.6411
 1853.8424    15.7565  2932.0000      .0470    47.3845    54.0805     2.0352  2050.1279
 1853.9948    16.2042  2932.0000      .0357    49.7343    52.0412     2.0189  2023.3494
 1854.1472    15.9965  2932.0000      .0197    49.7224    50.4401     2.0078  2013.3545
 1854.2996    16.1059  2932.0000      .0099    48.5743    50.0495     2.0039  2036.6025
 1854.4520    16.5149  2933.3291      .0059    48.0113    53.5365     2.0117  2050.0000
 1854.6044    16.4276  2932.6699      .0029    46.5449    53.0654     2.0065  2043.3494
 1854.7568    16.7438  2933.3301     -.0016    43.3810    51.5471     1.9851  2026.6987
 1854.9092    15.7732  2931.3384     -.0080    38.8607    52.0819     1.9590  2023.3267
 1855.0616    16.5254  2928.6699     -.0154    35.2651    52.2790     1.9677  2038.3013
 1855.2140    17.1927  2929.3291     -.0158    35.3611    53.3005     2.0531  2031.7092
 1855.3664    16.5848  2930.0000     -.0049    37.7975    50.3827     2.1541  2025.0000
 1855.5188    15.5544  2930.0000      .0315    40.3698    51.9368     2.2336  2021.6772
 1855.6712    15.4733  2930.0000      .0464    41.4577    52.2235     2.2111  2036.6265
 1855.8236    15.7054  2930.0000      .0485    39.9740    52.5824     2.1499  2061.6133
 1855.9760    16.8203  2931.3301      .0414    41.0683    53.0925     2.0880  2040.0720
 1856.1284    17.8370  2932.0000      .0225    42.6127    55.4449     2.0301  2034.9680
 1856.2808    16.4778  2933.3301     -.0001    43.7376    56.9004     1.9981  2040.0000
 1856.4332    15.9938  2934.0000     -.0098    43.0764    54.8248     1.9983  2040.0000
 1856.5856    16.6862  2932.6699     -.0140    42.3026    51.0481     2.0000  2086.5542
 1856.7380    16.1166  2932.0000     -.0147    42.1251    48.8302     2.0010  2086.0576
 1856.8904    14.9052  2933.3306     -.0151    40.8878    45.6598     1.9922  2048.0518
 1857.0428    14.7988  2934.0000     -.0156    39.9487    42.7608     1.9899  2025.0239
 1857.1952    15.0699  2935.3291     -.0095    40.5911    40.6943     2.0074  2039.9358
 1857.3476    15.3718  2936.0000     -.0102    40.4804    41.1432     2.0039  2030.0481
 1857.5000    15.1859  2937.3291     -.0167    39.6373    42.5104     1.9695  2013.3547
 1857.6524    14.6779  2938.0000     -.0278    38.8449    45.6802     1.9310  2023.3013
 1857.8048    14.5052  2938.0000     -.0387    39.7774    49.9582     1.9099  2043.2905
 1857.9572    14.5390  2936.6699     -.0394    41.5181    52.4552     1.9267  2056.6504
 1858.1096    14.3418  2934.6709     -.0254    45.8110    54.4062     1.9699  2050.0322
 1858.2620    14.5669  2931.3398     -.0119    48.4980    53.0162     2.0188  2041.6746
 1858.4144    15.6689  2931.3291     -.0028    48.3040    49.7791     2.0559  2043.3225
 1858.5668    16.4108  2932.0000     -.0071    45.9840    45.0770     2.0417  2028.3733
 1858.7192    15.8558  2933.3301     -.0081    43.5347    44.5967     2.0553  2020.0000
 1858.8716    14.0524  2932.6694      .0049    41.9808    48.7364     2.1099  2026.6533
 1859.0240    13.3099  2933.3301      .0383    40.4194    52.6598     2.1854  2056.6025
 1859.1764    14.6026  2935.3291      .0373    41.1936    53.5326     2.1532  2072.6577
 1859.3288    17.2374  2936.0000      .0103    43.6000    51.2422     2.0633  2054.7129
 1859.4812    19.0339  2936.0000     -.0086    44.4688    48.3294     1.9917  2008.4507
 1859.6336    19.0946  2936.0000     -.0190    43.1386    45.9833     1.9512  2003.3013
 1859.7860    19.7733  2936.0000     -.0187    41.4097    44.7445     1.9479  2063.1626
 1859.9384    18.9457  2936.0000     -.0129    41.3738    43.1835     1.9661  2099.3105
 1860.0908    18.1774  2936.0000      .0104    41.6042    46.7834     2.0120  2077.3975
 1860.2432    18.3485  2936.0000      .0187    39.8473    50.8425     2.0235  2054.6851
 1860.3956    18.7701  2936.0000      .0160    37.0567    54.2097     2.0117  2065.9614
 1860.5480    18.0070  2936.0000      .0047    37.1957    52.8210     1.9929  2048.0518
 1860.7004    18.1912  2937.3301      .0102    39.3919    52.2930     2.0055  2035.0000
 1860.8528    18.5987  2938.0000      .0195    42.4823    52.9127     2.0403  2028.3547
 1861.0052    16.4064  2938.0000      .0098    42.2741    53.1248     2.0826  2025.0000
