~VERSION INFORMATION
VERS.                                                 2.0:   CWLS Log ASCII Standard-VERSION 2.0
WRAP.                                                  NO:   One line per depth step
~Well Information Block
STRT.M                                           474.3176:   Top Depth
STOP.M                                          3047.2868:   Bottom Depth
STEP.M                                             .15240:   Depth Increment
NULL.                                            -999.250:   Null Value
FLD .                                            SLEIPNER:   Field Name
WELL.                                              15/9-9:   NAME
WBN .                                              15/9-9:   WELLBORE
NATI.                                                 NOR:   COUNTRY
CTRY.                                                 NOR:   COUNTRY
COMP.                                             STATOIL:   OPERATOR
PROV.                                     OFFSHORE NORWAY:   PROVINCE
COUN.                                           NORDDRAUG:   RIG NAME
SPUD.                                          1981/05/04:   SPUD DATE
LATI.                                       58 20 47.40 N:   SURF. LATITUDE
LONG.                                        1 53 24.60 E:   SURF. LONGITUDE
PBWE.                                              15/9-9:   PB WELL ID
APIN.                                              15/9-9:   PB WELLBORE ID
PBWS.                                                 all:   PB WELL NAME SET
~PARAMETER INFORMATION (log)
LNAM.                              FDC/CNL/GR  COMPOSITED:   NAME
LTYP.                                         DEPTH MATCH:   LOG TYPE
LSRV.                                            DEN/NEUT:   LOG SERVICE
LSOU.                                             SPT/NPD:   LOG SOURCE
LVSN.                                                   1:   LOG VERSION
BHIS.                                                   R:   BRIEF HISTORY
FHIS.                                             RAW-LIS:   FULL HISTORY
LCNM.                                                 SCH:   LOGGING CONTRACTOR
TOOL.                             FDC/CNL/GR (COMPOSITED):   TOOL STRING
~Curve Information Block
#MNEM.UNIT                                        API CODE    No Description
#=========                                        ========    == ===========
DEPT.M                                       00 001 00 00:     1  DEPTH
CALI.IN                                                  :     2  Caliper
CS.                                                      :     3  Cable Speed
DRHO.G/CC                                                :     4  Bulk density correction
GR.GAPI                                                  :     5  Gamma Ray
NPHI.%                                                   :     6  Neutron porosity
RHOB.G/CC                                                :     7  Bulk density
TENS.LB                                                  :     8  Cable Tension
~ASCII
# ...
 3039.9716     8.0157  1897.9856     -.0446   572.5000    15.0402     2.4967  2971.3267
 3040.1240     8.0181  1906.9856     -.0290   572.5000    15.9481     2.5117  2974.0000
 3040.2764     8.0884  1916.6489     -.0137   572.5000    18.9702     2.5325  2970.6826
 3040.4288     8.1745  1928.0000     -.0023   572.5000    19.5958     2.5501  2966.0000
 3040.5812     8.1745  1940.6592     -.0013   572.5000    18.8372     2.5397  2973.3276
 3040.7336     8.0601  1955.3076     -.0005   572.5000    16.2367     2.5280  2983.3174
 3040.8860     7.9973  1971.6394      .0124   572.5000    14.9777     2.5430  2993.3174
 3041.0384     8.0234  1989.0000      .0186   572.5000    15.1864     2.5540  2998.0000
 3041.1908     7.9350  2007.6560      .0147   572.5000    17.6754     2.5534  2992.6689
 3041.3432     7.8177  2028.9614     -.0066   572.5000    21.0817     2.5260  2984.6919
 3041.4956     7.8280  2053.2930     -.0190   572.5000    23.6644     2.5287  2977.3174
 3041.6480     7.8672  2079.2886     -.0187   572.5000    21.3372     2.5325  2987.3174
 3041.8004     7.8802  2107.3184     -.0135   572.5000    17.6362     2.5482  2989.3408
 3041.9528     7.8659  2134.6250     -.0117   572.5000    14.3621     2.5501  2984.6440
 3042.1052     7.8477  2155.3169     -.0143   572.5000    14.6841     2.5560  2992.6729
 3042.2576     7.8477  2162.6636     -.0233   572.5000    15.6549     2.5371  2988.0098
 3042.4100     7.8490  2162.6665     -.0293   572.5000    16.1113     2.5260  2980.6665
 3042.5624     7.8646  2158.0029     -.0368   572.5000    16.0806     2.5085  2982.6528
 3042.7148     7.8297  2153.3364     -.0473   572.5000    16.0808     2.4981  3009.9517
 3042.8672     7.3883  2150.6729     -.0670   572.5000    16.5027     2.4851  3023.3652
 3043.0196     6.7174  2146.6665     -.0941   572.5000    17.1224     2.4701  2993.3330
 3043.1720     6.6446  2142.0029     -.1139   572.5000    17.1875     2.4661  2930.0479
 3043.3244     6.6120  2136.0093     -.1148   572.5000    17.1875     2.4785  2877.9614
 3043.4768     6.6094  2129.3462     -.1029   572.5000    17.1875     2.4915  2953.7114
 3043.6292     6.6107  2121.3462     -.0876   572.5000    17.1875     2.5072  3162.2402
 3043.7816     6.6120  2112.6665     -.0874   572.5000    17.1875     2.5013  3350.0000
 3043.9340     6.6094  2102.0063     -.0941   572.5000    17.1875     2.4980  3360.0156
 3044.0864     6.6042  2089.3555     -.0977   572.5000    17.2039     2.4948  3321.4229
 3044.2388     6.5950  2076.0190     -.0972   572.5000    17.2361     2.5032  3269.4038
 3044.3912     6.5964  2063.3330     -.0962   572.5000    17.2363     2.5163  3221.3335
 3044.5436     6.5937  2049.0078     -.0918   572.5000    17.2363     2.5124  3162.7007
 3044.6960     6.5937  2033.3606     -.0811   572.5000    17.2363     2.5065  3096.7788
 3044.8484     6.5937  2015.0337     -.0812   572.5000    17.2363     2.4935  3030.0962
 3045.0008     6.5937  1992.3333     -.0926   572.5000    17.2363     2.4753  2973.3330
 3045.1532     6.5937  1965.3486     -.1035   572.5000    17.2363     2.4596  2913.3760
 3045.3056     6.5950  1934.7212     -.1112   572.5000    17.2363     2.4531  2838.1055
 3045.4580     6.5951  1899.0625     -.1090   572.5000    17.2363     2.4635  2772.7690
 3045.6104     6.5898  1859.7307     -.1037   572.5000    17.2363     2.4772  2714.7402
 3045.7628     6.5898  1821.3333     -.0923   572.5000    17.2363     2.4954  2657.3330
 3045.9152     6.5898  1791.6768     -.0931   572.5000    17.2363     2.5026  2589.3569
 3046.0676     6.5898  1776.6777     -.0962   572.5000    17.2363     2.5085  2528.1538
 3046.2200     6.5898  1769.6777     -.0967   572.5000    17.2363     2.5026  2460.6826
 3046.3724     6.5898  1751.6665      .4993   572.5000    17.2363     2.6999  2459.3330
 3046.5248     6.5898  1705.3647     1.3282   572.5000    17.2363     2.6485  2471.3311
 3046.6772     6.5898  1644.7693      .1679   572.5000    17.2363     1.2546  2464.0479
 3046.8296     6.5898  1592.0481     -.7422   572.5000    17.2363      .2368  2432.7212
 3046.9820     6.5898  1762.0000     -.7422   572.5000    17.2363      .2368  2420.0000
 3047.1344     6.5898  2150.6528     -.7422   572.5000    17.2363      .2368  2461.2993
 3047.2868     6.5898  1631.7571     -.7422   572.5000    17.2363      .2368  2489.4038
