~VERSION INFORMATION
VERS.                                                 2.0:   CWLS Log ASCII Standard-VERSION 2.0
WRAP.                                                  NO:   One line per depth step
~Well Information Block
STRT.M                                           474.3176:   Top Depth
STOP.M                                          3047.2868:   Bottom Depth
STEP.M                                             .15240:   Depth Increment
NULL.                                            -999.250:   Null Value
FLD .                                            SLEIPNER:   Field Name
WELL.                                              15/9-9:   NAME
WBN .                                              15/9-9:   WELLBORE
NATI.                                                 NOR:   COUNTRY
CTRY.                                                 NOR:   COUNTRY
COMP.                                             STATOIL:   OPERATOR
PROV.                                     OFFSHORE NORWAY:   PROVINCE
COUN.                                           NORDDRAUG:   RIG NAME
SPUD.                                          1981/05/04:   SPUD DATE
LATI.                                       58 20 47.40 N:   SURF. LATITUDE
LONG.                                        1 53 24.60 E:   SURF. LONGITUDE
PBWE.                                              15/9-9:   PB WELL ID
APIN.                                              15/9-9:   PB WELLBORE ID
PBWS.                                                 all:   PB WELL NAME SET
~PARAMETER INFORMATION (log)
LNAM.                              FDC/CNL/GR  COMPOSITED:   NAME
LTYP.                                         DEPTH MATCH:   LOG TYPE
LSRV.                                            DEN/NEUT:   LOG SERVICE
LSOU.                                             SPT/NPD:   LOG SOURCE
LVSN.                                                   1:   LOG VERSION
BHIS.                                                   R:   BRIEF HISTORY
FHIS.                                             RAW-LIS:   FULL HISTORY
LCNM.                                                 SCH:   LOGGING CONTRACTOR
TOOL.                             FDC/CNL/GR (COMPOSITED):   TOOL STRING
~Curve Information Block
#MNEM.UNIT                                        API CODE    No Description
#=========                                        ========    == ===========
DEPT.M                                       00 001 00 00:     1  DEPTH
CALI.IN                                                  :     2  Caliper
CS.                                                      :     3  Cable Speed
DRHO.G/CC                                                :     4  Bulk density correction
GR.GAPI                                                  :     5  Gamma Ray
NPHI.%                                                   :     6  Neutron porosity
RHOB.G/CC                                                :     7  Bulk density
TENS.LB                                                  :     8  Cable Tension
~ASCII
  474.3176    20.1406  2360.0000     -.8711    29.4219  -999.2500     1.6729   920.0000
  474.4700    20.1406  2360.0298     -.9186    29.1354  -999.2500     1.6302   949.0966
  474.6224    20.1406  2361.9429     -.8777    28.4973  -999.2500     1.6684   921.4294
  474.7748    20.1387  2362.0806     -.8260    27.3796  -999.2500     1.7232   939.3933
  474.9272    20.0961  2363.8979     -.7507    29.0268  -999.2500     1.8101   943.9833
  475.0796    20.0938  2364.1196     -.7395    28.1184  -999.2500     1.8374   929.1061
  475.2320    20.0938  2365.7310     -.7589    29.2510  -999.2500     1.8366   904.3746
  475.3844    20.0938  2364.1465     -.7941    30.4027  -999.2500     1.7935   932.0703
  475.5368    20.0938  2363.8447     -.8304    29.8241  -999.2500     1.7500   930.3879
  475.6892    20.0938  2362.1606     -.9031    28.5456  -999.2500     1.6652   930.4025
  475.8416    20.0938  2362.1636     -.9728    27.5177  -999.2500     1.5926   933.7725
  475.9940    20.0938  2363.9995     -.9046    29.5788  -999.2500     1.6691   926.2274
  476.1464    20.0938  2366.0000     -.8242    30.6662  -999.2500     1.7642   929.1984
  476.2988    20.0974  2368.0000     -.7876    31.3798  -999.2500     1.7816   925.3848
  476.4512    20.1372  2370.0000     -.7976    31.8264  -999.2500     1.7579   924.6385
  476.6036    20.1375  2372.0000     -.8613    32.7647  -999.2500     1.6681   920.3303
  476.7560    20.0947  2373.9995     -.8806    33.4909  -999.2500     1.6358   919.7080
  476.9084    20.0640  2375.9995     -.9302    33.6214  -999.2500     1.5854   915.7385
  477.0608    20.0637  2377.9229     -.8758    34.1514  -999.2500     1.6484   924.6140
  477.2132    20.0929  2377.9473     -.8126    33.0859  -999.2500     1.7396   925.2629
  477.3656    20.0939  2376.0249     -.7881    31.7008  -999.2500     1.7712   934.8125
  477.5180    20.1093  2375.9946     -.8450    32.5579  -999.2500     1.7004   929.9612
  477.6704    20.0940  2374.0347     -.8368    31.7050  -999.2500     1.7050   911.0432
  477.8228    20.0938  2374.0610     -.8467    32.5801  -999.2500     1.7048   948.9249
  477.9752    20.0938  2375.9995     -.8161    30.2798  -999.2500     1.7506   953.9424
  478.1276    20.0938  2377.8950     -.8678    29.8438  -999.2500     1.6875   935.7882
  478.2800    20.0938  2378.1221     -.8578    29.4341  -999.2500     1.6890   931.5287
  478.4324    20.0938  2379.8633     -.8176    31.7201  -999.2500     1.7283   946.2401
  478.5848    20.0949  2380.0000     -.8205    32.2755  -999.2500     1.7420   918.7024
  478.7372    20.1069  2380.0000     -.8156    32.8587  -999.2500     1.7487   929.2157
  478.8896    20.0950  2380.0000     -.8315    32.4631  -999.2500     1.7251   932.9796
  479.0420    20.0950  2379.6724     -.7896    33.7539  -999.2500     1.7497   917.8690
  479.1944    20.1106  2376.1631     -.7945    34.2692  -999.2500     1.7378   928.7761
  479.3468    20.1381  2374.1592     -.7878    34.2724  -999.2500     1.7349   929.2032
  479.4992    20.1370  2374.0000     -.8020    34.3805  -999.2500     1.7135   921.1448
  479.6516    20.0982  2374.0000     -.7623    33.6472  -999.2500     1.7526   923.5724
  479.8040    20.1104  2374.1294     -.7194    34.0727  -999.2500     1.8161   911.6240
  479.9564    20.1388  2375.8857     -.6915    32.7490  -999.2500     1.8571   921.1356
  480.1088    20.1406  2376.0947     -.7570    32.6103  -999.2500     1.7847   946.6726
  480.2612    20.1406  2377.9268     -.8205    30.5739  -999.2500     1.7000   912.3831
  480.4136    20.1406  2378.0000     -.8379    30.2863  -999.2500     1.6853   934.7587
  480.5660    20.1403  2378.0000     -.7585    29.6594  -999.2500     1.7776   949.3950
  480.7184    20.1095  2378.0000     -.7456    29.3243  -999.2500     1.7976   905.3674
  480.8708    20.1091  2378.0000     -.7229    28.2514  -999.2500     1.7787   929.1100
  481.0232    20.0943  2377.9346     -.7131    27.3488  -999.2500     1.7761   910.9766
  481.1756    20.0938  2376.0879     -.7108    29.6531  -999.2500     1.7695   920.2203
  481.3280    20.0938  2376.0000     -.7072    30.3416  -999.2500     1.7981   933.1077
  481.4804    20.0938  2376.0000     -.7353    29.9617  -999.2500     1.7560   917.1893
  481.6328    20.0938  2376.1387     -.7212    27.1593  -999.2500     1.7614   929.6527
  481.7852    20.0949  2378.0000     -.7434    25.9292  -999.2500     1.7243   937.3827
  481.9376    20.1106  2380.0000     -.7393    26.7428  -999.2500     1.7393   918.1483
  482.0900    20.1381  2381.8379     -.7951    28.2352  -999.2500     1.6879   927.9720
  482.2424    20.1381  2382.0000     -.8479    28.9049  -999.2500     1.6486   920.8204
  482.3948    20.1119  2382.0000     -.8405    28.5527  -999.2500     1.6558   920.8141
  482.5472    20.1119  2381.6831     -.8051    26.9089  -999.2500     1.6991   928.4155
  482.6996    20.1394  2378.1509     -.7780    27.0340  -999.2500     1.7142   922.6458
  482.8520    20.1540  2376.1406     -.7651    27.7564  -999.2500     1.7287   942.5359
  483.0044    20.1416  2376.1274     -.7508    26.9554  -999.2500     1.7278   934.3621
  483.1568    20.1406  2378.0000     -.7085    26.8724  -999.2500     1.7925   917.5009
  483.3092    20.1406  2379.9082     -.6881    26.3991  -999.2500     1.8085   938.8545
  483.4616    20.1406  2380.0688     -.6893    27.5872  -999.2500     1.8197   939.4816
  483.6140    20.1410  2381.9561     -.6768    28.2670  -999.2500     1.8119   925.9867
  483.7664    20.1561  2382.0000     -.7495    29.0000  -999.2500     1.7354   954.6483
  483.9188    20.1563  2382.0000     -.7006    31.6756  -999.2500     1.7818   939.9618
  484.0712    20.1563  2382.0000     -.6989    30.8516  -999.2500     1.7760   920.5481
  484.2236    20.1563  2382.0000     -.6642    31.6456  -999.2500     1.7942   924.8264
  484.3760    20.1577  2381.9077     -.7254    31.0488  -999.2500     1.7165   925.4596
  484.5284    20.1858  2379.8892     -.7902    32.4794  -999.2500     1.6553   933.8909
  484.6808    20.1855  2376.2544     -.7642    32.2830  -999.2500     1.6901   925.0000
  484.8332    20.1573  2375.8589     -.7466    33.1382  -999.2500     1.7377   916.7600
  484.9856    20.1418  2374.3022     -.7277    32.3142  -999.2500     1.7705   930.3781
  485.1380    20.1406  2375.8413     -.6805    30.8694  -999.2500     1.8417   946.0359
  485.2904    20.1330  2376.1626     -.6513    28.0828  -999.2500     1.8888   924.8818
  485.4428    20.0417  2378.0000     -.4828    27.6593  -999.2500     2.0833   945.9000
  485.5952    19.8551  2380.0000     -.3388    28.1187  -999.2500     2.2785   933.2449
  485.7476    19.3547  2381.8423     -.1908    30.0119  -999.2500     2.3954   947.2426
  485.9000    19.3942  2382.0000     -.0309    32.0433  -999.2500     2.3806   935.0000
  486.0524    19.1160  2382.0000      .0065    34.4020  -999.2500     2.0320   922.4291
  486.2048    20.2597  2381.8750      .0147    34.9725  -999.2500     1.7913   936.2537
  486.3572    21.8379  2380.1079     -.0121    37.6672  -999.2500     1.6670   902.9674
  486.5096    22.8053  2380.0000     -.0298    41.1717  -999.2500     1.6665   917.4315
  486.6620    23.2539  2380.0654     -.0058    43.6365  -999.2500     1.7598   981.0750
  486.8144    23.3422  2381.9604      .0206    42.7731  -999.2500     1.7718   935.8855
  486.9668    23.3438  2382.0205      .0257    39.8803  -999.2500     1.6531   930.3330
  487.1192    23.3438  2385.9590     -.0048    37.9684  -999.2500     1.4870   989.0243
  487.2716    23.3438  2386.0000     -.0228    36.0403  -999.2500     1.3842   954.8793
  487.4240    23.3438  2386.0000     -.0338    34.5776  -999.2500     1.3394   919.2163
  487.5764    23.3438  2386.0947     -.0360    35.8557  -999.2500     1.3324   981.6816
  487.7288    23.3438  2387.8857     -.0444    36.8287  -999.2500     1.3158   896.8439
  487.8812    23.3438  2388.0000     -.0513    36.9772  -999.2500     1.3053   911.3000
  488.0336    23.3438  2388.0000     -.0521    35.9866  -999.2500     1.3040   943.9344
