~VERSION INFORMATION
VERS.                                                 2.0:   CWLS Log ASCII Standard-VERSION 2.0
WRAP.                                                  NO:   One line per depth step
~Well Information Block
STRT.M                                           474.3176:   Top Depth
STOP.M                                          3047.2868:   Bottom Depth
STEP.M                                             .15240:   Depth Increment
NULL.                                            -999.250:   Null Value
FLD .                                            SLEIPNER:   Field Name
WELL.                                              15/9-9:   NAME
WBN .                                              15/9-9:   WELLBORE
NATI.                                                 NOR:   COUNTRY
CTRY.                                                 NOR:   COUNTRY
COMP.                                             STATOIL:   OPERATOR
PROV.                                     OFFSHORE NORWAY:   PROVINCE
COUN.                                           NORDDRAUG:   RIG NAME
SPUD.                                          1981/05/04:   SPUD DATE
LATI.                                       58 20 47.40 N:   SURF. LATITUDE
LONG.                                        1 53 24.60 E:   SURF. LONGITUDE
PBWE.                                              15/9-9:   PB WELL ID
APIN.                                              15/9-9:   PB WELLBORE ID
PBWS.                                                 all:   PB WELL NAME SET
~PARAMETER INFORMATION (log)
LNAM.                              FDC/CNL/GR  COMPOSITED:   NAME
LTYP.                                         DEPTH MATCH:   LOG TYPE
LSRV.                                            DEN/NEUT:   LOG SERVICE
LSOU.                                             SPT/NPD:   LOG SOURCE
LVSN.                                                   1:   LOG VERSION
BHIS.                                                   R:   BRIEF HISTORY
FHIS.                                             RAW-LIS:   FULL HISTORY
LCNM.                                                 SCH:   LOGGING CONTRACTOR
TOOL.                             FDC/CNL/GR (COMPOSITED):   TOOL STRING
~Curve Information Block
#MNEM.UNIT                                        API CODE    No Description
#=========                                        ========    == ===========
DEPT.M                                       00 001 00 00:     1  DEPTH
CALI.IN                                                  :     2  Caliper
CS.                                                      :     3  Cable Speed
DRHO.G/CC                                                :     4  Bulk density correction
GR.GAPI                                                  :     5  Gamma Ray
NPHI.%                                                   :     6  Neutron porosity
RHOB.G/CC                                                :     7  Bulk density
TENS.LB                                                  :     8  Cable Tension
~ASCII
# ...
  987.4484    23.4219  1850.0007     -.0228    25.6766  -999.2500     1.3421  1344.2241
  987.6008    23.4219  1847.9277     -.0237    24.9991  -999.2500     1.3387  1340.7310
  987.7532    23.4219  1845.1350     -.0270    23.3426  -999.2500     1.3343  1344.6628
  987.9056    23.4219  1844.0002     -.0266    24.4163  -999.2500     1.3339  1345.0000
  988.0580    23.4219  1843.0000     -.0288    23.4851  -999.2500     1.3320  1344.7458
  988.2104    23.4219  1842.0403     -.0318    24.8502  -999.2500     1.3300  1340.4045
  988.3628    23.4219  1842.0000     -.0359    25.5082  -999.2500     1.3254  1344.7173
  988.5152    23.4219  1842.0149     -.0326    28.4430  -999.2500     1.3262  1340.2229
  988.6676    23.4219  1843.0000     -.0249    28.7500  -999.2500     1.3291  1350.0000
  988.8200    23.4219  1844.9695     -.0245    27.6803  -999.2500     1.3281  1345.0762
  988.9724    23.4219  1845.0281     -.0289    26.1166  -999.2500     1.3224  1345.0000
  989.1248    23.4219  1845.9592     -.0345    24.8470  -999.2500     1.3199  1345.2019
  989.2772    23.4219  1845.9492     -.0266    25.3138  -999.2500     1.3299  1349.7441
  989.4296    23.4219  1845.1196     -.0222    24.1186  -999.2500     1.3364  1349.7019
  989.5820    23.4219  1845.9995     -.0221    25.0889  -999.2500     1.3345  1345.6736
  989.7344    23.4219  1846.9265     -.0290    24.3484  -999.2500     1.3271  1349.2676
  989.8868    23.4219  1847.0000     -.0273    25.4969  -999.2500     1.3319  1345.7771
  990.0392    23.4219  1847.1609     -.0187    24.8801  -999.2500     1.3603  1349.5974
  990.1916    23.4219  1848.8362     -.0056    25.3117  -999.2500     1.4230  1350.0000
  990.3440    23.4219  1849.0000      .0106    26.2387  -999.2500     1.5110  1350.0000
  990.4964    23.4219  1849.0000      .0293    26.2756  -999.2500     1.6099  1350.0000
  990.6488    23.4219  1849.0000      .0385    25.9221  -999.2500     1.6729  1349.6157
  990.8012    23.4219  1849.0000      .0456    24.7984  -999.2500     1.7090  1346.0830
  990.9536    23.4219  1848.8020      .0482    24.8763  -999.2500     1.7046  1354.0066
  991.1060    23.4219  1846.1755      .0298    24.7292  -999.2500     1.6386  1350.2925
  991.2584    23.4219  1846.0000      .0105    25.4484  -999.2500     1.5525  1350.0000
  991.4108    23.4219  1846.0000     -.0030    26.6589  -999.2500     1.4788  1350.0000
  991.5632    23.4219  1846.0000     -.0068    26.4899  -999.2500     1.4373  1350.1296
  991.7156    23.4219  1846.0122     -.0092    27.0304  -999.2500     1.4249  1354.8750
  991.8680    23.4219  1846.9971     -.0083    27.5450  -999.2500     1.4239  1350.0278
  992.0204    23.4219  1847.0000     -.0063    27.3580  -999.2500     1.4345  1354.8259
  992.1728    23.4219  1847.0000     -.0044    25.3746  -999.2500     1.4424  1350.1523
  992.3252    23.4219  1846.9575     -.0026    23.9408  -999.2500     1.4493  1350.2119
  992.4776    23.4219  1846.0525     -.0042    24.9991  -999.2500     1.4368  1354.4746
  992.6300    23.4219  1845.8777     -.0102    26.8579  -999.2500     1.4126  1350.6125
  992.7824    23.4219  1844.0688     -.0150    27.4135  -999.2500     1.3975  1354.6572
  992.9348    23.4219  1843.0742     -.0116    27.8348  -999.2500     1.4219  1354.2620
  993.0872    23.4219  1843.0779     -.0007    26.8180  -999.2500     1.4724  1346.5642
  993.2396    23.4219  1843.9189      .0080    26.5857  -999.2500     1.5199  1352.9802
  993.3920    23.4219  1844.0000      .0128    25.1001  -999.2500     1.5381  1342.0522
  993.5444    23.4219  1844.0813      .0093    25.3165  -999.2500     1.5234  1349.5891
  993.6968    23.4219  1844.9202      .0095    24.6449  -999.2500     1.4934  1354.2034
  993.8492    23.4219  1845.0000     -.0020    25.3660  -999.2500     1.4454  1350.3818
  994.0016    23.4219  1845.0000     -.0094    24.3737  -999.2500     1.4079  1350.0000
  994.1540    23.4219  1845.0000     -.0176    24.7817  -999.2500     1.3811  1350.0000
  994.3064    23.4219  1844.8867     -.0194    24.2377  -999.2500     1.3714  1350.0000
  994.4588    23.4219  1843.0476     -.0196    25.9868  -999.2500     1.3672  1350.0000
  994.6112    23.4219  1842.0730     -.0200    25.8867  -999.2500     1.3641  1350.5447
  994.7636    23.4219  1842.9995     -.0206    26.3561  -999.2500     1.3574  1364.0366
  994.9160    23.4219  1844.0098     -.0239    26.1077  -999.2500     1.3506  1340.4126
  995.0684    23.4219  1846.0042     -.0259    25.6796  -999.2500     1.3457  1354.8660
  995.2208    23.4219  1848.9792     -.0273    26.6754  -999.2500     1.3409  1345.1013
  995.3732    23.4219  1850.9666     -.0273    25.5681  -999.2500     1.3388  1340.6553
  995.5256    23.4219  1851.9116     -.0272    24.5498  -999.2500     1.3362  1354.1138
  995.6780    23.4219  1851.1082     -.0251    23.3587  -999.2500     1.3377  1350.2712
  995.8304    23.4219  1851.8748     -.0255    23.7829  -999.2500     1.3359  1350.0000
  995.9828    23.4219  1851.0696     -.0273    25.4861  -999.2500     1.3342  1350.0000
  996.1352    23.4219  1850.9250     -.0285    25.4464  -999.2500     1.3349  1350.0000
  996.2876    23.4219  1850.0789     -.0309    25.9861  -999.2500     1.3355  1350.0000
  996.4400    23.4219  1850.0000     -.0301    25.9498  -999.2500     1.3409  1350.0000
  996.5924    23.4219  1850.0818     -.0318    27.3755  -999.2500     1.3385  1350.4089
  996.7448    23.4219  1850.9185     -.0253    26.8215  -999.2500     1.3398  1354.1863
  996.8972    23.4219  1851.0791     -.0267    25.3069  -999.2500     1.3318  1350.3975
  997.0496    23.4219  1851.9243     -.0234    25.0265  -999.2500     1.3305  1350.3767
  997.2020    23.4219  1852.0000     -.0292    25.6361  -999.2500     1.3241  1354.6470
  997.3544    23.4219  1852.0000     -.0286    27.5545  -999.2500     1.3279  1354.6829
  997.5068    23.4219  1852.0000     -.0314    26.5963  -999.2500     1.3301  1350.5544
  997.6592    23.4219  1851.9543     -.0297    27.1572  -999.2500     1.3328  1354.5417
  997.8116    23.4219  1850.9319     -.0269    26.9658  -999.2500     1.3317  1350.1729
  997.9640    23.4219  1848.0659     -.0259    27.8935  -999.2500     1.3224  1350.1077
  998.1164    23.4219  1847.9929     -.0259    27.6223  -999.2500     1.3193  1354.9275
  998.2688    23.4219  1847.0156     -.0288    26.9159  -999.2500     1.3106  1350.0391
  998.4212    23.4219  1847.9780     -.0330    25.4699  -999.2500     1.3058  1350.1077
  998.5736    23.4219  1848.0000     -.0300    24.7853  -999.2500     1.3056  1354.8254
  998.7260    23.4219  1847.9543     -.0320    25.4990  -999.2500     1.3049  1355.0000
  998.8784    23.4219  1847.0559     -.0296    26.4884  -999.2500     1.3071  1354.7224
  999.0308    23.4219  1847.0000     -.0319    26.3444  -999.2500     1.3023  1350.6377
  999.1832    23.4219  1847.0701     -.0301    26.5021  -999.2500     1.3044  1354.2959
  999.3356    23.4219  1847.8486     -.0312    26.0889  -999.2500     1.3040  1350.7563
  999.4880    23.4219  1846.9214     -.0318    26.9438  -999.2500     1.3062  1354.6028
  999.6404    23.4219  1845.1633     -.0327    25.8913  -999.2500     1.3041  1354.5935
  999.7928    23.4219  1845.0000     -.0338    25.0844  -999.2500     1.3053  1350.4109
  999.9452    23.4219  1845.0808     -.0356    24.0862  -999.2500     1.3032  1350.4045
 1000.0976    23.4219  1845.9995     -.0363    24.8850  -999.2500     1.3060  1354.6057
 1000.2500    23.4219  1846.9250     -.0333    25.5682  -999.2500     1.3130  1355.0000
 1000.4024    23.4219  1847.0693     -.0258    25.3782  -999.2500     1.3258  1355.0000
 1000.5548    23.4219  1847.9995     -.0233    24.8378  -999.2500     1.3333  1355.0000
 1000.7072    23.4219  1848.9456     -.0260    25.2625  -999.2500     1.3309  1354.7305
 1000.8596    23.4219  1849.0000     -.0311    25.4291  -999.2500     1.3255  1350.2207
 1001.0120    23.4219  1848.9675     -.0326    25.1212  -999.2500     1.3264  1350.1616
 1001.1644    23.4219  1847.9810     -.0312    26.0129  -999.2500     1.3340  1354.9006
