~VERSION INFORMATION
VERS.                                                 2.0:   CWLS Log ASCII Standard-VERSION 2.0
WRAP.                                                  NO:   One line per depth step
~Well Information Block
STRT.M                                           182.0144:   Top Depth
STOP.M                                          4097.1704:   Bottom Depth
STEP.M                                             .15240:   Depth Increment
NULL.                                            -999.250:   Null Value
FLD .                                                 ULA:   Field Name
WELL.                                              15/3-4:   NAME
WBN .                                              15/3-4:   WELLBORE
NATI.                                                 NOR:   COUNTRY
CTRY.                                                 NOR:   COUNTRY
COMP.                             ELF AQUITAINE NORGE A/S:   OPERATOR
PROV.                                    OFF-SHORE NORWAY:   PROVINCE
COUN.                                    BORGSTEN DOLPHIN:   RIG NAME
SPUD.                                          1981/10/03:   SPUD DATE
LATI.                                        1 52 59.82 E:   SURF. LATITUDE
LONG.                                        58 49 5.28 N:   SURF. LONGITUDE
PBWE.                                              15/3-4:   PB WELL ID
APIN.                                              15/3-4:   PB WELLBORE ID
PBWS.                                                 all:   PB WELL NAME SET
~PARAMETER INFORMATION (log)
LNAM.                              LDT/CNL/GR  COMPOSITED:   NAME
LTYP.                                         DEPTH MATCH:   LOG TYPE
LSRV.                                           LATEROLOG:   LOG SERVICE
LSOU.                                             SPT/NPD:   LOG SOURCE
LVSN.                                                   1:   LOG VERSION
BHIS.                                                   R:   BRIEF HISTORY
FHIS.                                             RAW-LIS:   FULL HISTORY
LCNM.                                        SCHLUMBERGER:   LOGGING CONTRACTOR
TOOL.                             LDT/CNL/GR (COMPOSITED):   TOOL STRING
~Curve Information Block
#MNEM.UNIT                                        API CODE    No Description
#=========                                        ========    == ===========
DEPT.M                                       00 001 00 00:     1  DEPTH
CALI.IN                                                  :     2  Caliper
CS.                                                      :     3  Cable Speed
DRHO.G/CC                                                :     4  Bulk density correction
GR.GAPI                                                  :     5  Gamma Ray
NPHI.%                                                   :     6  Neutron porosity
PEF.B/E                                                  :     7  Photo-electric factor
RHOB.G/CC                                                :     8  Bulk density
TENS.LB                                                  :     9  Cable Tension
~ASCII
# ...
 3564.3800    13.3320  1821.0000      .0059    47.2813    28.5645     4.5957     2.5049  3284.0000
 3564.5324    13.3085  1821.0000     -.0029    48.7187    27.3938     4.4885     2.5127  3290.0000
 3564.6848    13.3983  1821.0000     -.0102    49.7188    26.3680     4.3321     2.5195  3370.0000
 3564.8372    13.4336  1824.0000     -.0090    47.5000    25.9040     4.9219     2.5244  3444.0000
 3564.9896    13.4336  1828.0000      .0002    47.8125    25.4395     6.0781     2.5225  3460.0000
 3565.1420    13.4219  1827.0000      .0122    47.0625    25.3903     7.0247     2.5059  3384.0000
 3565.2944    13.3790  1825.0000      .0378    52.0625    26.3647     7.0559     2.5146  3374.0000
 3565.4468    13.1180  1821.0000      .0576    48.3438    27.4161     6.3137     2.5439  3304.0000
 3565.5992    13.1289  1821.0000      .0596    48.1250    28.1006     5.6035     2.5723  3300.0000
 3565.7516    13.3945  1820.0000      .0420    44.0625    28.3694     4.9946     2.5791  3300.0000
 3565.9040    13.4062  1819.0000      .0176    48.1563    28.3443     4.5435     2.5479  3480.0000
 3566.0564    13.4179  1820.0000      .0115    51.8125    28.0531     4.1637     2.5264  3440.0000
 3566.2088    13.3440  1820.0000      .0085    50.5000    28.1234     3.8091     2.5137  3424.0000
 3566.3612    13.2852  1820.0000      .0103    47.3437    29.0283     3.6602     2.5146  3374.0000
 3566.5136    13.3320  1820.0000      .0208    44.9687    29.9316     3.7373     2.5293  3274.0000
 3566.6660    13.3438  1817.0000      .0378    44.4063    29.2255     3.9938     2.5488  3214.0000
 3566.8184    13.3359  1815.0000      .0405    46.2500    26.7619     4.3861     2.5547  3264.0000
 3566.9708    13.3359  1812.0000      .0232    45.6250    24.7559     4.8555     2.5352  3564.0000
 3567.1232    13.3359  1812.0000      .0115    48.0625    25.9277     5.1934     2.5156  3564.0000
 3567.2756    13.3086  1813.0000      .0100    49.2813    28.2715     5.2520     2.5078  3534.0000
 3567.4280    13.2813  1815.0000      .0112    50.5313    28.4184     5.2675     2.5088  3444.0000
 3567.5804    13.2813  1816.0000      .0146    51.3438    27.0996     5.1758     2.5166  3344.0000
 3567.7328    13.2734  1821.0000      .0229    50.6563    26.3184     4.8887     2.5283  3390.0000
 3567.8852    13.2656  1818.0000      .0286    52.3437    27.0996     4.6543     2.5410  3330.0000
 3568.0376    13.2656  1814.0000      .0181    52.5938    27.3442     4.7029     2.5323  3240.0000
 3568.1900    13.2968  1808.0000      .0073    52.1875    28.0972     5.1221     2.5127  3270.0000
 3568.3424    13.3555  1805.0000      .0044    53.6250    28.8086     5.6660     2.4941  3194.0000
 3568.4948    13.4023  1802.0000      .0051    55.1875    28.4668     5.8027     2.4766  3184.0000
 3568.6472    13.4570  1795.0000      .0078    55.2812    27.6624     5.7694     2.4688  3030.0000
 3568.7996    13.4844  1786.0000      .0095    54.7813    27.3665     5.6880     2.4678  2990.0000
 3568.9520    13.4766  1775.0000      .0120    53.6875    27.9541     5.8906     2.4746  3120.0000
 3569.1044    13.4766  1772.0000      .0098    52.9063    27.9785     6.0215     2.4756  4260.0000
 3569.2568    13.4766  1777.0000      .0073    49.7813    28.1738     5.7676     2.4707  4188.0000
 3569.4092    13.4766  1781.0000      .0063    47.0312    28.8574     5.5410     2.4658  4164.0000
 3569.5616    13.4766  1784.0000      .0046    45.9688    29.6148     5.4024     2.4668  4108.0000
 3569.7140    13.4766  1787.0000      .0046    42.1875    29.0283     5.5742     2.4717  4070.0000
 3569.8664    13.4766  1792.0000      .0059    41.9375    26.8555     5.6348     2.4785  3994.0000
 3570.0188    13.4766  1796.0000      .0095    40.2500    24.8047     5.3691     2.4844  3900.0000
 3570.1712    13.4766  1800.0000      .0103    44.0938    24.3652     4.9277     2.4844  3860.0000
 3570.3236    13.4726  1805.0000      .0078    44.9063    25.1716     4.5114     2.4805  3830.0000
 3570.4760    13.4688  1815.0000      .0068    46.1875    25.4883     4.1934     2.4717  3724.0000
 3570.6284    13.4688  1817.0000      .0059    47.3750    24.9512     4.0088     2.4600  3700.0000
 3570.7808    13.2500  1818.0000      .0044    53.8125    23.8770     3.9033     2.4512  3634.0000
 3570.9332    13.0312  1817.0000      .0032    55.8438    24.1470     4.1724     2.4502  3544.0000
 3571.0856    13.0273  1820.0000      .0020    56.7500    26.2939     4.9023     2.4561  3424.0000
 3571.2380    13.0234  1821.0000      .0005    50.8750    29.3701     5.6074     2.4590  3544.0000
 3571.3904    12.9961  1824.0000      .0020    53.1563    30.5176     5.5918     2.4580  3470.0000
 3571.5428    12.8044  1825.0000      .0174    50.0938    28.6603     4.7609     2.4688  3444.0000
 3571.6952    12.6055  1826.0000      .0388    49.2813    25.8301     4.1816     2.4961  3384.0000
 3571.8476    12.6289  1825.0000      .0422    46.2500    23.8770     4.1484     2.5205  3344.0000
 3572.0000    12.6758  1825.0000      .0247    46.7500    24.2178     4.3318     2.5293  3330.0000
 3572.1524    12.6835  1824.0000      .0073    47.6250    25.5104     4.4124     2.5235  3330.0000
 3572.3048    12.6914  1822.0000      .0039    50.0938    26.6602     4.1914     2.5156  3380.0000
 3572.4572    12.6719  1821.0000      .0042    51.5312    27.5871     4.0332     2.5068  3464.0000
 3572.6096    12.6134  1821.0000      .0029    49.1563    28.0762     3.9202     2.4942  3364.0000
 3572.7620    12.6209  1821.0000      .0010    48.1250    27.6381     3.8057     2.4815  3374.0000
 3572.9144    12.6680  1821.0000     -.0010    46.0625    26.2939     3.6572     2.4727  3374.0000
 3573.0668    12.6484  1821.0000      .0007    47.9687    25.2686     3.5439     2.4805  3360.0000
 3573.2192    12.6406  1822.0000      .0022    46.4062    25.7071     3.6834     2.5078  3324.0000
 3573.3716    12.6406  1822.0000     -.0046    49.5000    25.8315     4.1113     2.5361  3580.0000
 3573.5240    12.6289  1823.0000     -.0120    51.5625    25.2441     4.4727     2.5654  3540.0000
 3573.6764    12.6016  1822.0000     -.0149    53.3750    24.3896     4.3203     2.5791  3480.0000
 3573.8288    12.5859  1822.0000     -.0125    52.4375    23.5110     4.1133     2.5684  3394.0000
 3573.9812    12.5898  1824.0000     -.0120    52.0938    23.0478     4.1717     2.5352  3414.0000
 3574.1336    12.5937  1824.0000     -.0122    46.6563    23.2650     4.2597     2.5049  3424.0000
 3574.2860    12.6133  1824.0000     -.0103    42.8125    24.1455     4.1221     2.4951  3404.0000
 3574.4384    12.6796  1825.0000     -.0105    39.3750    24.4142     3.7796     2.4971  3324.0000
 3574.5908    12.6331  1824.0000     -.0110    40.5937    23.9027     3.7028     2.5117  3360.0000
 3574.7432    12.5274  1825.0000     -.0112    39.2500    23.2916     3.8504     2.5322  3354.0000
 3574.8956    12.5195  1823.0000     -.0078    42.2500    23.3398     4.0527     2.5527  3400.0000
 3575.0480    12.5117  1823.0000     -.0078    46.7187    24.0967     4.1484     2.5508  3384.0000
 3575.2004    12.5000  1823.0000     -.0088    49.8125    24.6582     4.0527     2.5371  3380.0000
 3575.3528    12.5117  1823.0000     -.0081    47.5000    24.5608     3.9269     2.5186  3364.0000
 3575.5052    12.5234  1823.0000     -.0066    43.2812    23.9746     3.8477     2.4990  3330.0000
 3575.6576    12.5469  1823.0000      .0005    43.6875    24.2676     3.8887     2.4902  3330.0000
 3575.8100    12.5781  1823.0000      .0078    45.1562    25.3418     4.0869     2.5000  3354.0000
 3575.9624    12.5781  1827.0000      .0088    46.0313    25.8057     4.3477     2.5264  3330.0000
 3576.1148    12.5664  1828.0000      .0037    47.1875    25.3427     4.4512     2.5586  3334.0000
 3576.2672    12.5273  1828.0000      .0010    45.8750    24.9756     4.5000     2.5684  3374.0000
 3576.4196    12.4727  1825.0000      .0073    48.7500    25.8789     4.6484     2.5498  3384.0000
 3576.5720    12.4492  1823.0000      .0134    48.5313    27.0264     4.9941     2.5225  3320.0000
