~VERSION INFORMATION
VERS.                                                 2.0:   CWLS Log ASCII Standard-VERSION 2.0
WRAP.                                                  NO:   One line per depth step
~Well Information Block
STRT.M                                           182.0144:   Top Depth
STOP.M                                          4097.1704:   Bottom Depth
STEP.M                                             .15240:   Depth Increment
NULL.                                            -999.250:   Null Value
FLD .                                                 ULA:   Field Name
WELL.                                              15/3-4:   NAME
WBN .                                              15/3-4:   WELLBORE
NATI.                                                 NOR:   COUNTRY
CTRY.                                                 NOR:   COUNTRY
COMP.                             ELF AQUITAINE NORGE A/S:   OPERATOR
PROV.                                    OFF-SHORE NORWAY:   PROVINCE
COUN.                                    BORGSTEN DOLPHIN:   RIG NAME
SPUD.                                          1981/10/03:   SPUD DATE
LATI.                                        1 52 59.82 E:   SURF. LATITUDE
LONG.                                        58 49 5.28 N:   SURF. LONGITUDE
PBWE.                                              15/3-4:   PB WELL ID
APIN.                                              15/3-4:   PB WELLBORE ID
PBWS.                                                 all:   PB WELL NAME SET
~PARAMETER INFORMATION (log)
LNAM.                              LDT/CNL/GR  COMPOSITED:   NAME
LTYP.                                         DEPTH MATCH:   LOG TYPE
LSRV.                                           LATEROLOG:   LOG SERVICE
LSOU.                                             SPT/NPD:   LOG SOURCE
LVSN.                                                   1:   LOG VERSION
BHIS.                                                   R:   BRIEF HISTORY
FHIS.                                             RAW-LIS:   FULL HISTORY
LCNM.                                        SCHLUMBERGER:   LOGGING CONTRACTOR
TOOL.                             LDT/CNL/GR (COMPOSITED):   TOOL STRING
~Curve Information Block
#MNEM.UNIT                                        API CODE    No Description
#=========                                        ========    == ===========
DEPT.M                                       00 001 00 00:     1  DEPTH
CALI.IN                                                  :     2  Caliper
CS.                                                      :     3  Cable Speed
DRHO.G/CC                                                :     4  Bulk density correction
GR.GAPI                                                  :     5  Gamma Ray
NPHI.%                                                   :     6  Neutron porosity
PEF.B/E                                                  :     7  Photo-electric factor
RHOB.G/CC                                                :     8  Bulk density
TENS.LB                                                  :     9  Cable Tension
~ASCII
# ...
 3045.9152    12.6563  1873.0000      .0037    28.6250    19.5557     5.1562     2.6035  2924.0000
 3046.0676    12.6563  1872.0000      .0039    28.4531    19.6289     5.0312     2.6104  2970.0000
 3046.2200    12.6952  1872.0000      .0002    30.0781    20.3120     5.1171     2.6123  2984.0000
 3046.3724    12.7070  1872.0000     -.0034    25.9219    20.9717     5.2793     2.6104  3030.0000
 3046.5248    12.6797  1872.0000     -.0061    24.6562    21.1426     5.2227     2.6074  2970.0000
 3046.6772    12.6719  1870.0000     -.0098    24.5156    20.8496     5.2207     2.6074  3004.0000
 3046.8296    12.6602  1870.0000     -.0107    26.1406    19.4845     5.5817     2.6103  3080.0000
 3046.9820    12.6485  1871.0000     -.0066    27.5000    17.9695     6.0519     2.6113  3034.0000
 3047.1344    12.6406  1872.0000     -.0007    24.7031    17.5293     6.1914     2.6074  2934.0000
 3047.2868    12.6484  1872.0000      .0032    22.5625    17.7490     5.9219     2.6074  3014.0000
 3047.4392    12.6563  1873.0000      .0027    20.3281    17.9934     5.8300     2.6094  3080.0000
 3047.5916    12.6601  1878.0000     -.0007    22.4531    17.7493     5.9471     2.6074  3084.0000
 3047.7440    12.6641  1881.0000     -.0066    23.2500    17.9688     6.1348     2.5996  2970.0000
 3047.8964    12.6641  1878.0000     -.0139    23.1719    18.4814     6.0703     2.5898  2940.0000
 3048.0488    12.6641  1873.0000     -.0171    25.0000    18.4082     5.7422     2.5859  3004.0000
 3048.2012    12.6719  1869.0000     -.0166    26.9531    18.5303     5.5117     2.5879  3080.0000
 3048.3536    12.6797  1869.0000     -.0146    30.3750    18.5052     5.4903     2.5869  3084.0000
 3048.5060    12.6719  1870.0000     -.0078    29.5000    18.9209     5.7988     2.5908  3004.0000
 3048.6584    12.6719  1871.0000      .0010    28.5313    19.1162     5.9902     2.6045  3140.0000
 3048.8108    12.6914  1873.0000      .0066    26.2031    18.6523     5.7637     2.6152  3114.0000
 3048.9632    12.7148  1874.0000      .0061    27.2813    18.7988     5.2715     2.6162  3024.0000
 3049.1156    12.7070  1874.0000      .0005    32.3750    19.0190     4.8162     2.6074  2970.0000
 3049.2680    12.6875  1876.0000     -.0029    35.7813    19.1895     4.7305     2.6035  2964.0000
 3049.4204    12.6875  1875.0000     -.0022    35.6563    18.7500     4.9492     2.6016  2974.0000
 3049.5728    12.6875  1874.0000      .0032    31.0469    18.1152     5.3711     2.5918  2994.0000
 3049.7252    12.6875  1873.0000      .0232    28.8438    17.8956     5.6641     2.5869  2940.0000
 3049.8776    12.6875  1870.0000      .0564    29.2813    17.8955     5.6250     2.6074  2980.0000
 3050.0300    12.6836  1873.0000      .0691    31.2500    18.8477     5.3730     2.6309  3120.0000
 3050.1824    12.6445  1875.0000      .0491    34.6562    20.8740     5.1484     2.6367  3100.0000
 3050.3348    12.6250  1876.0000      .0180    35.8125    22.3152     5.1563     2.6250  2994.0000
 3050.4872    12.6523  1877.0000      .0000    34.0312    22.6807     5.5059     2.6113  2974.0000
 3050.6396    12.6641  1878.0000     -.0088    30.0000    22.1191     5.8945     2.6035  2874.0000
 3050.7920    12.6641  1873.0000     -.0161    26.8437    21.2896     6.3022     2.5947  2884.0000
 3050.9444    12.6641  1871.0000     -.0149    25.1094    19.9008     6.3992     2.5937  3304.0000
 3051.0968    12.6602  1869.0000     -.0100    27.3594    17.9932     6.2031     2.5996  3230.0000
 3051.2492    12.6250  1870.0000     -.0076    25.8281    16.9437     6.2324     2.6055  3204.0000
 3051.4016    12.5937  1873.0000     -.0100    27.3906    16.8941     6.2597     2.6045  3140.0000
 3051.5540    12.5937  1875.0000     -.0120    24.3594    16.6516     6.1294     2.6006  3044.0000
 3051.7064    12.5937  1874.0000     -.0137    26.6094    15.7715     6.1641     2.5859  2964.0000
 3051.8588    12.5586  1874.0000     -.0103    26.2656    14.9414     6.8047     2.5762  3030.0000
 3052.0112    12.4961  1874.0000     -.0044    26.6094    15.2334     8.0047     2.5781  3034.0000
 3052.1636    12.4726  1874.0000     -.0012    27.6094    15.6501     8.1776     2.5849  3060.0000
 3052.3160    12.6875  1875.0000     -.0022    27.2188    15.5518     6.9512     2.5898  3090.0000
 3052.4684    12.8633  1875.0000      .0000    27.5313    16.0645     6.0020     2.5957  3014.0000
 3052.6208    12.6409  1875.0000      .0056    26.6250    16.5770     5.5803     2.6113  3024.0000
 3052.7732    12.4648  1875.0000      .0054    28.3906    16.3342     5.5349     2.6221  3104.0000
 3052.9256    12.4532  1876.0000      .0007    31.6094    15.3341     5.4049     2.6260  3034.0000
 3053.0780    12.4414  1877.0000     -.0063    32.7812    15.3320     5.5820     2.6250  3024.0000
 3053.2304    12.4531  1876.0000     -.0090    31.5312    16.6493     6.0838     2.6250  2940.0000
 3053.3828    12.4531  1878.0000     -.0078    29.0000    17.9911     6.4115     2.6211  2964.0000
 3053.5352    12.4531  1881.0000     -.0042    29.1250    19.0417     6.2375     2.6152  3104.0000
 3053.6876    12.4531  1881.0000     -.0015    30.5625    19.5801     5.8555     2.6133  3104.0000
 3053.8400    12.4180  1880.0000     -.0049    32.5000    18.7744     5.8242     2.6094  3044.0000
 3053.9924    12.3906  1877.0000     -.0090    30.6250    16.6016     5.7988     2.6113  2964.0000
 3054.1448    12.4023  1874.0000     -.0115    29.4531    15.1859     5.7501     2.6152  2970.0000
 3054.2972    12.4023  1872.0000     -.0127    27.9531    15.5029     5.6758     2.6123  3130.0000
 3054.4496    12.4023  1873.0000     -.0129    32.1250    16.9434     5.5625     2.6055  3094.0000
 3054.6020    12.4141  1874.0000     -.0127    32.0625    18.0420     5.3906     2.6016  3024.0000
 3054.7544    12.4258  1873.0000     -.0117    32.9063    17.9932     5.6094     2.6064  3004.0000
 3054.9068    12.4414  1873.0000     -.0127    29.6094    17.4566     5.9257     2.5996  2964.0000
 3055.0592    12.4531  1873.0000     -.0095    28.4062    16.9189     6.0195     2.5889  3060.0000
 3055.2116    12.4492  1872.0000     -.0046    24.0156    17.8955     5.8926     2.5908  3010.0000
 3055.3640    12.5547  1874.0000     -.0029    26.3906    19.6533     5.7793     2.6064  3124.0000
 3055.5164    12.5588  1874.0000     -.0080    30.0313    19.4836     6.1226     2.6182  3060.0000
 3055.6688    12.4531  1873.0000     -.0122    35.1250    17.1631     6.2773     2.6162  2950.0000
 3055.8212    12.4531  1871.0000     -.0098    34.8125    14.7705     6.4668     2.6104  2970.0000
 3055.9736    12.4531  1870.0000     -.0078    34.2188    14.3555     6.3848     2.6006  3090.0000
 3056.1260    12.4648  1871.0000     -.0081    34.0000    16.3061     5.6802     2.5899  3104.0000
 3056.2784    12.4766  1872.0000     -.0088    30.5156    19.5557     5.0195     2.5889  3064.0000
 3056.4308    12.5195  1877.0000     -.0107    26.2500    21.3135     4.6934     2.6025  3044.0000
 3056.5832    12.5196  1876.0000     -.0134    23.8594    19.8267     4.8533     2.6181  3010.0000
 3056.7356    12.4766  1870.0000     -.0125    23.1250    16.1932     4.9786     2.6318  2924.0000
 3056.8880    12.4766  1865.0000     -.0120    25.3281    13.6976     5.0232     2.6338  2994.0000
 3057.0404    12.4844  1859.0000     -.0132    23.8750    13.2813     5.3551     2.6318  2990.0000
 3057.1928    12.4844  1858.0000     -.0151    24.3906    13.8653     5.7807     2.6260  3240.0000
 3057.3452    12.4844  1858.0000     -.0142    24.1250    15.2562     6.0271     2.6201  3194.0000
 3057.4976    12.4961  1857.0000     -.0105    24.5469    16.6485     6.0548     2.6211  3134.0000
 3057.6500    12.5000  1858.0000     -.0073    23.2813    17.4316     5.8105     2.6250  3100.0000
 3057.8024    12.5000  1855.0000     -.0037    21.1719    17.2613     5.6679     2.6309  2960.0000
 3057.9548    12.5000  1852.0000     -.0017    19.8281    16.6025     5.4598     2.6318  3070.0000
 3058.1072    12.4961  1851.0000     -.0044    21.4219    15.7732     5.4036     2.6231  3094.0000
