~VERSION INFORMATION
VERS.                                                 2.0:   CWLS Log ASCII Standard-VERSION 2.0
WRAP.                                                  NO:   One line per depth step
~Well Information Block
STRT.M                                           182.0144:   Top Depth
STOP.M                                          4097.1704:   Bottom Depth
STEP.M                                             .15240:   Depth Increment
NULL.                                            -999.250:   Null Value
FLD .                                                 ULA:   Field Name
WELL.                                              15/3-4:   NAME
WBN .                                              15/3-4:   WELLBORE
NATI.                                                 NOR:   COUNTRY
CTRY.                                                 NOR:   COUNTRY
COMP.                             ELF AQUITAINE NORGE A/S:   OPERATOR
PROV.                                    OFF-SHORE NORWAY:   PROVINCE
COUN.                                    BORGSTEN DOLPHIN:   RIG NAME
SPUD.                                          1981/10/03:   SPUD DATE
LATI.                                        1 52 59.82 E:   SURF. LATITUDE
LONG.                                        58 49 5.28 N:   SURF. LONGITUDE
PBWE.                                              15/3-4:   PB WELL ID
APIN.                                              15/3-4:   PB WELLBORE ID
PBWS.                                                 all:   PB WELL NAME SET
~PARAMETER INFORMATION (log)
LNAM.                              LDT/CNL/GR  COMPOSITED:   NAME
LTYP.                                         DEPTH MATCH:   LOG TYPE
LSRV.                                           LATEROLOG:   LOG SERVICE
LSOU.                                             SPT/NPD:   LOG SOURCE
LVSN.                                                   1:   LOG VERSION
BHIS.                                                   R:   BRIEF HISTORY
FHIS.                                             RAW-LIS:   FULL HISTORY
LCNM.                                        SCHLUMBERGER:   LOGGING CONTRACTOR
TOOL.                             LDT/CNL/GR (COMPOSITED):   TOOL STRING
~Curve Information Block
#MNEM.UNIT                                        API CODE    No Description
#=========                                        ========    == ===========
DEPT.M                                       00 001 00 00:     1  DEPTH
CALI.IN                                                  :     2  Caliper
CS.                                                      :     3  Cable Speed
DRHO.G/CC                                                :     4  Bulk density correction
GR.GAPI                                                  :     5  Gamma Ray
NPHI.%                                                   :     6  Neutron porosity
PEF.B/E                                                  :     7  Photo-electric factor
RHOB.G/CC                                                :     8  Bulk density
TENS.LB                                                  :     9  Cable Tension
~ASCII
# ...
 1996.6412    17.1563  1875.0000     -.0317    18.4063    33.0078     3.6738     2.0937  2524.0000
 1996.7936    17.1563  1876.0000     -.0327    19.4844    31.4453     3.6113     2.0937  2500.0000
 1996.9460    17.1563  1876.0000     -.0352    18.9219    30.1758     3.6523     2.0918  2550.0000
 1997.0984    17.1563  1878.0000     -.0386    20.0781    31.4941     3.6719     2.0957  2574.0000
 1997.2508    17.1563  1880.0000     -.0332    19.5781    33.8379     3.6562     2.0996  2524.0000
 1997.4032    17.1563  1881.0000     -.0342    19.3281    33.9844     3.7187     2.1016  2484.0000
 1997.5556    17.1563  1877.0000     -.0298    19.4688    34.7168     3.7715     2.1016  2484.0000
 1997.7080    17.1563  1879.0000     -.0288    20.8594    33.2031     3.9375     2.1016  2514.0000
 1997.8604    17.1563  1879.0000     -.0254    20.1094    34.4238     3.8750     2.1035  2520.0000
 1998.0128    17.1563  1874.0000     -.0288    18.1250    34.4727     3.7988     2.0977  2490.0000
 1998.1652    17.1563  1870.0000     -.0273    18.2969    33.8379     3.8730     2.0977  2584.0000
 1998.3176    17.1563  1871.0000     -.0259    18.5313    32.9590     3.9746     2.0996  2534.0000
 1998.4700    17.1563  1871.0000     -.0220    18.7969    31.2500     4.1445     2.0977  2480.0000
 1998.6224    17.1563  1872.0000     -.0229    19.0469    30.9082     4.1562     2.0957  2444.0000
 1998.7748    17.1563  1871.0000     -.0264    18.3594    29.6875     4.1836     2.0957  2494.0000
 1998.9272    17.1563  1872.0000     -.0283    21.1094    31.4941     4.3555     2.0957  2514.0000
 1999.0796    17.1563  1874.0000     -.0293    19.1094    31.4453     4.4062     2.0977  2464.0000
 1999.2320    17.1563  1875.0000     -.0249    20.8125    31.5430     4.3828     2.0957  2530.0000
 1999.3844    17.1563  1874.0000     -.0239    19.3594    31.0547     4.2578     2.1035  2620.0000
 1999.5368    17.1563  1876.0000     -.0283    20.2031    30.8594     4.2734     2.1035  2584.0000
 1999.6892    17.1563  1877.0000     -.0293    20.6250    30.6152     4.2344     2.1094  2500.0000
 1999.8416    17.1563  1877.0000     -.0269    22.6094    30.5664     4.1484     2.1035  2504.0000
 1999.9940    17.1563  1878.0000     -.0239    23.1094    29.6875     4.1016     2.1035  2540.0000
 2000.1464    17.1563  1879.0000     -.0200    21.3750    31.2012     4.1484     2.1055  2514.0000
 2000.2988    17.1563  1882.0000     -.0239    19.2656    32.1289     4.3242     2.1055  2494.0000
 2000.4512    17.1563  1883.0000     -.0288    18.8438    33.9355     4.1680     2.1055  2510.0000
 2000.6036    17.1563  1879.0000     -.0386    19.9219    30.5664     4.0937     2.0918  2534.0000
 2000.7560    17.1563  1872.0000     -.0332    21.3906    30.8105     3.9766     2.0977  2540.0000
 2000.9084    17.1563  1869.0000     -.0259    22.5938    29.4922     3.9043     2.1016  2534.0000
 2001.0608    17.1563  1868.0000     -.0229    22.0469    32.6172     4.0078     2.1074  2544.0000
 2001.2132    17.1563  1868.0000     -.0259    19.5625    31.2500     4.1445     2.1094  2540.0000
 2001.3656    17.1563  1867.0000     -.0312    17.1875    32.1777     4.4375     2.1055  2504.0000
 2001.5180    17.1563  1870.0000     -.0278    17.2188    31.7383     4.5234     2.1094  2510.0000
 2001.6704    17.1563  1873.0000     -.0298    18.1406    31.5918     4.6641     2.1035  2520.0000
 2001.8228    17.1563  1874.0000     -.0288    18.6563    32.2266     4.8281     2.1074  2514.0000
 2001.9752    17.1563  1874.0000     -.0352    18.8906    31.9824     4.8242     2.1016  2504.0000
 2002.1276    17.1563  1875.0000     -.0308    18.5000    30.7617     4.6250     2.1016  2550.0000
 2002.2800    17.1563  1879.0000     -.0308    20.3750    30.0781     4.4844     2.0977  2510.0000
 2002.4324    17.1563  1880.0000     -.0283    19.4844    30.6152     4.4492     2.0996  2460.0000
 2002.5848    17.1563  1880.0000     -.0312    19.2031    31.4453     4.3008     2.0957  2494.0000
 2002.7372    17.1563  1881.0000     -.0278    18.6406    32.7148     4.3242     2.1055  2534.0000
 2002.8896    17.1563  1884.0000     -.0259    19.3906    32.8125     4.2344     2.1094  2534.0000
 2003.0420    17.1563  1884.0000     -.0298    18.8125    33.3496     4.3555     2.1035  2524.0000
 2003.1944    17.1563  1879.0000     -.0361    18.3438    33.9355     4.1055     2.0937  2550.0000
 2003.3468    17.1563  1875.0000     -.0391    17.8281    33.4961     4.1836     2.0859  2560.0000
 2003.4992    17.1563  1875.0000     -.0322    18.3438    33.5938     3.9941     2.0996  2544.0000
 2003.6516    17.1563  1875.0000     -.0293    18.8125    31.7871     4.1211     2.0996  2504.0000
 2003.8040    17.1563  1875.0000     -.0259    20.3906    31.2988     4.0586     2.1094  2504.0000
 2003.9564    17.1563  1877.0000     -.0269    19.5625    31.2500     4.0586     2.1055  2500.0000
 2004.1088    17.1563  1872.0000     -.0249    17.2656    32.9590     4.1367     2.1113  2540.0000
 2004.2612    17.1563  1872.0000     -.0244    15.9688    33.8379     4.1992     2.1074  2554.0000
 2004.4136    17.1563  1871.0000     -.0259    17.0781    34.1797     4.2656     2.1035  2530.0000
 2004.5660    17.1563  1870.0000     -.0288    16.9219    33.7891     3.9922     2.0957  2554.0000
 2004.7184    17.1563  1872.0000     -.0298    18.3594    32.3242     3.8301     2.0918  2580.0000
 2004.8708    17.1563  1874.0000     -.0322    18.9375    32.1289     3.9473     2.0918  2554.0000
 2005.0232    17.1563  1876.0000     -.0283    20.3750    30.7129     4.0312     2.0996  2494.0000
 2005.1756    17.1563  1879.0000     -.0308    19.7031    33.8867     4.1055     2.0937  2524.0000
 2005.3280    17.1563  1882.0000     -.0288    21.0000    34.7168     3.8379     2.0957  2524.0000
 2005.4804    17.1563  1883.0000     -.0352    20.0156    33.6914     3.8398     2.0840  2514.0000
 2005.6328    17.1563  1881.0000     -.0352    20.2969    32.8613     3.8359     2.0840  2520.0000
 2005.7852    17.1563  1877.0000     -.0371    18.0938    33.4961     3.8691     2.0801  2540.0000
 2005.9376    17.1563  1875.0000     -.0356    19.4375    36.8652     3.7891     2.0840  2530.0000
 2006.0900    17.1563  1875.0000     -.0366    18.7656    36.3281     3.7754     2.0859  2530.0000
 2006.2424    17.1563  1875.0000     -.0356    21.7188    34.5703     3.8672     2.0898  2554.0000
 2006.3948    17.1563  1876.0000     -.0396    21.5938    33.3496     4.0664     2.0898  2554.0000
 2006.5472    17.1563  1877.0000     -.0356    21.3594    33.7891     4.1484     2.0937  2514.0000
 2006.6996    17.1563  1876.0000     -.0356    20.2031    33.2031     4.3242     2.0898  2550.0000
 2006.8520    17.1563  1877.0000     -.0352    20.4844    31.5430     4.3789     2.0859  2560.0000
 2007.0044    17.1563  1877.0000     -.0371    21.5156    30.3711     4.5469     2.0820  2560.0000
 2007.1568    17.1563  1879.0000     -.0376    21.3750    31.6406     4.6055     2.0820  2540.0000
 2007.3092    17.1563  1875.0000     -.0303    19.3125    31.7383     4.5859     2.0898  2540.0000
 2007.4616    17.1563  1875.0000     -.0327    18.5469    31.8848     4.4687     2.0879  2534.0000
 2007.6140    17.1563  1874.0000     -.0288    17.1094    32.9102     4.3437     2.0977  2500.0000
 2007.7664    17.1563  1875.0000     -.0312    19.3125    34.1797     4.3047     2.0996  2510.0000
 2007.9188    17.1563  1879.0000     -.0298    19.8281    33.6914     4.3359     2.1016  2544.0000
 2008.0712    17.1563  1882.0000     -.0308    20.9844    33.4961     4.3867     2.0977  2594.0000
 2008.2236    17.1563  1878.0000     -.0293    20.9531    32.8613     4.5078     2.0918  2590.0000
 2008.3760    17.1563  1876.0000     -.0229    20.4219    32.2266     4.4648     2.0977  2624.0000
 2008.5284    17.1563  1875.0000     -.0210    19.2500    32.9102     4.3984     2.0996  2534.0000
 2008.6808    17.1563  1877.0000     -.0161    17.5781    32.2754     4.4531     2.1074  2484.0000
 2008.8332    17.1563  1877.0000     -.0176    17.6094    33.8379     4.4180     2.1055  2474.0000
