~VERSION INFORMATION
VERS.                                                 2.0:   CWLS Log ASCII Standard-VERSION 2.0
WRAP.                                                  NO:   One line per depth step
~Well Information Block
STRT.M                                           182.0144:   Top Depth
STOP.M                                          4097.1704:   Bottom Depth
STEP.M                                             .15240:   Depth Increment
NULL.                                            -999.250:   Null Value
FLD .                                                 ULA:   Field Name
WELL.                                              15/3-4:   NAME
WBN .                                              15/3-4:   WELLBORE
NATI.                                                 NOR:   COUNTRY
CTRY.                                                 NOR:   COUNTRY
COMP.                             ELF AQUITAINE NORGE A/S:   OPERATOR
PROV.                                    OFF-SHORE NORWAY:   PROVINCE
COUN.                                    BORGSTEN DOLPHIN:   RIG NAME
SPUD.                                          1981/10/03:   SPUD DATE
LATI.                                        1 52 59.82 E:   SURF. LATITUDE
LONG.                                        58 49 5.28 N:   SURF. LONGITUDE
PBWE.                                              15/3-4:   PB WELL ID
APIN.                                              15/3-4:   PB WELLBORE ID
PBWS.                                                 all:   PB WELL NAME SET
~PARAMETER INFORMATION (log)
LNAM.                              LDT/CNL/GR  COMPOSITED:   NAME
LTYP.                                         DEPTH MATCH:   LOG TYPE
LSRV.                                           LATEROLOG:   LOG SERVICE
LSOU.                                             SPT/NPD:   LOG SOURCE
LVSN.                                                   1:   LOG VERSION
BHIS.                                                   R:   BRIEF HISTORY
FHIS.                                             RAW-LIS:   FULL HISTORY
LCNM.                                        SCHLUMBERGER:   LOGGING CONTRACTOR
TOOL.                             LDT/CNL/GR (COMPOSITED):   TOOL STRING
~Curve Information Block
#MNEM.UNIT                                        API CODE    No Description
#=========                                        ========    == ===========
DEPT.M                                       00 001 00 00:     1  DEPTH
CALI.IN                                                  :     2  Caliper
CS.                                                      :     3  Cable Speed
DRHO.G/CC                                                :     4  Bulk density correction
GR.GAPI                                                  :     5  Gamma Ray
NPHI.%                                                   :     6  Neutron porosity
PEF.B/E                                                  :     7  Photo-electric factor
RHOB.G/CC                                                :     8  Bulk density
TENS.LB                                                  :     9  Cable Tension
~ASCII
# ...
 1478.1764    18.6406  1902.0000     -.0039    42.8750    43.7012     4.8359     2.0293  2150.0000
 1478.3288    18.2813  1904.0000      .0010    44.6875    45.8984     5.3828     2.0176  2220.0000
 1478.4812    18.2344  1909.0000      .0015    43.7813    44.0430     5.5625     1.9873  2130.0000
 1478.6336    18.0000  1910.0000      .0029    43.5000    44.2383     5.7109     1.9678  2025.0000
 1478.7860    18.4219  1909.0000      .0054    40.4063    40.2832     5.4258     1.9697  2064.0000
 1478.9384    18.4219  1902.0000      .0122    41.0937    40.6250     5.2969     1.9932  2070.0000
 1479.0908    18.1250  1898.0000      .0088    45.3438    43.8477     5.5234     1.9980  2040.0000
 1479.2432    17.8906  1897.0000      .0044    47.1875    44.7754     5.5508     2.0000  2120.0000
 1479.3956    18.4219  1898.0000     -.0005    50.6250    44.6777     6.0781     1.9941  2120.0000
 1479.5480    18.4063  1898.0000      .0044    49.5938    39.8438     5.7031     1.9971  2074.0000
 1479.7004    18.7500  1897.0000      .0049    48.7500    39.9414     6.3125     1.9932  2060.0000
 1479.8528    18.2813  1898.0000      .0093    46.0937    41.5527     6.0586     1.9922  2114.0000
 1480.0052    19.0313  1901.0000      .0059    47.0000    44.8730     5.4062     1.9922  2190.0000
 1480.1576    18.3594  1898.0000      .0107    47.2813    43.3594     4.8555     2.0039  2174.0000
 1480.3100    18.2969  1896.0000      .0107    43.8750    37.8418     4.4414     2.0059  2134.0000
 1480.4624    18.2813  1896.0000      .0210    42.4063    34.9609     4.5352     2.0176  2090.0000
 1480.6148    18.2969  1895.0000      .0103    40.6875    36.8652     4.8281     2.0039  2060.0000
 1480.7672    18.3125  1894.0000      .0044    41.4688    41.0156     4.7969     2.0000  2005.0000
 1480.9196    18.3594  1895.0000     -.0049    39.5000    42.8223     5.7812     1.9834  2040.0000
 1481.0720    18.5156  1898.0000     -.0068    40.8125    43.4570     6.2617     1.9609  2180.0000
 1481.2244    19.0469  1901.0000      .0024    41.0625    41.5527     7.0430     1.9590  2084.0000
 1481.3768    18.5469  1903.0000      .0010    43.1563    42.0898     6.5937     1.9473  2054.0000
 1481.5292    18.7813  1903.0000     -.0015    40.3125    42.6270     5.6836     1.9590  2090.0000
 1481.6816    19.1875  1901.0000     -.0083    42.1562    44.0918     5.2383     1.9629  2180.0000
 1481.8340    18.7031  1900.0000     -.0127    44.0312    43.9453     4.6562     1.9727  2190.0000
 1481.9864    18.5313  1900.0000     -.0029    49.0625    45.8008     4.0820     1.9902  2104.0000
 1482.1388    18.3438  1900.0000     -.0073    48.5313    45.2148     3.8887     1.9893  2045.0000
 1482.2912    18.2344  1897.0000      .0020    44.7813    46.1426     4.3633     2.0020  2035.0000
 1482.4436    18.2344  1897.0000     -.0034    46.3125    43.5059     4.9609     2.0098  2035.0000
 1482.5960    17.8594  1897.0000     -.0010    45.9375    43.7500     6.5273     2.0234  2005.0000
 1482.7484    17.9844  1897.0000      .0029    45.4687    40.1367     6.6328     2.0254  2050.0000
 1482.9008    18.3594  1897.0000      .0093    37.0313    37.4512     7.8203     1.9570  2160.0000
 1483.0532    19.4375  1897.0000      .0220    36.1875    36.9141     7.1602     1.9160  2080.0000
 1483.2056    19.5625  1899.0000      .0112    36.0625    39.8926     5.8086     1.8779  2064.0000
 1483.3580    19.8594  1901.0000      .0005    40.1250    42.2852     5.1953     1.9131  2094.0000
 1483.5104    18.9688  1903.0000     -.0117    39.5313    44.2871     5.5117     1.9375  2184.0000
 1483.6628    19.0938  1899.0000     -.0088    40.4375    41.9434     7.3789     1.9492  2074.0000
 1483.8152    19.1250  1900.0000      .0000    42.5938    44.5801     7.1133     1.9531  2070.0000
 1483.9676    19.2188  1901.0000     -.0083    44.1250    46.9238     5.6953     1.9424  2090.0000
 1484.1200    19.0313  1900.0000     -.0161    45.0625    51.5625     4.3633     1.9414  2124.0000
 1484.2724    19.8281  1895.0000     -.0234    44.6250    48.5840     4.1758     1.9375  2064.0000
 1484.4248    19.9375  1894.0000     -.0156    45.9062    47.3145     4.1914     1.9453  2090.0000
 1484.5772    19.2188  1892.0000     -.0122    46.5625    46.7773     3.8398     1.9531  2114.0000
 1484.7296    18.3906  1893.0000     -.0127    47.0000    48.2910     3.7949     1.9561  2154.0000
 1484.8820    17.9375  1894.0000     -.0098    48.3438    47.8516     4.0352     1.9639  2094.0000
 1485.0344    17.6875  1895.0000     -.0034    48.4688    45.2637     5.0703     1.9609  2170.0000
 1485.1868    18.5313  1897.0000      .0088    47.4063    43.9453     4.8672     1.9736  2104.0000
 1485.3392    18.2031  1899.0000      .0083    45.4063    39.5020     4.1016     1.9814  2080.0000
 1485.4916    18.9219  1898.0000      .0010    45.3438    39.2578     3.7187     2.0000  2140.0000
 1485.6440    19.0000  1898.0000     -.0059    47.7812    38.8184     3.9687     2.0059  2104.0000
 1485.7964    18.6719  1898.0000     -.0024    51.3125    39.3066     4.6719     2.0117  2084.0000
 1485.9488    18.0938  1898.0000      .0005    49.5312    39.6973     4.6992     2.0078  2114.0000
 1486.1012    17.7031  1898.0000     -.0005    48.4375    39.1602     5.1797     1.9980  2114.0000
 1486.2536    17.6563  1898.0000     -.0010    45.7188    40.9668     5.4844     1.9775  2104.0000
 1486.4060    18.3594  1900.0000      .0063    48.0000    43.7500     6.0898     1.9688  2060.0000
 1486.5584    18.3594  1901.0000      .0034    46.2187    46.4844     5.5273     1.9648  2104.0000
 1486.7108    18.0938  1903.0000      .0044    48.7187    47.1680     5.3320     1.9766  2084.0000
 1486.8632    17.7969  1903.0000     -.0063    50.9688    50.7812     4.3945     1.9775  2074.0000
 1487.0156    18.2188  1896.0000     -.0068    54.3125    51.0742     4.0703     1.9795  2064.0000
 1487.1680    17.9063  1892.0000     -.0088    54.0000    52.2949     3.7617     1.9756  2084.0000
 1487.3204    17.8750  1892.0000     -.0117    54.8437    48.4863     3.8613     1.9717  2110.0000
 1487.4728    18.6563  1891.0000     -.0117    51.5312    48.4863     4.1484     1.9658  2100.0000
 1487.6252    18.8281  1890.0000     -.0137    49.3437    48.1445     4.3164     1.9648  2100.0000
 1487.7776    18.0938  1891.0000     -.0137    46.7500    46.7773     4.0781     1.9688  2104.0000
 1487.9300    18.1875  1893.0000     -.0151    47.9375    45.9473     3.6777     1.9736  2104.0000
 1488.0824    18.4688  1894.0000     -.0137    50.1562    43.9941     3.6934     1.9766  2070.0000
 1488.2348    18.4063  1894.0000     -.0083    50.8125    45.4102     4.3750     1.9775  2120.0000
 1488.3872    18.4063  1895.0000      .0010    46.6563    43.1641     5.2812     1.9854  2114.0000
 1488.5396    18.3281  1897.0000     -.0010    44.3437    42.7734     5.8672     1.9795  2094.0000
 1488.6920    18.4844  1900.0000     -.0049    41.3125    42.8223     5.1836     1.9785  2104.0000
 1488.8444    18.0156  1901.0000     -.0112    46.2813    43.7500     4.2500     1.9746  2110.0000
 1488.9968    17.7500  1901.0000     -.0068    44.7813    45.3125     3.7852     1.9893  2084.0000
 1489.1492    17.7813  1902.0000     -.0049    43.9688    44.2871     4.1172     1.9951  2100.0000
 1489.3016    17.7969  1905.0000     -.0015    43.0313    48.2422     4.6250     1.9971  2110.0000
 1489.4540    18.1719  1905.0000     -.0010    44.9063    51.2695     4.3555     1.9912  2134.0000
 1489.6064    18.2188  1901.0000      .0020    50.8438    50.0000     3.8262     1.9883  2064.0000
 1489.7588    18.2813  1898.0000     -.0034    49.5000    47.5586     3.9629     1.9824  2100.0000
 1489.9112    17.7813  1897.0000     -.0093    49.3437    47.0703     4.6719     1.9854  2114.0000
 1490.0636    17.7656  1897.0000     -.0132    46.5000    49.1699     4.6406     1.9854  2060.0000
 1490.2160    17.7188  1899.0000     -.0142    49.5000    50.0977     4.4531     1.9785  2080.0000
 1490.3684    17.5781  1894.0000     -.0098    53.4688    46.7773     4.4844     1.9668  2134.0000
