~VERSION INFORMATION
VERS.                                                 2.0:   CWLS Log ASCII Standard-VERSION 2.0
WRAP.                                                  NO:   One line per depth step
~Well Information Block
STRT.M                                           182.0144:   Top Depth
STOP.M                                          4097.1704:   Bottom Depth
STEP.M                                             .15240:   Depth Increment
NULL.                                            -999.250:   Null Value
FLD .                                                 ULA:   Field Name
WELL.                                              15/3-4:   NAME
WBN .                                              15/3-4:   WELLBORE
NATI.                                                 NOR:   COUNTRY
CTRY.                                                 NOR:   COUNTRY
COMP.                             ELF AQUITAINE NORGE A/S:   OPERATOR
PROV.                                    OFF-SHORE NORWAY:   PROVINCE
COUN.                                    BORGSTEN DOLPHIN:   RIG NAME
SPUD.                                          1981/10/03:   SPUD DATE
LATI.                                        1 52 59.82 E:   SURF. LATITUDE
LONG.                                        58 49 5.28 N:   SURF. LONGITUDE
PBWE.                                              15/3-4:   PB WELL ID
APIN.                                              15/3-4:   PB WELLBORE ID
PBWS.                                                 all:   PB WELL NAME SET
~PARAMETER INFORMATION (log)
LNAM.                              LDT/CNL/GR  COMPOSITED:   NAME
LTYP.                                         DEPTH MATCH:   LOG TYPE
LSRV.                                           LATEROLOG:   LOG SERVICE
LSOU.                                             SPT/NPD:   LOG SOURCE
LVSN.                                                   1:   LOG VERSION
BHIS.                                                   R:   BRIEF HISTORY
FHIS.                                             RAW-LIS:   FULL HISTORY
LCNM.                                        SCHLUMBERGER:   LOGGING CONTRACTOR
TOOL.                             LDT/CNL/GR (COMPOSITED):   TOOL STRING
~Curve Information Block
#MNEM.UNIT                                        API CODE    No Description
#=========                                        ========    == ===========
DEPT.M                                       00 001 00 00:     1  DEPTH
CALI.IN                                                  :     2  Caliper
CS.                                                      :     3  Cable Speed
DRHO.G/CC                                                :     4  Bulk density correction
GR.GAPI                                                  :     5  Gamma Ray
NPHI.%                                                   :     6  Neutron porosity
PEF.B/E                                                  :     7  Photo-electric factor
RHOB.G/CC                                                :     8  Bulk density
TENS.LB                                                  :     9  Cable Tension
~ASCII
# ...
 1218.9440    17.7344  1920.0000     -.0063    54.7500    50.6836     4.8711     1.9307  1885.0000
 1219.0964    17.4063  1920.0000     -.0010    59.6250    50.7812     4.2305     1.9902  1885.0000
 1219.2488    17.4063  1916.0000      .0024    61.2500    49.1211     4.3633     2.0176  1825.0000
 1219.4012    17.4063  1913.0000      .0024    59.6250    44.7754     4.9492     2.0234  1895.0000
 1219.5536    17.4063  1912.0000     -.0117    52.4063    42.7246     5.3906     2.0273  1865.0000
 1219.7060    17.3438  1911.0000     -.0220    50.2812    43.1152     5.6562     2.0430  1900.0000
 1219.8584    17.4063  1912.0000     -.0181    51.7813    44.6777     5.5430     2.0508  1910.0000
 1220.0108    17.6875  1913.0000     -.0083    53.5313    42.3340     5.0937     2.0469  1890.0000
 1220.1632    17.5000  1914.0000     -.0063    53.9375    40.2344     4.3477     2.0273  1865.0000
 1220.3156    17.3281  1914.0000     -.0122    50.6875    38.4277     3.9785     2.0195  1860.0000
 1220.4680    17.7188  1914.0000     -.0166    47.1875    40.3320     3.9746     2.0078  1825.0000
 1220.6204    17.1875  1913.0000     -.0112    47.9687    42.7246     4.2422     2.0117  1775.0000
 1220.7728    17.1563  1913.0000     -.0146    48.5313    43.7988     4.1836     2.0098  1830.0000
 1220.9252    17.1563  1910.0000     -.0234    43.3438    42.4805     4.1758     2.0312  1930.0000
 1221.0776    17.1875  1909.0000     -.0273    35.8438    39.8438     4.1523     2.0566  1810.0000
 1221.2300    17.2031  1911.0000     -.0264    32.4687    35.7422     4.2930     2.0781  1915.0000
 1221.3824    17.2188  1913.0000     -.0244    33.0000    35.7422     4.6445     2.0801  1935.0000
 1221.5348    17.2656  1915.0000     -.0283    33.2188    37.5488     5.5977     2.0762  1875.0000
 1221.6872    17.2813  1916.0000     -.0308    32.7812    38.2324     6.6914     2.0723  1830.0000
 1221.8396    17.2813  1916.0000     -.0273    32.6250    38.0859     6.4531     2.0664  1820.0000
 1221.9920    17.5313  1913.0000     -.0215    34.5625    34.9121     5.1641     2.0547  1835.0000
 1222.1444    18.4688  1911.0000     -.0181    39.0625    34.1797     5.5625     2.0156  1860.0000
 1222.2968    19.1250  1910.0000     -.0005    43.8125    40.8203     4.8047     1.9619  1885.0000
 1222.4492    19.5625  1911.0000      .0112    48.1250    46.9238     4.7617     1.9238  1845.0000
 1222.6016    17.9688  1913.0000      .0181    49.7188    53.6621     3.9180     1.9189  1880.0000
 1222.7540    18.6250  1914.0000      .0107    50.4375    50.1465     4.0586     1.9238  1920.0000
 1222.9064    18.2344  1915.0000      .0034    52.2188    50.7812     4.0117     1.9209  1845.0000
 1223.0588    18.0000  1915.0000      .0083    54.5625    50.8789     4.1914     1.9229  1865.0000
 1223.2112    17.5625  1915.0000      .0029    57.6875    50.5859     4.4414     1.9072  1865.0000
 1223.3636    17.6250  1916.0000      .0020    57.4375    51.7090     4.7227     1.9063  1875.0000
 1223.5160    18.3750  1917.0000      .0015    59.3437    49.2187     4.1992     1.9043  1880.0000
 1223.6684    17.8906  1916.0000     -.0029    56.6875    51.2207     3.7598     1.9043  1865.0000
 1223.8208    17.6094  1918.0000     -.0059    54.1875    50.5859     3.5254     1.9023  1875.0000
 1223.9732    18.0938  1920.0000     -.0103    50.6250    51.8066     4.0039     1.8916  1900.0000
 1224.1256    17.7188  1923.0000     -.0029    50.9375    49.7559     4.1172     1.9121  1885.0000
 1224.2780    17.6563  1926.0000      .0024    53.6875    47.9492     3.9512     1.9229  1860.0000
 1224.4304    17.5000  1921.0000      .0000    55.5937    45.9473     3.5605     1.9326  1870.0000
 1224.5828    17.4063  1920.0000     -.0029    55.3125    47.9492     3.6777     1.9277  1860.0000
 1224.7352    17.3594  1917.0000     -.0044    56.2500    47.2168     3.7812     1.9268  1875.0000
 1224.8876    17.3594  1911.0000      .0000    56.3750    49.1699     3.5078     1.9180  1860.0000
 1225.0400    17.4063  1910.0000     -.0073    56.1250    45.6543     3.2812     1.8984  1855.0000
 1225.1924    17.4063  1911.0000     -.0151    53.9375    47.9980     3.4141     1.8721  1905.0000
 1225.3448    17.4063  1913.0000     -.0195    55.0625    51.5137     4.1250     1.8594  1855.0000
 1225.4972    17.4063  1914.0000     -.0151    54.8750    54.4434     4.8945     1.8643  1885.0000
 1225.6496    17.4063  1915.0000     -.0098    53.7500    51.3184     5.2734     1.9189  1845.0000
 1225.8020    17.3594  1917.0000     -.0137    45.7500    43.5547     4.7305     1.9893  1855.0000
 1225.9544    17.2813  1917.0000     -.0181    42.0625    37.4512     4.7852     2.0605  1795.0000
 1226.1068    17.2813  1919.0000     -.0283    36.7813    34.7656     4.5000     2.0801  1845.0000
 1226.2592    17.2813  1920.0000     -.0317    33.9063    34.6191     4.3945     2.0781  1845.0000
 1226.4116    17.2813  1921.0000     -.0327    31.4375    36.4746     4.0859     2.0762  1855.0000
 1226.5640    17.2813  1922.0000     -.0312    30.4063    35.5469     4.0977     2.0664  1840.0000
 1226.7164    17.2813  1923.0000     -.0327    31.5000    35.3027     4.2227     2.0605  1815.0000
 1226.8688    17.2813  1925.0000     -.0327    33.6250    36.1328     4.5898     2.0547  1860.0000
 1227.0212    17.2813  1928.0000     -.0303    35.3438    38.0859     4.8320     2.0566  1930.0000
 1227.1736    17.2813  1929.0000     -.0239    34.4375    37.0117     4.8437     2.0605  1870.0000
 1227.3260    17.2813  1927.0000     -.0215    33.3438    34.0820     4.8086     2.0742  1860.0000
 1227.4784    17.2813  1922.0000     -.0254    31.2344    32.6172     4.8437     2.0781  1795.0000
 1227.6308    17.2813  1918.0000     -.0342    33.2500    33.3496     4.9023     2.0723  1795.0000
 1227.7832    17.2813  1917.0000     -.0430    32.7188    34.2773     4.7852     2.0547  1805.0000
 1227.9356    17.3125  1912.0000     -.0464    37.0625    35.4492     5.0078     2.0254  1815.0000
 1228.0880    17.4063  1913.0000     -.0332    41.0313    37.7930     4.9258     2.0039  1870.0000
 1228.2404    17.4063  1912.0000     -.0161    47.8750    41.7969     4.9727     1.9961  1835.0000
 1228.3928    17.4063  1912.0000     -.0073    46.9375    44.0918     4.1016     2.0059  1835.0000
 1228.5452    17.4063  1912.0000     -.0171    44.7813    45.3125     3.9668     2.0156  1850.0000
 1228.6976    17.4063  1913.0000     -.0215    40.5000    41.2109     3.4922     2.0234  1890.0000
 1228.8500    17.8281  1914.0000     -.0132    46.8125    37.5977     3.7012     2.0195  1875.0000
 1229.0024    18.0000  1915.0000     -.0063    53.8125    36.9141     4.0586     1.9873  1855.0000
 1229.1548    18.0938  1915.0000      .0005    58.5937    39.6484     5.0937     1.9580  1845.0000
 1229.3072    17.8125  1917.0000     -.0039    60.1875    43.3105     5.7227     1.9258  1855.0000
 1229.4596    18.1719  1918.0000      .0005    58.5937    44.5801     4.5586     1.9287  1825.0000
 1229.6120    18.6250  1920.0000     -.0083    62.1562    47.7051     3.6191     1.9297  1820.0000
 1229.7644    17.7969  1924.0000     -.0132    64.0625    50.5859     3.0879     1.9375  1915.0000
 1229.9168    17.4063  1923.0000     -.0142    65.5625    50.1953     3.3262     1.9404  1860.0000
 1230.0692    17.4063  1921.0000     -.0098    66.1250    48.9258     3.7051     1.9512  1840.0000
 1230.2216    17.4063  1918.0000     -.0063    58.5000    47.4609     4.1445     1.9717  1850.0000
 1230.3740    17.4063  1917.0000     -.0107    52.0938    43.4570     4.1719     2.0059  1885.0000
 1230.5264    17.3750  1916.0000     -.0166    42.8438    41.1133     4.1523     2.0352  1860.0000
 1230.6788    17.4063  1915.0000     -.0151    43.0625    38.3301     3.8047     2.0586  1825.0000
 1230.8312    17.4063  1914.0000     -.0088    47.2500    42.9687     3.8418     2.0508  1870.0000
 1230.9836    17.4063  1914.0000     -.0044    53.6875    45.2148     4.2266     2.0273  1845.0000
 1231.1360    17.4063  1915.0000     -.0039    52.2500    49.7559     5.1172     2.0098  1860.0000
