~VERSION INFORMATION
VERS.                                                 2.0:   CWLS Log ASCII Standard-VERSION 2.0
WRAP.                                                  NO:   One line per depth step
~Well Information Block
STRT.M                                           182.0144:   Top Depth
STOP.M                                          4097.1704:   Bottom Depth
STEP.M                                             .15240:   Depth Increment
NULL.                                            -999.250:   Null Value
FLD .                                                 ULA:   Field Name
WELL.                                              15/3-4:   NAME
WBN .                                              15/3-4:   WELLBORE
NATI.                                                 NOR:   COUNTRY
CTRY.                                                 NOR:   COUNTRY
COMP.                             ELF AQUITAINE NORGE A/S:   OPERATOR
PROV.                                    OFF-SHORE NORWAY:   PROVINCE
COUN.                                    BORGSTEN DOLPHIN:   RIG NAME
SPUD.                                          1981/10/03:   SPUD DATE
LATI.                                        1 52 59.82 E:   SURF. LATITUDE
LONG.                                        58 49 5.28 N:   SURF. LONGITUDE
PBWE.                                              15/3-4:   PB WELL ID
APIN.                                              15/3-4:   PB WELLBORE ID
PBWS.                                                 all:   PB WELL NAME SET
~PARAMETER INFORMATION (log)
LNAM.                              LDT/CNL/GR  COMPOSITED:   NAME
LTYP.                                         DEPTH MATCH:   LOG TYPE
LSRV.                                           LATEROLOG:   LOG SERVICE
LSOU.                                             SPT/NPD:   LOG SOURCE
LVSN.                                                   1:   LOG VERSION
BHIS.                                                   R:   BRIEF HISTORY
FHIS.                                             RAW-LIS:   FULL HISTORY
LCNM.                                        SCHLUMBERGER:   LOGGING CONTRACTOR
TOOL.                             LDT/CNL/GR (COMPOSITED):   TOOL STRING
~Curve Information Block
#MNEM.UNIT                                        API CODE    No Description
#=========                                        ========    == ===========
DEPT.M                                       00 001 00 00:     1  DEPTH
CALI.IN                                                  :     2  Caliper
CS.                                                      :     3  Cable Speed
DRHO.G/CC                                                :     4  Bulk density correction
GR.GAPI                                                  :     5  Gamma Ray
NPHI.%                                                   :     6  Neutron porosity
PEF.B/E                                                  :     7  Photo-electric factor
RHOB.G/CC                                                :     8  Bulk density
TENS.LB                                                  :     9  Cable Tension
~ASCII
# ...
 2527.4504    17.0313  1871.0000     -.0117    24.9687    34.7168     8.1562     2.1992  2940.0000
 2527.6028    17.0313  1867.0000     -.0117    23.6563    35.4980     8.1953     2.2031  2910.0000
 2527.7552    17.0313  1866.0000     -.0151    24.5469    37.9395     7.8477     2.1953  2874.0000
 2527.9076    17.0313  1865.0000     -.0200    25.2969    38.6719     7.6680     2.1895  2954.0000
 2528.0600    17.0313  1865.0000     -.0225    25.4219    37.5488     7.8320     2.1875  2920.0000
 2528.2124    17.0313  1865.0000     -.0181    25.8438    36.3281     8.5156     2.1973  2904.0000
 2528.3648    17.0313  1866.0000     -.0151    28.8750    38.7207     8.9609     2.2070  2930.0000
 2528.5172    17.0313  1866.0000     -.0156    32.6563    38.7207     8.9375     2.2031  2934.0000
 2528.6696    17.0469  1867.0000     -.0122    38.0625    36.8652     7.3672     2.2168  2950.0000
 2528.8220    17.3594  1868.0000     -.0146    41.7500    34.7168     6.1367     2.1992  2900.0000
 2528.9744    17.4063  1869.0000     -.0039    44.3750    36.9629     5.6406     2.1699  2924.0000
 2529.1268    18.2188  1869.0000      .0005    47.1875    37.8418     5.9609     2.0977  2940.0000
 2529.2792    19.0156  1870.0000      .0078    49.4063    39.2578     6.9180     2.0527  2960.0000
 2529.4316    18.4063  1871.0000      .0093    51.8750    40.8691     7.1367     2.0410  2940.0000
 2529.5840    18.1406  1874.0000      .0039    53.4375    44.9219     6.5117     2.0645  2934.0000
 2529.7364    18.2500  1872.0000      .0068    53.1875    44.4336     5.6289     2.1289  2950.0000
 2529.8888    18.3906  1870.0000      .0103    56.4688    44.5801     5.7070     2.2012  2920.0000
 2530.0412    18.3906  1869.0000      .0234    55.0000    44.5801     6.6016     2.2559  2934.0000
 2530.1936    18.5000  1869.0000      .0264    52.3750    45.9961     7.8242     2.2520  2940.0000
 2530.3460    18.4844  1868.0000      .0225    48.5000    46.9727     8.1094     2.1973  2990.0000
 2530.4984    18.1719  1865.0000      .0122    48.8438    46.9727     7.2930     2.1348  3030.0000
 2530.6508    17.8906  1865.0000      .0049    52.1562    48.5840     6.5625     2.0918  2950.0000
 2530.8032    17.8906  1864.0000      .0005    58.1250    48.7793     6.4727     2.0840  2950.0000
 2530.9556    18.0156  1864.0000     -.0029    55.4375    46.8262     6.8867     2.0879  2964.0000
 2531.1080    18.0938  1864.0000     -.0034    53.8438    46.6309     7.7305     2.0957  2960.0000
 2531.2604    18.1406  1867.0000     -.0005    46.5938    47.1191     8.2500     2.0879  2944.0000
 2531.4128    18.1406  1868.0000     -.0024    50.4375    48.6816     7.9609     2.0703  2940.0000
 2531.5652    18.0938  1870.0000     -.0020    51.8125    49.1699     7.1250     2.0781  2980.0000
 2531.7176    17.8906  1871.0000     -.0088    55.6250    46.2402     7.1797     2.0937  2920.0000
 2531.8700    17.6719  1874.0000     -.0059    52.8438    44.3848     8.0781     2.1328  2940.0000
 2532.0224    17.7500  1872.0000     -.0093    49.7188    42.3828     9.8125     2.1543  2940.0000
 2532.1748    17.7656  1870.0000     -.0073    43.0937    39.8926     9.8516     2.1914  2940.0000
 2532.3272    17.6719  1870.0000     -.0039    40.7188    36.0352     9.4609     2.2324  2934.0000
 2532.4796    17.6563  1869.0000      .0034    46.0313    33.6426     8.1406     2.2734  2910.0000
 2532.6320    17.7500  1870.0000      .0068    46.0625    34.9121     7.8711     2.2949  2940.0000
 2532.7844    17.8750  1870.0000     -.0020    48.7500    34.1797     7.7266     2.2852  3000.0000
 2532.9368    18.1250  1871.0000     -.0098    43.0625    29.7363     7.0352     2.2598  2990.0000
 2533.0892    18.5000  1871.0000     -.0073    47.6562    25.6348     6.1484     2.2402  2964.0000
 2533.2416    18.6250  1869.0000     -.0005    49.6562    27.0508     5.4883     2.2031  2950.0000
 2533.3940    18.6875  1870.0000      .0107    54.0000    33.6426     5.3008     2.1777  2994.0000
 2533.5464    18.7344  1866.0000      .0078    54.4375    39.4531     5.2578     2.1504  2954.0000
 2533.6988    18.6250  1866.0000      .0068    55.3438    40.9180     5.2617     2.1426  2904.0000
 2533.8512    18.5938  1864.0000     -.0005    54.7500    41.9922     5.5039     2.1426  2900.0000
 2534.0036    18.5000  1863.0000     -.0024    55.0000    41.6016     5.6875     2.1602  2944.0000
 2534.1560    18.4531  1865.0000      .0024    53.3125    41.7969     6.4805     2.2109  3010.0000
 2534.3084    17.9219  1868.0000     -.0049    50.4375    38.1348     6.7187     2.2559  2954.0000
 2534.4608    17.5625  1866.0000     -.0142    48.0625    33.3496     7.1289     2.2891  2980.0000
 2534.6132    17.5781  1866.0000     -.0190    48.3750    31.4453     6.4727     2.3027  2994.0000
 2534.7656    17.5313  1868.0000     -.0146    52.3437    29.5898     6.5664     2.3027  3000.0000
 2534.9180    17.4219  1869.0000     -.0059    53.1875    32.8125     7.2539     2.3027  2954.0000
 2535.0704    17.4063  1869.0000     -.0132    50.7500    34.3750     8.3047     2.2754  2944.0000
 2535.2228    17.4063  1870.0000     -.0093    47.8750    36.5723     8.0859     2.2734  2954.0000
 2535.3752    17.3281  1868.0000     -.0068    46.8437    35.3516     7.1055     2.2734  2924.0000
 2535.5276    17.2344  1869.0000     -.0015    48.6250    33.5938     6.7656     2.2930  2924.0000
 2535.6800    17.1563  1868.0000     -.0083    48.7813    32.1777     6.3906     2.2871  2920.0000
 2535.8324    17.1563  1868.0000     -.0103    48.0937    30.9570     6.2617     2.2656  2944.0000
 2535.9848    17.0313  1867.0000     -.0117    47.8125    31.9336     5.9180     2.2422  2934.0000
 2536.1372    17.0938  1869.0000     -.0068    47.3750    31.4941     5.9922     2.2383  2934.0000
 2536.2896    17.1563  1870.0000     -.0127    45.6250    32.3242     5.8398     2.2285  2934.0000
 2536.4420    17.1563  1872.0000     -.0161    41.1875    32.0313     5.3477     2.2227  2964.0000
 2536.5944    17.0625  1871.0000     -.0205    35.4063    29.9805     4.8867     2.2051  2994.0000
 2536.7468    16.9688  1870.0000     -.0205    31.2187    26.1230     5.1289     2.1992  2954.0000
 2536.8992    16.9844  1866.0000     -.0186    28.2344    22.8027     5.6680     2.1855  2964.0000
 2537.0516    17.1875  1865.0000     -.0151    31.3594    23.9746     6.4414     2.1836  2964.0000
 2537.2040    17.2813  1868.0000     -.0117    34.8750    27.0020     6.6094     2.1855  2930.0000
 2537.3564    17.2813  1868.0000     -.0127    41.0937    32.0801     6.3750     2.1836  2904.0000
 2537.5088    17.2813  1868.0000     -.0088    43.3125    38.0371     6.7891     2.1816  2874.0000
 2537.6612    17.2031  1868.0000     -.0078    49.5000    45.0195     7.0508     2.1777  2954.0000
 2537.8136    17.1563  1869.0000     -.0044    46.6563    50.4395     8.5234     2.1836  2970.0000
 2537.9660    17.1563  1870.0000     -.0068    46.6875    51.4160     8.3516     2.1777  2950.0000
 2538.1184    17.1563  1871.0000     -.0029    41.2813    51.4160     7.8945     2.1738  2950.0000
 2538.2708    17.1563  1871.0000     -.0044    43.5625    47.1680     7.2734     2.1641  2960.0000
 2538.4232    17.1563  1871.0000     -.0098    41.6250    44.9219     7.0898     2.1641  2970.0000
 2538.5756    17.1563  1872.0000     -.0205    38.4688    40.3809     7.3047     2.1582  2934.0000
 2538.7280    17.1563  1874.0000     -.0195    32.9375    37.8418     7.4023     2.1699  2904.0000
 2538.8804    17.1563  1875.0000     -.0161    29.5781    36.2305     7.7656     2.1719  2940.0000
 2539.0328    17.1563  1875.0000     -.0137    25.8125    35.2051     7.6641     2.1738  2960.0000
 2539.1852    17.1563  1871.0000     -.0137    25.4219    35.6934     7.3750     2.1836  2950.0000
 2539.3376    17.1563  1870.0000     -.0176    27.9531    35.1563     8.0625     2.2266  2934.0000
 2539.4900    17.1563  1867.0000     -.0161    32.3125    38.1836     9.1484     2.2832  2950.0000
 2539.6424    17.1563  1868.0000     -.0146    36.4063    37.6953    10.5937     2.3203  2954.0000
