~VERSION INFORMATION
VERS.                                                 2.0:   CWLS Log ASCII Standard-VERSION 2.0
WRAP.                                                  NO:   One line per depth step
~Well Information Block
STRT.M                                           182.0144:   Top Depth
STOP.M                                          4097.1704:   Bottom Depth
STEP.M                                             .15240:   Depth Increment
NULL.                                            -999.250:   Null Value
FLD .                                                 ULA:   Field Name
WELL.                                              15/3-4:   NAME
WBN .                                              15/3-4:   WELLBORE
NATI.                                                 NOR:   COUNTRY
CTRY.                                                 NOR:   COUNTRY
COMP.                             ELF AQUITAINE NORGE A/S:   OPERATOR
PROV.                                    OFF-SHORE NORWAY:   PROVINCE
COUN.                                    BORGSTEN DOLPHIN:   RIG NAME
SPUD.                                          1981/10/03:   SPUD DATE
LATI.                                        1 52 59.82 E:   SURF. LATITUDE
LONG.                                        58 49 5.28 N:   SURF. LONGITUDE
PBWE.                                              15/3-4:   PB WELL ID
APIN.                                              15/3-4:   PB WELLBORE ID
PBWS.                                                 all:   PB WELL NAME SET
~PARAMETER INFORMATION (log)
LNAM.                              LDT/CNL/GR  COMPOSITED:   NAME
LTYP.                                         DEPTH MATCH:   LOG TYPE
LSRV.                                           LATEROLOG:   LOG SERVICE
LSOU.                                             SPT/NPD:   LOG SOURCE
LVSN.                                                   1:   LOG VERSION
BHIS.                                                   R:   BRIEF HISTORY
FHIS.                                             RAW-LIS:   FULL HISTORY
LCNM.                                        SCHLUMBERGER:   LOGGING CONTRACTOR
TOOL.                             LDT/CNL/GR (COMPOSITED):   TOOL STRING
~Curve Information Block
#MNEM.UNIT                                        API CODE    No Description
#=========                                        ========    == ===========
DEPT.M                                       00 001 00 00:     1  DEPTH
CALI.IN                                                  :     2  Caliper
CS.                                                      :     3  Cable Speed
DRHO.G/CC                                                :     4  Bulk density correction
GR.GAPI                                                  :     5  Gamma Ray
NPHI.%                                                   :     6  Neutron porosity
PEF.B/E                                                  :     7  Photo-electric factor
RHOB.G/CC                                                :     8  Bulk density
TENS.LB                                                  :     9  Cable Tension
~ASCII
# ...
 1737.4088    17.4531  1933.0000     -.0098    23.6406    38.0371     5.1211     2.0449  2314.0000
 1737.5612    17.4531  1933.0000     -.0078    24.0469    41.0645     4.8281     2.0449  2324.0000
 1737.7136    17.4688  1934.0000     -.0103    23.7656    39.0137     4.4297     2.0410  2344.0000
 1737.8660    17.4375  1934.0000     -.0103    22.6406    37.3535     4.0234     2.0391  2294.0000
 1738.0184    17.4219  1935.0000     -.0103    20.0625    36.5234     3.9434     2.0391  2340.0000
 1738.1708    17.5000  1936.0000     -.0132    20.4531    37.3535     3.6523     2.0371  2330.0000
 1738.3232    17.5313  1936.0000     -.0137    21.1563    35.8887     3.7070     2.0391  2294.0000
 1738.4756    17.5313  1936.0000     -.0171    22.2344    35.2051     3.2832     2.0371  2334.0000
 1738.6280    17.5313  1938.0000     -.0220    22.6719    34.2773     3.1562     2.0352  2354.0000
 1738.7804    17.5313  1939.0000     -.0254    21.9844    36.3770     2.8184     2.0293  2270.0000
 1738.9328    17.5313  1939.0000     -.0200    21.9844    36.5234     3.0156     2.0371  2294.0000
 1739.0852    17.5313  1938.0000     -.0146    20.2031    36.1816     3.4590     2.0430  2334.0000
 1739.2376    17.5313  1937.0000     -.0166    22.2344    35.5469     3.9687     2.0430  2330.0000
 1739.3900    17.5313  1933.0000     -.0205    23.2031    34.6191     4.3672     2.0430  2284.0000
 1739.5424    17.5313  1930.0000     -.0210    24.4688    36.8652     4.7070     2.0449  2320.0000
 1739.6948    17.5313  1927.0000     -.0229    23.5313    39.5020     5.1328     2.0488  2304.0000
 1739.8472    17.5313  1929.0000     -.0259    23.6563    42.0410     5.1875     2.0469  2304.0000
 1739.9996    17.5313  1930.0000     -.0273    22.1250    42.4805     4.6953     2.0410  2354.0000
 1740.1520    17.5313  1931.0000     -.0254    21.5625    40.2344     4.6406     2.0391  2254.0000
 1740.3044    17.5313  1931.0000     -.0215    22.7656    38.4766     4.9766     2.0391  2224.0000
 1740.4568    17.5469  1931.0000     -.0210    22.7812    39.1602     5.5469     2.0371  2304.0000
 1740.6092    17.5313  1933.0000     -.0181    22.6563    41.5527     5.8437     2.0312  2340.0000
 1740.7616    17.5625  1934.0000     -.0205    20.2031    43.0664     5.7148     2.0234  2294.0000
 1740.9140    17.5781  1935.0000     -.0225    19.1250    43.7500     5.4609     2.0176  2294.0000
 1741.0664    17.5938  1937.0000     -.0234    20.2031    42.3828     5.0898     2.0137  2330.0000
 1741.2188    17.5938  1939.0000     -.0244    20.2344    41.6504     4.7500     2.0137  2330.0000
 1741.3712    17.5938  1941.0000     -.0210    21.4531    39.5508     4.2695     2.0234  2330.0000
 1741.5236    17.6563  1942.0000     -.0225    19.2656    43.1152     4.0195     2.0234  2350.0000
 1741.6760    17.6563  1943.0000     -.0210    20.0625    41.8945     3.9355     2.0293  2260.0000
 1741.8284    17.6563  1942.0000     -.0205    19.7813    43.7500     4.2461     2.0234  2244.0000
 1741.9808    17.6563  1939.0000     -.0244    21.5625    41.1133     4.6211     2.0195  2280.0000
 1742.1332    17.6563  1937.0000     -.0288    21.4219    41.7969     5.1133     2.0137  2284.0000
 1742.2856    17.6563  1932.0000     -.0376    22.6406    41.3086     5.3828     2.0078  2330.0000
 1742.4380    17.6563  1930.0000     -.0327    21.4219    42.7246     4.9727     2.0117  2314.0000
 1742.5904    17.5781  1930.0000     -.0293    19.9688    43.6523     4.5625     2.0176  2350.0000
 1742.7428    17.5313  1930.0000     -.0234    18.4844    41.0645     4.0625     2.0215  2354.0000
 1742.8952    17.5313  1930.0000     -.0283    19.5625    38.0859     4.0312     2.0254  2314.0000
 1743.0476    17.5313  1931.0000     -.0288    21.3281    37.0117     3.9238     2.0293  2290.0000
 1743.2000    17.5313  1933.0000     -.0254    22.5469    39.2090     3.9355     2.0410  2314.0000
 1743.3524    17.6563  1933.0000     -.0215    20.9219    36.7188     4.0547     2.0508  2274.0000
 1743.5048    17.7656  1934.0000     -.0225    19.6875    35.5469     4.2383     2.0566  2274.0000
 1743.6572    17.7656  1936.0000     -.0303    20.2188    33.9844     4.3203     2.0527  2290.0000
 1743.8096    17.8281  1938.0000     -.0396    21.0156    36.9141     4.4961     2.0391  2324.0000
 1743.9620    17.8906  1940.0000     -.0459    22.2344    37.8418     4.4258     2.0371  2304.0000
 1744.1144    17.8906  1943.0000     -.0444    21.4375    35.7422     4.3086     2.0371  2330.0000
 1744.2668    17.8906  1945.0000     -.0400    21.0469    33.4473     3.7617     2.0410  2374.0000
 1744.4192    17.9844  1943.0000     -.0356    22.1250    32.1777     3.4336     2.0352  2364.0000
 1744.5716    18.0156  1941.0000     -.0376    21.1406    32.9590     3.2070     2.0234  2360.0000
 1744.7240    18.0625  1939.0000     -.0352    23.4531    32.1777     3.0293     2.0254  2310.0000
 1744.8764    18.1406  1936.0000     -.0356    22.5000    31.7383     2.9766     2.0293  2314.0000
 1745.0288    18.1406  1935.0000     -.0283    22.5313    32.3242     3.0547     2.0469  2360.0000
 1745.1812    18.1563  1935.0000     -.0259    22.7969    32.3242     3.1543     2.0566  2334.0000
 1745.3336    18.2656  1935.0000     -.0264    22.3906    32.5684     3.1777     2.0527  2300.0000
 1745.4860    18.2656  1937.0000     -.0317    22.7656    32.5195     3.2012     2.0449  2300.0000
 1745.6384    18.2813  1934.0000     -.0366    20.2969    32.4707     3.2109     2.0352  2360.0000
 1745.7908    18.3906  1932.0000     -.0303    20.3125    30.2246     3.3145     2.0391  2380.0000
 1745.9432    18.3906  1931.0000     -.0278    19.6875    28.9063     3.2305     2.0371  2380.0000
 1746.0956    18.2656  1932.0000     -.0283    19.7344    29.6875     3.1934     2.0273  2344.0000
 1746.2480    18.2656  1932.0000     -.0269    19.5781    31.2012     3.1016     2.0273  2250.0000
 1746.4004    18.2656  1933.0000     -.0293    19.2969    32.3730     3.1250     2.0234  2224.0000
 1746.5528    18.2656  1935.0000     -.0249    20.7500    32.3730     3.2305     2.0312  2290.0000
 1746.7052    18.2656  1936.0000     -.0273    21.4375    33.4473     3.3008     2.0293  2330.0000
 1746.8576    18.2656  1939.0000     -.0264    21.9688    33.3496     3.5039     2.0273  2304.0000
 1747.0100    18.2656  1942.0000     -.0234    21.2969    33.2520     3.6230     2.0312  2290.0000
 1747.1624    18.2656  1940.0000     -.0249    19.9375    31.5430     3.9941     2.0312  2344.0000
 1747.3148    18.2656  1940.0000     -.0215    20.6094    32.9590     4.3750     2.0371  2410.0000
 1747.4672    18.2656  1937.0000     -.0239    20.1875    34.4238     4.6172     2.0293  2364.0000
 1747.6196    18.0313  1936.0000     -.0254    21.0156    35.4004     4.3242     2.0215  2300.0000
 1747.7720    17.5781  1935.0000     -.0264    21.4219    35.4980     4.0742     2.0137  2264.0000
 1747.9244    17.3750  1935.0000     -.0244    21.7188    35.4004     4.1953     2.0078  2284.0000
 1748.0768    17.4063  1935.0000     -.0215    21.7031    35.6445     4.2500     2.0078  2280.0000
 1748.2292    17.4063  1935.0000     -.0190    21.6875    33.4473     4.1328     2.0117  2274.0000
 1748.3816    17.2813  1934.0000     -.0220    23.0469    31.5430     4.0195     2.0156  2304.0000
 1748.5340    17.2813  1935.0000     -.0186    22.1406    31.1523     4.0547     2.0273  2314.0000
 1748.6864    17.2813  1937.0000     -.0234    19.2656    30.5176     4.0430     2.0234  2294.0000
 1748.8388    17.2813  1938.0000     -.0239    16.8125    30.5664     3.9824     2.0195  2284.0000
 1748.9912    17.2813  1935.0000     -.0234    18.5156    29.1992     3.9727     2.0176  2314.0000
 1749.1436    17.2813  1935.0000     -.0200    20.5937    30.7617     3.9824     2.0254  2354.0000
 1749.2960    17.2813  1935.0000     -.0161    22.7656    30.2246     3.8379     2.0293  2324.0000
 1749.4484    17.2813  1937.0000     -.0181    21.6250    30.2734     3.8203     2.0312  2310.0000
 1749.6008    17.2813  1937.0000     -.0215    23.1094    30.2734     3.9648     2.0254  2340.0000
