~VERSION INFORMATION
VERS.                                                 2.0:   CWLS Log ASCII Standard-VERSION 2.0
WRAP.                                                  NO:   One line per depth step
~Well Information Block
STRT.M                                           182.0144:   Top Depth
STOP.M                                          4097.1704:   Bottom Depth
STEP.M                                             .15240:   Depth Increment
NULL.                                            -999.250:   Null Value
FLD .                                                 ULA:   Field Name
WELL.                                              15/3-4:   NAME
WBN .                                              15/3-4:   WELLBORE
NATI.                                                 NOR:   COUNTRY
CTRY.                                                 NOR:   COUNTRY
COMP.                             ELF AQUITAINE NORGE A/S:   OPERATOR
PROV.                                    OFF-SHORE NORWAY:   PROVINCE
COUN.                                    BORGSTEN DOLPHIN:   RIG NAME
SPUD.                                          1981/10/03:   SPUD DATE
LATI.                                        1 52 59.82 E:   SURF. LATITUDE
LONG.                                        58 49 5.28 N:   SURF. LONGITUDE
PBWE.                                              15/3-4:   PB WELL ID
APIN.                                              15/3-4:   PB WELLBORE ID
PBWS.                                                 all:   PB WELL NAME SET
~PARAMETER INFORMATION (log)
LNAM.                              LDT/CNL/GR  COMPOSITED:   NAME
LTYP.                                         DEPTH MATCH:   LOG TYPE
LSRV.                                           LATEROLOG:   LOG SERVICE
LSOU.                                             SPT/NPD:   LOG SOURCE
LVSN.                                                   1:   LOG VERSION
BHIS.                                                   R:   BRIEF HISTORY
FHIS.                                             RAW-LIS:   FULL HISTORY
LCNM.                                        SCHLUMBERGER:   LOGGING CONTRACTOR
TOOL.                             LDT/CNL/GR (COMPOSITED):   TOOL STRING
~Curve Information Block
#MNEM.UNIT                                        API CODE    No Description
#=========                                        ========    == ===========
DEPT.M                                       00 001 00 00:     1  DEPTH
CALI.IN                                                  :     2  Caliper
CS.                                                      :     3  Cable Speed
DRHO.G/CC                                                :     4  Bulk density correction
GR.GAPI                                                  :     5  Gamma Ray
NPHI.%                                                   :     6  Neutron porosity
PEF.B/E                                                  :     7  Photo-electric factor
RHOB.G/CC                                                :     8  Bulk density
TENS.LB                                                  :     9  Cable Tension
~ASCII
# ...
  441.2468    18.0041  1821.0000      .0088    70.5000  -999.2500     2.1219     1.9938  1010.0000
  441.3992    18.4251  1821.0000      .0088    74.5000  -999.2500     2.0879     1.9926  1050.0000
  441.5516    18.7860  1818.0000      .0099    77.1250  -999.2500     2.0459     1.9958  1050.0000
  441.7040    18.9318  1818.0000      .0134    85.4375  -999.2500     2.0219     2.0029  1060.0000
  441.8564    18.7455  1816.0000      .0163    85.5000  -999.2500     2.0248     2.0104  1045.0000
  442.0088    18.1863  1815.0000      .0172    84.6250  -999.2500     2.0614     2.0145  1065.0000
  442.1612    18.2645  1817.0000      .0174    84.0000  -999.2500     2.1040     2.0165  1050.0000
  442.3136    18.9312  1817.0000      .0172    84.0000  -999.2500     2.1061     2.0176  1115.0000
  442.4660    18.6015  1815.0000      .0160    86.9375  -999.2500     2.1033     2.0167  1025.0000
  442.6184    17.9750  1817.0000      .0109    80.2500  -999.2500     2.0800     2.0123  1055.0000
  442.7708    17.9742  1818.0000      .0066    79.8125  -999.2500     2.0805     2.0053  1085.0000
  442.9232    17.8159  1816.0000      .0053    81.6250  -999.2500     2.0613     1.9983  1035.0000
  443.0756    17.8062  1816.0000      .0065    87.8125  -999.2500     2.0390     1.9928  1060.0000
  443.2280    17.9647  1808.0000      .0089    91.3125  -999.2500     2.0425     1.9946  1000.0000
  443.3804    18.0016  1818.0000      .0110    86.7500  -999.2500     2.0818     2.0029  1060.0000
  443.5328    17.8989  1820.0000      .0109    86.1875  -999.2500     2.1107     2.0114  1080.0000
  443.6852    17.8821  1820.0000      .0112    81.3750  -999.2500     2.1259     2.0129  1020.0000
  443.8376    17.8549  1817.0000      .0112    83.6875  -999.2500     2.1265     2.0077   980.0000
  443.9900    17.7723  1822.0000      .0126    84.6875  -999.2500     2.1077     2.0008  1105.0000
  444.1424    17.7841  1821.0000      .0135    87.8750  -999.2500     2.0937     1.9971  1065.0000
  444.2948    17.8249  1819.0000      .0115    86.1875  -999.2500     2.1078     1.9941  1050.0000
  444.4472    17.9099  1813.0000      .0099    84.0625  -999.2500     2.1716     1.9922  1035.0000
  444.5996    17.7845  1813.0000      .0092    81.5625  -999.2500     2.2217     1.9912  1050.0000
  444.7520    17.6982  1813.0000      .0118    84.0000  -999.2500     2.1824     1.9949  1080.0000
  444.9044    17.5755  1814.0000      .0110    86.3125  -999.2500     2.1311     1.9965  1045.0000
  445.0568    17.5590  1815.0000      .0079    88.2500  -999.2500     2.0933     1.9967  1055.0000
  445.2092    17.5781  1815.0000      .0062    85.7500  -999.2500     2.1010     1.9942  1030.0000
  445.3616    17.5781  1816.0000      .0046    83.3125  -999.2500     2.0922     1.9908  1055.0000
  445.5140    17.5841  1815.0000      .0027    86.6250  -999.2500     2.0488     1.9895  1060.0000
  445.6664    17.9841  1814.0000      .0011    89.6250  -999.2500     2.0142     1.9949  1040.0000
  445.8188    18.7308  1813.0000      .0057    88.5625  -999.2500     1.9976     2.0103  1040.0000
  445.9712    18.8770  1815.0000      .0104    85.2500  -999.2500     2.0050     2.0198  1050.0000
  446.1236    18.6539  1814.0000      .0139    80.3750  -999.2500     2.0295     2.0220  1050.0000
  446.2760    18.3882  1815.0000      .0143    81.9375  -999.2500     2.0466     2.0210  1060.0000
  446.4284    18.4260  1817.0000      .0157    79.6875  -999.2500     2.0599     2.0242  1050.0000
  446.5808    18.2924  1819.0000      .0132    82.6875  -999.2500     2.0495     2.0240  1090.0000
  446.7332    18.2635  1817.0000      .0125    82.5625  -999.2500     2.0091     2.0222  1025.0000
  446.8856    18.3882  1817.0000      .0096    82.3125  -999.2500     2.0085     2.0262  1030.0000
  447.0380    17.9608  1813.0000      .0063    82.8750  -999.2500     2.0174     2.0361  1030.0000
  447.1904    17.6778  1820.0000      .0049    81.5625  -999.2500     2.0347     2.0442  1090.0000
  447.3428    17.9329  1813.0000      .0060    88.2500  -999.2500     2.0327     2.0409  1075.0000
  447.4952    18.6516  1812.0000      .0103    91.3750  -999.2500     2.0189     2.0330  1030.0000
  447.6476    18.4052  1813.0000      .0121    95.8750  -999.2500     2.0296     2.0179  1040.0000
  447.8000    17.7765  1814.0000      .0138    96.8125  -999.2500     2.0638     1.9951  1040.0000
  447.9524    17.5366  1818.0000      .0150    96.1250  -999.2500     2.1218     1.9745  1060.0000
  448.1048    17.5682  1817.0000      .0148    97.3125  -999.2500     2.1754     1.9671  1080.0000
  448.2572    17.6094  1815.0000      .0097    93.6875  -999.2500     2.2039     1.9727  1080.0000
  448.4096    17.6146  1813.0000      .0040    94.0000  -999.2500     2.2181     1.9857  1045.0000
  448.5620    17.6041  1813.0000     -.0011    93.4375  -999.2500     2.2259     1.9941  1030.0000
  448.7144    17.5625  1814.0000     -.0021    95.8750  -999.2500     2.2396     1.9958  1045.0000
  448.8668    17.5676  1817.0000     -.0042    93.3750  -999.2500     2.2397     1.9906  1065.0000
  449.0192    17.6088  1819.0000     -.0024    95.6250  -999.2500     2.2029     1.9893  1055.0000
  449.1716    17.6769  1822.0000     -.0021    92.1875  -999.2500     2.1416     1.9915  1035.0000
  449.3240    17.6976  1824.0000      .0000    92.0625  -999.2500     2.1020     1.9955  1070.0000
  449.4764    17.7188  1822.0000     -.0007    82.8125  -999.2500     2.0911     1.9966  1050.0000
  449.6288    17.7088  1821.0000     -.0012    85.0000  -999.2500     2.1189     2.0013  1050.0000
  449.7812    17.7023  1818.0000     -.0034    84.7500  -999.2500     2.1120     2.0037  1055.0000
  449.9336    17.7442  1815.0000     -.0017    90.5000  -999.2500     2.1085     2.0111  1045.0000
  450.0860    17.7851  1815.0000      .0014    84.5000  -999.2500     2.0805     2.0104  1045.0000
  450.2384    17.8378  1814.0000      .0042    82.8750  -999.2500     2.1778     2.0129  1060.0000
  450.3908    17.8450  1814.0000      .0020    80.0000  -999.2500     2.2743     2.0180  1050.0000
  450.5432    17.9454  1814.0000     -.0035    81.6250  -999.2500     2.2990     2.0246  1045.0000
  450.6956    18.1746  1813.0000     -.0063    83.1875  -999.2500     2.1911     2.0262  1045.0000
  450.8480    17.9673  1813.0000     -.0070    84.3125  -999.2500     2.1264     2.0229  1070.0000
  451.0004    18.1967  1815.0000     -.0059    85.5000  -999.2500     2.1302     2.0203  1070.0000
  451.1528    18.6366  1815.0000     -.0050    81.6875  -999.2500     2.1489     2.0187  1040.0000
  451.3052    18.0535  1817.0000     -.0049    79.0000  -999.2500     2.1555     2.0238  1040.0000
  451.4576    18.1566  1821.0000     -.0035    74.6250  -999.2500     2.1421     2.0304  1095.0000
  451.6100    17.8125  1822.0000     -.0023    73.8750  -999.2500     2.1663     2.0349  1060.0000
  451.7624    17.8303  1819.0000     -.0028    75.5000  -999.2500     2.1822     2.0374   990.0000
  451.9148    17.8176  1822.0000     -.0060    78.4375  -999.2500     2.1902     2.0332  1070.0000
  452.0672    17.6325  1820.0000     -.0089    82.8750  -999.2500     2.2043     2.0338  1030.0000
  452.2196    17.6095  1820.0000     -.0091    85.1875  -999.2500     2.1978     2.0352  1065.0000
  452.3720    17.8168  1824.0000     -.0068    88.2500  -999.2500     2.1836     2.0346  1100.0000
  452.5244    17.9477  1820.0000     -.0009    87.6250  -999.2500     2.1351     2.0311   980.0000
  452.6768    18.4265  1825.0000      .0017    87.0625  -999.2500     2.1126     2.0270  1070.0000
  452.8292    18.6285  1824.0000      .0051    87.1875  -999.2500     2.1107     2.0323  1045.0000
  452.9816    17.9417  1822.0000      .0052    88.3750  -999.2500     2.1364     2.0346  1050.0000
  453.1340    17.7895  1820.0000      .0041    88.1250  -999.2500     2.1716     2.0317  1085.0000
  453.2864    17.7920  1816.0000      .0060    86.0625  -999.2500     2.1847     2.0258  1030.0000
  453.4388    17.7222  1814.0000      .0070    82.4375  -999.2500     2.1782     2.0220  1000.0000
