~VERSION INFORMATION
VERS.                                                 2.0:   CWLS Log ASCII Standard-VERSION 2.0
WRAP.                                                  NO:   One line per depth step
~Well Information Block
STRT.M                                           182.0144:   Top Depth
STOP.M                                          4097.1704:   Bottom Depth
STEP.M                                             .15240:   Depth Increment
NULL.                                            -999.250:   Null Value
FLD .                                                 ULA:   Field Name
WELL.                                              15/3-4:   NAME
WBN .                                              15/3-4:   WELLBORE
NATI.                                                 NOR:   COUNTRY
CTRY.                                                 NOR:   COUNTRY
COMP.                             ELF AQUITAINE NORGE A/S:   OPERATOR
PROV.                                    OFF-SHORE NORWAY:   PROVINCE
COUN.                                    BORGSTEN DOLPHIN:   RIG NAME
SPUD.                                          1981/10/03:   SPUD DATE
LATI.                                        1 52 59.82 E:   SURF. LATITUDE
LONG.                                        58 49 5.28 N:   SURF. LONGITUDE
PBWE.                                              15/3-4:   PB WELL ID
APIN.                                              15/3-4:   PB WELLBORE ID
PBWS.                                                 all:   PB WELL NAME SET
~PARAMETER INFORMATION (log)
LNAM.                              LDT/CNL/GR  COMPOSITED:   NAME
LTYP.                                         DEPTH MATCH:   LOG TYPE
LSRV.                                           LATEROLOG:   LOG SERVICE
LSOU.                                             SPT/NPD:   LOG SOURCE
LVSN.                                                   1:   LOG VERSION
BHIS.                                                   R:   BRIEF HISTORY
FHIS.                                             RAW-LIS:   FULL HISTORY
LCNM.                                        SCHLUMBERGER:   LOGGING CONTRACTOR
TOOL.                             LDT/CNL/GR (COMPOSITED):   TOOL STRING
~Curve Information Block
#MNEM.UNIT                                        API CODE    No Description
#=========                                        ========    == ===========
DEPT.M                                       00 001 00 00:     1  DEPTH
CALI.IN                                                  :     2  Caliper
CS.                                                      :     3  Cable Speed
DRHO.G/CC                                                :     4  Bulk density correction
GR.GAPI                                                  :     5  Gamma Ray
NPHI.%                                                   :     6  Neutron porosity
PEF.B/E                                                  :     7  Photo-electric factor
RHOB.G/CC                                                :     8  Bulk density
TENS.LB                                                  :     9  Cable Tension
~ASCII
# ...
 2786.6828    17.6563  1762.0000     -.0156    39.3750    30.1270     4.7461     2.5703  2874.0000
 2786.8352    17.6563  1761.0000     -.0171    43.5625    29.4922     4.6758     2.5781  2954.0000
 2786.9876    17.6563  1760.0000     -.0161    46.0625    28.6621     4.7969     2.5742  3620.0000
 2787.1400    17.6563  1759.0000     -.0103    46.3438    29.2480     4.6406     2.5781  3670.0000
 2787.2924    17.6563  1759.0000     -.0107    43.1875    28.3203     4.3359     2.5723  3534.0000
 2787.4448    17.6563  1762.0000     -.0117    39.9063    28.3203     4.3789     2.5684  3480.0000
 2787.5972    17.6563  1763.0000     -.0107    38.6250    27.6855     4.2695     2.5664  3410.0000
 2787.7496    17.6563  1763.0000     -.0005    37.1875    28.7598     4.6250     2.5742  3360.0000
 2787.9020    17.6563  1765.0000      .0059    38.2500    28.9551     4.5000     2.5840  3254.0000
 2788.0544    17.6563  1766.0000      .0015    38.6875    29.8828     4.9219     2.5742  3214.0000
 2788.2068    17.6563  1762.0000     -.0049    37.9688    29.2480     4.7070     2.5684  3120.0000
 2788.3592    17.6563  1761.0000     -.0098    37.3438    29.5410     4.9297     2.5664  3094.0000
 2788.5116    17.6563  1760.0000     -.0098    40.2188    27.3926     4.7539     2.5762  3094.0000
 2788.6640    17.6563  1760.0000     -.0146    40.9688    28.6133     4.8789     2.5781  3180.0000
 2788.8164    17.5469  1761.0000     -.0171    40.5313    28.0273     5.0234     2.5742  3214.0000
 2788.9688    17.5313  1764.0000     -.0127    38.4375    28.3691     4.9961     2.5762  3130.0000
 2789.1212    17.5313  1766.0000     -.0103    39.2188    27.6367     5.1680     2.5723  3100.0000
 2789.2736    17.5313  1765.0000     -.0112    39.6562    28.2227     5.0273     2.5723  3010.0000
 2789.4260    17.5313  1761.0000     -.0161    39.1875    26.8066     5.0859     2.5605  3040.0000
 2789.5784    17.5313  1760.0000     -.0195    38.0937    26.7090     4.9062     2.5703  3240.0000
 2789.7308    17.5313  1762.0000     -.0249    37.6250    24.1699     5.0195     2.5684  3504.0000
 2789.8832    17.5938  1764.0000     -.0273    34.6875    24.4141     5.0820     2.5742  3364.0000
 2790.0356    17.6250  1764.0000     -.0269    33.4062    22.9980     5.1602     2.5684  3284.0000
 2790.1880    17.5313  1765.0000     -.0225    31.3906    23.5840     4.9609     2.5742  3220.0000
 2790.3404    17.5469  1766.0000     -.0181    32.6250    21.6309     4.9570     2.5781  3184.0000
 2790.4928    17.6406  1766.0000     -.0171    33.0625    21.1914     4.9766     2.5762  3124.0000
 2790.6452    17.6563  1765.0000     -.0225    32.0313    22.3145     5.0312     2.5605  3124.0000
 2790.7976    17.6563  1766.0000     -.0264    34.2188    24.5117     4.9609     2.5547  3124.0000
 2790.9500    17.6563  1766.0000     -.0273    36.0938    25.2441     4.7891     2.5527  3234.0000
 2791.1024    17.6563  1766.0000     -.0186    40.7812    23.7793     4.4336     2.5703  3224.0000
 2791.2548    17.6563  1765.0000     -.0190    40.1562    23.9746     4.2812     2.5625  3114.0000
 2791.4072    17.6563  1767.0000     -.0142    40.5313    25.0488     4.2852     2.5742  3130.0000
 2791.5596    17.6563  1764.0000     -.0190    39.0312    26.8555     4.5469     2.5703  3220.0000
 2791.7120    17.7031  1761.0000     -.0112    36.5625    28.1250     4.5703     2.5840  3114.0000
 2791.8644    17.6563  1762.0000     -.0103    36.5938    28.0762     4.4531     2.5801  3020.0000
 2792.0168    17.7188  1762.0000     -.0063    36.6563    27.7832     4.4961     2.5781  3090.0000
 2792.1692    17.7656  1763.0000     -.0127    38.2188    27.2949     4.3789     2.5684  3244.0000
 2792.3216    17.7656  1763.0000     -.0171    39.8125    25.8301     4.2578     2.5625  3214.0000
 2792.4740    17.7656  1763.0000     -.0190    41.7187    26.3672     4.5391     2.5625  3130.0000
 2792.6264    17.7656  1764.0000     -.0210    44.8125    27.8809     4.8633     2.5684  3100.0000
 2792.7788    17.7656  1764.0000     -.0249    41.6250    29.3945     5.1836     2.5664  3150.0000
 2792.9312    17.7188  1764.0000     -.0215    36.3750    27.9297     4.8359     2.5742  3234.0000
 2793.0836    17.5781  1765.0000     -.0171    34.6562    23.9746     4.8008     2.5762  3334.0000
 2793.2360    17.6563  1767.0000     -.0156    33.0625    20.4102     4.7617     2.5801  3250.0000
 2793.3884    17.7656  1768.0000     -.0205    35.9688    19.6777     4.6250     2.5762  3120.0000
 2793.5408    17.7656  1768.0000     -.0215    36.6563    20.0684     4.5742     2.5645  3084.0000
 2793.6932    17.7656  1770.0000     -.0186    41.1875    23.5352     4.7734     2.5586  3080.0000
 2793.8456    17.7188  1768.0000     -.0215    41.5625    24.9512     5.4375     2.5508  3094.0000
 2793.9980    17.6563  1764.0000     -.0220    36.5938    25.0977     6.3906     2.5605  3084.0000
 2794.1504    17.5781  1761.0000     -.0229    30.2188    20.6055     9.3125     2.6055  3370.0000
 2794.3028    17.5313  1762.0000     -.0249    29.0312    18.3105     6.8750     2.6582  3330.0000
 2794.4552    17.6563  1762.0000     -.0161    37.2813    19.6777     5.8594     2.6973  3284.0000
 2794.6076    17.6875  1763.0000     -.0156    41.0937    22.7539     4.7109     2.6465  3194.0000
 2794.7600    17.6563  1765.0000     -.0117    39.0000    24.2676     5.1680     2.5996  3114.0000
 2794.9124    17.6250  1766.0000     -.0210    33.9688    23.4863     5.2344     2.5645  3100.0000
 2795.0648    17.5469  1766.0000     -.0229    32.1875    22.3633     5.2383     2.5605  3090.0000
 2795.2172    17.6406  1767.0000     -.0205    36.3125    22.3145     4.9648     2.5645  3094.0000
 2795.3696    17.6250  1767.0000     -.0166    36.7188    21.7773     4.7187     2.5703  3114.0000
 2795.5220    17.6563  1768.0000     -.0146    39.8750    22.3145     4.5312     2.5801  3144.0000
 2795.6744    17.5938  1769.0000     -.0122    37.3125    22.2168     4.2461     2.5918  3130.0000
 2795.8268    17.5625  1770.0000     -.0142    37.0938    21.9727     4.4609     2.5957  3114.0000
 2795.9792    17.5938  1773.0000     -.0127    37.1875    20.5566     4.6055     2.5977  3134.0000
 2796.1316    17.6563  1771.0000     -.0161    40.6250    19.5313     4.8242     2.5820  3214.0000
 2796.2840    17.6563  1768.0000     -.0176    41.4375    19.8730     4.7266     2.5723  3204.0000
 2796.4364    17.6563  1767.0000     -.0234    41.1875    20.3125     4.6836     2.5645  3150.0000
 2796.5888    17.6563  1767.0000     -.0254    40.9062    18.7988     4.8242     2.5742  3090.0000
 2796.7412    17.6563  1767.0000     -.0288    40.1250    18.7500     4.7578     2.5664  3064.0000
 2796.8936    17.6563  1766.0000     -.0288    42.4063    18.7012     4.5703     2.5664  3230.0000
 2797.0460    17.6563  1763.0000     -.0244    41.3438    20.8008     4.4766     2.5566  3270.0000
 2797.1984    17.6563  1764.0000     -.0200    41.0313    21.7285     4.7812     2.5664  3210.0000
 2797.3508    17.6563  1763.0000     -.0146    35.0000    22.2656     5.2031     2.5723  3190.0000
 2797.5032    17.5469  1763.0000     -.0151    33.2188    20.4590     5.8828     2.5801  3144.0000
 2797.6556    17.5313  1765.0000     -.0195    33.1875    19.4336     5.7773     2.5781  3104.0000
 2797.8080    17.5313  1766.0000     -.0229    39.6562    20.4102     5.3555     2.5723  3114.0000
 2797.9604    17.6563  1767.0000     -.0239    41.9688    25.6348     4.7031     2.5605  3110.0000
 2798.1128    17.6563  1769.0000     -.0098    43.2812    28.2715     4.4961     2.5684  3154.0000
 2798.2652    17.6563  1773.0000     -.0083    42.4063    30.5176     4.7617     2.5566  3180.0000
 2798.4176    17.6719  1771.0000     -.0039    42.5000    29.1016     5.1172     2.5684  3134.0000
 2798.5700    17.6250  1769.0000     -.0176    40.8438    29.9316     5.4258     2.5586  3090.0000
 2798.7224    17.5313  1767.0000     -.0171    36.7500    27.3926     5.3320     2.5703  3100.0000
 2798.8748    17.5781  1767.0000     -.0234    31.5781    28.1738     5.6992     2.5605  3114.0000
