~VERSION INFORMATION
VERS.                                                 2.0:   CWLS Log ASCII Standard-VERSION 2.0
WRAP.                                                  NO:   One line per depth step
~Well Information Block
STRT.M                                           182.0144:   Top Depth
STOP.M                                          4097.1704:   Bottom Depth
STEP.M                                             .15240:   Depth Increment
NULL.                                            -999.250:   Null Value
FLD .                                                 ULA:   Field Name
WELL.                                              15/3-4:   NAME
WBN .                                              15/3-4:   WELLBORE
NATI.                                                 NOR:   COUNTRY
CTRY.                                                 NOR:   COUNTRY
COMP.                             ELF AQUITAINE NORGE A/S:   OPERATOR
PROV.                                    OFF-SHORE NORWAY:   PROVINCE
COUN.                                    BORGSTEN DOLPHIN:   RIG NAME
SPUD.                                          1981/10/03:   SPUD DATE
LATI.                                        1 52 59.82 E:   SURF. LATITUDE
LONG.                                        58 49 5.28 N:   SURF. LONGITUDE
PBWE.                                              15/3-4:   PB WELL ID
APIN.                                              15/3-4:   PB WELLBORE ID
PBWS.                                                 all:   PB WELL NAME SET
~PARAMETER INFORMATION (log)
LNAM.                              LDT/CNL/GR  COMPOSITED:   NAME
LTYP.                                         DEPTH MATCH:   LOG TYPE
LSRV.                                           LATEROLOG:   LOG SERVICE
LSOU.                                             SPT/NPD:   LOG SOURCE
LVSN.                                                   1:   LOG VERSION
BHIS.                                                   R:   BRIEF HISTORY
FHIS.                                             RAW-LIS:   FULL HISTORY
LCNM.                                        SCHLUMBERGER:   LOGGING CONTRACTOR
TOOL.                             LDT/CNL/GR (COMPOSITED):   TOOL STRING
~Curve Information Block
#MNEM.UNIT                                        API CODE    No Description
#=========                                        ========    == ===========
DEPT.M                                       00 001 00 00:     1  DEPTH
CALI.IN                                                  :     2  Caliper
CS.                                                      :     3  Cable Speed
DRHO.G/CC                                                :     4  Bulk density correction
GR.GAPI                                                  :     5  Gamma Ray
NPHI.%                                                   :     6  Neutron porosity
PEF.B/E                                                  :     7  Photo-electric factor
RHOB.G/CC                                                :     8  Bulk density
TENS.LB                                                  :     9  Cable Tension
~ASCII
# ...
 2268.2180    20.9531  1922.0000     -.0317    44.0625    36.7676     4.9727     2.1426  2800.0000
 2268.3704    20.7031  1924.0000     -.0200    43.9375    37.0605     4.5391     2.1953  2804.0000
 2268.5228    20.6875  1926.0000     -.0112    46.3750    36.4746     4.6445     2.2129  2810.0000
 2268.6752    20.7031  1926.0000     -.0059    46.7500    36.4746     4.7734     2.1973  2714.0000
 2268.8276    21.0938  1925.0000     -.0063    46.3438    37.6465     4.7812     2.1797  2750.0000
 2268.9800    20.8125  1927.0000     -.0044    46.3125    39.6973     5.5742     2.1660  2800.0000
 2269.1324    21.0313  1926.0000     -.0020    46.0625    36.4746     5.9297     2.1836  2784.0000
 2269.2848    20.5781  1926.0000     -.0015    45.9688    35.3027     5.7227     2.2070  2744.0000
 2269.4372    20.7813  1927.0000     -.0059    44.9063    36.4258     5.7969     2.2148  2734.0000
 2269.5896    20.4531  1927.0000     -.0020    44.6562    40.8691     6.2812     2.1895  2794.0000
 2269.7420    21.3594  1928.0000      .0039    44.6250    42.2852     6.5586     2.1484  2824.0000
 2269.8944    22.7344  1927.0000      .0098    44.0938    41.2598     6.4023     2.1309  2814.0000
 2270.0468    22.2188  1926.0000      .0015    41.5312    42.1387     5.6484     2.1230  2724.0000
 2270.1992    22.2969  1927.0000     -.0059    41.5312    42.7246     5.8672     2.1406  2734.0000
 2270.3516    22.2969  1927.0000     -.0122    42.3125    46.1426     5.0430     2.1621  2704.0000
 2270.5040    21.1250  1922.0000     -.0103    44.8125    42.9199     5.7305     2.1660  2804.0000
 2270.6564    20.8750  1922.0000      .0024    46.4375    41.5527     5.8359     2.1621  2780.0000
 2270.8088    21.3750  1922.0000      .0078    45.6250    39.1602     6.8359     2.1211  2760.0000
 2270.9612    21.4375  1921.0000      .0122    47.1562    41.8457     6.3203     2.1074  2814.0000
 2271.1136    20.7188  1922.0000      .0176    43.0313    42.4805     6.1719     2.1211  2764.0000
 2271.2660    20.8906  1924.0000      .0278    43.1875    39.7461     6.0937     2.1543  2740.0000
 2271.4184    21.2813  1924.0000      .0229    40.8438    43.1152     6.2695     2.1543  2740.0000
 2271.5708    21.5156  1925.0000      .0146    41.8125    45.2148     6.3828     2.1367  2770.0000
 2271.7232    21.8125  1925.0000      .0156    40.5625    47.7539     5.3516     2.1621  2784.0000
 2271.8756    21.3750  1924.0000      .0098    38.9688    43.0664     4.8555     2.1914  2764.0000
 2272.0280    20.5625  1926.0000     -.0034    40.5313    41.2598     4.7109     2.2051  2764.0000
 2272.1804    21.2500  1927.0000     -.0132    44.0938    41.7969     5.2656     2.2109  2790.0000
 2272.3328    21.5625  1925.0000     -.0093    44.5625    44.0918     5.6016     2.2422  2754.0000
 2272.4852    21.2969  1925.0000     -.0034    42.9375    43.1152     6.0742     2.2969  2744.0000
 2272.6376    22.3906  1925.0000     -.0073    39.4063    42.1387     6.1016     2.2773  2744.0000
 2272.7900    20.4531  1927.0000     -.0029    41.7500    41.3086     6.2227     2.2539  2744.0000
 2272.9424    20.4531  1926.0000     -.0034    44.0000    43.4570     5.6562     2.1973  2784.0000
 2273.0948    21.1563  1925.0000      .0054    45.0313    41.6504     5.3437     2.1973  2794.0000
 2273.2472    20.6875  1927.0000      .0024    43.8750    39.4531     5.2500     2.2129  2794.0000
 2273.3996    20.4063  1928.0000     -.0020    43.1250    39.0625     4.9336     2.2383  2804.0000
 2273.5520    20.5469  1923.0000     -.0078    43.1875    38.9160     4.8672     2.2461  2780.0000
 2273.7044    20.9531  1921.0000     -.0112    44.9375    41.0645     4.4961     2.2266  2764.0000
 2273.8568    20.9844  1921.0000     -.0107    44.9375    40.7715     4.7461     2.2285  2730.0000
 2274.0092    20.4063  1919.0000     -.0103    45.7500    42.9687     4.9023     2.2441  2744.0000
 2274.1616    20.3281  1919.0000     -.0093    40.7500    41.5527     5.5078     2.2695  2790.0000
 2274.3140    19.8438  1921.0000     -.0029    38.7500    40.0879     6.2187     2.2793  2810.0000
 2274.4664    20.6406  1922.0000     -.0054    35.7188    40.1855     6.5508     2.2324  2770.0000
 2274.6188    21.2500  1924.0000      .0044    35.7813    41.6992     6.7969     2.2598  2794.0000
 2274.7712    20.8750  1925.0000     -.0029    36.0313    43.8965     5.8359     2.2812  2804.0000
 2274.9236    20.5937  1925.0000     -.0034    37.3438    39.7949     5.4180     2.3008  2714.0000
 2275.0760    20.8125  1926.0000     -.0127    38.2500    38.8184     5.0977     2.2227  2674.0000
 2275.2284    21.1563  1925.0000     -.0015    37.3438    40.3320     6.0937     2.1641  2760.0000
 2275.3808    21.3281  1924.0000      .0161    35.3438    42.3828     6.8203     2.2031  2794.0000
 2275.5332    21.0000  1924.0000      .0073    35.2188    43.0176     7.3945     2.2148  2770.0000
 2275.6856    20.7344  1927.0000      .0107    36.2500    40.6250     6.2969     2.2344  2744.0000
 2275.8380    21.1250  1929.0000     -.0005    35.4063    41.4551     6.1484     2.2129  2820.0000
 2275.9904    21.2187  1928.0000      .0054    37.5313    42.3340     5.8711     2.2402  2864.0000
 2276.1428    20.3438  1925.0000     -.0020    38.6875    42.0898     6.0195     2.2656  2814.0000
 2276.2952    20.3438  1928.0000     -.0073    40.9062    39.1602     5.3398     2.2402  2724.0000
 2276.4476    20.0000  1928.0000      .0015    41.2187    40.7227     4.8047     2.2324  2710.0000
 2276.6000    19.9375  1924.0000      .0020    40.0625    41.3086     4.5898     2.2227  2740.0000
 2276.7524    20.4219  1922.0000      .0024    41.4688    44.6289     5.1367     2.2383  2804.0000
 2276.9048    19.9531  1921.0000     -.0112    37.7812    37.5977     6.0664     2.2461  2800.0000
 2277.0572    19.9219  1922.0000     -.0166    39.0312    37.4023     6.7773     2.2344  2794.0000
 2277.2096    19.2656  1922.0000     -.0049    39.1250    38.3301     7.3711     2.2383  2734.0000
 2277.3620    20.4219  1923.0000      .0010    41.7813    41.6992     6.9297     2.2559  2754.0000
 2277.5144    20.7813  1925.0000     -.0020    42.4375    42.3828     5.6094     2.3027  2750.0000
 2277.6668    20.1250  1925.0000     -.0122    43.7813    38.3301     4.8359     2.3125  2714.0000
 2277.8192    20.0938  1926.0000     -.0171    43.7500    38.4766     5.1875     2.2285  2760.0000
 2277.9716    20.5156  1925.0000     -.0029    41.8750    38.7695     5.9766     2.1621  2794.0000
 2278.1240    20.7500  1928.0000      .0088    38.6250    41.3574     7.7148     2.1484  2810.0000
 2278.2764    20.6563  1929.0000      .0103    38.3125    44.7754     6.9141     2.1992  2770.0000
 2278.4288    20.4375  1928.0000      .0039    40.4063    44.9219     6.0391     2.2070  2824.0000
 2278.5812    19.7813  1927.0000      .0093    41.1875    43.3105     6.1445     2.1934  2780.0000
 2278.7336    20.2344  1928.0000      .0366    42.8125    41.2109     6.2656     2.1680  2714.0000
 2278.8860    20.1406  1928.0000      .0420    40.4687    40.6250     7.0820     2.1680  2694.0000
 2279.0384    19.9219  1928.0000      .0234    40.4687    41.9434     5.6953     2.1602  2780.0000
 2279.1908    20.1094  1924.0000      .0078    42.4375    41.6016     5.2070     2.1680  2760.0000
 2279.3432    20.5625  1924.0000      .0107    45.4375    40.5762     5.0742     2.1934  2744.0000
 2279.4956    20.6406  1925.0000      .0112    47.7500    40.4785     5.6211     2.2070  2774.0000
 2279.6480    20.6406  1924.0000      .0293    46.2187    37.8418     5.5937     2.2324  2810.0000
 2279.8004    19.9688  1922.0000      .0303    43.3750    38.9160     5.3281     2.2324  2814.0000
 2279.9528    19.9063  1922.0000      .0283    37.1875    38.1348     5.4141     2.2227  2760.0000
 2280.1052    19.7969  1920.0000      .0122    36.5312    39.5996     5.1797     2.2012  2764.0000
 2280.2576    19.6094  1919.0000      .0083    36.8125    39.5996     4.8906     2.1699  2760.0000
 2280.4100    19.9531  1921.0000      .0078    40.9688    39.9902     5.0078     2.1309  2740.0000
