~VERSION INFORMATION
VERS.                                                 2.0:   CWLS Log ASCII Standard-VERSION 2.0
WRAP.                                                  NO:   One line per depth step
~Well Information Block
STRT.M                                           182.0144:   Top Depth
STOP.M                                          4097.1704:   Bottom Depth
STEP.M                                             .15240:   Depth Increment
NULL.                                            -999.250:   Null Value
FLD .                                                 ULA:   Field Name
WELL.                                              15/3-4:   NAME
WBN .                                              15/3-4:   WELLBORE
NATI.                                                 NOR:   COUNTRY
CTRY.                                                 NOR:   COUNTRY
COMP.                             ELF AQUITAINE NORGE A/S:   OPERATOR
PROV.                                    OFF-SHORE NORWAY:   PROVINCE
COUN.                                    BORGSTEN DOLPHIN:   RIG NAME
SPUD.                                          1981/10/03:   SPUD DATE
LATI.                                        1 52 59.82 E:   SURF. LATITUDE
LONG.                                        58 49 5.28 N:   SURF. LONGITUDE
PBWE.                                              15/3-4:   PB WELL ID
APIN.                                              15/3-4:   PB WELLBORE ID
PBWS.                                                 all:   PB WELL NAME SET
~PARAMETER INFORMATION (log)
LNAM.                              LDT/CNL/GR  COMPOSITED:   NAME
LTYP.                                         DEPTH MATCH:   LOG TYPE
LSRV.                                           LATEROLOG:   LOG SERVICE
LSOU.                                             SPT/NPD:   LOG SOURCE
LVSN.                                                   1:   LOG VERSION
BHIS.                                                   R:   BRIEF HISTORY
FHIS.                                             RAW-LIS:   FULL HISTORY
LCNM.                                        SCHLUMBERGER:   LOGGING CONTRACTOR
TOOL.                             LDT/CNL/GR (COMPOSITED):   TOOL STRING
~Curve Information Block
#MNEM.UNIT                                        API CODE    No Description
#=========                                        ========    == ===========
DEPT.M                                       00 001 00 00:     1  DEPTH
CALI.IN                                                  :     2  Caliper
CS.                                                      :     3  Cable Speed
DRHO.G/CC                                                :     4  Bulk density correction
GR.GAPI                                                  :     5  Gamma Ray
NPHI.%                                                   :     6  Neutron porosity
PEF.B/E                                                  :     7  Photo-electric factor
RHOB.G/CC                                                :     8  Bulk density
TENS.LB                                                  :     9  Cable Tension
~ASCII
# ...
 3305.1476    12.2500  1907.0000     -.0032    18.5156    16.0869     4.0956     2.5752  3194.0000
 3305.3000    12.2617  1907.0000     -.0020    17.4375    17.4070     4.3197     2.5781  3190.0000
 3305.4524    12.2656  1906.0000     -.0022    16.6719    15.7770     4.5818     2.5898  3200.0000
 3305.6048    12.2423  1905.0000     -.0061    21.0156    12.3347     4.5686     2.5889  3184.0000
 3305.7572    12.2148  1903.0000     -.0105    23.1563    10.0586     4.4141     2.5771  3170.0000
 3305.9096    12.2148  1902.0000     -.0112    25.7188    10.0586     4.4023     2.5703  3184.0000
 3306.0620    12.2188  1902.0000     -.0112    24.6250    11.8876     4.5409     2.5654  3194.0000
 3306.2144    12.2188  1905.0000     -.0098    27.4375    14.2300     4.4673     2.5576  3204.0000
 3306.3668    12.2188  1914.0000     -.0112    25.6094    15.3320     4.0107     2.5459  3204.0000
 3306.5192    12.2148  1930.0000     -.0115    25.1719    14.5264     3.5430     2.5410  3204.0000
 3306.6716    12.2031  1922.0000     -.0088    23.2500    12.9150     3.2910     2.5420  3184.0000
 3306.8240    12.1914  1910.0000     -.0066    21.7656    12.4507     3.3211     2.5391  3164.0000
 3306.9764    12.1875  1909.0000     -.0054    20.1719    12.4023     3.6309     2.5400  3170.0000
 3307.1288    12.1875  1907.0000     -.0061    19.5938    11.3525     4.0410     2.5557  3184.0000
 3307.2812    12.1797  1905.0000     -.0068    24.9531     9.6191     4.4141     2.5801  3214.0000
 3307.4336    12.1719  1902.0000     -.0066    29.1094     8.6181     4.5762     2.5957  3204.0000
 3307.5860    12.1836  1901.0000     -.0042    28.9688     9.4943     4.4964     2.5918  3200.0000
 3307.7384    12.1953  1898.0000     -.0010    29.9531    11.5234     4.2988     2.5811  3190.0000
 3307.8908    12.1953  1897.0000     -.0022    26.0938    12.6465     4.1621     2.5791  3220.0000
 3308.0432    12.1953  1895.0000     -.0054    25.7656    12.0370     4.3122     2.5889  3184.0000
 3308.1956    12.1953  1894.0000     -.0051    24.5938    10.2091     4.4922     2.5977  3200.0000
 3308.3480    12.1953  1891.0000     -.0010    27.6250     9.1064     4.5195     2.6055  3220.0000
 3308.5004    12.1953  1888.0000      .0012    30.3906     9.2041     4.3711     2.6143  3210.0000
 3308.6528    12.1953  1885.0000     -.0012    30.8281    10.3516     4.2031     2.6182  3200.0000
 3308.8052    12.1953  1883.0000     -.0054    31.7344    11.9873     4.2480     2.6064  3180.0000
 3308.9576    12.2031  1879.0000     -.0071    29.1875    13.1604     4.4534     2.5928  3200.0000
 3309.1100    12.2227  1878.0000     -.0059    26.8750    13.2080     4.6465     2.5928  3190.0000
 3309.2624    12.2344  1875.0000     -.0049    22.3906    11.8408     4.7969     2.5918  3190.0000
 3309.4148    12.2344  1875.0000     -.0010    20.8281    11.3037     4.9062     2.5908  3220.0000
 3309.5672    12.2344  1874.0000     -.0012    20.1094    11.9629     4.9531     2.5859  3190.0000
 3309.7196    12.2383  1871.0000     -.0051    20.1406    12.5978     4.9687     2.5840  3230.0000
 3309.8720    12.2500  1871.0000     -.0090    18.8281    12.3047     4.8887     2.5850  3214.0000
 3310.0244    12.2617  1869.0000     -.0112    20.5937    11.1084     5.0234     2.5859  3210.0000
 3310.1768    12.2734  1870.0000     -.0112    22.3438    10.2051     5.2227     2.5918  3194.0000
 3310.3292    12.2812  1870.0000     -.0154    24.8906     9.7651     5.4828     2.5869  3184.0000
 3310.4816    12.2930  1869.0000     -.0161    22.4687     9.1797     5.9160     2.5762  3204.0000
 3310.6340    12.3047  1870.0000     -.0129    20.6719     9.8145     6.1016     2.5654  3210.0000
 3310.7864    12.3086  1871.0000     -.0100    18.3906    11.2061     5.9082     2.5654  3190.0000
 3310.9388    12.3203  1871.0000     -.0088    19.8750    11.8899     5.6659     2.5723  3174.0000
 3311.0912    12.3281  1871.0000     -.0051    18.8594    11.4990     5.4043     2.5869  3174.0000
 3311.2436    12.3281  1869.0000     -.0007    18.6094    10.1807     5.1543     2.6074  3194.0000
 3311.3960    12.3281  1869.0000      .0015    16.4219     8.8632     4.9514     2.6279  3220.0000
 3311.5484    12.3087  1867.0000      .0010    14.6328     7.6924     4.7794     2.6406  3200.0000
 3311.7008    12.2773  1867.0000     -.0022    14.1250     7.1045     5.0566     2.6357  3194.0000
 3311.8532    12.2656  1865.0000     -.0041    12.3594     7.1045     5.3145     2.6348  3164.0000
 3312.0056    12.2656  1864.0000     -.0076    12.3438     6.8611     5.3786     2.6348  3174.0000
 3312.1580    12.2656  1867.0000     -.0078    12.8672     6.2513     5.4396     2.6396  3190.0000
 3312.3104    12.2656  1870.0000     -.0046    14.8984     5.5420     5.4727     2.6455  3184.0000
 3312.4628    12.2656  1872.0000     -.0027    16.4688     5.1025     5.6758     2.6445  3160.0000
 3312.6152    12.2734  1871.0000     -.0029    17.2344     5.1023     5.7871     2.6455  3180.0000
 3312.7676    12.2851  1867.0000     -.0039    17.7813     5.4680     5.5009     2.6455  3160.0000
 3312.9200    12.2891  1867.0000     -.0042    19.5781     6.0791     5.2363     2.6465  3160.0000
 3313.0724    12.2891  1867.0000     -.0044    23.0625     6.6895     5.2422     2.6465  3154.0000
 3313.2248    12.2891  1866.0000     -.0073    26.9844     7.5673     5.8447     2.6397  3160.0000
 3313.3772    12.2969  1865.0000     -.0115    28.9219     8.7628     7.4811     2.6182  3174.0000
 3313.5296    12.3047  1865.0000     -.0171    30.6094     9.9589     9.5669     2.5500  3170.0000
 3313.6820    12.3164  1866.0000     -.0249    27.7500    10.9619    11.4687     2.4590  3180.0000
 3313.8344    12.3398  1866.0000     -.0322    25.9062    14.7406    10.6979     2.4033  3180.0000
 3313.9868    12.8266  1865.0000     -.0337    21.0000    20.5490     7.9489     2.4266  3130.0000
 3314.1392    13.4488  1862.0000     -.0274    18.5938    22.4625     6.1369     2.5057  3120.0000
 3314.2916    12.9531  1861.0000     -.0183    17.9844    18.4814     5.2168     2.5811  3204.0000
 3314.4440    12.3086  1861.0000     -.0139    17.7344    12.0605     4.9551     2.6172  3304.0000
 3314.5964    12.3086  1862.0000     -.0115    21.3750     8.8623     5.1270     2.6260  3230.0000
 3314.7488    12.3086  1863.0000     -.0066    24.4531     8.2037     5.2872     2.6396  3194.0000
 3314.9012    12.3086  1863.0000     -.0037    32.6563     7.0557     5.1270     2.6445  3200.0000
 3315.0536    12.3125  1867.0000     -.0010    36.3125     5.7129     4.9023     2.6367  3240.0000
 3315.2060    12.3203  1870.0000     -.0027    38.3750     6.3232     4.8652     2.6201  3200.0000
 3315.3584    12.3320  1871.0000     -.0061    33.8438     9.2529     4.9453     2.6074  3184.0000
 3315.5108    12.3359  1868.0000     -.0088    30.6250    12.9851     4.8186     2.6025  3104.0000
 3315.6632    12.3359  1864.0000     -.0066    27.7969    15.5273     4.6992     2.6094  3100.0000
 3315.8156    12.3320  1863.0000      .0015    28.2500    15.7715     4.6543     2.6191  3144.0000
 3315.9680    12.3281  1861.0000      .0000    30.2812    15.2832     4.6211     2.6162  3404.0000
 3316.1204    12.3281  1863.0000     -.0073    30.7188    14.8198     4.6348     2.5987  3294.0000
 3316.2728    12.3320  1863.0000     -.0090    28.1875    14.8926     4.6738     2.5840  3304.0000
 3316.4252    12.3320  1864.0000     -.0032    24.1719    15.0391     4.7656     2.5879  3304.0000
 3316.5776    12.3398  1866.0000      .0024    22.5313    14.2334     4.8828     2.6074  3224.0000
 3316.7300    12.3438  1867.0000      .0000    23.3438    12.4774     5.0312     2.6230  3170.0000
 3316.8824    12.3320  1866.0000     -.0037    24.5781    11.0107     5.2812     2.6279  3184.0000
 3317.0348    12.3281  1865.0000     -.0066    25.5625    10.1318     5.1699     2.6221  3160.0000
 3317.1872    12.3320  1863.0000     -.0095    25.5313     9.6678     4.9471     2.6152  3210.0000
 3317.3396    12.3359  1863.0000     -.0117    24.5313     9.6683     4.9261     2.6133  3220.0000
