~VERSION INFORMATION
VERS.                                                 2.0:   CWLS Log ASCII Standard-VERSION 2.0
WRAP.                                                  NO:   One line per depth step
~Well Information Block
STRT.M                                           182.0144:   Top Depth
STOP.M                                          4097.1704:   Bottom Depth
STEP.M                                             .15240:   Depth Increment
NULL.                                            -999.250:   Null Value
FLD .                                                 ULA:   Field Name
WELL.                                              15/3-4:   NAME
WBN .                                              15/3-4:   WELLBORE
NATI.                                                 NOR:   COUNTRY
CTRY.                                                 NOR:   COUNTRY
COMP.                             ELF AQUITAINE NORGE A/S:   OPERATOR
PROV.                                    OFF-SHORE NORWAY:   PROVINCE
COUN.                                    BORGSTEN DOLPHIN:   RIG NAME
SPUD.                                          1981/10/03:   SPUD DATE
LATI.                                        1 52 59.82 E:   SURF. LATITUDE
LONG.                                        58 49 5.28 N:   SURF. LONGITUDE
PBWE.                                              15/3-4:   PB WELL ID
APIN.                                              15/3-4:   PB WELLBORE ID
PBWS.                                                 all:   PB WELL NAME SET
~PARAMETER INFORMATION (log)
LNAM.                              LDT/CNL/GR  COMPOSITED:   NAME
LTYP.                                         DEPTH MATCH:   LOG TYPE
LSRV.                                           LATEROLOG:   LOG SERVICE
LSOU.                                             SPT/NPD:   LOG SOURCE
LVSN.                                                   1:   LOG VERSION
BHIS.                                                   R:   BRIEF HISTORY
FHIS.                                             RAW-LIS:   FULL HISTORY
LCNM.                                        SCHLUMBERGER:   LOGGING CONTRACTOR
TOOL.                             LDT/CNL/GR (COMPOSITED):   TOOL STRING
~Curve Information Block
#MNEM.UNIT                                        API CODE    No Description
#=========                                        ========    == ===========
DEPT.M                                       00 001 00 00:     1  DEPTH
CALI.IN                                                  :     2  Caliper
CS.                                                      :     3  Cable Speed
DRHO.G/CC                                                :     4  Bulk density correction
GR.GAPI                                                  :     5  Gamma Ray
NPHI.%                                                   :     6  Neutron porosity
PEF.B/E                                                  :     7  Photo-electric factor
RHOB.G/CC                                                :     8  Bulk density
TENS.LB                                                  :     9  Cable Tension
~ASCII
# ...
 4082.8448     6.1719  1882.1453     -.0195    50.8648    14.5260     3.2892     2.5491  4339.3467
 4082.9972     6.1680  1880.2747     -.0174    50.6410    14.8303     3.0952     2.5505  4326.7461
 4083.1496     6.1680  1880.8721     -.0179    51.3841    14.7586     3.0496     2.5525  4372.8408
 4083.3020     6.1542  1882.7581     -.0176    51.2528    14.8749     3.1499     2.5579  4355.3867
 4083.4544     6.1523  1882.1113     -.0145    53.8010    15.3698     3.2127     2.5655  4366.2158
 4083.6068     6.1523  1881.1018     -.0155    54.3776    15.2543     3.0258     2.5664  4389.5527
 4083.7592     6.1523  1884.6252     -.0161    54.6328    15.1901     2.9172     2.5646  4384.7490
 4083.9116     6.1416  1883.1711     -.0179    50.2272    14.7837     2.9779     2.5502  4362.0547
 4084.0640     6.1442  1882.0789     -.0172    47.9993    14.1615     3.0437     2.5452  4323.1611
 4084.2164     6.1445  1881.0679     -.0162    49.1836    12.9281     2.9851     2.5449  4305.0869
 4084.3688     6.1445  1881.0000     -.0166    52.2195    11.4645     2.9272     2.5523  4262.6299
 4084.5212     6.1445  1879.1033     -.0152    52.9100    11.5622     2.7794     2.5638  4252.4131
 4084.6736     6.1445  1879.9563     -.0147    50.9351    11.5723     2.8107     2.5738  4229.0469
 4084.8260     6.1408  1882.8982     -.0180    50.3003    13.2704     2.8295     2.5723  4301.4219
 4084.9784     6.1444  1885.9224     -.0223    51.3467    13.3301     3.1288     2.5647  4350.7588
 4085.1308     6.1407  1885.0178     -.0167    54.9663    13.7617     3.1425     2.5760  4469.8672
 4085.2832     6.1445  1882.0291     -.0142    56.9190    12.6574     3.1774     2.5646  4424.4648
 4085.4356     6.1406  1882.0000     -.0068    60.2500    11.8652     2.9609     2.5605  4424.0000
 4085.5880     6.1406  1882.0000     -.0137    58.5000    11.1816     3.0254     2.5391  4420.0000
 4085.7404     6.1445  1882.0000     -.0181    53.1563    10.9863     2.9883     2.5430  4404.0000
 4085.8928     6.1445  1885.0000     -.0215    47.9687    10.8887     3.0469     2.5488  4340.0000
 4086.0452     6.1406  1883.0000     -.0234    47.1875    10.5957     2.9199     2.5449  4304.0000
 4086.1976     6.1445  1882.0000     -.0181    51.6250    11.1328     2.9473     2.5469  4380.0000
 4086.3500     6.1445  1880.0000     -.0127    51.6875    10.7910     3.3008     2.5527  4280.0000
 4086.5024     6.1445  1877.0000     -.0142    50.6250    10.9863     3.7676     2.5488  4332.0000
 4086.6548     6.1445  1875.0000     -.0107    48.4375    11.8164     4.2656     2.5840  4388.0000
 4086.8072     6.1641  1879.0000     -.0063    50.4375    14.8926     4.1641     2.6250  4440.0000
 4086.9596     6.1055  1876.0000     -.0010    53.4375    15.5762     4.5234     2.6836  4404.0000
 4087.1120     6.0664  1878.0000     -.0024    58.9688    14.8926     4.6445     2.6895  4344.0000
 4087.2644     6.1172  1881.0000     -.0088    61.6250    12.3047     4.6094     2.6836  4248.0000
 4087.4168     6.1211  1886.0000     -.0088    64.1250    12.1582     4.4375     2.6797  4188.0000
 4087.5692     6.1172  1881.0000     -.0088    64.1250    11.6211     4.4492     2.6777  4070.0000
 4087.7216     6.1211  1880.0000     -.0146    64.1250    12.0117     4.7891     2.6797  4108.0000
 4087.8740     6.1211  1880.0000     -.0210    64.1250    12.3047     4.8164     2.6660  4248.0000
 4088.0264     6.1172  1879.0000     -.0210    64.1250    12.6953     5.4336     2.6602  4928.0000
 4088.1788     6.1211  1879.0000     -.0161    64.1250    12.6953     5.4141     2.6582  4912.0000
 4088.3312     6.1172  1878.0000     -.0117    64.1250    12.3535     4.5117     2.6699  4812.0000
 4088.4836     6.1172  1878.0000     -.0137    64.1250    14.7949     3.8203     2.6621  4740.0000
 4088.6360     6.1016  1878.0000     -.0137    64.1250    14.3555     3.3379     2.6582  4700.0000
 4088.7884     6.0430  1878.0000     -.0181    64.1250    14.1113     3.5449     2.6406  4712.0000
 4088.9408     6.0430  1876.0000     -.0156    64.1250    10.6445     3.4199     2.6445  4604.0000
 4089.0932     6.0391  1878.0000     -.0181    64.1250    10.1563     3.2285     2.6191  4520.0000
 4089.2456     6.0391  1871.0000     -.0176    64.1250    10.2539     3.1621     2.6055  4472.0000
 4089.3980     6.0430  1865.0000     -.0181    64.1250    10.9375     3.3613     2.5996  4420.0000
 4089.5504     6.0430  1861.0000     -.0186    64.1250    11.4258     3.3691     2.6094  4384.0000
 4089.7028     6.0430  1865.0000     -.0151    64.1250    11.6699     3.2012     2.6152  4380.0000
 4089.8552     6.0430  1870.0000     -.0156    64.1250    11.8164     3.1074     2.6152  4344.0000
 4090.0076     6.0430  1872.0000     -.0132    64.1250    12.1094     3.3164     2.6172  4360.0000
 4090.1600     6.0391  1872.0000     -.0142    64.1250    12.1094     3.4355     2.6211  4352.0000
 4090.3124     6.0391  1874.0000     -.0156    64.1250    12.1094     3.4453     2.6172  4340.0000
 4090.4648     6.0430  1875.0000     -.0181    64.1250    12.1094     3.2891     2.6113  4392.0000
 4090.6172     6.0312  1878.0000     -.0151    64.1250    12.1094     3.4648     2.6094  4392.0000
 4090.7696     6.0430  1879.0000     -.0078    64.1250    12.1094     3.7773     2.6309  4492.0000
 4090.9220     6.0430  1879.0000     -.0024    64.1250    12.1094     4.4297     2.6777  4472.0000
 4091.0744     6.0391  1881.0000     -.0054    64.1250    12.1094     4.3555     2.6934  4392.0000
 4091.2268     6.0430  1881.0000      .0068    64.1250    12.1094     3.8711     2.7129  4404.0000
 4091.3792     6.0937  1880.0000      .0166    64.1250    12.0605     3.9258     2.7051  4368.0000
 4091.5316     6.1406  1880.0000      .0527    64.1250    12.0117     4.6445     2.7441  4304.0000
 4091.6840     6.1406  1881.0000      .0303    64.1250    12.0117     6.6797     2.7227  4240.0000
 4091.8364     6.1406  1879.0000      .0122    64.1250    12.0117     8.8984     2.7051  4272.0000
 4091.9888     6.0156  1877.0000     -.0020    64.1250    12.1582     7.6523     2.7012  4364.0000
 4092.1412     5.9922  1879.0000     -.0029    64.1250    12.1582     5.3125     2.6992  4428.0000
 4092.2936     5.9922  1881.0000     -.0020    64.1250    12.1582     4.0625     2.7051  4624.0000
 4092.4460     5.9922  1880.0000     -.0005    64.1250    12.1582     4.0273     2.7109  4564.0000
 4092.5984     5.9922  1881.0000     -.0049    64.1250    12.1582     4.0859     2.7090  4528.0000
 4092.7508     5.9883  1880.0000     -.0103    64.1250    12.1582     3.8496     2.6719  4440.0000
 4092.9032     5.9883  1879.0000     -.0107    64.1250    12.1582     3.3809     2.6309  4432.0000
 4093.0556     5.9883  1881.0000     -.0107    64.1250    12.1582     3.2187     2.5859  4472.0000
 4093.2080     5.9883  1881.0000     -.0088    64.1250    12.1582     3.2129     2.5781  4412.0000
 4093.3604     5.9883  1879.0000     -.0073    64.1250    12.1582     3.5391     2.5742  4364.0000
 4093.5128     5.9570  1880.0000     -.0107    64.1250    12.2070     3.6133     2.5762  4288.0000
 4093.6652     5.9414  1877.0000     -.0132    64.1250    12.2070     3.7598     2.5645  4300.0000
 4093.8176     5.9375  1876.0000     -.0195    64.1250    12.2070     3.6406     2.5566  4404.0000
 4093.9700     5.9375  1876.0000     -.0161    64.1250    12.2070     3.5762     2.5566  4428.0000
 4094.1224     5.9375  1878.0000     -.0161    64.1250    12.2070     3.5312     2.5586  4524.0000
 4094.2748     5.9375  1879.0000     -.0117    64.1250    12.2070     3.4375     2.5527  4420.0000
 4094.4272     5.9297  1879.0000     -.0122    64.1250    12.2070     3.3828     2.5312  4444.0000
 4094.5796     5.9375  1880.0000     -.0103    64.1250    12.2070     3.5332     2.5234  4472.0000
 4094.7320     5.8672  1885.0000     -.0146    64.1250    12.2559     4.0625     2.5195  4408.0000
 4094.8844     5.8672  1886.0000     -.0186    64.1250    12.2559     4.8164     2.5254  4408.0000
 4095.0368     5.8555  1885.0000     -.0205    64.1250    12.2559     4.9766     2.5176  4392.0000
