~VERSION INFORMATION
VERS.                                                 2.0:   CWLS Log ASCII Standard-VERSION 2.0
WRAP.                                                  NO:   One line per depth step
~Well Information Block
STRT.M                                           182.0144:   Top Depth
STOP.M                                          4097.1704:   Bottom Depth
STEP.M                                             .15240:   Depth Increment
NULL.                                            -999.250:   Null Value
FLD .                                                 ULA:   Field Name
WELL.                                              15/3-4:   NAME
WBN .                                              15/3-4:   WELLBORE
NATI.                                                 NOR:   COUNTRY
CTRY.                                                 NOR:   COUNTRY
COMP.                             ELF AQUITAINE NORGE A/S:   OPERATOR
PROV.                                    OFF-SHORE NORWAY:   PROVINCE
COUN.                                    BORGSTEN DOLPHIN:   RIG NAME
SPUD.                                          1981/10/03:   SPUD DATE
LATI.                                        1 52 59.82 E:   SURF. LATITUDE
LONG.                                        58 49 5.28 N:   SURF. LONGITUDE
PBWE.                                              15/3-4:   PB WELL ID
APIN.                                              15/3-4:   PB WELLBORE ID
PBWS.                                                 all:   PB WELL NAME SET
~PARAMETER INFORMATION (log)
LNAM.                              LDT/CNL/GR  COMPOSITED:   NAME
LTYP.                                         DEPTH MATCH:   LOG TYPE
LSRV.                                           LATEROLOG:   LOG SERVICE
LSOU.                                             SPT/NPD:   LOG SOURCE
LVSN.                                                   1:   LOG VERSION
BHIS.                                                   R:   BRIEF HISTORY
FHIS.                                             RAW-LIS:   FULL HISTORY
LCNM.                                        SCHLUMBERGER:   LOGGING CONTRACTOR
TOOL.                             LDT/CNL/GR (COMPOSITED):   TOOL STRING
~Curve Information Block
#MNEM.UNIT                                        API CODE    No Description
#=========                                        ========    == ===========
DEPT.M                                       00 001 00 00:     1  DEPTH
CALI.IN                                                  :     2  Caliper
CS.                                                      :     3  Cable Speed
DRHO.G/CC                                                :     4  Bulk density correction
GR.GAPI                                                  :     5  Gamma Ray
NPHI.%                                                   :     6  Neutron porosity
PEF.B/E                                                  :     7  Photo-electric factor
RHOB.G/CC                                                :     8  Bulk density
TENS.LB                                                  :     9  Cable Tension
~ASCII
# ...
 3823.6124     8.2891  1961.0000     -.0127    16.1563    10.2539     6.1289     2.4687  3450.0000
 3823.7648     8.2891  1957.0000     -.0122    19.8281     9.6680     6.1758     2.4922  3470.0000
 3823.9172     8.3047  1950.0000     -.0103    30.7344     9.2773     5.8125     2.5215  3420.0000
 3824.0696     8.3203  1948.0000     -.0137    42.3437    11.4746     5.5391     2.5352  3404.0000
 3824.2220     8.3203  1955.0000     -.0146    46.4688    13.4766     5.2383     2.5391  3384.0000
 3824.3744     8.3203  1960.0000     -.0195    49.5938    16.0156     5.5977     2.5156  3310.0000
 3824.5268     8.3203  1950.0000     -.0186    47.4687    15.3809     5.4219     2.4902  3380.0000
 3824.6792     8.3203  1958.0000     -.0181    48.4688    15.7227     4.8828     2.4824  3420.0000
 3824.8316     8.3672  1954.0000     -.0166    44.9687    14.6484     4.5039     2.4941  3414.0000
 3824.9840     8.4297  1951.0000     -.0171    42.1562    14.5508     3.8145     2.5039  3404.0000
 3825.1364     8.4531  1955.0000     -.0151    51.9063    14.1602     3.4922     2.5039  3444.0000
 3825.2888     8.4922  1961.0000     -.0098    62.1562    14.7949     3.1699     2.5137  3394.0000
 3825.4412     8.4922  1964.0000     -.0103    71.1875    15.1367     3.1484     2.5273  3320.0000
 3825.5936     8.4922  1971.0000     -.0117    71.4375    14.0137     2.9082     2.5410  3310.0000
 3825.7460     8.5156  1969.0000     -.0122    65.1250    13.2813     2.7754     2.5371  3414.0000
 3825.8984     8.5156  1968.0000     -.0068    61.2187    13.0371     2.8555     2.5469  3410.0000
 3826.0508     8.5234  1962.0000     -.0063    55.0938    15.1367     3.2520     2.5586  3424.0000
 3826.2032     8.5234  1952.0000     -.0098    53.6250    15.9180     3.2578     2.5762  3424.0000
 3826.3556     8.5156  1939.0000     -.0029    59.9375    14.7461     3.3145     2.6035  3424.0000
 3826.5080     8.5312  1934.0000     -.0034    74.2500    12.4512     3.2617     2.6016  3430.0000
 3826.6604     8.5547  1924.0000      .0029    83.6250    13.4277     3.6230     2.6230  3410.0000
 3826.8128     8.5391  1924.0000     -.0034    89.8750    16.6992     3.6953     2.6172  3404.0000
 3826.9652     8.5547  1933.0000     -.0015    86.8125    19.1406     3.9434     2.6230  3414.0000
 3827.1176     8.5469  1933.0000      .0020    87.4375    19.8730     3.7793     2.6387  3424.0000
 3827.2700     8.5469  1931.0000     -.0020    86.6250    20.5566     3.5371     2.6699  3434.0000
 3827.4224     8.5391  1937.0000     -.0039    84.1875    21.8262     3.5430     2.7090  3480.0000
 3827.5748     8.5469  1931.0000     -.0049    87.3750    22.3145     3.7734     2.7305  3444.0000
 3827.7272     8.5469  1932.0000     -.0044    83.9375    23.1445     3.7891     2.7383  3434.0000
 3827.8796     8.5469  1933.0000     -.0068    83.6250    22.0215     4.1055     2.6973  3384.0000
 3828.0320     8.5547  1936.0000     -.0093    82.0625    22.7051     4.6055     2.6504  3384.0000
 3828.1844     8.5625  1935.0000     -.0093    73.0000    25.5859     5.3984     2.6172  3454.0000
 3828.3368     8.5625  1941.0000      .0015    68.9375    32.4219     5.8945     2.6543  3410.0000
 3828.4892     8.5234  1948.0000      .0044    63.0937    36.6699     5.4648     2.6914  3490.0000
 3828.6416     8.5234  1952.0000      .0098    72.9375    38.0859     6.1797     2.7227  3484.0000
 3828.7940     8.5312  1947.0000      .0078    76.2500    34.4727     5.4531     2.7187  3444.0000
 3828.9464     8.5312  1934.0000      .0063    70.8750    26.3672     5.5703     2.7070  3324.0000
 3829.0988     8.5312  1913.0000      .0054    55.0313    16.4063     5.4375     2.7051  3330.0000
 3829.2512     8.5625  1897.0000      .0034    41.8750     9.1309     5.9336     2.7129  3360.0000
 3829.4036     8.5547  1886.0000      .0015    38.0625     7.5684     6.2969     2.7305  3660.0000
 3829.5560     8.5547  1908.0000      .0015    45.4375     7.4707     5.9336     2.7227  3684.0000
 3829.7084     8.5625  1931.0000      .0000    59.5000     8.5449     5.2969     2.7031  3674.0000
 3829.8608     8.5625  1940.0000      .0005    72.1250    10.6445     4.5898     2.6738  3604.0000
 3830.0132     8.5703  1948.0000      .0000    82.1250    19.6777     4.6953     2.6367  3550.0000
 3830.1656     8.5937  1960.0000     -.0020    83.1250    28.3203     5.2461     2.6016  3480.0000
 3830.3180     8.6406  1951.0000      .0068    80.7500    31.5918     5.6641     2.6113  3404.0000
 3830.4704     8.6172  1952.0000      .0063    68.1250    26.4648     5.2187     2.6465  3344.0000
 3830.6228     8.5781  1961.0000      .0078    50.1250    21.1426     5.0781     2.6914  3400.0000
 3830.7752     8.5703  1965.0000     -.0010    34.5938    20.8008     4.8516     2.6855  3384.0000
 3830.9276     8.5703  1969.0000     -.0044    28.4844    24.3164     4.2617     2.6641  3414.0000
 3831.0800     8.5703  1971.0000     -.0063    29.5469    23.2422     4.1641     2.6406  3450.0000
 3831.2324     8.5703  1974.0000     -.0117    30.8750    19.7754     4.8281     2.6582  3460.0000
 3831.3848     8.5781  1970.0000     -.0127    28.0156    13.2324     6.1992     2.6758  3424.0000
 3831.5372     8.5703  1965.0000     -.0107    31.4688    10.7910     6.0117     2.6992  3464.0000
 3831.6896     8.5781  1959.0000     -.0059    41.2813    10.6934     5.5742     2.6875  3534.0000
 3831.8420     8.5781  1955.0000     -.0005    55.6250    12.5000     5.8203     2.6719  3454.0000
 3831.9944     8.5937  1947.0000      .0073    58.1875    15.5273     6.0508     2.6738  3464.0000
 3832.1468     8.5937  1941.0000      .0024    54.5000    18.5059     6.0781     2.6680  3404.0000
 3832.2992     8.5937  1948.0000      .0039    51.6875    19.5313     5.9297     2.6758  3390.0000
 3832.4516     8.6016  1955.0000     -.0024    58.2812    20.9473     5.3320     2.6719  3354.0000
 3832.6040     8.6016  1942.0000      .0010    63.4375    22.0215     4.7969     2.6738  3380.0000
 3832.7564     8.6094  1943.0000     -.0005    60.4063    23.0469     4.2305     2.6641  3424.0000
 3832.9088     8.6094  1945.0000     -.0034    50.0938    19.7266     4.2969     2.6426  3470.0000
 3833.0612     8.6094  1941.0000      .0024    46.9063    16.5527     4.7266     2.6406  3464.0000
 3833.2136     8.6094  1942.0000      .0005    48.2500    15.8203     4.2891     2.6406  3444.0000
 3833.3660     8.6094  1947.0000     -.0034    52.2500    18.3105     3.8906     2.6289  3454.0000
 3833.5184     8.6094  1947.0000     -.0142    54.5938    19.5313     3.3223     2.5937  3454.0000
 3833.6708     8.6094  1947.0000     -.0142    61.6250    19.3359     3.3926     2.5723  3460.0000
 3833.8232     8.6172  1948.0000     -.0088    72.4375    18.6523     3.6152     2.5742  3464.0000
 3833.9756     8.6172  1949.0000     -.0010    79.1250    18.8965     5.8320     2.5957  3484.0000
 3834.1280     8.6562  1943.0000     -.0049    79.9375    18.9941    10.6016     2.5898  3464.0000
 3834.2804     9.0547  1936.0000     -.0020    80.0000    20.2148    27.5625     2.5781  3504.0000
 3834.4328     9.8125  1922.0000      .0146    82.0000    21.2402    30.0781     2.5430  3500.0000
 3834.5852     9.9453  1912.0000      .0776    85.7500    24.9023    33.5000     2.5840  3480.0000
 3834.7376     9.2187  1899.0000      .1006    78.3750    29.2480    32.5000     2.6152  3444.0000
 3834.8900     9.2109  1887.0000      .0806    69.4375    30.6641    27.1094     2.6387  3394.0000
 3835.0424     9.2109  1885.0000      .0376    62.5000    30.8594    16.2500     2.6289  3330.0000
 3835.1948     8.9609  1877.0000      .0171    63.5000    29.4434    15.5625     2.6230  3374.0000
 3835.3472     8.9375  1858.0000      .0469    62.9375    29.6875    13.7969     2.6543  3500.0000
 3835.4996     9.3203  1872.0000      .0630    58.6250    27.0020    11.6016     2.6797  3800.0000
 3835.6520     8.8828  1885.0000      .0620    54.5938    24.8535     7.5625     2.7012  3670.0000
 3835.8044     8.7187  1895.0000      .0259    48.3125    21.9238     6.2930     2.7109  3720.0000
