~VERSION INFORMATION
VERS.                                                 2.0:   CWLS Log ASCII Standard-VERSION 2.0
WRAP.                                                  NO:   One line per depth step
~Well Information Block
STRT.M                                           182.0144:   Top Depth
STOP.M                                          4097.1704:   Bottom Depth
STEP.M                                             .15240:   Depth Increment
NULL.                                            -999.250:   Null Value
FLD .                                                 ULA:   Field Name
WELL.                                              15/3-4:   NAME
WBN .                                              15/3-4:   WELLBORE
NATI.                                                 NOR:   COUNTRY
CTRY.                                                 NOR:   COUNTRY
COMP.                             ELF AQUITAINE NORGE A/S:   OPERATOR
PROV.                                    OFF-SHORE NORWAY:   PROVINCE
COUN.                                    BORGSTEN DOLPHIN:   RIG NAME
SPUD.                                          1981/10/03:   SPUD DATE
LATI.                                        1 52 59.82 E:   SURF. LATITUDE
LONG.                                        58 49 5.28 N:   SURF. LONGITUDE
PBWE.                                              15/3-4:   PB WELL ID
APIN.                                              15/3-4:   PB WELLBORE ID
PBWS.                                                 all:   PB WELL NAME SET
~PARAMETER INFORMATION (log)
LNAM.                              LDT/CNL/GR  COMPOSITED:   NAME
LTYP.                                         DEPTH MATCH:   LOG TYPE
LSRV.                                           LATEROLOG:   LOG SERVICE
LSOU.                                             SPT/NPD:   LOG SOURCE
LVSN.                                                   1:   LOG VERSION
BHIS.                                                   R:   BRIEF HISTORY
FHIS.                                             RAW-LIS:   FULL HISTORY
LCNM.                                        SCHLUMBERGER:   LOGGING CONTRACTOR
TOOL.                             LDT/CNL/GR (COMPOSITED):   TOOL STRING
~Curve Information Block
#MNEM.UNIT                                        API CODE    No Description
#=========                                        ========    == ===========
DEPT.M                                       00 001 00 00:     1  DEPTH
CALI.IN                                                  :     2  Caliper
CS.                                                      :     3  Cable Speed
DRHO.G/CC                                                :     4  Bulk density correction
GR.GAPI                                                  :     5  Gamma Ray
NPHI.%                                                   :     6  Neutron porosity
PEF.B/E                                                  :     7  Photo-electric factor
RHOB.G/CC                                                :     8  Bulk density
TENS.LB                                                  :     9  Cable Tension
~ASCII
  182.0144    28.2500  1330.0000     -.3965    19.2188  -999.2500     4.4961     2.7578   790.0000
  182.1668    28.2188  1880.0000     -.4150    23.8438  -999.2500     3.9648     2.7441   785.0000
  182.3192    28.2500  1879.0000     -.4272    23.0781  -999.2500     3.4023     2.7793   800.0000
  182.4716    28.2500  1878.0000     -.4336    24.8750  -999.2500     3.7891     2.8457   800.0000
  182.6240    28.3438  1874.0000     -.4502    22.9688  -999.2500     4.5195     2.8730   785.0000
  182.7764    28.3438  1871.0000     -.4561    22.8750  -999.2500     5.1094     2.8496   775.0000
  182.9288    28.3438  1871.0000     -.4687    20.9219  -999.2500     4.9727     2.8086   790.0000
  183.0812    28.3438  1871.0000     -.4668    21.3281  -999.2500     5.4492     2.8008   790.0000
  183.2336    28.3438  1872.0000     -.4585    21.9531  -999.2500     4.8359     2.8203   800.0000
  183.3860    28.3438  1877.0000     -.4707    21.2031  -999.2500     4.6914     2.8047   795.0000
  183.5384    28.3438  1865.0000     -.4751    19.4531  -999.2500     3.9062     2.8125   810.0000
  183.6908    28.3438  1871.0000     -.4956    20.2188  -999.2500     4.5117     2.7363   790.0000
  183.8432    28.3438  1879.0000     -.4580    21.4531  -999.2500     4.7656     2.8086   840.0000
  183.9956    28.3125  1872.0000     -.4658    20.6563  -999.2500     5.7187     2.7871   805.0000
  184.1480    28.3438  1878.0000     -.4683    19.9688  -999.2500     4.9883     2.8184   775.0000
  184.3004    28.3438  1876.0000     -.4966    18.7188  -999.2500     5.0586     2.7578   790.0000
  184.4528    28.3438  1872.0000     -.4932    21.0156  -999.2500     5.5977     2.7910   785.0000
  184.6052    28.3438  1874.0000     -.5049    19.8438  -999.2500     6.6445     2.7754   790.0000
  184.7576    28.3750  1872.0000     -.4961    20.0156  -999.2500     6.5234     2.7520   785.0000
  184.9100    28.3750  1871.0000     -.4917    20.7813  -999.2500     6.0703     2.7461   795.0000
  185.0624    28.3438  1879.0000     -.4951    22.7812  -999.2500     4.7578     2.7559   790.0000
  185.2148    28.3438  1878.0000     -.5181    24.0156  -999.2500     5.1641     2.7676   780.0000
  185.3672    28.3750  1876.0000     -.5312    21.8437  -999.2500     4.7461     2.7441   770.0000
  185.5196    28.3750  1878.0000     -.5176    21.7031  -999.2500     4.9297     2.7637   795.0000
  185.6720    28.3750  1877.0000     -.5059    21.7500  -999.2500     4.8242     2.7793   795.0000
  185.8244    28.3750  1866.0000     -.5073    21.1719  -999.2500     4.6602     2.7617   785.0000
  185.9768    28.3750  1876.0000     -.5059    20.7188  -999.2500     5.0898     2.7578   745.0000
  186.1292    28.3438  1871.0000     -.5093    21.8750  -999.2500     5.4844     2.7422   830.0000
  186.2816    28.3438  1874.0000     -.5112    22.1406  -999.2500     6.1836     2.7344   810.0000
  186.4340    28.3438  1885.0000     -.5098    22.5000  -999.2500     5.7578     2.7207   740.0000
  186.5864    28.3438  1876.0000     -.4990    21.6094  -999.2500     4.8242     2.7090   850.0000
  186.7388    28.3438  1874.0000     -.4937    22.4375  -999.2500     4.3555     2.6992   800.0000
  186.8912    28.3438  1873.0000     -.4751    21.4063  -999.2500     4.9883     2.7246   810.0000
  187.0436    28.3438  1881.0000     -.4731    20.8906  -999.2500     5.9922     2.7656   810.0000
  187.1960    28.3438  1882.0000     -.4639    21.0938  -999.2500     6.8516     2.8086   805.0000
  187.3484    28.3125  1873.0000     -.4834    22.8125  -999.2500     6.6211     2.7480   780.0000
  187.5008    28.3125  1878.0000     -.4917    21.7031  -999.2500     6.3477     2.7207   770.0000
  187.6532    26.7344  1878.0000     -.5063    19.8594  -999.2500     6.0312     2.6953   775.0000
  187.8056    26.3281  1875.0000     -.4995    18.7344  -999.2500     5.3125     2.7324   790.0000
  187.9580    26.4063  1875.0000     -.4917    19.7188  -999.2500     4.3750     2.7500   800.0000
  188.1104    26.2656  1878.0000     -.4849    20.4375  -999.2500     3.3437     2.7637   795.0000
  188.2628    26.3125  1876.0000     -.5122    21.0625  -999.2500     3.1641     2.5312   790.0000
  188.4152    26.2969  1889.0000     -.2939    21.8125  -999.2500     2.7617     2.5605   765.0000
  188.5676    26.2656  1875.0000     -.1060    24.3125  -999.2500     2.8984     2.6309   815.0000
  188.7200    25.9375  1868.0000      .0752    25.1094  -999.2500     3.0449     2.8145   805.0000
  188.8724    25.8281  1871.0000      .2100    24.9687  -999.2500     2.9902     2.9375   795.0000
  189.0248    25.8438  1875.0000      .2983    23.5469  -999.2500     2.7832     2.9805   820.0000
  189.1772    25.7813  1873.0000      .3433    24.1563  -999.2500     2.6367     2.9570   820.0000
  189.3296    25.9531  1873.0000      .3774    24.6406  -999.2500     2.6816     2.9512   795.0000
  189.4820    25.8594  1874.0000      .3770    26.2813  -999.2500     2.8066     2.9102   785.0000
  189.6344    25.6719  1873.0000      .3628    25.9375  -999.2500     2.7441     2.8535   785.0000
  189.7868    25.7344  1869.0000      .3442    26.6406  -999.2500     2.7090     2.7852   800.0000
  189.9392    25.6250  1866.0000      .3135    24.3750  -999.2500     2.4980     2.7031   775.0000
  190.0916    25.6406  1879.0000      .2920    23.1094  -999.2500     2.3301     2.6211   775.0000
  190.2440    25.6250  1861.0000      .2671    20.9531  -999.2500     2.2070     2.5469   885.0000
  190.3964    25.6719  1878.0000      .2271    21.9063  -999.2500     2.1895     2.4023   760.0000
  190.5488    25.5469  1879.0000      .1943    22.8281  -999.2500     2.3750     2.2891   840.0000
  190.7012    25.5469  1883.0000      .1577    25.3750  -999.2500     2.8164     2.2324   805.0000
  190.8536    25.1563  1871.0000      .1401    25.1406  -999.2500     3.6621     2.3105   840.0000
  191.0060    25.8281  1876.0000      .1372    25.8438  -999.2500     3.4551     2.4707   720.0000
  191.1584    26.0469  1877.0000      .2695    24.7969  -999.2500     3.1953     2.7285   810.0000
  191.3108    26.6094  1879.0000      .3193    24.9844  -999.2500     3.5996     2.8398   810.0000
  191.4632    27.1406  1878.0000      .2144    24.8594  -999.2500     4.7344     2.8105   805.0000
  191.6156    27.4844  1865.0000     -.0273    28.6875  -999.2500     1.7139     2.4980   795.0000
  191.7680    27.7344  1867.0000     -.0127    31.9219  -999.2500     1.2266     2.0977   765.0000
  191.9204    27.0938  1868.0000     -.0078    34.0625  -999.2500      .9351     1.7598   770.0000
  192.0728    29.3594  1869.0000      .0459    33.7813  -999.2500      .9121     1.5918   795.0000
  192.2252    29.8906  1863.0000     -.0571    35.1875  -999.2500      .9165     1.3955   815.0000
  192.3776    29.8594  1870.0000     -.0654    35.2188  -999.2500      .9282     1.3535   770.0000
  192.5300    29.8906  1871.0000     -.0659    34.9063  -999.2500      .9395     1.3477   825.0000
  192.6824    29.8906  1871.0000     -.0576    34.3750  -999.2500      .9194     1.3516   790.0000
  192.8348    29.8906  1869.0000     -.0449    33.8750  -999.2500      .8750     1.3613   815.0000
  192.9872    29.8906  1889.0000     -.0381    35.6250  -999.2500      .8643     1.3760   785.0000
  193.1396    29.8906  1878.0000     -.0181    34.3437  -999.2500      .9033     1.4395   880.0000
  193.2920    29.8906  1876.0000     -.0073    36.4375  -999.2500     1.0039     1.5029   830.0000
  193.4444    29.8906  1880.0000      .0112    33.8750  -999.2500     1.0381     1.5625   850.0000
  193.5968    29.8906  1877.0000      .0312    35.7500  -999.2500     1.0117     1.6396   785.0000
  193.7492    29.8906  1879.0000      .0771    34.4375  -999.2500      .9678     1.6709   775.0000
  193.9016    29.8906  1880.0000      .0649    34.8750  -999.2500      .9473     1.6104   775.0000
  194.0540    29.8594  1885.0000      .0254    32.7500  -999.2500      .9478     1.4746   775.0000
  194.2064    29.8594  1894.0000     -.0054    30.7813  -999.2500      .9487     1.4082   780.0000
