~VERSION INFORMATION
VERS.                                                 2.0:   CWLS Log ASCII Standard-VERSION 2.0
WRAP.                                                  NO:   One line per depth step
~Well Information Block
STRT.M                                           182.0144:   Top Depth
STOP.M                                          4097.1704:   Bottom Depth
STEP.M                                             .15240:   Depth Increment
NULL.                                            -999.250:   Null Value
FLD .                                                 ULA:   Field Name
WELL.                                              15/3-4:   NAME
WBN .                                              15/3-4:   WELLBORE
NATI.                                                 NOR:   COUNTRY
CTRY.                                                 NOR:   COUNTRY
COMP.                             ELF AQUITAINE NORGE A/S:   OPERATOR
PROV.                                    OFF-SHORE NORWAY:   PROVINCE
COUN.                                    BORGSTEN DOLPHIN:   RIG NAME
SPUD.                                          1981/10/03:   SPUD DATE
LATI.                                        1 52 59.82 E:   SURF. LATITUDE
LONG.                                        58 49 5.28 N:   SURF. LONGITUDE
PBWE.                                              15/3-4:   PB WELL ID
APIN.                                              15/3-4:   PB WELLBORE ID
PBWS.                                                 all:   PB WELL NAME SET
~PARAMETER INFORMATION (log)
LNAM.                              LDT/CNL/GR  COMPOSITED:   NAME
LTYP.                                         DEPTH MATCH:   LOG TYPE
LSRV.                                           LATEROLOG:   LOG SERVICE
LSOU.                                             SPT/NPD:   LOG SOURCE
LVSN.                                                   1:   LOG VERSION
BHIS.                                                   R:   BRIEF HISTORY
FHIS.                                             RAW-LIS:   FULL HISTORY
LCNM.                                        SCHLUMBERGER:   LOGGING CONTRACTOR
TOOL.                             LDT/CNL/GR (COMPOSITED):   TOOL STRING
~Curve Information Block
#MNEM.UNIT                                        API CODE    No Description
#=========                                        ========    == ===========
DEPT.M                                       00 001 00 00:     1  DEPTH
CALI.IN                                                  :     2  Caliper
CS.                                                      :     3  Cable Speed
DRHO.G/CC                                                :     4  Bulk density correction
GR.GAPI                                                  :     5  Gamma Ray
NPHI.%                                                   :     6  Neutron porosity
PEF.B/E                                                  :     7  Photo-electric factor
RHOB.G/CC                                                :     8  Bulk density
TENS.LB                                                  :     9  Cable Tension
~ASCII
# ...
  700.4792    17.4531  1752.0000      .0165    72.6250  -999.2500     1.9195     2.0401  1255.0000
  700.6316    17.4531  1755.0000      .0176    72.8750  -999.2500     1.9716     2.0570  1355.0000
  700.7840    17.5381  1755.0000      .0208    74.0000  -999.2500     1.9420     2.0545  1265.0000
  700.9364    17.4774  1754.0000      .0234    73.2500  -999.2500     1.8646     2.0406  1280.0000
  701.0888    17.4166  1757.0000      .0216    73.5000  -999.2500     1.7947     2.0249  1350.0000
  701.2412    17.3819  1756.0000      .0294    68.5000  -999.2500     1.8207     2.0322  1295.0000
  701.3936    17.3628  1754.0000      .0371    65.8125  -999.2500     1.8855     2.0565  1235.0000
  701.5460    17.4328  1757.0000      .0332    62.8125  -999.2500     1.8713     2.0732  1390.0000
  701.6984    17.3551  1756.0000      .0294    64.4375  -999.2500     1.7760     2.0884  1295.0000
  701.8508    17.3772  1757.0000      .0177    65.4375  -999.2500     1.7190     2.0765  1330.0000
  702.0032    17.3906  1758.0000      .0292    65.1250  -999.2500     1.7453     2.0799  1265.0000
  702.1556    17.4152  1759.0000      .0332    64.5000  -999.2500     1.8279     2.0851  1350.0000
  702.3080    17.3603  1756.0000      .0378    66.7500  -999.2500     1.9478     2.1090  1255.0000
  702.4604    17.3314  1756.0000      .0178    67.3125  -999.2500     2.0240     2.1152  1325.0000
  702.6128    17.4641  1756.0000      .0053    73.2500  -999.2500     1.8926     2.0843  1305.0000
  702.7652    17.4629  1753.0000      .0228    73.8125  -999.2500     1.7423     2.0421  1330.0000
  702.9176    17.5523  1749.0000      .0685    77.1250  -999.2500     1.7051     1.9991  1305.0000
  703.0700    17.5285  1749.0000      .0950    72.0625  -999.2500     1.8506     1.9832  1300.0000
  703.2224    17.5281  1749.0000      .0704    67.7500  -999.2500     1.9928     1.9589  1310.0000
  703.3748    17.7304  1750.0000      .0385    64.6875  -999.2500     1.9923     1.9508  1300.0000
  703.5272    17.5818  1751.0000      .0498    64.4375  -999.2500     1.9254     1.9564  1300.0000
  703.6796    17.6436  1752.0000      .0612    66.1250  -999.2500     1.8337     1.9471  1310.0000
  703.8320    18.0344  1753.0000      .0911    64.1875  -999.2500     1.7629     1.9443  1345.0000
  703.9844    18.0123  1754.0000      .1060    72.1875  -999.2500     1.6718     1.9373  1305.0000
  704.1368    18.3855  1754.0000      .1016    73.0000  -999.2500     1.6508     1.9269  1335.0000
  704.2892    18.2207  1753.0000      .0640    71.7500  -999.2500     1.6151     1.9225  1310.0000
  704.4416    17.4896  1752.0000      .0332    61.4688  -999.2500     1.6591     1.9384  1325.0000
  704.5940    17.3659  1754.0000      .0290    54.8125  -999.2500     1.7073     1.9755  1325.0000
  704.7464    17.2993  1756.0000      .0360    52.5938  -999.2500     1.7568     2.0126  1310.0000
  704.8988    17.0665  1760.0000      .0254    52.5938  -999.2500     1.7816     2.0274  1315.0000
  705.0512    16.9903  1762.0000      .0189    55.5000  -999.2500     1.7693     2.0388  1340.0000
  705.2036    16.9844  1761.0000      .0125    57.0938  -999.2500     1.7411     2.0315  1255.0000
  705.3560    17.1874  1762.0000      .0077    55.9062  -999.2500     1.6339     2.0031  1375.0000
  705.5084    17.3614  1757.0000      .0136    54.7813  -999.2500     1.5786     1.9709  1285.0000
  705.6608    17.6960  1754.0000      .0183    52.8750  -999.2500     1.5689     1.9466  1315.0000
  705.8132    17.5745  1751.0000      .0270    51.6250  -999.2500     1.6090     1.9535  1285.0000
  705.9656    17.6333  1751.0000      .0125    51.2187  -999.2500     1.6580     1.9537  1320.0000
  706.1180    17.5796  1752.0000      .0084    54.1563  -999.2500     1.6902     1.9683  1320.0000
  706.2704    17.5113  1754.0000      .0083    54.5938  -999.2500     1.7241     1.9733  1320.0000
  706.4228    17.4231  1752.0000      .0107    58.9375  -999.2500     1.6992     1.9776  1305.0000
  706.5752    17.4191  1754.0000      .0104    57.3750  -999.2500     1.6811     1.9737  1315.0000
  706.7276    17.5118  1752.0000      .0107    62.3125  -999.2500     1.6723     1.9743  1295.0000
  706.8800    17.4926  1751.0000      .0132    61.0937  -999.2500     1.6685     1.9714  1300.0000
  707.0324    17.5230  1752.0000      .0133    59.6250  -999.2500     1.6591     1.9683  1315.0000
  707.1848    17.6216  1754.0000      .0132    57.7500  -999.2500     1.7226     1.9742  1315.0000
  707.3372    17.2400  1756.0000      .0100    57.0000  -999.2500     1.7509     1.9974  1310.0000
  707.4896    17.0915  1758.0000      .0109    58.6875  -999.2500     1.7814     2.0295  1310.0000
  707.6420    17.0911  1761.0000      .0108    56.9375  -999.2500     1.7280     2.0497  1305.0000
  707.7944    17.0938  1763.0000      .0128    55.8438  -999.2500     1.7393     2.0479  1300.0000
  707.9468    17.0938  1762.0000      .0128    53.7187  -999.2500     1.7198     2.0387  1310.0000
  708.0992    17.0938  1759.0000      .0078    53.1563  -999.2500     1.6977     2.0225  1315.0000
  708.2516    17.0938  1757.0000      .0056    55.0313  -999.2500     1.6780     2.0114  1320.0000
  708.4040    17.0938  1755.0000      .0050    54.5625  -999.2500     1.7148     2.0049  1300.0000
  708.5564    17.0938  1755.0000      .0053    56.9375  -999.2500     1.7055     2.0023  1310.0000
  708.7088    17.1592  1755.0000      .0025    55.4063  -999.2500     1.6874     1.9864  1285.0000
  708.8612    17.2243  1756.0000      .0028    60.7500  -999.2500     1.6706     1.9695  1285.0000
  709.0136    17.2344  1756.0000      .0087    60.0000  -999.2500     1.7213     1.9635  1275.0000
  709.1660    17.1818  1755.0000      .0135    61.3125  -999.2500     1.7331     1.9760  1290.0000
  709.3184    17.1719  1756.0000      .0129    62.2813  -999.2500     1.7252     1.9810  1320.0000
  709.4708    17.1719  1751.0000      .0131    62.7500  -999.2500     1.6973     1.9839  1275.0000
  709.6232    17.1719  1750.0000      .0115    59.9687  -999.2500     1.6965     1.9703  1345.0000
  709.7756    17.1719  1751.0000      .0286    54.2813  -999.2500     1.6948     1.9827  1275.0000
  709.9280    17.1719  1752.0000      .0313    50.4063  -999.2500     1.6952     1.9845  1305.0000
  710.0804    17.1719  1752.0000      .0259    52.4375  -999.2500     1.6862     1.9844  1315.0000
  710.2328    17.1586  1752.0000      .0112    53.3438  -999.2500     1.6887     1.9777  1275.0000
  710.3852    17.1829  1756.0000      .0067    59.2500  -999.2500     1.7028     1.9774  1320.0000
  710.5376    17.2541  1758.0000      .0118    57.3750  -999.2500     1.7575     1.9817  1325.0000
  710.6900    17.1056  1756.0000      .0160    59.0625  -999.2500     1.8208     1.9841  1275.0000
  710.8424    17.0514  1758.0000      .0141    53.6563  -999.2500     1.8835     1.9844  1365.0000
  710.9948    16.9934  1757.0000      .0112    58.0937  -999.2500     1.8700     1.9994  1285.0000
  711.1472    16.9174  1756.0000      .0120    58.1250  -999.2500     1.8319     2.0170  1340.0000
  711.2996    16.8526  1756.0000      .0147    60.2188  -999.2500     1.8195     2.0313  1275.0000
  711.4520    16.8438  1757.0000      .0223    57.2188  -999.2500     1.7974     2.0382  1330.0000
  711.6044    16.8438  1755.0000      .0213    55.8125  -999.2500     1.7805     2.0340  1295.0000
  711.7568    16.8438  1752.0000      .0143    57.4063  -999.2500     1.7691     2.0282  1290.0000
  711.9092    16.8707  1751.0000      .0115    58.4688  -999.2500     1.7591     2.0240  1305.0000
  712.0616    16.8750  1750.0000      .0121    57.7188  -999.2500     1.7637     2.0268  1320.0000
  712.2140    16.8750  1751.0000      .0092    55.0625  -999.2500     1.8154     2.0240  1310.0000
  712.3664    16.8750  1751.0000      .0079    49.5000  -999.2500     1.8232     2.0133  1330.0000
  712.5188    16.8750  1751.0000      .0044    42.2188  -999.2500     1.8131     1.9846  1285.0000
  712.6712    16.7664  1753.0000      .0060    34.8750  -999.2500     1.7029     1.9516  1315.0000
