~VERSION INFORMATION
VERS.                                                 2.0:   CWLS Log ASCII Standard-VERSION 2.0
WRAP.                                                  NO:   One line per depth step
~Well Information Block
STRT.M                                           182.0144:   Top Depth
STOP.M                                          4097.1704:   Bottom Depth
STEP.M                                             .15240:   Depth Increment
NULL.                                            -999.250:   Null Value
FLD .                                                 ULA:   Field Name
WELL.                                              15/3-4:   NAME
WBN .                                              15/3-4:   WELLBORE
NATI.                                                 NOR:   COUNTRY
CTRY.                                                 NOR:   COUNTRY
COMP.                             ELF AQUITAINE NORGE A/S:   OPERATOR
PROV.                                    OFF-SHORE NORWAY:   PROVINCE
COUN.                                    BORGSTEN DOLPHIN:   RIG NAME
SPUD.                                          1981/10/03:   SPUD DATE
LATI.                                        1 52 59.82 E:   SURF. LATITUDE
LONG.                                        58 49 5.28 N:   SURF. LONGITUDE
PBWE.                                              15/3-4:   PB WELL ID
APIN.                                              15/3-4:   PB WELLBORE ID
PBWS.                                                 all:   PB WELL NAME SET
~PARAMETER INFORMATION (log)
LNAM.                              LDT/CNL/GR  COMPOSITED:   NAME
LTYP.                                         DEPTH MATCH:   LOG TYPE
LSRV.                                           LATEROLOG:   LOG SERVICE
LSOU.                                             SPT/NPD:   LOG SOURCE
LVSN.                                                   1:   LOG VERSION
BHIS.                                                   R:   BRIEF HISTORY
FHIS.                                             RAW-LIS:   FULL HISTORY
LCNM.                                        SCHLUMBERGER:   LOGGING CONTRACTOR
TOOL.                             LDT/CNL/GR (COMPOSITED):   TOOL STRING
~Curve Information Block
#MNEM.UNIT                                        API CODE    No Description
#=========                                        ========    == ===========
DEPT.M                                       00 001 00 00:     1  DEPTH
CALI.IN                                                  :     2  Caliper
CS.                                                      :     3  Cable Speed
DRHO.G/CC                                                :     4  Bulk density correction
GR.GAPI                                                  :     5  Gamma Ray
NPHI.%                                                   :     6  Neutron porosity
PEF.B/E                                                  :     7  Photo-electric factor
RHOB.G/CC                                                :     8  Bulk density
TENS.LB                                                  :     9  Cable Tension
~ASCII
# ...
  959.7116    19.8594  1984.0000     -.0220    34.3125    50.0977     8.8672     2.0664  1580.0000
  959.8640    19.8594  1985.0000     -.0264    37.3750    48.0957     8.3437     2.0547  1675.0000
  960.0164    19.8594  1987.0000     -.0225    39.6250    51.0742     7.9727     2.0547  1600.0000
  960.1688    19.8594  1987.0000     -.0171    37.7188    48.6816     7.5859     2.0430  1605.0000
  960.3212    19.8594  1989.0000     -.0210    38.6875    48.6816     8.1562     2.0352  1575.0000
  960.4736    19.8594  1991.0000     -.0259    38.2188    48.9258     9.4141     2.0234  1615.0000
  960.6260    19.8594  1994.0000     -.0298    38.5313    48.1445     9.9609     2.0273  1570.0000
  960.7784    19.8594  1996.0000     -.0322    38.0313    50.2930    10.3203     2.0273  1655.0000
  960.9308    19.8594  1997.0000     -.0347    37.7812    50.2441    10.1250     2.0293  1645.0000
  961.0832    19.8594  1998.0000     -.0278    40.0938    51.4160     9.6719     2.0371  1670.0000
  961.2356    19.8594  1998.0000     -.0161    38.3750    49.6094     8.8516     2.0488  1600.0000
  961.3880    19.9531  1998.0000     -.0059    38.9063    45.4102     7.7734     2.0586  1565.0000
  961.5404    19.9688  1993.0000     -.0122    39.7188    42.8223     7.1875     2.0469  1565.0000
  961.6928    19.9688  1989.0000     -.0151    42.5313    40.5273     7.2500     2.0371  1550.0000
  961.8452    19.9688  1986.0000     -.0205    41.1563    44.2871     8.0703     2.0254  1625.0000
  961.9976    20.0313  1988.0000     -.0181    39.6562    47.0703     8.6953     2.0195  1615.0000
  962.1500    20.0469  1988.0000     -.0181    38.0000    50.7324     8.1484     2.0215  1590.0000
  962.3024    19.9688  1989.0000     -.0137    36.5000    48.0957     7.8203     2.0176  1605.0000
  962.4548    19.9063  1986.0000     -.0161    35.7500    50.0488     7.8867     2.0098  1655.0000
  962.6072    19.9063  1986.0000     -.0151    35.8438    45.8984     7.6328     2.0000  1650.0000
  962.7596    19.9063  1985.0000     -.0127    38.0000    50.8301     7.4883     2.0078  1660.0000
  962.9120    19.9688  1982.0000     -.0063    39.4063    45.9961     7.4023     2.0234  1610.0000
  963.0644    19.9688  1981.0000     -.0073    41.6250    47.3145     7.5469     2.0352  1535.0000
  963.2168    19.9688  1983.0000     -.0127    39.5313    44.7266     7.6094     2.0391  1600.0000
  963.3692    19.8594  1985.0000     -.0215    38.8125    47.9004     7.7812     2.0371  1595.0000
  963.5216    19.8594  1987.0000     -.0254    36.3125    48.6816     6.9141     2.0391  1645.0000
  963.6740    19.8594  1988.0000     -.0283    39.1563    48.1445     6.6055     2.0332  1565.0000
  963.8264    19.8594  1992.0000     -.0239    36.9375    45.9961     5.8711     2.0371  1625.0000
  963.9788    19.8594  1995.0000     -.0215    33.8438    47.2656     6.2109     2.0371  1620.0000
  964.1312    19.8594  1996.0000     -.0186    32.7500    47.0703     5.9609     2.0352  1640.0000
  964.2836    19.7500  1995.0000     -.0190    34.4375    49.1211     6.4102     2.0371  1605.0000
  964.4360    19.7344  1992.0000     -.0234    36.5625    47.8516     6.6602     2.0371  1620.0000
  964.5884    19.7344  1988.0000     -.0249    36.0938    49.6582     6.7773     2.0410  1625.0000
  964.7408    19.6875  1987.0000     -.0195    33.4062    52.0508     6.1133     2.0430  1580.0000
  964.8932    19.5781  1986.0000     -.0137    32.2813    51.4648     5.8164     2.0410  1560.0000
  965.0456    19.4531  1987.0000     -.0122    33.9375    49.0723     5.5312     2.0410  1630.0000
  965.1980    19.3594  1987.0000     -.0161    38.6875    46.1914     5.1992     2.0352  1570.0000
  965.3504    19.3594  1987.0000     -.0215    40.3438    50.1465     5.4531     2.0234  1645.0000
  965.5028    19.3594  1988.0000     -.0269    40.4687    52.5391     5.9023     2.0020  1615.0000
  965.6552    19.3125  1988.0000     -.0278    39.9375    51.0254     6.8242     1.9863  1635.0000
  965.8076    19.2344  1990.0000     -.0239    41.5312    49.9512     6.2852     1.9746  1605.0000
  965.9600    19.2344  1988.0000     -.0215    41.7187    50.8301     5.9531     1.9648  1605.0000
  966.1124    19.2344  1988.0000     -.0176    42.2813    53.4668     5.6992     1.9570  1635.0000
  966.2648    19.2344  1987.0000     -.0210    41.9688    51.0742     6.2422     1.9541  1595.0000
  966.4172    19.3594  1987.0000     -.0176    42.0625    47.9980     6.4727     1.9639  1600.0000
  966.5696    19.3594  1989.0000     -.0225    45.0938    46.8262     7.6094     1.9619  1615.0000
  966.7220    19.3594  1990.0000     -.0225    47.0625    45.2148     7.7969     1.9658  1625.0000
  966.8744    19.4531  1993.0000     -.0181    45.7500    43.7988     8.1641     1.9805  1620.0000
  967.0268    19.3594  1993.0000     -.0166    41.7500    42.6758     7.2734     1.9922  1630.0000
  967.1792    19.2813  1990.0000     -.0151    37.9063    44.3359     6.8828     1.9951  1570.0000
  967.3316    19.1875  1988.0000     -.0200    38.0000    44.1406     6.6641     1.9893  1645.0000
  967.4840    19.1250  1985.0000     -.0220    37.2813    43.6035     7.0508     1.9883  1575.0000
  967.6364    19.1250  1988.0000     -.0244    38.8750    43.4570     7.2031     1.9990  1635.0000
  967.7888    19.1250  1989.0000     -.0225    42.2500    46.9727     7.4727     2.0059  1600.0000
  967.9412    19.2188  1990.0000     -.0151    41.8125    50.2441     6.2812     2.0215  1595.0000
  968.0936    19.2344  1990.0000     -.0103    42.7812    47.7051     5.3164     2.0137  1635.0000
  968.2460    19.2969  1990.0000     -.0093    39.6250    45.6055     4.1953     2.0000  1590.0000
  968.3984    19.4688  1990.0000     -.0059    39.1563    48.0469     3.8262     1.9717  1665.0000
  968.5508    19.7344  1990.0000      .0029    38.4688    50.6348     3.7305     1.9580  1595.0000
  968.7032    20.0156  1990.0000      .0024    36.4375    53.4180     3.8477     1.9414  1595.0000
  968.8556    19.8750  1991.0000      .0015    38.3438    48.6816     4.0820     1.9443  1550.0000
  969.0080    19.8906  1993.0000     -.0005    40.3750    50.1465     3.8945     1.9531  1670.0000
  969.1604    19.8906  1994.0000     -.0015    41.2187    50.0488     3.8164     1.9629  1600.0000
  969.3128    19.9063  1998.0000     -.0039    42.8750    48.6328     3.9805     1.9678  1595.0000
  969.4652    19.8906  2001.0000     -.0107    38.1875    50.9277     5.2070     1.9590  1595.0000
  969.6176    20.0781  1995.0000     -.0127    38.7500    49.3652     6.6172     1.9502  1660.0000
  969.7700    19.9219  1994.0000     -.0151    35.8438    53.4668     6.2891     1.9355  1595.0000
  969.9224    19.8594  1990.0000     -.0117    38.4375    52.0020     5.0977     1.9336  1625.0000
  970.0748    19.8594  1988.0000     -.0127    40.6250    53.5645     5.0781     1.9170  1640.0000
  970.2272    19.8594  1983.0000     -.0039    41.0000    52.6367     5.3906     1.9248  1625.0000
  970.3796    19.8594  1984.0000     -.0059    41.6250    51.7090     5.8477     1.9170  1570.0000
  970.5320    19.8750  1986.0000     -.0020    41.4062    55.6641     5.0781     1.9287  1685.0000
  970.6844    20.0469  1987.0000     -.0112    42.2813    55.7129     4.3789     1.9219  1625.0000
  970.8368    19.9531  1987.0000     -.0156    39.4063    55.5664     4.7695     1.9219  1630.0000
  970.9892    19.9063  1987.0000     -.0151    35.3750    47.9980     4.7148     1.9277  1585.0000
  971.1416    19.8906  1988.0000     -.0166    34.0000    46.3867     4.6797     1.9297  1630.0000
  971.2940    19.9688  1989.0000     -.0107    36.2500    47.7539     3.9414     1.9414  1660.0000
  971.4464    19.9688  1989.0000     -.0117    40.5625    47.9492     4.1445     1.9365  1595.0000
  971.5988    20.0313  1990.0000     -.0054    38.8750    49.1699     4.7852     1.9395  1605.0000
  971.7512    20.0781  1989.0000     -.0044    38.0000    49.1699     5.0430     1.9346  1640.0000
  971.9036    19.9219  1990.0000     -.0059    34.8750    50.7324     4.8125     1.9395  1615.0000
