~VERSION INFORMATION
VERS.                                                 2.0:   CWLS Log ASCII Standard-VERSION 2.0
WRAP.                                                  NO:   One line per depth step
~Well Information Block
STRT.M                                          2820.0584:   Top Depth
STOP.M                                          4754.0144:   Bottom Depth
STEP.M                                             .15240:   Depth Increment
NULL.                                            -999.250:   Null Value
FLD .                                             WILDCAT:   Field Name
WELL.                                              15/3-2:   NAME
WBN .                                              15/3-2:   WELLBORE
NATI.                                                 NOR:   COUNTRY
CTRY.                                                 NOR:   COUNTRY
COMP.                             ELF AQUITAINE NORGE A/S:   OPERATOR
PROV.                                           OFF SHORE:   PROVINCE
COUN.                                  POLYGLOMAR DRILLER:   RIG NAME
SPUD.                                          1976/10/25:   SPUD DATE
LATI.                                        58 59 0.50 N:   SURF. LATITUDE
LONG.                                        1 47 12.60 E:   SURF. LONGITUDE
PBWE.                                              15/3-2:   PB WELL ID
APIN.                                              15/3-2:   PB WELLBORE ID
PBWS.                                                 all:   PB WELL NAME SET
~PARAMETER INFORMATION (log)
LNAM.                              FDC/CNL/GR  COMPOSITED:   NAME
LTYP.                                         DEPTH MATCH:   LOG TYPE
LSRV.                                            DEN/NEUT:   LOG SERVICE
LSOU.                                             SPT/NPD:   LOG SOURCE
LVSN.                                                   1:   LOG VERSION
BHIS.                                                   R:   BRIEF HISTORY
FHIS.                                             RAW-LIS:   FULL HISTORY
LCNM.                                        SCHLUMBERGER:   LOGGING CONTRACTOR
TOOL.                             FDC/CNL/GR (COMPOSITED):   TOOL STRING
~Curve Information Block
#MNEM.UNIT                                        API CODE    No Description
#=========                                        ========    == ===========
DEPT.M                                       00 001 00 00:     1  DEPTH
CALI.IN                                                  :     2  Caliper
DRHO.G/CC                                                :     3  Bulk density correction
GR.GAPI                                                  :     4  Gamma Ray
NPHI.%                                                   :     5  Neutron porosity
RHOB.G/CC                                                :     6  Bulk density
TENS.LB                                                  :     7  Cable Tension
~ASCII
# ...
 4230.6728    12.1612      .0156    56.0019    19.6473     2.6081  2764.2832
 4230.8252    12.1998      .0139    50.9017    19.2351     2.6036  2678.5396
 4230.9776    12.1822      .0013    50.1817    18.3544     2.5861  2323.2896
 4231.1300    12.1932      .0029    52.1822    18.5438     2.5883  1829.6138
 4231.2824    12.2206     -.0039    53.5131    19.6577     2.6057  1703.2910
 4231.4348    12.2382     -.0143    52.4909    20.5242     2.6006  1564.6775
 4231.5872    12.1970     -.0231    47.9772    19.7435     2.5689  1441.6785
 4231.7396    12.1165     -.0223    41.1806    17.9094     2.5452  1807.2268
 4231.8920    12.1021     -.0111    39.3458    18.6586     2.5436  1998.2783
 4232.0444    12.1285      .0005    38.7455    19.9868     2.5675  2323.6113
 4232.1968    12.1820     -.0033    41.5124    19.9907     2.5628  2753.3008
 4232.3492    12.1803      .0047    49.3004    20.2294     2.5591  2528.7783
 4232.5016    12.1413      .0040    55.6734    20.0698     2.5585  2598.1489
 4232.6540    12.1412      .0063    62.1276    19.9116     2.5897  2348.3442
 4232.8064    12.1580      .0083    63.5044    19.8270     2.5971  1735.4368
 4232.9588    12.2181      .0020    63.6708    19.8785     2.6043  1737.8494
 4233.1112    12.3329      .0105    65.0758    21.0057     2.6101  1989.0955
 4233.2636    12.3221      .0152    63.0770    22.0540     2.6095  2171.3667
 4233.4160    12.3594      .0175    63.2569    22.2523     2.6088  1865.7888
 4233.5684    12.2848      .0140    63.8991    21.9446     2.6147  2182.3350
 4233.7208    12.1458      .0175    67.6959    23.2539     2.6001  2595.8008
 4233.8732    12.3001      .0210    68.8859    24.5818     2.6026  2847.3823
 4234.0256    12.2591      .0148    73.6446    27.7655     2.5973  2829.9878
 4234.1780    12.4092      .0150    74.6942    28.7979     2.6124  2171.7129
 4234.3304    12.3563      .0020    73.3003    27.4994     2.6242  2189.5103
 4234.4828    12.1513     -.0067    72.9783    26.3387     2.6181  2137.4780
 4234.6352    12.1656      .0099    74.0202    26.4443     2.6279  2031.8330
 4234.7876    12.1570     -.0034    74.4799    27.5026     2.6289  2033.0132
 4234.9400    12.1356     -.0018    73.6354    26.2530     2.6338  1793.1558
 4235.0924    12.1246      .0122    74.4491    24.6517     2.6458  1587.2546
 4235.2448    12.1193      .0194    76.1565    24.1411     2.6595  1693.4800
 4235.3972    12.1153      .0328    79.3492    23.7952     2.6731  1746.5081
 4235.5496    12.0968      .0288    81.2184    24.3467     2.6632  1872.3333
 4235.7020    12.0782      .0104    80.6432    23.3222     2.6416  1581.2339
 4235.8544    12.0609     -.0013    80.5726    22.5175     2.6339  1442.9612
 4236.0068    12.0508      .0128    81.2495    22.5652     2.6329  1713.1606
 4236.1592    12.0414      .0256    82.9069    23.6053     2.6108  1781.9468
 4236.3116    12.0261      .0383    86.4966    25.3547     2.5854  1615.5156
 4236.4640    12.0911      .0295    92.9533    27.8789     2.5524  1684.6936
 4236.6164    12.4260      .0094    97.0187    30.2653     2.5141  2579.2930
 4236.7688    12.4736      .0278   100.9321    30.6179     2.5133  4981.4834
 4236.9212    12.5408      .0453   103.5964    30.0807     2.5281  6254.4023
 4237.0736    12.7478      .0411   102.4406    31.0013     2.5166  5709.0244
 4237.2260    12.7526      .0277   102.4428    31.8238     2.5142  5165.3896
 4237.3784    12.7961      .0292   103.3231    32.2188     2.5122  4621.7549
 4237.5308    12.8430      .0383   101.8810    31.4030     2.5071  3521.8813
 4237.6832    12.8755      .0569    98.5468    32.1404     2.5258  2806.4678
 4237.8356    12.9328      .0635    92.0648    33.9070     2.5340  2593.0571
 4237.9880    13.3027      .0537    89.2685    33.7528     2.5069  2367.3091
 4238.1404    13.8073      .0694    88.3745    34.5245     2.4991  1939.0811
 4238.2928    12.5430      .0800    87.6046    35.6449     2.4776  2280.9102
 4238.4452    12.7914      .0857    90.0002    36.3697     2.4965  2037.5859
 4238.5976    13.3109      .0503    96.9695    35.9861     2.4876  1559.1079
 4238.7500    12.6920      .0207   101.8035    34.9083     2.4499  1501.6438
 4238.9024    12.2604      .0267   110.2882    34.0586     2.4531  1434.5549
 4239.0548    12.1135      .0128   113.9114    32.9423     2.4676  1504.8196
 4239.2072    12.0107      .0091   114.4976    30.9991     2.4745  1202.4089
 4239.3596    11.9965      .0008   114.1405    29.5794     2.4754  1066.8157
 4239.5120    11.9958     -.0053   114.6144    30.2821     2.4671  1445.0713
 4239.6644    11.9951     -.0008   114.9291    30.3730     2.4755  1654.1282
 4239.8168    11.9944      .0073   111.3730    30.0075     2.4957  1482.8250
 4239.9692    11.9937      .0040   110.2998    30.3762     2.4845  1279.7854
 4240.1216    11.9930      .0074   109.3181    30.5904     2.4740  1546.2861
 4240.2740    11.9923      .0031   110.6112    30.5732     2.4659  1825.2944
 4240.4264    11.9916     -.0010   111.6070    30.8765     2.4608  2549.6216
 4240.5788    11.9909     -.0021   112.2068    31.2790     2.4646  1892.3740
 4240.7312    11.9902     -.0076   114.9439    31.8504     2.4562  1818.7502
 4240.8836    11.9895     -.0137   116.4125    32.2433     2.4471  1169.6692
 4241.0360    11.9888     -.0013   111.5654    32.4688     2.4457  1488.6919
 4241.1884    11.9881      .0089   110.9113    32.3028     2.4713  1768.7725
 4241.3408    11.9874      .0150   116.0763    31.5629     2.4661  1448.2224
 4241.4932    11.9868      .0064   122.1722    30.7586     2.4803  1275.8020
 4241.6456    11.9861      .0051   125.4843    30.2366     2.4845  1559.2969
 4241.7980    11.9854      .0158   125.7643    29.7660     2.4939  1700.4626
 4241.9504    11.9847      .0177   123.1895    29.1660     2.4893  1116.0981
 4242.1028    11.9840      .0137   119.9473    29.8223     2.4594  1280.6411
 4242.2552    11.9833     -.0011   115.6956    30.6108     2.4463  1362.4363
 4242.4076    11.9826     -.0010   112.6614    31.2453     2.4451  1047.4548
 4242.5600    11.9819     -.0014   114.4488    31.4058     2.4507  1444.4985
 4242.7124    11.9812      .0092   116.5213    31.5267     2.4759  3146.8916
 4242.8648    11.9805      .0173   114.0389    31.4206     2.4909  3015.7095
 4243.0172    11.9798      .0211   109.1516    30.6546     2.4946  2321.1362
 4243.1696    11.9791      .0095   105.5741    30.2607     2.4820  1604.2537
 4243.3220    11.9784      .0042   104.5394    30.9223     2.4664  1189.4961
 4243.4744    11.9777      .0012    91.3627    31.9179     2.4518  1360.6824
 4243.6268    11.9770      .0060    70.6142    32.8412     2.4626  1938.6133
 4243.7792    11.9763      .0117    49.8656    31.7544     2.4850  3671.3721
 4243.9316    11.9756      .0259    48.1274    31.1724     2.5293  4514.8750
 4244.0840    11.9749      .0475    47.3224    31.0218     2.5478  3630.2026
 4244.2364    11.9742      .0359    47.7946    30.7540     2.5535  2867.6167
 4244.3888    11.9735      .0175    50.0857    30.7909     2.5300  2408.8037
 4244.5412    11.9719      .0034    49.8035    29.8633     2.5078  1790.3745
 4244.6936    11.9674     -.0009    49.1072    29.6646     2.4933  1670.2083
 4244.8460    11.9630      .0124    48.7019    30.4272     2.5045  1514.3420
 4244.9984    11.9586      .0149    49.1739    31.1859     2.5169  1523.9805
 4245.1508    11.9542      .0068    52.3516    31.2826     2.5022  1513.1787
 4245.3032    11.9306      .0034    55.8269    30.7216     2.4774  1816.3645
 4245.4556    11.8691      .0062    56.4085    30.0311     2.4691  2071.5332
 4245.6080    11.6944      .0091    55.8739    29.8279     2.4630  2179.5562
 4245.7604    10.8818      .0119    55.4184    30.2847     2.4566  2170.9980
 4245.9128    10.9203      .0112    55.5210    31.0324     2.4533  2005.3086
 4246.0652    10.9202      .0178    56.7210    31.6428     2.4769  1837.1191
 4246.2176    10.9096      .0146    58.1332    45.0143     2.4673  1643.5869
 4246.3700    10.8981      .0064    58.5779    44.3062     2.4530  1704.0679
