~VERSION INFORMATION
VERS.                                                 2.0:   CWLS Log ASCII Standard-VERSION 2.0
WRAP.                                                  NO:   One line per depth step
~Well Information Block
STRT.M                                          2820.0584:   Top Depth
STOP.M                                          4754.0144:   Bottom Depth
STEP.M                                             .15240:   Depth Increment
NULL.                                            -999.250:   Null Value
FLD .                                             WILDCAT:   Field Name
WELL.                                              15/3-2:   NAME
WBN .                                              15/3-2:   WELLBORE
NATI.                                                 NOR:   COUNTRY
CTRY.                                                 NOR:   COUNTRY
COMP.                             ELF AQUITAINE NORGE A/S:   OPERATOR
PROV.                                           OFF SHORE:   PROVINCE
COUN.                                  POLYGLOMAR DRILLER:   RIG NAME
SPUD.                                          1976/10/25:   SPUD DATE
LATI.                                        58 59 0.50 N:   SURF. LATITUDE
LONG.                                        1 47 12.60 E:   SURF. LONGITUDE
PBWE.                                              15/3-2:   PB WELL ID
APIN.                                              15/3-2:   PB WELLBORE ID
PBWS.                                                 all:   PB WELL NAME SET
~PARAMETER INFORMATION (log)
LNAM.                              FDC/CNL/GR  COMPOSITED:   NAME
LTYP.                                         DEPTH MATCH:   LOG TYPE
LSRV.                                            DEN/NEUT:   LOG SERVICE
LSOU.                                             SPT/NPD:   LOG SOURCE
LVSN.                                                   1:   LOG VERSION
BHIS.                                                   R:   BRIEF HISTORY
FHIS.                                             RAW-LIS:   FULL HISTORY
LCNM.                                        SCHLUMBERGER:   LOGGING CONTRACTOR
TOOL.                             FDC/CNL/GR (COMPOSITED):   TOOL STRING
~Curve Information Block
#MNEM.UNIT                                        API CODE    No Description
#=========                                        ========    == ===========
DEPT.M                                       00 001 00 00:     1  DEPTH
CALI.IN                                                  :     2  Caliper
DRHO.G/CC                                                :     3  Bulk density correction
GR.GAPI                                                  :     4  Gamma Ray
NPHI.%                                                   :     5  Neutron porosity
RHOB.G/CC                                                :     6  Bulk density
TENS.LB                                                  :     7  Cable Tension
~ASCII
# ...
 4611.0632    10.1365      .0113    52.1910    11.5778     2.6711  -999.2500
 4611.2156     9.9939      .0055    51.8090    10.5033     2.6314  -999.2500
 4611.3680    10.0562     -.0007    55.2636    12.1770     2.6172  -999.2500
 4611.5204    10.0963      .0111    61.1389    14.4536     2.6145  -999.2500
 4611.6728    10.2187      .0213    66.4626    17.2970     2.6401  -999.2500
 4611.8252    10.1842      .0093    71.6171    20.0306     2.6742  -999.2500
 4611.9776    10.1923      .0140    67.8237    20.8866     2.6731  -999.2500
 4612.1300    10.2013      .0164    64.0543    20.3084     2.6833  -999.2500
 4612.2824    10.1696      .0063    61.5849    19.4411     2.6884  -999.2500
 4612.4348    10.0972     -.0003    60.1841    18.4844     2.7146  -999.2500
 4612.5872    10.0938     -.0098    59.4604    18.7699     2.6984  -999.2500
 4612.7396    10.1067      .0034    63.2024    21.5635     2.6812  -999.2500
 4612.8920    10.1169      .0047    65.0201    22.5836     2.6562  -999.2500
 4613.0444    10.1202      .0119    68.2394    22.6553     2.6432  -999.2500
 4613.1968    10.1161      .0124    71.1689    24.1679     2.6599  -999.2500
 4613.3492    10.1121      .0011    76.6097    25.9472     2.6470  -999.2500
 4613.5016    10.1080     -.0022    79.6362    26.9157     2.6464  -999.2500
 4613.6540    10.1040     -.0038    79.8046    26.3399     2.6514  -999.2500
 4613.8064    10.1234     -.0035    79.6066    25.8028     2.6579  -999.2500
 4613.9588    10.1528     -.0072    79.3057    25.8024     2.6561  -999.2500
 4614.1112    10.1821     -.0119    78.4494    25.7653     2.6561  -999.2500
 4614.2636    10.2114     -.0146    77.8054    25.7731     2.6588  -999.2500
 4614.4160    10.2407     -.0254    77.9917    25.7466     2.6676  -999.2500
 4614.5684    10.2432     -.0533    74.6168    23.4564     2.7406  -999.2500
 4614.7208    10.2579     -.0421    70.4782    22.0799     2.7621  -999.2500
 4614.8732    10.2822      .0009    73.2310    22.9050     2.7451  -999.2500
 4615.0256    10.3577      .0307    77.5919    23.1174     2.7480  -999.2500
 4615.1780    10.4284      .0176    79.7790    23.9390     2.6663  -999.2500
 4615.3304    10.3210      .0096    85.4156    24.5276     2.5981  -999.2500
 4615.4828    10.3154      .0065    88.5770    28.0744     2.5868  -999.2500
 4615.6352    10.3443      .0005    95.6418    32.7533     2.5600  -999.2500
 4615.7876    10.4928     -.0033   103.8893    36.5666     2.5407  -999.2500
 4615.9400    10.5456     -.0030   102.9955    38.2736     2.5461  -999.2500
 4616.0924    10.5238      .0014    99.9268    37.9514     2.5409  -999.2500
 4616.2448    10.5240      .0043    99.3640    37.4458     2.5391  -999.2500
 4616.3972    10.4385      .0087   101.3360    35.1362     2.5548  -999.2500
 4616.5496    10.3446      .0069   101.0299    33.9746     2.5675  -999.2500
 4616.7020    10.3753      .0108    99.5649    33.9251     2.5685  -999.2500
 4616.8544    10.4401      .0129    97.3901    33.6286     2.5773  -999.2500
 4617.0068    10.3885      .0028    96.4868    34.1354     2.5680  -999.2500
 4617.1592    10.4011     -.0124    95.6336    34.7878     2.5462  -999.2500
 4617.3116    10.4050     -.0314    92.7389    35.0732     2.5346  -999.2500
 4617.4640    10.3764     -.0538    91.9835    36.1309     2.5283  -999.2500
 4617.6164    10.3846     -.0347    93.1710    34.1128     2.5730  -999.2500
 4617.7688    10.4247     -.0079    94.2290    34.2366     2.6043  -999.2500
 4617.9212    10.5448     -.0077    94.0641    36.2179     2.5756  -999.2500
 4618.0736    10.5643     -.0100    95.4940    36.6762     2.5627  -999.2500
 4618.2260    10.4258     -.0100    93.0296    37.5084     2.5672  -999.2500
 4618.3784    10.4751     -.0100    90.0021    38.0706     2.5802  -999.2500
 4618.5308    10.5710     -.0116    86.2345    36.0560     2.5997  -999.2500
 4618.6832    10.4712     -.0143    82.0237    35.4821     2.6052  -999.2500
 4618.8356    10.4063     -.0171    77.5930    35.1127     2.6118  -999.2500
 4618.9880    10.4565     -.0189    75.5053    33.7582     2.6440  -999.2500
 4619.1404    10.5557     -.0021    79.0777    33.0651     2.6210  -999.2500
 4619.2928    10.5663     -.0165    84.9149    34.0336     2.5646  -999.2500
 4619.4452    10.6501     -.0218    92.8670    34.5654     2.5816  -999.2500
 4619.5976    10.6465     -.0061    94.2470    34.6022     2.5934  -999.2500
 4619.7500    10.4267     -.0039    93.9642    34.6857     2.6048  -999.2500
 4619.9024    10.3183      .0047    94.4986    35.2564     2.6297  -999.2500
 4620.0548    10.3427      .0115    93.5076    35.2226     2.6144  -999.2500
 4620.2072    10.3670      .0048    92.0474    35.3034     2.6159  -999.2500
 4620.3596    10.3913      .0021    89.7181    33.0521     2.6441  -999.2500
 4620.5120    10.4156     -.0139    90.4890    32.0523     2.6407  -999.2500
 4620.6644    10.4277     -.0216    99.3496    32.0109     2.6502  -999.2500
 4620.8168    10.3357     -.0095    99.5891    32.6240     2.6415  -999.2500
 4620.9692    10.2617     -.0082   101.5501    33.1365     2.5756  -999.2500
 4621.1216    10.5992     -.0195   102.3109    34.6871     2.5477  -999.2500
 4621.2740    10.6225     -.0163   101.8896    34.5021     2.5472  -999.2500
 4621.4264    10.7504     -.0069   102.3084    34.1564     2.5816  -999.2500
 4621.5788    10.5856     -.0070   101.3391    33.9471     2.5889  -999.2500
 4621.7312    10.6155     -.0199   101.6807    34.4556     2.5777  -999.2500
 4621.8836    10.5063     -.0328   101.2565    35.0178     2.5546  -999.2500
 4622.0360    10.5821     -.0140    93.4398    36.6204     2.5857  -999.2500
 4622.1884    10.6611     -.0201    91.0544    36.7081     2.5853  -999.2500
 4622.3408    10.5645     -.0224    88.6608    36.6965     2.6006  -999.2500
 4622.4932    10.5162     -.0211    86.8089    35.4583     2.5988  -999.2500
 4622.6456    10.5091     -.0265    85.4022    34.9802     2.5895  -999.2500
 4622.7980    10.5251     -.0288    85.7677    34.4089     2.5638  -999.2500
 4622.9504    10.5851     -.0131    87.1832    34.4093     2.5285  -999.2500
 4623.1028    10.7091     -.0156    90.1047    35.1858     2.5331  -999.2500
 4623.2552    10.7002     -.0156    90.9257    36.6482     2.5471  -999.2500
 4623.4076    10.6746     -.0155    91.5168    38.5055     2.5552  -999.2500
 4623.5600    10.6420     -.0085    91.1803    38.7400     2.5707  -999.2500
 4623.7124    10.6250     -.0038    91.3735    38.1021     2.5790  -999.2500
 4623.8648    10.6133     -.0053    91.2785    37.4730     2.5797  -999.2500
 4624.0172    10.6405     -.0052    88.9126    36.6195     2.5798  -999.2500
 4624.1696    10.5867     -.0018    87.7411    35.0295     2.5847  -999.2500
 4624.3220    10.7325      .0038    86.6093    35.0133     2.5991  -999.2500
 4624.4744    10.7608      .0141    86.6795    34.9026     2.6778  -999.2500
 4624.6268    10.8641      .0016    93.7020    35.6681     2.6493  -999.2500
 4624.7792    10.7946     -.0064   100.1142    36.9359     2.6198  -999.2500
 4624.9316    10.6742     -.0104    99.7876    36.8210     2.5900  -999.2500
 4625.0840    10.6623     -.0051    93.4048    37.0930     2.5817  -999.2500
 4625.2364    10.7694     -.0004    92.2324    36.7292     2.5907  -999.2500
 4625.3888    10.6970     -.0149    93.3554    35.6713     2.5929  -999.2500
 4625.5412    10.7217     -.0088    96.2735    34.9684     2.6009  -999.2500
 4625.6936    10.7264      .0006   101.4672    35.6642     2.5631  -999.2500
 4625.8460    10.5917      .0100   100.2579    36.8009     2.5470  -999.2500
 4625.9984    10.5131      .0204    99.4299    36.7079     2.5540  -999.2500
 4626.1508    10.5134      .0331    99.4342    35.9668     2.5677  -999.2500
 4626.3032    10.5968      .0313   100.6143    36.8924     2.5643  -999.2500
 4626.4556    10.7136      .0118   103.5847    37.9234     2.5509  -999.2500
 4626.6080    10.7056     -.0075   104.3697    36.4632     2.5495  -999.2500
 4626.7604    10.6616     -.0027   101.8576    36.2301     2.5523  -999.2500
