~VERSION INFORMATION
VERS.                                                 2.0:   CWLS Log ASCII Standard-VERSION 2.0
WRAP.                                                  NO:   One line per depth step
~Well Information Block
STRT.M                                          2820.0584:   Top Depth
STOP.M                                          4754.0144:   Bottom Depth
STEP.M                                             .15240:   Depth Increment
NULL.                                            -999.250:   Null Value
FLD .                                             WILDCAT:   Field Name
WELL.                                              15/3-2:   NAME
WBN .                                              15/3-2:   WELLBORE
NATI.                                                 NOR:   COUNTRY
CTRY.                                                 NOR:   COUNTRY
COMP.                             ELF AQUITAINE NORGE A/S:   OPERATOR
PROV.                                           OFF SHORE:   PROVINCE
COUN.                                  POLYGLOMAR DRILLER:   RIG NAME
SPUD.                                          1976/10/25:   SPUD DATE
LATI.                                        58 59 0.50 N:   SURF. LATITUDE
LONG.                                        1 47 12.60 E:   SURF. LONGITUDE
PBWE.                                              15/3-2:   PB WELL ID
APIN.                                              15/3-2:   PB WELLBORE ID
PBWS.                                                 all:   PB WELL NAME SET
~PARAMETER INFORMATION (log)
LNAM.                              FDC/CNL/GR  COMPOSITED:   NAME
LTYP.                                         DEPTH MATCH:   LOG TYPE
LSRV.                                            DEN/NEUT:   LOG SERVICE
LSOU.                                             SPT/NPD:   LOG SOURCE
LVSN.                                                   1:   LOG VERSION
BHIS.                                                   R:   BRIEF HISTORY
FHIS.                                             RAW-LIS:   FULL HISTORY
LCNM.                                        SCHLUMBERGER:   LOGGING CONTRACTOR
TOOL.                             FDC/CNL/GR (COMPOSITED):   TOOL STRING
~Curve Information Block
#MNEM.UNIT                                        API CODE    No Description
#=========                                        ========    == ===========
DEPT.M                                       00 001 00 00:     1  DEPTH
CALI.IN                                                  :     2  Caliper
DRHO.G/CC                                                :     3  Bulk density correction
GR.GAPI                                                  :     4  Gamma Ray
NPHI.%                                                   :     5  Neutron porosity
RHOB.G/CC                                                :     6  Bulk density
TENS.LB                                                  :     7  Cable Tension
~ASCII
# ...
 4103.8760    14.1936      .0254    66.6313    29.4011     2.3552  1370.7822
 4104.0284    14.1097      .0476    66.0560    29.9509     2.4011   640.1012
 4104.1808    13.6634      .0429    67.2106    30.8810     2.3958   620.5065
 4104.3332    13.1334      .0173    67.8899    31.6418     2.3863   567.2988
 4104.4856    13.1127      .0256    65.4358    32.9764     2.3850  1177.3179
 4104.6380    13.4357      .0330    61.9571    30.6188     2.4072  1397.3523
 4104.7904    13.4727      .0190    59.3346    29.1411     2.4283  3090.6099
 4104.9428    13.6672      .0254    57.7965    27.9445     2.4117  2821.7334
 4105.0952    13.7965      .0080    56.8362    27.8334     2.3394  2304.9756
 4105.2476    13.8162     -.0048    57.0454    28.9965     2.2914  4057.8960
 4105.4000    13.4836     -.0049    58.9111    29.9680     2.2930  3847.6069
 4105.5524    13.4112      .0043    59.6929    30.7996     2.3143  3330.8315
 4105.7048    13.4453      .0032    62.5659    31.1582     2.3324  2449.8799
 4105.8572    13.4602      .0057    61.7839    30.6799     2.3487  1713.0437
 4106.0096    13.4445      .0197    60.2003    30.0260     2.3691  1742.9165
 4106.1620    13.2327      .0241    60.2907    30.9946     2.3931  1858.2117
 4106.3144    13.1844      .0503    59.8506    31.5973     2.4333  1489.2708
 4106.4668    13.2262      .0836    58.7592    31.7975     2.4463   885.8337
 4106.6192    13.1461      .0645    59.2622    32.0572     2.4271   124.7702
 4106.7716    13.2405      .0324    62.9509    31.5305     2.4141   110.5881
 4106.9240    13.4490      .0293    63.6512    31.4393     2.4492  1657.1746
 4107.0764    13.7243      .0478    64.9787    31.2239     2.4888  5193.1182
 4107.2288    13.5495      .0802    65.8057    31.8803     2.5619  7207.1211
 4107.3812    13.5191      .1373    64.7996    32.9131     2.6301  7039.5186
 4107.5336    13.4835      .1508    60.3105    33.2751     2.6327  6323.9053
 4107.6860    13.4637      .1541    56.7219    31.1002     2.6348  5572.3164
 4107.8384    13.4439      .1594    53.9320    28.7367     2.6353  4992.5596
 4107.9908    13.4256      .1690    55.1318    26.4316     2.6430  4563.7031
 4108.1432    13.4248      .1741    58.0972    27.3009     2.6377  4178.5010
 4108.2956    13.4277      .1740    59.0450    28.3461     2.6458  3662.0010
 4108.4480    13.4305      .1697    59.7068    30.0480     2.6503  3155.7510
 4108.6004    13.4334      .1649    59.9594    29.4335     2.6340  2539.6230
 4108.7528    13.4362      .1273    60.3331    26.4614     2.5948  1661.7009
 4108.9052    13.4391      .0763    61.4826    24.7503     2.5440   778.1486
 4109.0576    13.4420      .0471    61.8504    26.0549     2.4558   837.1771
 4109.2100    13.4866      .0427    63.2303    28.3985     2.4432  1229.6794
 4109.3624    13.5355      .0475    64.2174    28.6723     2.4269  1986.4248
 4109.5148    13.3956      .0467    64.8994    26.6642     2.4088  3667.2363
 4109.6672    13.5870      .0557    62.9541    25.9919     2.3898  2945.6484
 4109.8196    13.6727      .0651    60.3556    26.1155     2.4091  2180.0049
 4109.9720    13.6914      .0632    60.1175    27.2127     2.4144  1386.2793
 4110.1244    13.7125      .0675    59.8896    29.0654     2.4439   655.9934
 4110.2768    13.5981      .0531    60.1771    28.6570     2.4791   764.8182
 4110.4292    13.4609      .0561    61.5245    27.2630     2.5043  1873.7778
 4110.5816    13.3240      .0869    62.0343    27.1807     2.5333  3282.1255
 4110.7340    13.1819      .1184    62.2377    28.1632     2.5493  3466.4146
 4110.8864    13.2056      .1365    60.1689    29.1608     2.5720  2723.0957
 4111.0388    13.3179      .1323    58.6951    28.6284     2.5832  2380.1294
 4111.1912    13.4148      .1182    59.0145    28.3564     2.5694  1891.0486
 4111.3436    13.5382      .0945    58.8221    28.6598     2.5426  1370.5637
 4111.4960    13.4797      .0607    57.6847    29.4167     2.4863  1007.1019
 4111.6484    13.4768      .0435    58.7980    30.1422     2.4942  1192.0479
 4111.8008    13.5824      .0604    60.8367    30.9964     2.5120   986.7560
 4111.9532    13.4886      .0370    63.2099    31.7404     2.4675  1385.3689
 4112.1056    13.2431      .0387    65.0146    31.0378     2.4664  1591.2485
 4112.2580    13.6485      .0468    65.1680    30.8817     2.4949  1153.2659
 4112.4104    13.6148      .0330    63.6439    30.9142     2.4897  1305.0559
 4112.5628    13.4973      .0417    60.1508    31.1890     2.4956  1468.9883
 4112.7152    13.7440      .0546    59.8211    31.5500     2.4936  1350.5251
 4112.8676    13.5993      .0483    62.3300    30.7632     2.4810  1514.2114
 4113.0200    13.6047      .0146    62.8175    30.5696     2.4843  1637.2283
 4113.1724    13.8923      .0174    64.0229    30.5133     2.4862   954.6085
 4113.3248    13.9517      .0360    65.3000    30.2285     2.4921   630.8588
 4113.4772    14.1927      .0553    64.4594    30.0319     2.5008   603.8430
 4113.6296    14.3734      .0618    63.6641    31.5029     2.4885   683.3844
 4113.7820    13.6125      .0460    63.2967    32.2665     2.4570  1051.2942
 4113.9344    13.5872      .0408    63.0220    31.8115     2.4497  1158.3467
 4114.0868    13.6917      .0472    63.1565    30.7060     2.4616  1343.8525
 4114.2392    13.5922      .0599    63.1329    29.5698     2.4782  1256.0303
 4114.3916    13.5737      .0944    62.8158    28.4621     2.4771   645.2874
 4114.5440    13.7052      .0559    62.1715    28.3581     2.4558   253.7572
 4114.6964    13.8728      .0170    61.3121    29.0759     2.4448   -99.4152
 4114.8488    13.8279      .0382    57.5880    29.2426     2.4702   -25.4291
 4115.0012    13.9036      .0572    55.4900    29.0387     2.4645  2447.2373
 4115.1536    13.8611      .0625    55.1813    28.4576     2.4613  5283.0449
 4115.3060    13.8930      .0367    58.3737    28.8664     2.4384  5289.4619
 4115.4584    14.0143      .0176    61.0648    29.8971     2.4097  4718.8867
 4115.6108    14.0781      .0221    63.7730    31.1787     2.3849  4286.9834
 4115.7632    14.1265      .0340    65.5355    33.0919     2.3982  3928.4097
 4115.9156    14.1667      .0274    65.4957    33.8390     2.4078  3480.5151
 4116.0680    14.1539      .0355    66.0360    34.4556     2.4064  2759.5088
 4116.2204    14.1271      .0417    64.8985    35.2879     2.4063  1946.7263
 4116.3728    14.1401      .0468    63.2766    36.3311     2.4092  1128.4409
 4116.5252    14.0618      .0590    63.0341    37.2790     2.4183   380.4872
 4116.6776    13.7867      .0689    62.4719    36.5724     2.4317   492.9485
 4116.8300    13.8296      .0702    60.2045    35.7595     2.4593   -50.8432
 4116.9824    13.8485      .0784    63.8912    34.7733     2.4843  -118.0296
 4117.1348    13.7834      .0932    63.1862    33.1537     2.4986  -110.8625
 4117.2872    13.7676      .0914    57.9670    31.3076     2.4971  -103.7182
 4117.4396    13.7770      .0728    59.5098    29.6017     2.4712   -96.5737
 4117.5920    13.7837      .0426    59.0990    27.9528     2.4420   -89.4291
 4117.7444    13.7685      .0280    58.2424    25.7375     2.4212   -82.2848
 4117.8968    13.7450      .0205    58.5423    25.0461     2.4063   -75.1406
 4118.0492    13.6513      .0137    60.2103    24.7904     2.3766    84.8915
 4118.2016    13.0870      .0111    61.3582    24.4448     2.3699  2557.8530
 4118.3540    12.5608      .0163    61.9426    24.5890     2.3790  2671.8335
 4118.5064    12.6026      .0306    62.2096    24.7070     2.3917  2669.4756
 4118.6588    12.8118      .0379    62.4561    24.4864     2.3950  2505.0620
 4118.8112    13.0935      .0407    61.9877    24.7429     2.3946  2413.2866
 4118.9636    13.2319      .0354    60.5831    24.4484     2.4088  1968.4805
 4119.1160    12.9220      .0271    61.3303    23.7718     2.4370  2012.4980
 4119.2684    12.7515      .0353    62.3501    25.0737     2.4580  2213.8711
 4119.4208    13.0080      .0376    61.7130    26.4392     2.4474  2162.2139
 4119.5732    12.9310      .0466    59.8842    27.8721     2.4303  2361.8081
