~VERSION INFORMATION
VERS.                                                 2.0:   CWLS Log ASCII Standard-VERSION 2.0
WRAP.                                                  NO:   One line per depth step
~Well Information Block
STRT.M                                          2820.0584:   Top Depth
STOP.M                                          4754.0144:   Bottom Depth
STEP.M                                             .15240:   Depth Increment
NULL.                                            -999.250:   Null Value
FLD .                                             WILDCAT:   Field Name
WELL.                                              15/3-2:   NAME
WBN .                                              15/3-2:   WELLBORE
NATI.                                                 NOR:   COUNTRY
CTRY.                                                 NOR:   COUNTRY
COMP.                             ELF AQUITAINE NORGE A/S:   OPERATOR
PROV.                                           OFF SHORE:   PROVINCE
COUN.                                  POLYGLOMAR DRILLER:   RIG NAME
SPUD.                                          1976/10/25:   SPUD DATE
LATI.                                        58 59 0.50 N:   SURF. LATITUDE
LONG.                                        1 47 12.60 E:   SURF. LONGITUDE
PBWE.                                              15/3-2:   PB WELL ID
APIN.                                              15/3-2:   PB WELLBORE ID
PBWS.                                                 all:   PB WELL NAME SET
~PARAMETER INFORMATION (log)
LNAM.                              FDC/CNL/GR  COMPOSITED:   NAME
LTYP.                                         DEPTH MATCH:   LOG TYPE
LSRV.                                            DEN/NEUT:   LOG SERVICE
LSOU.                                             SPT/NPD:   LOG SOURCE
LVSN.                                                   1:   LOG VERSION
BHIS.                                                   R:   BRIEF HISTORY
FHIS.                                             RAW-LIS:   FULL HISTORY
LCNM.                                        SCHLUMBERGER:   LOGGING CONTRACTOR
TOOL.                             FDC/CNL/GR (COMPOSITED):   TOOL STRING
~Curve Information Block
#MNEM.UNIT                                        API CODE    No Description
#=========                                        ========    == ===========
DEPT.M                                       00 001 00 00:     1  DEPTH
CALI.IN                                                  :     2  Caliper
DRHO.G/CC                                                :     3  Bulk density correction
GR.GAPI                                                  :     4  Gamma Ray
NPHI.%                                                   :     5  Neutron porosity
RHOB.G/CC                                                :     6  Bulk density
TENS.LB                                                  :     7  Cable Tension
~ASCII
# ...
 3089.5016    12.6496      .0193    37.1059    36.7668     2.3455  1130.5334
 3089.6540    13.0502     -.0094    36.1271    40.5462     2.3326   699.7394
 3089.8064    12.7141     -.0204    34.4278    39.8359     2.3693  1606.9951
 3089.9588    12.7120     -.0377    34.7042    37.7111     2.3991  4247.7031
 3090.1112    12.4859     -.0284    34.6840    34.4142     2.4282  3310.6738
 3090.2636    12.4815     -.0261    32.8078    31.0929     2.4372  2372.4951
 3090.4160    12.4553     -.0244    33.1554    27.9871     2.4461  1448.8135
 3090.5684    12.4322     -.0073    34.1447    28.0756     2.4861   643.4017
 3090.7208    12.4716      .0113    34.6994    29.7167     2.5302  -140.2242
 3090.8732    12.5423      .0231    33.9870    30.6429     2.5618  -202.5170
 3091.0256    12.4578      .0145    33.6587    29.1674     2.5895  5133.0771
 3091.1780    12.4421      .0066    31.6666    25.9263     2.6044  8081.9551
 3091.3304    12.4653      .0012    29.5974    24.1099     2.5938  7209.6328
 3091.4828    12.4784      .0061    29.6221    22.0427     2.5893  6338.7090
 3091.6352    12.4801      .0162    29.6164    19.2853     2.5888  5465.9990
 3091.7876    12.4795      .0115    29.6106    19.2958     2.5931  4598.3643
 3091.9400    12.4789     -.0017    29.6049    20.3832     2.5891  3895.9170
 3092.0924    12.4783     -.0053    29.5991    21.9326     2.5709  3226.1997
 3092.2448    12.4794      .0050    30.1106    22.4180     2.5864  2442.6250
 3092.3972    12.4896      .0130    31.0477    21.7230     2.5957  1445.6707
 3092.5496    12.5005      .0097    32.2383    20.1311     2.5866   964.2943
 3092.7020    12.5120      .0048    32.4267    18.9589     2.5567  1055.7903
 3092.8544    12.5028      .0004    32.5059    17.7984     2.5162  2211.1411
 3093.0068    12.4953     -.0041    33.7083    17.8170     2.4978  3329.4224
 3093.1592    12.5341     -.0012    35.1277    18.7412     2.4920  2493.4092
 3093.3116    12.7620      .0067    36.0068    18.4670     2.5014  1933.5754
 3093.4640    12.6308     -.0055    34.1488    17.3694     2.5025  2537.9180
 3093.6164    12.4677     -.0098    33.2075    17.0196     2.4845  1669.6416
 3093.7688    12.5117     -.0077    34.2739    17.2752     2.4798  1078.9539
 3093.9212    12.5493     -.0036    34.2589    19.4782     2.4835  2896.7104
 3094.0736    12.4758     -.0102    34.6483    20.9174     2.4852  4947.1035
 3094.2260    12.4539     -.0239    33.3370    19.9525     2.4720  4713.9834
 3094.3784    12.4615     -.0175    31.7896    18.5575     2.4653  3754.4805
 3094.5308    12.4680     -.0135    30.3991    17.1796     2.4709  2794.9932
 3094.6832    12.4684     -.0078    29.9192    16.9994     2.4800  1823.5654
 3094.8356    12.4534     -.0005    29.2470    18.2786     2.4980   856.2297
 3094.9880    12.4774      .0072    29.8551    18.5499     2.4951  2339.0894
 3095.1404    12.6020      .0114    29.4769    17.7521     2.4603  4227.7744
 3095.2928    12.5723      .0054    29.3766    17.9049     2.4237  4553.5439
 3095.4452    12.5052     -.0033    30.5096    18.6829     2.4304  3447.1411
 3095.5976    12.5046     -.0141    34.0310    19.5888     2.4497  2411.5303
 3095.7500    12.4300     -.0246    33.6486    17.4198     2.4703  2320.7017
 3095.9024    12.3864     -.0174    30.4942    15.1797     2.4869  1475.4487
 3096.0548    12.3837     -.0069    29.4751    14.6234     2.5006   669.8228
 3096.2072    12.4662      .0141    32.7668    16.0527     2.5157  1086.0439
 3096.3596    12.6190      .0648    35.4054    20.5811     2.5437  2748.6299
 3096.5120    12.6968      .1156    35.5201    22.9790     2.5818  5736.2031
 3096.6644    13.4668      .1533    34.0523    22.3289     2.6049  4910.0400
 3096.8168    13.4915      .1389    33.3749    23.8926     2.6007  4028.1543
 3096.9692    13.4916      .1079    34.1660    24.2294     2.5657  3143.7017
 3097.1216    13.5390      .0712    36.1352    22.1039     2.5243  2310.0103
 3097.2740    13.6588      .0353    36.8624    21.8508     2.4934  1729.2712
 3097.4264    13.3300      .0011    34.1076    21.5512     2.4694  1206.5962
 3097.5788    12.4850      .0054    31.0414    20.2431     2.4889  1129.1008
 3097.7312    12.5801      .0271    30.1838    20.8387     2.4780  2289.0229
 3097.8836    13.0383      .0432    30.5765    21.3072     2.4586  3934.4487
 3098.0360    12.6533      .0260    32.0697    21.6488     2.4446  3711.5894
 3098.1884    12.4476      .0070    34.8970    22.9717     2.4528  2874.4346
 3098.3408    12.4227     -.0017    35.8254    24.6025     2.4819  1854.9114
 3098.4932    12.4675     -.0068    34.9941    22.2747     2.5000  1302.9128
 3098.6456    12.5555     -.0131    32.9763    19.9157     2.4767  1524.8137
 3098.7980    12.5660     -.0303    30.4218    18.7457     2.4122  3030.3564
 3098.9504    12.5750     -.0448    28.6008    17.7019     2.3633  3853.0879
 3099.1028    12.4586     -.0256    27.5138    17.9370     2.4108  3402.6909
 3099.2552    12.4603     -.0020    28.4574    15.8024     2.4732  2223.7759
 3099.4076    12.6139      .0121    31.3812    15.6904     2.5456  2359.5962
 3099.5600    12.6014      .0054    33.6315    16.8035     2.5551  3503.4795
 3099.7124    12.5050      .0002    31.0872    17.8871     2.5445  2901.4131
 3099.8648    12.5054      .0021    29.9359    18.7916     2.5267  1924.4387
 3100.0172    12.6113      .0053    31.1389    18.6593     2.5147  1432.0688
 3100.1696    12.5690      .0087    31.7777    19.7329     2.5110  1610.7847
 3100.3220    12.5909      .0148    31.4150    20.8417     2.5137  2452.5820
 3100.4744    12.6107      .0378    32.3305    22.2396     2.5047  2321.5313
 3100.6268    12.6269      .0262    33.1237    23.8926     2.4662  1464.3157
 3100.7792    12.5438      .0170    34.3830    23.9251     2.4492  1333.3450
 3100.9316    12.5150      .0019    36.3420    22.5208     2.4768  1382.1904
 3101.0840    12.5793      .0073    35.0967    20.6834     2.5245  1207.3176
 3101.2364    12.6597      .0067    32.0631    19.5981     2.5421  1141.5427
 3101.3888    12.6352      .0007    33.1880    18.5273     2.5416  1283.0063
 3101.5412    12.5435      .0030    32.1984    17.7219     2.5446  1342.4299
 3101.6936    12.6191      .0084    32.5403    17.2910     2.5463  1061.8049
 3101.8460    12.5597      .0070    33.0335    17.0870     2.5464  1181.0012
 3101.9984    12.5489      .0012    32.7483    17.0253     2.5565  1696.9939
 3102.1508    12.5065     -.0012    32.2421    17.2004     2.5689  3391.6880
 3102.3032    12.5128     -.0032    30.3473    17.3824     2.5645  3007.5625
 3102.4556    12.5184     -.0024    28.6376    17.8097     2.5596  2364.6162
 3102.6080    12.5143      .0018    28.4031    18.6334     2.5698  1489.1335
 3102.7604    12.5103      .0077    29.0333    18.7346     2.5819  1203.4756
 3102.9128    12.5062      .0129    28.8740    18.3581     2.5862  1206.1895
 3103.0652    12.5022      .0165    28.4018    18.4823     2.5856  1339.8525
 3103.2176    12.5005      .0202    29.7436    19.4360     2.5616  1512.7766
 3103.3700    12.5673      .0238    30.2475    20.2275     2.5384  1555.2305
 3103.5224    12.6893      .0227    30.2771    21.0810     2.5255  1308.8767
 3103.6748    12.5185      .0251    29.2907    21.5162     2.5603  1474.0581
 3103.8272    12.5299      .0390    29.7648    21.2181     2.5828  2845.1265
 3103.9796    12.5351      .0238    30.4677    20.7113     2.5578  3407.9814
 3104.1320    12.5183      .0006    29.6715    20.4374     2.5370  2450.0928
 3104.2844    12.5312     -.0107    29.7547    21.0928     2.5184  1585.7468
 3104.4368    12.5849      .0101    31.0934    21.1700     2.5152  1477.6731
 3104.5892    12.7400      .0323    33.1640    20.2662     2.5328  1590.3469
 3104.7416    12.6015      .0127    36.1683    20.2048     2.5317  1625.9314
 3104.8940    12.5836     -.0005    37.1193    20.6988     2.5091  1527.4197
 3105.0464    12.8271      .0090    36.8284    21.6069     2.5199  1808.0420
 3105.1988    12.5268      .0185    34.4928    21.7374     2.5353  2471.3203
