~VERSION INFORMATION
VERS.                                                 2.0:   CWLS Log ASCII Standard-VERSION 2.0
WRAP.                                                  NO:   One line per depth step
~Well Information Block
STRT.M                                          2820.0584:   Top Depth
STOP.M                                          4754.0144:   Bottom Depth
STEP.M                                             .15240:   Depth Increment
NULL.                                            -999.250:   Null Value
FLD .                                             WILDCAT:   Field Name
WELL.                                              15/3-2:   NAME
WBN .                                              15/3-2:   WELLBORE
NATI.                                                 NOR:   COUNTRY
CTRY.                                                 NOR:   COUNTRY
COMP.                             ELF AQUITAINE NORGE A/S:   OPERATOR
PROV.                                           OFF SHORE:   PROVINCE
COUN.                                  POLYGLOMAR DRILLER:   RIG NAME
SPUD.                                          1976/10/25:   SPUD DATE
LATI.                                        58 59 0.50 N:   SURF. LATITUDE
LONG.                                        1 47 12.60 E:   SURF. LONGITUDE
PBWE.                                              15/3-2:   PB WELL ID
APIN.                                              15/3-2:   PB WELLBORE ID
PBWS.                                                 all:   PB WELL NAME SET
~PARAMETER INFORMATION (log)
LNAM.                              FDC/CNL/GR  COMPOSITED:   NAME
LTYP.                                         DEPTH MATCH:   LOG TYPE
LSRV.                                            DEN/NEUT:   LOG SERVICE
LSOU.                                             SPT/NPD:   LOG SOURCE
LVSN.                                                   1:   LOG VERSION
BHIS.                                                   R:   BRIEF HISTORY
FHIS.                                             RAW-LIS:   FULL HISTORY
LCNM.                                        SCHLUMBERGER:   LOGGING CONTRACTOR
TOOL.                             FDC/CNL/GR (COMPOSITED):   TOOL STRING
~Curve Information Block
#MNEM.UNIT                                        API CODE    No Description
#=========                                        ========    == ===========
DEPT.M                                       00 001 00 00:     1  DEPTH
CALI.IN                                                  :     2  Caliper
DRHO.G/CC                                                :     3  Bulk density correction
GR.GAPI                                                  :     4  Gamma Ray
NPHI.%                                                   :     5  Neutron porosity
RHOB.G/CC                                                :     6  Bulk density
TENS.LB                                                  :     7  Cable Tension
~ASCII
# ...
 3850.2824    12.7326      .0217    25.6783    11.5023     2.6207   278.9093
 3850.4348    12.7326      .0259    25.6854    11.4041     2.6203    59.8943
 3850.5872    12.7325      .0253    26.9731    12.3367     2.6186   212.5491
 3850.7396    12.7324      .0070    27.9461    12.5907     2.6130   280.1153
 3850.8920    12.7323      .0004    27.9968    12.3062     2.5991   417.2524
 3851.0444    12.7322     -.0007    28.6759    12.0011     2.5944   389.6837
 3851.1968    12.7321     -.0038    28.9768    11.8693     2.5936   377.3669
 3851.3492    12.7320     -.0028    29.3504    11.9375     2.6021   217.3827
 3851.5016    12.7319     -.0040    29.3957    12.1244     2.6123     5.6771
 3851.6540    12.7318     -.0102    29.4952    12.2388     2.5929   182.9543
 3851.8064    12.7317     -.0064    28.5983    12.0910     2.5857   395.1521
 3851.9588    12.7316      .0044    27.0678    11.9049     2.6047   127.2552
 3852.1112    12.7315      .0131    25.1513    11.8306     2.6247   117.6572
 3852.2636    12.7314      .0019    25.0944    11.7310     2.6149   214.9379
 3852.4160    12.7313      .0010    25.3307    11.4731     2.6140   146.9322
 3852.5684    12.7312     -.0007    25.7293    11.5833     2.6161   339.5570
 3852.7208    12.7311      .0049    25.5233    12.1366     2.6010   595.3177
 3852.8732    12.7310     -.0008    23.8283    11.8317     2.5767   433.2749
 3853.0256    12.7309     -.0084    23.2068    11.4837     2.5603   117.0705
 3853.1780    12.7308     -.0153    22.3894    11.4291     2.5525   371.5663
 3853.3304    12.7307     -.0157    22.7187    11.4562     2.5568  1559.4172
 3853.4828    12.7306     -.0127    24.9312    11.5021     2.5524  1940.4966
 3853.6352    12.7305     -.0084    25.9903    11.8750     2.5524  1041.3804
 3853.7876    12.7304     -.0042    24.5231    11.6839     2.5595   635.8685
 3853.9400    12.7303     -.0025    25.4417    11.3914     2.5642   479.5387
 3854.0924    12.7302     -.0034    25.3409    11.3236     2.5707   387.0084
 3854.2448    12.7301     -.0012    24.6643    11.5142     2.5716   487.7532
 3854.3972    12.7300      .0035    27.2998    11.9399     2.5826  1007.9230
 3854.5496    12.7299      .0019    28.2387    12.5536     2.5846   940.5116
 3854.7020    12.7299      .0032    29.6811    13.0136     2.5954   228.4396
 3854.8544    12.7298      .0150    31.1211    12.7284     2.6058   219.2233
 3855.0068    12.7297      .0187    30.7574    12.5335     2.6037   816.2483
 3855.1592    12.7296      .0142    29.0968    12.5313     2.6121   269.5401
 3855.3116    12.7295      .0157    28.0485    12.6616     2.6207  -146.0186
 3855.4640    12.7294      .0190    26.6022    12.7818     2.6215  -152.1598
 3855.6164    12.7293      .0158    25.9838    12.5680     2.6123   107.1460
 3855.7688    12.7292      .0126    27.1630    12.3215     2.6011   476.9644
 3855.9212    12.7291      .0066    28.4170    12.0069     2.5946   113.5051
 3856.0736    12.7317      .0094    29.2361    11.8411     2.5909    76.2058
 3856.2260    12.7502      .0216    29.4625    11.6518     2.6051    28.5350
 3856.3784    12.7440      .0244    28.9127    11.4900     2.6157   214.8550
 3856.5308    12.7485      .0279    27.0565    11.3988     2.6247   484.6682
 3856.6832    12.7484      .0243    26.4755    11.3853     2.6281   745.2163
 3856.8356    12.7483      .0283    28.4979    11.5090     2.6475   406.6245
 3856.9880    12.7482      .0350    30.0224    11.6770     2.6605  -284.3052
 3857.1404    12.7668      .0311    29.2957    12.0958     2.6504  -321.0648
 3857.2928    12.7574      .0189    28.8707    12.1583     2.6301  -229.9766
 3857.4452    12.7602      .0207    29.5948    12.1736     2.6199   273.4433
 3857.5976    12.7638      .0195    31.1394    12.4668     2.6227   850.0255
 3857.7500    12.7560      .0236    32.6893    13.0944     2.6287   781.6885
 3857.9024    12.7622      .0162    32.3085    13.8568     2.6226   934.3989
 3858.0548    12.7668      .0121    32.1897    13.5958     2.6246   491.1223
 3858.2072    12.7506      .0087    31.2118    12.6128     2.6219   200.3841
 3858.3596    12.7439      .0036    30.2406    11.5879     2.6139   227.3219
 3858.5120    12.7597      .0011    29.4482    11.1592     2.6245   309.4983
 3858.6644    12.7359      .0060    28.6507    11.4986     2.6235   580.2653
 3858.8168    12.7634      .0112    29.6684    11.8378     2.6230   548.8945
 3858.9692    12.7663      .0144    29.5899    11.8373     2.6118   649.1254
 3859.1216    12.7491      .0135    27.9615    11.5306     2.6122   496.7791
 3859.2740    12.7649      .0050    26.2662    11.0234     2.6178   772.1393
 3859.4264    12.7546     -.0005    28.1000    10.7114     2.6080   530.4458
 3859.5788    12.7465      .0029    31.2697    10.5493     2.6205   672.5076
 3859.7312    12.7464      .0131    33.8086    11.4734     2.6204   700.7834
 3859.8836    12.7492      .0272    33.8373    12.5537     2.6293   269.4432
 3860.0360    12.7446      .0287    31.5232    12.4820     2.6292   318.1465
 3860.1884    12.7605      .0085    29.4754    12.6565     2.6098   484.0024
 3860.3408    12.7944      .0227    30.2308    12.8792     2.6279   712.4120
 3860.4932    12.8054      .0259    30.2244    13.1586     2.6142   868.6029
 3860.6456    12.8053      .0062    29.6713    13.5554     2.5987  1095.1782
 3860.7980    12.8052      .0062    29.4455    14.4880     2.5910   622.5037
 3860.9504    12.8051      .0052    31.9282    14.8460     2.5952   473.1804
 3861.1028    12.8050      .0121    33.3324    14.4190     2.6079   467.2298
 3861.2552    12.8049      .0066    32.6614    14.0728     2.6070   382.3485
 3861.4076    12.8048      .0029    32.1990    13.8727     2.5927   282.2530
 3861.5600    12.8047      .0043    32.6295    13.9259     2.6019   385.1296
 3861.7124    12.8046      .0017    33.7120    13.8804     2.6080   328.7723
 3861.8648    12.8045      .0028    33.0580    13.7629     2.6034   421.1042
 3862.0172    12.8044      .0055    30.5482    13.4472     2.5996   622.3496
 3862.1696    12.8043      .0083    28.4372    12.9638     2.5994   792.2678
 3862.3220    12.8042      .0002    27.0095    12.1792     2.5954  1081.1338
 3862.4744    12.8041     -.0067    29.0577    12.8447     2.5847   468.4267
 3862.6268    12.8040     -.0092    32.9660    13.8074     2.5718   365.1594
 3862.7792    12.8039     -.0044    35.6964    14.2805     2.5764   155.9261
 3862.9316    12.8038     -.0111    36.4840    14.4299     2.5743   345.7238
 3863.0840    12.8037     -.0049    36.1727    14.2032     2.5726   308.2712
 3863.2364    12.8036      .0037    35.3453    14.1049     2.5900   137.1729
 3863.3888    12.8035      .0064    33.8276    13.9188     2.5872   212.7019
 3863.5412    12.8034      .0111    31.9465    13.3380     2.5856   421.0278
 3863.6936    12.8033      .0132    31.9280    12.3543     2.5949   663.6925
 3863.8460    12.8032      .0187    29.9133    11.4742     2.6108   883.6335
 3863.9984    12.8032      .0185    30.3198    12.1290     2.6088   604.2144
 3864.1508    12.8031      .0051    32.0781    13.3993     2.5978   497.4633
 3864.3032    12.8030      .0109    32.3768    13.8160     2.5947   393.7363
 3864.4556    12.8029      .0127    32.3757    13.5599     2.5880   360.6607
 3864.6080    12.8028      .0069    30.9781    12.9118     2.5798   564.3431
 3864.7604    12.8027      .0031    32.0125    12.3382     2.5787   854.9484
 3864.9128    12.8026      .0034    32.8679    12.4704     2.5702   804.5785
 3865.0652    12.8025      .0079    32.7680    12.8149     2.5819   420.2207
 3865.2176    12.8024      .0086    31.9022    13.3274     2.5882   486.5204
 3865.3700    12.8023      .0041    30.7288    13.5781     2.5910   452.9587
 3865.5224    12.8023      .0034    30.3662    14.1125     2.5941   435.9822
 3865.6748    12.8022      .0113    30.1609    14.2795     2.6022   454.3087
 3865.8272    12.8021      .0151    29.0191    13.6717     2.6039   411.3059
 3865.9796    12.8020      .0121    28.2837    13.0017     2.6027   564.8280
