~VERSION INFORMATION
VERS.                                                 2.0:   CWLS Log ASCII Standard-VERSION 2.0
WRAP.                                                  NO:   One line per depth step
~Well Information Block
STRT.M                                          2820.0584:   Top Depth
STOP.M                                          4754.0144:   Bottom Depth
STEP.M                                             .15240:   Depth Increment
NULL.                                            -999.250:   Null Value
FLD .                                             WILDCAT:   Field Name
WELL.                                              15/3-2:   NAME
WBN .                                              15/3-2:   WELLBORE
NATI.                                                 NOR:   COUNTRY
CTRY.                                                 NOR:   COUNTRY
COMP.                             ELF AQUITAINE NORGE A/S:   OPERATOR
PROV.                                           OFF SHORE:   PROVINCE
COUN.                                  POLYGLOMAR DRILLER:   RIG NAME
SPUD.                                          1976/10/25:   SPUD DATE
LATI.                                        58 59 0.50 N:   SURF. LATITUDE
LONG.                                        1 47 12.60 E:   SURF. LONGITUDE
PBWE.                                              15/3-2:   PB WELL ID
APIN.                                              15/3-2:   PB WELLBORE ID
PBWS.                                                 all:   PB WELL NAME SET
~PARAMETER INFORMATION (log)
LNAM.                              FDC/CNL/GR  COMPOSITED:   NAME
LTYP.                                         DEPTH MATCH:   LOG TYPE
LSRV.                                            DEN/NEUT:   LOG SERVICE
LSOU.                                             SPT/NPD:   LOG SOURCE
LVSN.                                                   1:   LOG VERSION
BHIS.                                                   R:   BRIEF HISTORY
FHIS.                                             RAW-LIS:   FULL HISTORY
LCNM.                                        SCHLUMBERGER:   LOGGING CONTRACTOR
TOOL.                             FDC/CNL/GR (COMPOSITED):   TOOL STRING
~Curve Information Block
#MNEM.UNIT                                        API CODE    No Description
#=========                                        ========    == ===========
DEPT.M                                       00 001 00 00:     1  DEPTH
CALI.IN                                                  :     2  Caliper
DRHO.G/CC                                                :     3  Bulk density correction
GR.GAPI                                                  :     4  Gamma Ray
NPHI.%                                                   :     5  Neutron porosity
RHOB.G/CC                                                :     6  Bulk density
TENS.LB                                                  :     7  Cable Tension
~ASCII
# ...
 3216.2984    13.9637      .0430    45.5021    32.6306     2.3639  3177.9409
 3216.4508    14.0102      .0623    46.4865    31.8631     2.3736  2346.0254
 3216.6032    14.2713      .0740    47.1605    31.0218     2.3851  1782.8049
 3216.7556    14.3558      .0725    46.6936    30.7180     2.3912   990.3639
 3216.9080    14.5006      .0573    46.9903    30.7882     2.3838   212.6310
 3217.0604    14.4951      .0530    46.9927    29.5993     2.4073   -40.5388
 3217.2128    14.3715      .0537    46.5775    28.0357     2.4320   -40.3572
 3217.3652    13.4415      .0447    45.2916    26.4284     2.4635   -40.1750
 3217.5176    13.4714      .0288    45.0891    27.1123     2.4364   413.2400
 3217.6700    13.1916      .0425    45.7815    27.9752     2.4417  6127.3086
 3217.8224    13.5601      .0774    45.5411    28.7685     2.4329  7095.1592
 3217.9748    13.6119      .0841    44.3151    29.6025     2.4342  6307.8662
 3218.1272    13.6625      .0955    45.7386    29.3206     2.4408  5520.8555
 3218.2796    13.7241      .1029    45.8201    26.9577     2.4457  4733.8447
 3218.4320    13.7699      .0891    44.7952    24.7030     2.4435  3947.0957
 3218.5844    13.7829      .0778    43.5035    22.9289     2.4285  3158.8174
 3218.7368    13.8310      .0602    41.0645    23.4274     2.4158  2371.8022
 3218.8892    13.9004      .0151    39.3668    27.3795     2.3630  1546.0361
 3219.0416    14.0176      .0059    39.9952    29.9660     2.3051   765.4233
 3219.1940    14.3506      .0060    40.7271    30.9657     2.2734  1160.0281
 3219.3464    14.8272      .0063    41.4140    29.6564     2.2520   370.2352
 3219.4988    13.8174      .0079    41.7998    28.7736     2.2687   309.3920
 3219.6512    13.4884      .0209    41.7977    28.9427     2.3714  -406.3983
 3219.8036    13.6598      .0153    41.8139    29.8579     2.4600  -264.9745
 3219.9560    13.4315     -.0042    42.2246    29.6216     2.4894    89.4007
 3220.1084    13.1091     -.0061    43.5917    28.1854     2.5129   407.5546
 3220.2608    13.0596     -.0033    44.6141    26.9290     2.4859   -38.6040
 3220.4132    13.1792      .0047    45.2198    29.0448     2.4386   -45.9144
 3220.5656    13.7601      .0176    44.2194    30.6363     2.3688   -38.0806
 3220.7180    13.6694      .0347    45.3980    31.5813     2.3829  3664.4756
 3220.8704    13.4241      .0521    46.9505    31.4838     2.4225  4482.8271
 3221.0228    13.4785      .0658    46.9918    30.5221     2.4134  3833.0449
 3221.1752    13.5270      .0683    46.8828    29.7454     2.4289  3183.2593
 3221.3276    13.5325      .0718    45.5407    29.9311     2.4351  2530.8931
 3221.4800    13.5410      .0868    45.1070    29.8500     2.4430  1719.7271
 3221.6324    13.5224      .0889    46.4178    28.4826     2.4765   813.0387
 3221.7848    13.4626      .0726    46.5622    27.3165     2.4867     4.9827
 3221.9372    13.2752      .0572    44.4485    26.3467     2.5054     5.1646
 3222.0896    13.3643      .0405    44.9935    25.2354     2.5341   459.6157
 3222.2420    13.5632      .0607    45.6847    24.1561     2.5194  1999.3909
 3222.3944    14.6034      .1031    45.1409    25.1206     2.5266  1812.4517
 3222.5468    14.6912      .0755    45.4386    26.4910     2.5002  1144.4561
 3222.6992    14.5757      .0175    47.0818    27.8416     2.4423   477.4147
 3222.8516    13.5110      .0078    49.3449    29.1065     2.4050    40.0214
 3223.0040    13.1013     -.0014    50.3986    28.9513     2.4262    34.3465
 3223.1564    13.2227      .0000    50.6234    27.8691     2.4692  -208.9869
 3223.3088    13.2440     -.0023    50.1111    26.7663     2.4857   -93.8701
 3223.4612    13.4327     -.0013    48.9131    26.8148     2.4785  -303.8987
 3223.6136    13.3253      .0062    48.5009    25.2260     2.5065  -325.2138
 3223.7660    13.6964      .0121    46.6165    23.7214     2.5308   515.5646
 3223.9184    13.0475     -.0015    44.8473    22.6186     2.5494  2004.1462
 3224.0708    13.0473     -.0075    45.2345    23.6179     2.5510  1509.3699
 3224.2232    13.0363     -.0048    45.8153    24.3400     2.5332   570.4454
 3224.3756    13.0229      .0003    45.7212    24.4064     2.5300  -156.0049
 3224.5280    13.0119      .0044    44.6860    25.5547     2.5323  -272.6493
 3224.6804    13.0346      .0061    44.9536    27.4691     2.5176  -323.8763
 3224.8328    13.1159      .0085    45.8829    28.7246     2.4849  -410.1222
 3224.9852    13.1779      .0096    46.3780    29.3180     2.4229  -374.3254
 3225.1376    13.2372      .0088    46.4912    28.7381     2.3654  1275.6274
 3225.2900    13.5474      .0301    45.5729    27.8196     2.3151  2496.0317
 3225.4424    13.3436      .0258    46.0532    28.6269     2.3090  1773.2375
 3225.5948    13.3673      .0162    45.9056    31.2326     2.3234  1049.3262
 3225.7472    13.3608      .0109    46.0188    33.0123     2.3791   329.1154
 3225.8996    13.2754      .0125    42.7267    32.5410     2.4525   232.2069
 3226.0520    13.3164      .0047    38.4724    31.1319     2.5210   296.7009
 3226.2044    13.0856     -.0049    32.6270    25.7389     2.5457    45.1209
 3226.3568    13.0915      .0065    28.5540    23.3541     2.5642    71.5152
 3226.5092    13.0577      .0066    27.6159    21.6818     2.5772    23.2690
 3226.6616    12.9239      .0136    27.0848    19.2572     2.5842   204.0997
 3226.8140    12.8340      .0158    27.5331    16.8171     2.5770   488.2303
 3226.9664    12.9746      .0196    30.6158    15.8509     2.5663   889.7408
 3227.1188    13.1835      .0500    33.7032    18.0827     2.5631  1871.9824
 3227.2712    13.0230      .0425    36.8058    20.3369     2.5545  1210.5674
 3227.4236    13.0173      .0289    40.0628    22.5297     2.5351   251.6269
 3227.5760    13.0060      .0202    41.1898    20.9486     2.5089  -157.1026
 3227.7284    13.0694      .0324    37.8774    18.9230     2.4915  -243.9295
 3227.8808    12.9656      .0157    34.6213    17.8838     2.5262  -348.3290
 3228.0332    12.8601      .0122    33.0598    17.6538     2.5577  -394.9606
 3228.1856    12.8403      .0167    33.2191    17.7647     2.5766  -381.8719
 3228.3380    12.9298      .0104    34.1850    18.9520     2.5375   330.6368
 3228.4904    13.0929      .0123    38.8464    20.9288     2.4959  1745.9421
 3228.6428    13.0978      .0023    43.6079    26.4239     2.4629  1256.8621
 3228.7952    13.0324      .0175    46.1127    27.7396     2.4497   342.1229
 3228.9476    13.2617      .0335    46.0686    27.9326     2.4683    58.8661
 3229.1000    13.6893      .0176    46.1643    28.0405     2.4851    -4.2494
 3229.2524    13.3612      .0129    47.3317    27.2903     2.5090   -51.7225
 3229.4048    13.1546      .0162    46.6838    26.2218     2.5243   251.4283
 3229.5572    13.0809      .0228    45.2201    25.5464     2.5324   821.9817
 3229.7096    13.1865      .0289    42.8456    25.0975     2.5512   -13.8589
 3229.8620    13.1811      .0183    42.8917    24.7845     2.5643  -109.4557
 3230.0144    13.0875      .0090    41.5258    23.8788     2.5697   -48.1390
 3230.1668    13.0321      .0017    39.3652    22.2386     2.5800   -91.7507
 3230.3192    12.8774      .0123    37.9790    20.0617     2.5967    85.4962
 3230.4716    12.8187      .0151    37.1856    19.1994     2.6062   161.1695
 3230.6240    12.7926      .0083    37.3853    18.8664     2.5947   -98.7130
 3230.7764    12.7797      .0040    37.0009    19.1001     2.5895   -88.0907
 3230.9288    12.7934      .0107    37.9195    20.0593     2.6013   -77.4685
 3231.0812    12.8213      .0136    40.5705    21.1658     2.6063   -66.8380
 3231.2336    12.8563      .0125    42.6166    22.2920     2.5989   -56.1985
 3231.3860    12.9249      .0114    44.8496    23.5438     2.5763   -45.5760
 3231.5384    12.9673     -.0003    47.1123    24.8075     2.5450   -34.9456
 3231.6908    12.9557      .0009    48.1815    25.5225     2.5101   -24.3234
 3231.8432    13.0318      .0078    47.3460    25.9689     2.4653   -13.6744
 3231.9956    13.0922      .0172    46.5986    26.3938     2.4340   164.6921
