~VERSION INFORMATION
VERS.                                                 2.0:   CWLS Log ASCII Standard-VERSION 2.0
WRAP.                                                  NO:   One line per depth step
~Well Information Block
STRT.M                                          2820.0584:   Top Depth
STOP.M                                          4754.0144:   Bottom Depth
STEP.M                                             .15240:   Depth Increment
NULL.                                            -999.250:   Null Value
FLD .                                             WILDCAT:   Field Name
WELL.                                              15/3-2:   NAME
WBN .                                              15/3-2:   WELLBORE
NATI.                                                 NOR:   COUNTRY
CTRY.                                                 NOR:   COUNTRY
COMP.                             ELF AQUITAINE NORGE A/S:   OPERATOR
PROV.                                           OFF SHORE:   PROVINCE
COUN.                                  POLYGLOMAR DRILLER:   RIG NAME
SPUD.                                          1976/10/25:   SPUD DATE
LATI.                                        58 59 0.50 N:   SURF. LATITUDE
LONG.                                        1 47 12.60 E:   SURF. LONGITUDE
PBWE.                                              15/3-2:   PB WELL ID
APIN.                                              15/3-2:   PB WELLBORE ID
PBWS.                                                 all:   PB WELL NAME SET
~PARAMETER INFORMATION (log)
LNAM.                              FDC/CNL/GR  COMPOSITED:   NAME
LTYP.                                         DEPTH MATCH:   LOG TYPE
LSRV.                                            DEN/NEUT:   LOG SERVICE
LSOU.                                             SPT/NPD:   LOG SOURCE
LVSN.                                                   1:   LOG VERSION
BHIS.                                                   R:   BRIEF HISTORY
FHIS.                                             RAW-LIS:   FULL HISTORY
LCNM.                                        SCHLUMBERGER:   LOGGING CONTRACTOR
TOOL.                             FDC/CNL/GR (COMPOSITED):   TOOL STRING
~Curve Information Block
#MNEM.UNIT                                        API CODE    No Description
#=========                                        ========    == ===========
DEPT.M                                       00 001 00 00:     1  DEPTH
CALI.IN                                                  :     2  Caliper
DRHO.G/CC                                                :     3  Bulk density correction
GR.GAPI                                                  :     4  Gamma Ray
NPHI.%                                                   :     5  Neutron porosity
RHOB.G/CC                                                :     6  Bulk density
TENS.LB                                                  :     7  Cable Tension
~ASCII
# ...
 3469.8920    12.2987      .0080    19.9836    10.1273     2.5218  1016.0923
 3470.0444    12.2989      .0049    21.3977     9.9884     2.5263   887.1277
 3470.1968    12.2817      .0034    22.9260    10.3216     2.5391   981.5596
 3470.3492    12.2728      .0027    23.8805    10.7213     2.5493  1123.4443
 3470.5016    12.2599      .0087    25.6764    11.2320     2.5529  1247.6584
 3470.6540    12.2555      .0114    28.4156    11.7257     2.5516  1083.7126
 3470.8064    12.2690      .0150    30.1911    12.1307     2.5548  1092.6448
 3470.9588    12.2712      .0241    30.4958    11.5503     2.5689  1038.0430
 3471.1112    12.2533      .0178    29.8005    11.2329     2.5849   877.0797
 3471.2636    12.2506      .0001    28.4026    11.1875     2.5698  1007.6891
 3471.4160    12.2502      .0037    27.9005    11.3995     2.5650  1079.4492
 3471.5684    12.2597     -.0048    26.4362    11.6921     2.5638  1143.7510
 3471.7208    12.2586      .0006    25.1267    12.1337     2.5635  1226.1057
 3471.8732    12.2589      .0077    24.7484    12.1250     2.5714  1361.2964
 3472.0256    12.2585      .0085    24.8042    11.3412     2.5591  1266.3496
 3472.1780    12.2288      .0005    24.7045    10.6391     2.5457  1149.1855
 3472.3304    12.2461     -.0064    25.1271     9.9169     2.5398  1069.3491
 3472.4828    12.2375     -.0068    27.3683     9.0018     2.5591  1291.3198
 3472.6352    12.2360      .0092    29.2976     8.9571     2.5675  1245.4387
 3472.7876    12.2399      .0179    29.2642    11.1808     2.5562  1167.3267
 3472.9400    12.2286      .0138    26.8214    12.5096     2.5445  1244.1318
 3473.0924    12.2385      .0236    25.7649    13.1206     2.5463  1429.4861
 3473.2448    12.2455      .0252    25.3877    13.4083     2.5555  1302.7463
 3473.3972    12.2451      .0211    24.3409    13.0061     2.5653  1010.3148
 3473.5496    12.2332      .0193    22.4752    11.9004     2.5727  1193.0020
 3473.7020    12.2361      .0153    20.8924    10.7930     2.5785  1230.1643
 3473.8544    12.2439      .0172    21.0954     9.8896     2.5903  1192.5464
 3474.0068    12.2458      .0111    21.7989     9.7113     2.5912  1211.6528
 3474.1592    12.2431      .0039    22.0054     9.6693     2.5831  1149.2021
 3474.3116    12.2427     -.0039    21.4092     9.5607     2.5745  1215.8315
 3474.4640    12.2477      .0038    20.6023     9.2427     2.5716   995.6016
 3474.6164    12.2419      .0160    20.7891     8.8281     2.5806   961.2745
 3474.7688    12.2449      .0239    21.6172     8.5082     2.5919  1030.8389
 3474.9212    12.2448      .0186    21.5875     8.2849     2.5913  1002.3162
 3475.0736    12.2442      .0086    20.8731     8.3500     2.5813   916.6637
 3475.2260    12.2404     -.0016    20.4528     8.3745     2.5816   879.2292
 3475.3784    12.2445      .0042    19.9402     8.1170     2.5883  1104.4092
 3475.5308    12.2447      .0002    20.5331     7.9776     2.5922  1293.7844
 3475.6832    12.2392     -.0083    20.9625     8.3536     2.5809  1132.3259
 3475.8356    12.2487     -.0031    21.5598     8.7900     2.5893  1001.0082
 3475.9880    12.2405      .0062    21.5441     9.4543     2.5911   981.3202
 3476.1404    12.2441      .0121    22.3265    10.1981     2.5875   818.8562
 3476.2928    12.2476      .0106    24.4428    11.0273     2.5865   860.6022
 3476.4452    12.2471      .0074    25.5685    11.7597     2.5746   890.6615
 3476.5976    12.2382      .0104    26.1210    12.1762     2.5686  1001.6462
 3476.7500    12.2377      .0083    26.3222    12.6796     2.5519  1218.2610
 3476.9024    12.2361      .0081    27.0214    12.9719     2.5471  1311.5884
 3477.0548    12.2376     -.0056    26.5500    11.6578     2.5388  1158.7280
 3477.2072    12.2518     -.0084    23.7341    10.2563     2.5387  1022.1189
 3477.3596    12.2348     -.0009    21.3804     9.0942     2.5494   556.8856
 3477.5120    12.2432     -.0028    20.7419     9.3650     2.5492   958.8922
 3477.6644    12.2436     -.0003    20.7935    10.0773     2.5581   961.2681
 3477.8168    12.2340      .0044    21.2790    10.4572     2.5572  1012.3079
 3477.9692    12.2415      .0115    23.2356    10.8992     2.5651   803.2290
 3478.1216    12.2439      .0187    24.3807    11.1670     2.5788   466.8693
 3478.2740    12.2325      .0071    25.0593    10.5422     2.5826   129.1770
 3478.4264    12.2414      .0040    24.4475     9.4724     2.5726   729.3383
 3478.5788    12.2329      .0100    22.6785     8.4026     2.5713  2820.5747
 3478.7312    12.2224      .0057    21.6465     8.0692     2.5550  6478.9570
 3478.8836    12.2118      .0091    21.5540     8.9018     2.5561  6578.2061
 3479.0360    12.2134      .0105    24.0418     9.7516     2.5629  6014.2051
 3479.1884    12.2105      .0047    25.3881    11.1830     2.5675  5318.1582
 3479.3408    12.2101      .0012    26.2337    11.6471     2.5704  4624.1338
 3479.4932    12.2139     -.0005    26.7378    12.1400     2.5709  3929.6050
 3479.6456    12.2236      .0028    26.5748    12.7605     2.5673  3234.7720
 3479.7980    12.2149      .0091    26.1030    13.3153     2.5733  2541.0322
 3479.9504    12.2087      .0104    24.1538    12.1525     2.5721  1844.9951
 3480.1028    12.2125      .0085    22.9258    10.3745     2.5728  1316.1077
 3480.2552    12.2086      .0077    22.1525     9.3976     2.5765  1123.7297
 3480.4076    12.2077      .0066    21.4352     9.1342     2.5753  1078.8787
 3480.5600    12.2101      .0056    20.3332     8.9395     2.5658  1116.3403
 3480.7124    12.2160     -.0039    20.2968     8.8673     2.5542  1192.8782
 3480.8648    12.2147     -.0025    20.2463     8.5665     2.5786  1478.4436
 3481.0172    12.2178      .0063    18.5066     7.7920     2.5863  1585.7854
 3481.1696    12.2158      .0101    17.8150     6.8416     2.5922  1536.5967
 3481.3220    12.2121      .0111    18.7553     5.9860     2.5975  1451.3948
 3481.4744    12.2189      .0131    18.7337     5.7624     2.6005  1322.1160
 3481.6268    12.2102      .0149    19.4801     6.1839     2.6005  1240.9390
 3481.7792    12.2144      .0203    20.7990     7.6111     2.5916  1211.5278
 3481.9316    12.2073      .0146    22.2160     8.7403     2.5829  1321.8838
 3482.0840    12.2214      .0081    22.4913     8.7845     2.5827  1398.7612
 3482.2364    12.2219      .0167    21.9710     8.2200     2.5908  1407.5942
 3482.3888    12.2229      .0166    21.8774     7.9009     2.5790  1393.5352
 3482.5412    12.2320      .0094    21.6910     8.0674     2.5728  1357.5476
 3482.6936    12.2246     -.0045    21.6321     8.2408     2.5626  1312.0469
 3482.8460    12.2215     -.0064    20.8057     8.4738     2.5589  1241.3330
 3482.9984    12.2156     -.0048    19.5709     9.0803     2.5462  1120.0208
 3483.1508    12.2195     -.0037    19.8632     9.4509     2.5398  1121.0422
 3483.3032    12.2208      .0014    20.9634     9.5546     2.5470  1313.5498
 3483.4556    12.2153      .0088    21.1522     9.3413     2.5655  1441.3008
 3483.6080    12.1921      .0157    22.9325     9.4743     2.5732  1574.6753
 3483.7604    12.1394      .0141    25.2548     9.7135     2.5753  1629.8657
 3483.9128    12.1851      .0084    26.0941     9.9411     2.5705  1643.2622
 3484.0652    12.2687     -.0001    25.2257    10.1227     2.5669  1699.4294
 3484.2176    12.2683     -.0077    23.7126     9.5389     2.5708  1499.8882
 3484.3700    12.2648     -.0038    22.3235     9.0975     2.5806  1342.0991
 3484.5224    12.2607     -.0002    21.8743     9.4399     2.5725  1285.3862
 3484.6748    12.2566     -.0057    21.9222    10.3243     2.5632  1287.6143
 3484.8272    12.2525     -.0112    22.7388    11.1807     2.5508  1355.4028
 3484.9796    12.2484     -.0064    23.4075    11.8401     2.5389  1357.0076
 3485.1320    12.2370      .0105    23.7936    12.3244     2.5523  1428.1729
 3485.2844    12.2444      .0194    24.6018    11.9188     2.5723  1437.5176
 3485.4368    12.2424      .0092    24.1721    10.4765     2.5841  1539.8855
 3485.5892    12.2358      .0118    23.5405    10.0372     2.5882  1628.4355
