~VERSION INFORMATION
VERS.                                                 2.0:   CWLS Log ASCII Standard-VERSION 2.0
WRAP.                                                  NO:   One line per depth step
~Well Information Block
STRT.M                                          2820.0584:   Top Depth
STOP.M                                          4754.0144:   Bottom Depth
STEP.M                                             .15240:   Depth Increment
NULL.                                            -999.250:   Null Value
FLD .                                             WILDCAT:   Field Name
WELL.                                              15/3-2:   NAME
WBN .                                              15/3-2:   WELLBORE
NATI.                                                 NOR:   COUNTRY
CTRY.                                                 NOR:   COUNTRY
COMP.                             ELF AQUITAINE NORGE A/S:   OPERATOR
PROV.                                           OFF SHORE:   PROVINCE
COUN.                                  POLYGLOMAR DRILLER:   RIG NAME
SPUD.                                          1976/10/25:   SPUD DATE
LATI.                                        58 59 0.50 N:   SURF. LATITUDE
LONG.                                        1 47 12.60 E:   SURF. LONGITUDE
PBWE.                                              15/3-2:   PB WELL ID
APIN.                                              15/3-2:   PB WELLBORE ID
PBWS.                                                 all:   PB WELL NAME SET
~PARAMETER INFORMATION (log)
LNAM.                              FDC/CNL/GR  COMPOSITED:   NAME
LTYP.                                         DEPTH MATCH:   LOG TYPE
LSRV.                                            DEN/NEUT:   LOG SERVICE
LSOU.                                             SPT/NPD:   LOG SOURCE
LVSN.                                                   1:   LOG VERSION
BHIS.                                                   R:   BRIEF HISTORY
FHIS.                                             RAW-LIS:   FULL HISTORY
LCNM.                                        SCHLUMBERGER:   LOGGING CONTRACTOR
TOOL.                             FDC/CNL/GR (COMPOSITED):   TOOL STRING
~Curve Information Block
#MNEM.UNIT                                        API CODE    No Description
#=========                                        ========    == ===========
DEPT.M                                       00 001 00 00:     1  DEPTH
CALI.IN                                                  :     2  Caliper
DRHO.G/CC                                                :     3  Bulk density correction
GR.GAPI                                                  :     4  Gamma Ray
NPHI.%                                                   :     5  Neutron porosity
RHOB.G/CC                                                :     6  Bulk density
TENS.LB                                                  :     7  Cable Tension
~ASCII
# ...
 3723.4856    12.6825      .0027    39.7112    18.2064     2.4921   327.9323
 3723.6380    12.6825      .0039    38.3319    17.1191     2.5064   130.6589
 3723.7904    12.6826      .0108    37.6267    16.0712     2.5260   110.5708
 3723.9428    12.6868      .0159    38.1405    15.1652     2.5394    82.9599
 3724.0952    12.6911      .0114    39.0887    15.1376     2.5363    15.6819
 3724.2476    12.6939      .0133    40.9006    15.9156     2.5355    -9.5880
 3724.4000    12.7133      .0104    42.2178    16.4590     2.5402    67.4530
 3724.5524    12.7129      .0030    40.7226    16.2236     2.5343   196.2435
 3724.7048    12.7123      .0042    39.6954    15.2990     2.5463   254.8658
 3724.8572    12.7205      .0055    39.5903    15.8841     2.5502   470.5108
 3725.0096    12.7197      .0142    40.2169    16.7696     2.5594   484.7037
 3725.1620    12.6909      .0203    41.0658    17.5737     2.5518   257.1499
 3725.3144    12.7085      .0036    41.8372    17.8228     2.5313   165.3287
 3725.4668    12.7222      .0098    41.9750    17.3819     2.5300    62.1023
 3725.6192    12.7126      .0167    41.8695    16.8069     2.5298   240.4803
 3725.7716    12.7219      .0219    42.1851    16.3242     2.5485   319.2274
 3725.9240    12.7222      .0205    41.8814    15.8175     2.5492   261.4484
 3726.0764    12.7222      .0130    38.8668    15.3073     2.5600   321.1569
 3726.2288    12.7112      .0083    37.9828    15.6128     2.5724   262.6320
 3726.3812    12.7189      .0010    38.0923    15.9751     2.5692   194.9687
 3726.5336    12.7138      .0048    37.5871    15.7426     2.5941   314.2451
 3726.6860    12.7123      .0096    35.7731    14.6713     2.6088   310.9388
 3726.8384    12.7123      .0122    34.2227    14.2761     2.6212     3.4080
 3726.9908    12.7155      .0092    33.8352    13.9425     2.6038     8.1378
 3727.1432    12.7222      .0018    34.3556    13.5461     2.5792    28.0777
 3727.2956    12.7188     -.0015    36.6524    14.5718     2.5709   262.9904
 3727.4480    12.7199     -.0056    39.4776    15.4454     2.5628   254.5660
 3727.6004    12.7124     -.0062    40.4724    15.3831     2.5619   137.5681
 3727.7528    12.7086     -.0046    39.0499    15.0428     2.5696   269.1595
 3727.9052    12.7123      .0072    37.5773    14.7860     2.5844   216.9620
 3728.0576    12.7261      .0166    38.4717    15.1390     2.5908    63.3638
 3728.2100    12.7123      .0231    40.6083    15.6520     2.5960   154.3364
 3728.3624    12.7222      .0200    40.4495    15.8989     2.6037   280.4527
 3728.5148    12.7222      .0093    38.7798    15.9940     2.5993   242.8768
 3728.6672    12.7222      .0003    38.9424    15.9510     2.5761    94.9689
 3728.8196    12.7222     -.0051    40.0130    15.8071     2.5615   173.0181
 3728.9720    12.7222     -.0005    39.8554    15.6436     2.5572   198.4118
 3729.1244    12.7179      .0113    39.2023    15.5184     2.5573   154.6463
 3729.2768    12.7167      .0236    39.4327    15.4075     2.5795   154.8139
 3729.4292    12.7194      .0358    40.2398    15.3656     2.6089   182.3391
 3729.5816    12.7222      .0479    41.9479    15.6148     2.6309   173.2087
 3729.7340    12.7222      .0397    44.2315    15.4746     2.6305   158.4252
 3729.8864    12.7222      .0278    44.4374    15.3021     2.6278   212.8557
 3730.0388    12.7222      .0175    42.9849    15.1370     2.6134   244.9112
 3730.1912    12.7222      .0167    41.2042    14.9575     2.6083   239.4630
 3730.3436    12.7222      .0206    40.4609    14.6977     2.6105   157.8425
 3730.4960    12.7222      .0196    40.0018    14.4010     2.6079   183.4250
 3730.6484    12.7222      .0161    38.3986    14.2820     2.6147   172.2113
 3730.8008    12.7222      .0100    37.6061    14.3857     2.6081   175.8512
 3730.9532    12.7222      .0021    37.1519    14.5306     2.5895   211.4610
 3731.1056    12.7222      .0010    36.7293    14.5812     2.5741   275.2294
 3731.2580    12.7222      .0015    37.0817    14.5812     2.5880   401.8430
 3731.4104    12.7222     -.0015    38.4989    14.6508     2.5916   450.4279
 3731.5628    12.7222     -.0074    39.8302    14.7986     2.5828   112.1485
 3731.7152    12.7222     -.0062    41.0664    15.1436     2.5702    53.8323
 3731.8676    12.7222      .0011    43.0052    15.6644     2.5751   115.2956
 3732.0200    12.7173      .0016    44.5732    15.7420     2.5715   193.3485
 3732.1724    12.7196     -.0007    43.1953    15.5251     2.5723   146.7141
 3732.3248    12.7222     -.0014    43.0019    15.2279     2.5718   124.2447
 3732.4772    12.7176      .0004    42.5808    15.1614     2.5666   211.4178
 3732.6296    12.7075      .0079    40.9140    15.2394     2.5723   292.6306
 3732.7820    12.7076      .0163    38.6006    15.1623     2.5847   455.7468
 3732.9344    12.7123      .0166    39.1881    15.0303     2.5836   335.2118
 3733.0868    12.7113      .0141    38.8538    14.8483     2.5863   313.8430
 3733.2392    12.6961      .0116    38.3974    14.6771     2.5931   130.1102
 3733.3916    12.6925      .0127    38.2936    15.4254     2.5974   107.2997
 3733.5440    12.6884      .0085    38.4013    16.2187     2.5811    63.4632
 3733.6964    12.6865      .0050    39.1617    17.0075     2.5619   104.9162
 3733.8488    12.6833      .0081    39.8106    17.9711     2.5525  -119.8561
 3734.0012    12.6925      .0046    39.7210    18.9116     2.5517    46.7959
 3734.1536    12.6925      .0043    38.9945    19.3884     2.5428   302.3218
 3734.3060    12.7007     -.0011    39.6238    19.5586     2.5384   488.6541
 3734.4584    12.6940     -.0011    40.6703    19.4287     2.5408   555.0713
 3734.6108    12.6915      .0019    41.3987    19.2886     2.5411   521.6467
 3734.7632    12.6849      .0079    42.9708    19.2746     2.5495   423.8293
 3734.9156    12.6976      .0105    44.7326    19.4619     2.5433   302.7040
 3735.0680    12.7154      .0073    45.1297    20.1454     2.5387   323.6840
 3735.2204    12.7222      .0073    43.3864    20.1007     2.5397   472.1260
 3735.3728    12.7222      .0057    40.8421    18.9835     2.5511   757.8307
 3735.5252    12.7222      .0027    38.1722    17.8657     2.5507  1162.2119
 3735.6776    12.7222      .0042    36.4129    16.7568     2.5527  1338.7288
 3735.8300    12.7222      .0136    35.8425    16.0370     2.5573   962.4835
 3735.9824    12.7222      .0178    36.3860    15.9345     2.5700   500.3578
 3736.1348    12.7197      .0174    36.8895    16.1503     2.5805   752.3629
 3736.2872    12.7195      .0182    37.3821    16.5338     2.5741  1311.0537
 3736.4396    12.7123      .0203    38.2743    17.0580     2.5803   934.8517
 3736.5920    12.7199      .0109    39.7464    17.2892     2.5688   481.8062
 3736.7444    12.6925      .0020    40.4229    17.5604     2.5610   492.4177
 3736.8968    12.6925      .0024    40.6746    17.1500     2.5483   454.0231
 3737.0492    12.6936      .0077    40.5484    16.2772     2.5549   275.0019
 3737.2016    12.6903      .0052    40.6650    15.6163     2.5603    51.8410
 3737.3540    12.6914      .0140    40.9941    15.5662     2.5851   115.9709
 3737.5064    12.6914      .0260    41.2882    15.7035     2.6015   111.7227
 3737.6588    12.6909      .0375    41.0016    16.3287     2.5957    72.0132
 3737.8112    12.7024      .0426    43.1409    17.1736     2.5935   122.0649
 3737.9636    12.7024      .0262    44.1907    18.6637     2.5743    50.9036
 3738.1160    12.7024      .0137    43.0635    19.5093     2.5393   188.2502
 3738.2684    12.6992      .0061    43.7712    19.8269     2.5199   315.6711
 3738.4208    12.7222      .0094    44.5839    19.9987     2.5255   359.8757
 3738.5732    12.7222      .0108    44.8500    19.8017     2.5258   306.8196
 3738.7256    12.7222      .0122    45.0067    19.5975     2.5228   393.8909
 3738.8780    12.7222      .0144    44.5684    19.7302     2.5272   295.6736
 3739.0304    12.7222      .0145    42.8035    20.0119     2.5322   279.0952
 3739.1828    12.7018      .0195    40.9323    19.8439     2.5465   439.4748
