~VERSION INFORMATION
VERS.                                                 2.0:   CWLS Log ASCII Standard-VERSION 2.0
WRAP.                                                  NO:   One line per depth step
~Well Information Block
STRT.M                                          2820.0584:   Top Depth
STOP.M                                          4754.0144:   Bottom Depth
STEP.M                                             .15240:   Depth Increment
NULL.                                            -999.250:   Null Value
FLD .                                             WILDCAT:   Field Name
WELL.                                              15/3-2:   NAME
WBN .                                              15/3-2:   WELLBORE
NATI.                                                 NOR:   COUNTRY
CTRY.                                                 NOR:   COUNTRY
COMP.                             ELF AQUITAINE NORGE A/S:   OPERATOR
PROV.                                           OFF SHORE:   PROVINCE
COUN.                                  POLYGLOMAR DRILLER:   RIG NAME
SPUD.                                          1976/10/25:   SPUD DATE
LATI.                                        58 59 0.50 N:   SURF. LATITUDE
LONG.                                        1 47 12.60 E:   SURF. LONGITUDE
PBWE.                                              15/3-2:   PB WELL ID
APIN.                                              15/3-2:   PB WELLBORE ID
PBWS.                                                 all:   PB WELL NAME SET
~PARAMETER INFORMATION (log)
LNAM.                              FDC/CNL/GR  COMPOSITED:   NAME
LTYP.                                         DEPTH MATCH:   LOG TYPE
LSRV.                                            DEN/NEUT:   LOG SERVICE
LSOU.                                             SPT/NPD:   LOG SOURCE
LVSN.                                                   1:   LOG VERSION
BHIS.                                                   R:   BRIEF HISTORY
FHIS.                                             RAW-LIS:   FULL HISTORY
LCNM.                                        SCHLUMBERGER:   LOGGING CONTRACTOR
TOOL.                             FDC/CNL/GR (COMPOSITED):   TOOL STRING
~Curve Information Block
#MNEM.UNIT                                        API CODE    No Description
#=========                                        ========    == ===========
DEPT.M                                       00 001 00 00:     1  DEPTH
CALI.IN                                                  :     2  Caliper
DRHO.G/CC                                                :     3  Bulk density correction
GR.GAPI                                                  :     4  Gamma Ray
NPHI.%                                                   :     5  Neutron porosity
RHOB.G/CC                                                :     6  Bulk density
TENS.LB                                                  :     7  Cable Tension
~ASCII
# ...
 2962.7048    13.4636      .0128    30.1961    19.3166     2.5721  2042.0801
 2962.8572    13.0458      .0089    27.5263    15.7978     2.5764  2233.1753
 2963.0096    12.9916      .0023    28.7549    15.4530     2.5558  2142.1108
 2963.1620    13.0884      .0126    30.2287    18.4021     2.5332  2207.5679
 2963.3144    13.1597      .0193    32.6540    21.4907     2.5290  2164.3599
 2963.4668    13.3592      .0037    33.2501    21.9509     2.5455  2365.5010
 2963.6192    13.4429      .0012    31.0750    19.0624     2.5632  2045.2783
 2963.7716    13.3185      .0024    28.9653    16.4534     2.5753  1989.8445
 2963.9240    13.0976      .0054    30.3964    15.0923     2.5507  1891.7385
 2964.0764    13.0928      .0070    32.0298    18.2411     2.5253  2157.2388
 2964.2288    13.1448      .0106    32.3602    20.7415     2.5072  2438.7485
 2964.3812    13.2774      .0143    30.7768    20.5472     2.5194  2422.6279
 2964.5336    13.4426      .0164    28.6775    17.7668     2.5585  2256.2124
 2964.6860    12.9626      .0099    26.3564    15.0556     2.5708  2093.1289
 2964.8384    12.9223      .0136    24.5534    12.3883     2.5980  1916.7227
 2964.9908    12.9673      .0270    27.0824    17.1787     2.5958  1996.4094
 2965.1432    13.0582      .0389    31.2837    20.5291     2.5984  2172.0908
 2965.2956    13.2305      .0184    35.4916    22.8351     2.5630  2441.2285
 2965.4480    13.2232     -.0032    36.9743    21.5665     2.5579  2518.1548
 2965.6004    13.1196     -.0072    37.0928    19.4452     2.5604  2543.3921
 2965.7528    13.1269     -.0056    36.8251    17.9684     2.5643  2388.8950
 2965.9052    13.1560      .0063    36.9229    17.3173     2.5649  2310.2461
 2966.0576    13.2043      .0105    36.7822    18.3976     2.5769  2111.5151
 2966.2100    13.1944      .0055    36.2256    18.9619     2.5819  2176.6436
 2966.3624    13.1656      .0128    35.8855    18.2486     2.5946  2279.6958
 2966.5148    13.1946      .0170    36.1971    17.8739     2.6167  2329.4600
 2966.6672    13.2230      .0116    37.2350    18.3033     2.5902  2206.5259
 2966.8196    13.2460      .0078    36.2592    19.5061     2.5690  2177.6353
 2966.9720    13.2612      .0194    33.8588    20.4516     2.5482  2368.2559
 2967.1244    13.4154      .0289    32.0171    21.1019     2.5259  2615.2617
 2967.2768    13.8483      .0266    29.7306    21.9524     2.5099  2378.8896
 2967.4292    13.1721      .0021    25.0453    19.4522     2.5301  2173.1035
 2967.5816    13.0556      .0037    24.6305    14.8944     2.5856  2250.6162
 2967.7340    13.0630      .0104    26.4525    12.7259     2.5971  2247.3555
 2967.8864    13.1133      .0110    30.5353    14.9742     2.5639  2251.6367
 2968.0388    13.2868      .0349    32.1013    19.0628     2.5542  2335.8052
 2968.1912    13.5259      .0319    35.6952    21.9559     2.5329  2454.5332
 2968.3436    13.3697      .0143    37.7341    23.4576     2.5262  2461.3145
 2968.4960    13.1648      .0203    37.4743    20.9597     2.5546  2218.0439
 2968.6484    13.1385      .0341    31.4839    18.3374     2.5603  1996.3987
 2968.8008    13.0215      .0323    28.3037    15.7885     2.5762  1821.3584
 2968.9532    13.0219      .0327    26.9899    14.3080     2.5761  2008.9597
 2969.1056    13.0623      .0293    29.1339    17.7552     2.5570  2038.7822
 2969.2580    13.2702      .0432    32.0675    21.2864     2.5036  2248.8320
 2969.4104    13.4642      .0535    34.2442    23.9365     2.5065  2268.9385
 2969.5628    13.2698      .0588    34.2351    23.6431     2.5386  2122.4375
 2969.7152    13.0536      .0267    34.3020    20.1240     2.5621  2303.6563
 2969.8676    13.0977      .0080    35.7684    17.1357     2.5906  2750.0234
 2970.0200    13.2225      .0054    36.7835    19.5393     2.5823  2385.3521
 2970.1724    13.4663      .0001    36.4322    21.7677     2.5693  2242.3618
 2970.3248    13.4155     -.0044    37.4499    22.8561     2.5427  2172.5835
 2970.4772    13.3160     -.0084    38.4412    22.5244     2.5496  2204.4604
 2970.6296    13.3150     -.0085    38.9765    21.5168     2.5705  2113.3740
 2970.7820    13.3241     -.0012    38.6610    20.3708     2.5910  2375.2744
 2970.9344    13.3734      .0045    37.8662    19.5894     2.5985  2507.0029
 2971.0868    13.4646      .0075    38.3707    21.7265     2.6008  2367.0483
 2971.2392    13.5973      .0071    37.9861    23.1881     2.5939  2154.5679
 2971.3916    13.3856     -.0004    38.3138    23.4056     2.5826  2125.2861
 2971.5440    13.3460     -.0052    37.9426    21.6937     2.5638  2204.6387
 2971.6964    13.3493     -.0014    36.6030    19.8232     2.5657  2239.0635
 2971.8488    13.3615      .0120    37.4306    19.3087     2.5826  2231.9634
 2972.0012    13.3983      .0129    37.0930    20.5843     2.5947  2248.5977
 2972.1536    13.4123      .0085    36.8923    21.5101     2.6010  2192.9966
 2972.3060    13.3872      .0100    37.1179    21.1352     2.6002  2107.6885
 2972.4584    13.3919      .0138    36.6527    20.9063     2.5703  2181.6895
 2972.6108    13.4219      .0078    36.1610    21.4463     2.5335  2124.1499
 2972.7632    13.4147     -.0009    36.4487    21.9331     2.5255  2282.8818
 2972.9156    13.3754      .0046    37.5113    21.0483     2.5605  2195.8633
 2973.0680    13.3695      .0097    37.4347    19.6656     2.5810  2064.6621
 2973.2204    13.3851      .0080    35.3805    17.8734     2.5734  2063.9893
 2973.3728    13.4019      .0022    34.6308    16.9844     2.5650  2161.6279
 2973.5252    13.4503      .0032    37.4062    16.5359     2.5679  2182.0347
 2973.6776    13.4942      .0071    40.4888    16.7165     2.5398  2181.9043
 2973.8300    13.5716      .0100    40.9249    17.2699     2.5204  1945.3994
 2973.9824    13.9312      .0077    39.6899    17.2316     2.5269  2022.9912
 2974.1348    13.3727      .0093    39.5740    17.3972     2.5642  2071.4004
 2974.2872    13.3811      .0039    38.8604    17.5952     2.5883  2121.9800
 2974.4396    13.4017      .0093    37.7224    17.2701     2.5921  2052.4683
 2974.5920    13.4176      .0037    37.5655    17.0028     2.5540  2159.9092
 2974.7444    13.4920      .0202    37.5180    17.0154     2.5166  2329.7041
 2974.8968    13.6896      .0396    38.9869    16.6845     2.4933  2212.2437
 2975.0492    13.5375      .0212    40.0265    17.0857     2.4762  2173.4185
 2975.2016    13.4859      .0005    40.4638    17.1296     2.4658  2137.0742
 2975.3540    13.6426      .0040    40.1260    17.1779     2.4957  1925.6736
 2975.5064    13.5796     -.0027    38.4025    17.6745     2.5124  1992.0171
 2975.6588    13.3707     -.0044    35.4176    18.2617     2.5173  2101.7524
 2975.8112    13.3752      .0053    35.6243    20.0644     2.5151  2110.6670
 2975.9636    13.4291      .0164    37.1693    21.9958     2.5072  2089.1084
 2976.1160    13.5174      .0089    38.0989    21.8535     2.5246  2025.2505
 2976.2684    13.3888      .0072    38.3665    19.9071     2.5454  2206.6318
 2976.4208    13.3324      .0140    38.0945    17.4251     2.5985  2088.1240
 2976.5732    13.3430      .0213    38.4281    17.4854     2.6198  2361.6006
 2976.7256    13.3478      .0274    38.8608    18.1426     2.6318  2670.1519
 2976.8780    13.2899      .0247    37.9545    18.3168     2.6259  2234.4634
 2977.0304    13.2753      .0267    37.2634    18.8494     2.6273  1123.4521
 2977.1828    13.2743      .0217    38.9298    19.7529     2.6259   337.0693
 2977.3352    13.2734      .0183    40.7037    20.8053     2.6054  -239.1241
 2977.4876    13.2761      .0175    41.8388    22.3931     2.5782   821.4734
 2977.6400    13.3015      .0139    41.6081    24.1057     2.5415  3330.0103
 2977.7924    13.3822      .0167    41.4206    25.4414     2.5167  6584.2822
 2977.9448    13.5742      .0252    42.9036    25.2063     2.4989 14400.5664
 2978.0972    13.6856      .0618    43.4246    22.2699     2.5182 15172.4629
 2978.2496    13.6900      .0530    42.9118    19.2531     2.4957 14301.9551
 2978.4020    13.7238      .0337    42.5286    17.5333     2.4515 13367.5254
