~VERSION INFORMATION
VERS.                                                 2.0:   CWLS Log ASCII Standard-VERSION 2.0
WRAP.                                                  NO:   One line per depth step
~Well Information Block
STRT.M                                          2820.0584:   Top Depth
STOP.M                                          4754.0144:   Bottom Depth
STEP.M                                             .15240:   Depth Increment
NULL.                                            -999.250:   Null Value
FLD .                                             WILDCAT:   Field Name
WELL.                                              15/3-2:   NAME
WBN .                                              15/3-2:   WELLBORE
NATI.                                                 NOR:   COUNTRY
CTRY.                                                 NOR:   COUNTRY
COMP.                             ELF AQUITAINE NORGE A/S:   OPERATOR
PROV.                                           OFF SHORE:   PROVINCE
COUN.                                  POLYGLOMAR DRILLER:   RIG NAME
SPUD.                                          1976/10/25:   SPUD DATE
LATI.                                        58 59 0.50 N:   SURF. LATITUDE
LONG.                                        1 47 12.60 E:   SURF. LONGITUDE
PBWE.                                              15/3-2:   PB WELL ID
APIN.                                              15/3-2:   PB WELLBORE ID
PBWS.                                                 all:   PB WELL NAME SET
~PARAMETER INFORMATION (log)
LNAM.                              FDC/CNL/GR  COMPOSITED:   NAME
LTYP.                                         DEPTH MATCH:   LOG TYPE
LSRV.                                            DEN/NEUT:   LOG SERVICE
LSOU.                                             SPT/NPD:   LOG SOURCE
LVSN.                                                   1:   LOG VERSION
BHIS.                                                   R:   BRIEF HISTORY
FHIS.                                             RAW-LIS:   FULL HISTORY
LCNM.                                        SCHLUMBERGER:   LOGGING CONTRACTOR
TOOL.                             FDC/CNL/GR (COMPOSITED):   TOOL STRING
~Curve Information Block
#MNEM.UNIT                                        API CODE    No Description
#=========                                        ========    == ===========
DEPT.M                                       00 001 00 00:     1  DEPTH
CALI.IN                                                  :     2  Caliper
DRHO.G/CC                                                :     3  Bulk density correction
GR.GAPI                                                  :     4  Gamma Ray
NPHI.%                                                   :     5  Neutron porosity
RHOB.G/CC                                                :     6  Bulk density
TENS.LB                                                  :     7  Cable Tension
~ASCII
# ...
 4484.2664     8.4182      .0007    20.2142     2.2989     2.5456  -999.2500
 4484.4188     8.4191      .0025    24.0749     3.1371     2.5142  -999.2500
 4484.5712     8.4201      .0087    28.0235     3.8298     2.5054  -999.2500
 4484.7236     8.4202      .0076    31.9926     4.1143     2.4903  -999.2500
 4484.8760     8.4198      .0016    33.9042     4.3272     2.4870  -999.2500
 4485.0284     8.4177      .0028    32.7475     4.4639     2.4936  -999.2500
 4485.1808     8.4152      .0044    31.7329     4.5005     2.5079  -999.2500
 4485.3332     8.4127      .0036    31.2771     4.5561     2.5165  -999.2500
 4485.4856     8.4103      .0036    32.5841     5.0070     2.5160  -999.2500
 4485.6380     8.4078      .0075    35.5645     6.0159     2.5189  -999.2500
 4485.7904     8.4053      .0081    36.7099     7.0248     2.5201  -999.2500
 4485.9428     8.4029      .0085    34.6826     7.6385     2.5305  -999.2500
 4486.0952     8.4004      .0084    32.9565     6.5674     2.5508  -999.2500
 4486.2476     8.3979      .0075    30.5689     4.6411     2.5511  -999.2500
 4486.4000     8.3963      .0051    29.5677     3.1570     2.5427  -999.2500
 4486.5524     8.3968      .0027    30.2151     3.1671     2.5276  -999.2500
 4486.7048     8.3974      .0031    29.9676     3.7222     2.5280  -999.2500
 4486.8572     8.3980      .0078    29.5631     4.1899     2.5219  -999.2500
 4487.0096     8.3986      .0099    30.4325     4.3986     2.5298  -999.2500
 4487.1620     8.3992      .0039    27.2446     4.1810     2.5244  -999.2500
 4487.3144     8.3998      .0024    24.0131     3.5582     2.5387  -999.2500
 4487.4668     8.4004      .0282    22.0526     3.2005     2.5585  -999.2500
 4487.6192     8.4009      .0272    22.7783     3.1510     2.5612  -999.2500
 4487.7716     8.4015      .0117    23.6770     3.2553     2.5429  -999.2500
 4487.9240     8.4021      .0150    24.0580     3.5199     2.5258  -999.2500
 4488.0764     8.4027      .0374    24.7921     3.8612     2.5473  -999.2500
 4488.2288     8.4033      .0324    26.4894     4.1417     2.5482  -999.2500
 4488.3812     8.4039      .0238    26.3509     4.3408     2.5312  -999.2500
 4488.5336     8.4044      .0203    26.6473     4.4696     2.5252  -999.2500
 4488.6860     8.4050      .0158    27.0070     4.5983     2.5299  -999.2500
 4488.8384     8.4056      .0112    27.7333     4.6293     2.5122  -999.2500
 4488.9908     8.4062      .0066    28.1235     4.5820     2.5099  -999.2500
 4489.1432     8.4068      .0089    26.5360     4.5383     2.5237  -999.2500
 4489.2956     8.4074      .0180    24.9729     4.5398     2.5335  -999.2500
 4489.4480     8.4080      .0214    24.4248     4.5889     2.5268  -999.2500
 4489.6004     8.4097      .0140    24.3395     4.6948     2.5135  -999.2500
 4489.7528     8.4116      .0127    24.3365     4.9097     2.4987  -999.2500
 4489.9052     8.4135      .0095    24.2914     5.1197     2.4926  -999.2500
 4490.0576     8.4154      .0006    24.5388     5.4145     2.4801  -999.2500
 4490.2100     8.4172      .0003    25.8156     5.7797     2.4740  -999.2500
 4490.3624     8.4191      .0065    27.2644     6.4239     2.4896  -999.2500
 4490.5148     8.4210      .0086    27.8461     7.0931     2.4990  -999.2500
 4490.6672     8.4229      .0075    26.7517     7.4704     2.4964  -999.2500
 4490.8196     8.4247      .0055    26.6052     7.6389     2.4852  -999.2500
 4490.9720     8.4266      .0038    27.1342     7.6722     2.4758  -999.2500
 4491.1244     8.4285      .0048    27.9985     7.0451     2.4733  -999.2500
 4491.2768     8.4304      .0056    27.7779     6.2531     2.4823  -999.2500
 4491.4292     8.4322      .0056    28.3796     5.4610     2.4966  -999.2500
 4491.5816     8.4341      .0023    28.1793     4.6309     2.5280  -999.2500
 4491.7340     8.4360      .0040    29.1299     4.5174     2.5817  -999.2500
 4491.8864     8.4379      .0155    31.2207     5.0429     2.6404  -999.2500
 4492.0388     8.4397      .0236    34.2186     5.9839     2.6816  -999.2500
 4492.1912     8.4407      .0154    37.9603     6.9881     2.6543  -999.2500
 4492.3436     8.4403      .0198    41.5228     7.9241     2.6328  -999.2500
 4492.4960     8.4399      .0154    44.7905     8.8536     2.6191  -999.2500
 4492.6484     8.4395      .0104    48.0581     9.7831     2.6108  -999.2500
 4492.8008     8.4391      .0223    49.5530    10.4689     2.6130  -999.2500
 4492.9532     8.4387      .0177    48.6653    10.5798     2.6175  -999.2500
 4493.1056     8.4383      .0134    47.0883    10.7092     2.6165  -999.2500
 4493.2580     8.4379      .0192    45.9173    10.9370     2.6139  -999.2500
 4493.4104     8.4375      .0011    45.7343    11.1496     2.6020  -999.2500
 4493.5628     8.4371     -.0168    45.5506    11.3574     2.6053  -999.2500
 4493.7152     8.5470     -.0048    45.1010    11.1279     2.6397  -999.2500
 4493.8676     8.4927      .0296    44.2673    11.0913     2.6454  -999.2500
 4494.0200     8.2816      .0201    43.9310    11.7561     2.6147  -999.2500
 4494.1724     8.6683      .0331    44.7328    11.9358     2.6206  -999.2500
 4494.3248     8.4606      .0196    41.2687    10.9144     2.6227  -999.2500
 4494.4772     8.3240      .0095    39.9058    10.1487     2.6152  -999.2500
 4494.6296     8.4018     -.0002    40.2120     9.8653     2.6424  -999.2500
 4494.7820     8.4276      .0005    38.4447    10.3028     2.6747  -999.2500
 4494.9344     8.4336      .0168    35.6586    10.9694     2.6688  -999.2500
 4495.0868     8.4332      .0101    34.2798    11.1417     2.6253  -999.2500
 4495.2392     8.4328      .0208  -999.2500     9.9610     2.6230  -999.2500
 4495.3916     8.4324      .0161  -999.2500     8.8574     2.6421  -999.2500
 4495.5440     8.4320      .0037  -999.2500     8.8654     2.6391  -999.2500
 4495.6964     8.4316      .0031  -999.2500     9.5034     2.6220  -999.2500
 4495.8488     8.4312      .0107  -999.2500    10.1413     2.6159  -999.2500
 4496.0012     8.4309      .0105  -999.2500    10.4761     2.6023  -999.2500
 4496.1536     8.4312      .0067  -999.2500    10.1470     2.5938  -999.2500
 4496.3060     8.4317      .0030  -999.2500     8.9423     2.6103  -999.2500
 4496.4584     8.4323     -.0002  -999.2500     8.0145     2.6235  -999.2500
 4496.6108     8.4328      .0002  -999.2500     7.8936     2.6235  -999.2500
 4496.7632     8.4333      .0033  -999.2500     8.1309     2.6098  -999.2500
 4496.9156     8.4339      .0057  -999.2500     8.2583     2.5797  -999.2500
 4497.0680     8.4344      .0068  -999.2500     8.8044     2.5695  -999.2500
 4497.2204     8.4349      .0100  -999.2500     9.5179     2.5693  -999.2500
 4497.3728     8.4355      .0126  -999.2500    10.1493     2.5664  -999.2500
 4497.5252     8.4360      .0133  -999.2500    10.7057     2.5736  -999.2500
 4497.6776     8.4365      .0271  -999.2500    11.2620     2.5943  -999.2500
 4497.8300     8.4371      .0149  -999.2500    11.5611     2.5917  -999.2500
 4497.9824     8.4376      .0019  -999.2500    11.6251     2.5980  -999.2500
 4498.1348     8.4381      .0048  -999.2500    11.3412     2.6046  -999.2500
 4498.2872     8.4386      .0129  -999.2500    10.9144     2.6016  -999.2500
 4498.4396     8.4392     -.0002  -999.2500    10.7477     2.5614  -999.2500
 4498.5920     8.4397      .0016  -999.2500    10.6140     2.5521  -999.2500
 4498.7444     8.4402      .0052  -999.2500     9.9023     2.5419  -999.2500
 4498.8968     8.4408      .0084  -999.2500     9.1905     2.5503  -999.2500
 4499.0492     8.4413     -.0026  -999.2500     8.6888     2.5663  -999.2500
 4499.2016     8.4418     -.0108  -999.2500     9.9602     2.5671  -999.2500
 4499.3540     8.4420     -.0050  -999.2500    11.1642     2.5785  -999.2500
 4499.5064     8.4415      .0025  -999.2500    11.9915     2.6134  -999.2500
 4499.6588     8.4410      .0047  -999.2500    12.1558     2.6356  -999.2500
 4499.8112     8.4405      .0067  -999.2500    11.9080     2.6273  -999.2500
 4499.9636    10.2928      .0339  -999.2500    11.6808     2.6255  -999.2500
