~VERSION INFORMATION
VERS.                                                 2.0:   CWLS Log ASCII Standard-VERSION 2.0
WRAP.                                                  NO:   One line per depth step
~Well Information Block
STRT.M                                          2820.0584:   Top Depth
STOP.M                                          4754.0144:   Bottom Depth
STEP.M                                             .15240:   Depth Increment
NULL.                                            -999.250:   Null Value
FLD .                                             WILDCAT:   Field Name
WELL.                                              15/3-2:   NAME
WBN .                                              15/3-2:   WELLBORE
NATI.                                                 NOR:   COUNTRY
CTRY.                                                 NOR:   COUNTRY
COMP.                             ELF AQUITAINE NORGE A/S:   OPERATOR
PROV.                                           OFF SHORE:   PROVINCE
COUN.                                  POLYGLOMAR DRILLER:   RIG NAME
SPUD.                                          1976/10/25:   SPUD DATE
LATI.                                        58 59 0.50 N:   SURF. LATITUDE
LONG.                                        1 47 12.60 E:   SURF. LONGITUDE
PBWE.                                              15/3-2:   PB WELL ID
APIN.                                              15/3-2:   PB WELLBORE ID
PBWS.                                                 all:   PB WELL NAME SET
~PARAMETER INFORMATION (log)
LNAM.                              FDC/CNL/GR  COMPOSITED:   NAME
LTYP.                                         DEPTH MATCH:   LOG TYPE
LSRV.                                            DEN/NEUT:   LOG SERVICE
LSOU.                                             SPT/NPD:   LOG SOURCE
LVSN.                                                   1:   LOG VERSION
BHIS.                                                   R:   BRIEF HISTORY
FHIS.                                             RAW-LIS:   FULL HISTORY
LCNM.                                        SCHLUMBERGER:   LOGGING CONTRACTOR
TOOL.                             FDC/CNL/GR (COMPOSITED):   TOOL STRING
~Curve Information Block
#MNEM.UNIT                                        API CODE    No Description
#=========                                        ========    == ===========
DEPT.M                                       00 001 00 00:     1  DEPTH
CALI.IN                                                  :     2  Caliper
DRHO.G/CC                                                :     3  Bulk density correction
GR.GAPI                                                  :     4  Gamma Ray
NPHI.%                                                   :     5  Neutron porosity
RHOB.G/CC                                                :     6  Bulk density
TENS.LB                                                  :     7  Cable Tension
~ASCII
# ...
 4737.8600     9.8387      .0121    77.4323    26.3579     2.7696  -999.2500
 4738.0124     9.8261      .0008    79.8462    27.0392     2.7114  -999.2500
 4738.1648     9.8283     -.0069    79.1015    27.9054     2.6899  -999.2500
 4738.3172     9.8888     -.0182    78.3060    29.6357     2.7104  -999.2500
 4738.4696     9.8634     -.0097    82.8821    32.8714     2.7140  -999.2500
 4738.6220     9.8069     -.0144    89.8389    36.5308     2.6488  -999.2500
 4738.7744     9.8651     -.0169    94.3491    38.8080     2.5197  -999.2500
 4738.9268     9.9750     -.0235    97.0120    39.3495     2.4236  -999.2500
 4739.0792    10.1321     -.0202    96.3829    39.5776     2.4084  -999.2500
 4739.2316    10.3419     -.0226    98.7107    38.3118     2.4139  -999.2500
 4739.3840    10.7502     -.0291    98.4810    38.5551     2.4080  -999.2500
 4739.5364    10.9712     -.0469    98.3809    39.0334     2.4033  -999.2500
 4739.6888    10.6652     -.0535    97.1103    39.0460     2.3978  -999.2500
 4739.8412    10.9367     -.0311    95.3142    39.3091     2.4276  -999.2500
 4739.9936    11.6369     -.0270    92.6942    39.3012     2.4337  -999.2500
 4740.1460    11.5964     -.0379    87.3177    38.5222     2.4341  -999.2500
 4740.2984    10.6135     -.0362    83.7187    38.2463     2.4899  -999.2500
 4740.4508     9.7542     -.0095    83.5982    38.9670     2.5809  -999.2500
 4740.6032     9.7049     -.0043    85.0633    40.7099     2.5595  -999.2500
 4740.7556     9.7480     -.0150    84.7109    41.6803     2.4862  -999.2500
 4740.9080     9.8380      .0016    84.5540    41.2371     2.3856  -999.2500
 4741.0604     9.9450      .0067    86.6940    42.2686     2.3019  -999.2500
 4741.2128    10.0292     -.0189    87.6692    42.8004     2.2334  -999.2500
 4741.3652    10.0618     -.0255    87.1218    42.4866     2.2786  -999.2500
 4741.5176    10.1111     -.0239    88.3261    42.9724     2.3155  -999.2500
 4741.6700    10.1271     -.0092    89.4407    46.4757     2.2978  -999.2500
 4741.8224    10.0781     -.0179    88.2350    48.9045     2.2289  -999.2500
 4741.9748    10.0163     -.0214    86.2621    46.8957     2.1254  -999.2500
 4742.1272     9.9688     -.0146    86.7878    43.3306     2.0681  -999.2500
 4742.2796     9.9313     -.0201    89.7176    38.9263     2.1220  -999.2500
 4742.4320     9.8939     -.0234    91.1497    34.8706     2.2333  -999.2500
 4742.5844     9.8566     -.0179    87.0600    31.3151     2.3445  -999.2500
 4742.7368     9.8165     -.0086    84.5246    27.9088     2.4558  -999.2500
 4742.8892     9.7685     -.0027    82.5199    23.1832     2.5535  -999.2500
 4743.0416     9.7353     -.0030    82.3450    19.2211     2.6004  -999.2500
 4743.1940     9.7506     -.0049    85.9081    19.6726     2.6040  -999.2500
 4743.3464     9.7945     -.0056    92.5991    22.2589     2.6054  -999.2500
 4743.4988     9.8664     -.0077    95.9896    24.0805     2.6205  -999.2500
 4743.6512     9.9451     -.0136    94.9616    24.6137     2.6424  -999.2500
 4743.8036     9.9793     -.0157    93.1663    23.5094     2.6694  -999.2500
 4743.9560     9.9778     -.0122    91.3280    21.0241     2.6864  -999.2500
 4744.1084     9.9694     -.0060    87.1580    18.5288     2.6838  -999.2500
 4744.2608     9.9869     -.0007    81.2996    16.2944     2.6626  -999.2500
 4744.4132    10.1157     -.0001    77.8160    13.5723     2.6338  -999.2500
 4744.5656    10.3752     -.0039    77.1350    11.2839     2.6159  -999.2500
 4744.7180    10.5852      .0002    78.2205    10.6479     2.6326  -999.2500
 4744.8704    10.1793      .0130    79.4952    12.9352     2.6515  -999.2500
 4745.0228     9.6317      .0131    80.1350    18.7862     2.6052  -999.2500
 4745.1752     9.6720      .0069    81.5247    24.2191     2.5072  -999.2500
 4745.3276     9.7051      .0061    79.6812    29.1625     2.4311  -999.2500
 4745.4800     9.7016      .0001    76.3528    32.9023     2.4248  -999.2500
 4745.6324     9.6467     -.0054    75.6268    33.8162     2.4709  -999.2500
 4745.7848     9.6352     -.0119    76.7445    31.2692     2.5320  -999.2500
 4745.9372     9.7859     -.0228    77.3151    28.7445     2.5539  -999.2500
 4746.0896     9.9753     -.0359    76.4711    27.7660     2.5331  -999.2500
 4746.2420     9.5560     -.0387    76.2459    27.7889     2.5073  -999.2500
 4746.3944     9.4039     -.0371    77.5074    28.9631     2.5050  -999.2500
 4746.5468     9.7000     -.0406    79.8325    30.7787     2.5297  -999.2500
 4746.6992     9.7202     -.0314    80.8507    32.1204     2.5760  -999.2500
 4746.8516     9.7091     -.0115    78.6019    33.0743     2.6245  -999.2500
 4747.0040     9.7620      .0105    77.0326    33.5068     2.6759  -999.2500
 4747.1564     9.7780      .0378    75.8011    33.1313     2.7440  -999.2500
 4747.3088     9.7748      .0790    75.0437    32.9349     2.8163  -999.2500
 4747.4612     9.7030      .0791    75.6612    33.6200     2.8830  -999.2500
 4747.6136     9.6103     -.0360    75.2750    34.2389     2.8383  -999.2500
 4747.7660     9.4731     -.2026    75.2353    34.5731     2.7153  -999.2500
 4747.9184     9.4233     -.2622    76.8638    35.0357     2.5860  -999.2500
 4748.0708     9.3267     -.2340    78.4388    34.9084     2.5302  -999.2500
 4748.2232     9.1599     -.1976    78.8666    36.2834     2.5521  -999.2500
 4748.3756     8.6307     -.1879    78.8684    38.9358     2.5170  -999.2500
 4748.5280     7.3581     -.2421    78.8703    39.7368     2.4435  -999.2500
 4748.6804     6.2693     -.2800    78.8721    39.2794     2.4170  -999.2500
 4748.8328     5.9999     -.2839    78.8739    38.8286     2.4164  -999.2500
 4748.9852     6.0005     -.2099    78.8758    38.1309     2.5217  -999.2500
 4749.1376     6.0011     -.0644    78.8776    38.5518     2.5611  -999.2500
 4749.2900     6.0017      .0101    78.8795    39.3700     2.5660  -999.2500
 4749.4424     6.0024      .0096    78.8813    39.9219     2.5742  -999.2500
 4749.5948     6.0030     -.0047    78.8831    39.4326     2.5737  -999.2500
 4749.7472     6.0036     -.0120    78.8982    39.3182     2.5555  -999.2500
 4749.8996     6.0042     -.0176    78.9198    39.7118     2.5400  -999.2500
 4750.0520     6.0049     -.0237    78.9422    39.2472     2.5269  -999.2500
 4750.2044     6.0055     -.0517    78.9645    38.8522     2.5082  -999.2500
 4750.3568     6.0061     -.0882    78.9869    39.8337     2.4440  -999.2500
 4750.5092     6.0067     -.0888    79.0092    39.9357     2.4505  -999.2500
 4750.6616     6.0074     -.0794    79.0315    39.5738     2.4741  -999.2500
 4750.8140     6.0080     -.0765    79.0540    39.5020     2.4815  -999.2500
 4750.9664     6.0086     -.0706    79.0763    39.5007     2.4941  -999.2500
 4751.1188     6.0092     -.0584    79.0986    39.4865     2.4934  -999.2500
 4751.2712     6.0125     -.0366    79.1210    39.4700     2.4906  -999.2500
 4751.4236     6.0219      .0104    79.1433    39.4536     2.4596  -999.2500
 4751.5760     6.0306     -.0087    79.1657    39.4261     2.4294  -999.2500
 4751.7284     6.0300     -.0180    79.1881    39.3806     2.4284  -999.2500
 4751.8808     6.0283     -.0107    79.2105    39.3166     2.4029  -999.2500
 4752.0332     6.0265      .0052    79.2328    39.2735     2.4449  -999.2500
 4752.1856     6.0248      .0065    79.2552    39.2938     2.4416  -999.2500
 4752.3380     6.0231      .0034    79.2630    39.3196     2.4425  -999.2500
 4752.4904     6.0213      .0042    79.2358    39.3226     2.4501  -999.2500
 4752.6428     6.0196      .0056    79.2063    39.3227     2.4576  -999.2500
 4752.7952     6.0179      .0025    79.1768    39.3227     2.4629  -999.2500
 4752.9476     6.0161     -.0005    79.1473    39.3473     2.4585  -999.2500
 4753.1000     6.0144     -.0019    79.1178    39.3741     2.4430  -999.2500
 4753.2524     6.0126     -.0026    79.0883    39.4009     2.4282  -999.2500
 4753.4048     6.0109     -.0085    79.0588    39.4277     2.4281  -999.2500
 4753.5572     6.0103     -.0096    79.0490    39.4365  -999.2500  -999.2500
