~VERSION INFORMATION
VERS.                                                 2.0:   CWLS Log ASCII Standard-VERSION 2.0
WRAP.                                                  NO:   One line per depth step
~Well Information Block
STRT.M                                          2820.0584:   Top Depth
STOP.M                                          4754.0144:   Bottom Depth
STEP.M                                             .15240:   Depth Increment
NULL.                                            -999.250:   Null Value
FLD .                                             WILDCAT:   Field Name
WELL.                                              15/3-2:   NAME
WBN .                                              15/3-2:   WELLBORE
NATI.                                                 NOR:   COUNTRY
CTRY.                                                 NOR:   COUNTRY
COMP.                             ELF AQUITAINE NORGE A/S:   OPERATOR
PROV.                                           OFF SHORE:   PROVINCE
COUN.                                  POLYGLOMAR DRILLER:   RIG NAME
SPUD.                                          1976/10/25:   SPUD DATE
LATI.                                        58 59 0.50 N:   SURF. LATITUDE
LONG.                                        1 47 12.60 E:   SURF. LONGITUDE
PBWE.                                              15/3-2:   PB WELL ID
APIN.                                              15/3-2:   PB WELLBORE ID
PBWS.                                                 all:   PB WELL NAME SET
~PARAMETER INFORMATION (log)
LNAM.                              FDC/CNL/GR  COMPOSITED:   NAME
LTYP.                                         DEPTH MATCH:   LOG TYPE
LSRV.                                            DEN/NEUT:   LOG SERVICE
LSOU.                                             SPT/NPD:   LOG SOURCE
LVSN.                                                   1:   LOG VERSION
BHIS.                                                   R:   BRIEF HISTORY
FHIS.                                             RAW-LIS:   FULL HISTORY
LCNM.                                        SCHLUMBERGER:   LOGGING CONTRACTOR
TOOL.                             FDC/CNL/GR (COMPOSITED):   TOOL STRING
~Curve Information Block
#MNEM.UNIT                                        API CODE    No Description
#=========                                        ========    == ===========
DEPT.M                                       00 001 00 00:     1  DEPTH
CALI.IN                                                  :     2  Caliper
DRHO.G/CC                                                :     3  Bulk density correction
GR.GAPI                                                  :     4  Gamma Ray
NPHI.%                                                   :     5  Neutron porosity
RHOB.G/CC                                                :     6  Bulk density
TENS.LB                                                  :     7  Cable Tension
~ASCII
# ...
 2835.9080  -999.2500  -999.2500   100.4502    13.1018  -999.2500  -999.2500
 2836.0604  -999.2500  -999.2500   100.4503    13.1137  -999.2500  -999.2500
 2836.2128  -999.2500  -999.2500   100.4503    13.1256  -999.2500  -999.2500
 2836.3652  -999.2500  -999.2500   100.4504    13.1309  -999.2500  -999.2500
 2836.5176  -999.2500  -999.2500   100.4505    13.1351  -999.2500  -999.2500
 2836.6700  -999.2500  -999.2500   100.4506    13.1393  -999.2500  -999.2500
 2836.8224  -999.2500  -999.2500   100.4507    13.1435  -999.2500  -999.2500
 2836.9748  -999.2500  -999.2500   100.4507    13.1477  -999.2500  -999.2500
 2837.1272  -999.2500  -999.2500   100.4508    13.1519  -999.2500  -999.2500
 2837.2796  -999.2500  -999.2500   100.4509    13.1508  -999.2500  -999.2500
 2837.4320  -999.2500  -999.2500   100.4509    13.1453  -999.2500  -999.2500
 2837.5844  -999.2500  -999.2500   100.4510    13.1397  -999.2500  -999.2500
 2837.7368  -999.2500  -999.2500   100.4511    13.1342  -999.2500  -999.2500
 2837.8892  -999.2500  -999.2500   100.4512    13.1287  -999.2500  -999.2500
 2838.0416  -999.2500  -999.2500   100.4512    13.1231  -999.2500  -999.2500
 2838.1940  -999.2500  -999.2500   100.4449    13.1272  -999.2500  -999.2500
 2838.3464  -999.2500  -999.2500   100.4340    13.1452  -999.2500  -999.2500
 2838.4988  -999.2500  -999.2500   100.4231    13.1633  -999.2500  -999.2500
 2838.6512  -999.2500  -999.2500   100.4122    13.1814  -999.2500  -999.2500
 2838.8036  -999.2500  -999.2500   100.4013    13.1951  -999.2500  -999.2500
 2838.9560  -999.2500  -999.2500   100.3904    13.1666  -999.2500  -999.2500
 2839.1084  -999.2500  -999.2500   100.3795    13.0896  -999.2500  -999.2500
 2839.2608  -999.2500  -999.2500   100.3686    12.8175  -999.2500  -999.2500
 2839.4132  -999.2500  -999.2500   100.3577    12.3318  -999.2500  -999.2500
 2839.5656  -999.2500  -999.2500   100.3468     9.5298  -999.2500  -999.2500
 2839.7180  -999.2500  -999.2500   100.3359     5.9700  -999.2500  -999.2500
 2839.8704  -999.2500  -999.2500   100.3250     2.4045  -999.2500  -999.2500
 2840.0228  -999.2500  -999.2500   100.3141      .2688  -999.2500  -999.2500
 2840.1752  -999.2500  -999.2500   100.3032      .1534  -999.2500  -999.2500
 2840.3276  -999.2500  -999.2500   100.2923      .1621  -999.2500  -999.2500
 2840.4800  -999.2500  -999.2500   100.2814      .1824  -999.2500  -999.2500
 2840.6324  -999.2500  -999.2500   100.2705      .2027  -999.2500  -999.2500
 2840.7848  -999.2500  -999.2500   100.2711      .2230  -999.2500  -999.2500
 2840.9372  -999.2500  -999.2500   100.2742      .2433  -999.2500  -999.2500
 2841.0896  -999.2500  -999.2500   100.2774      .2636  -999.2500  -999.2500
 2841.2420  -999.2500  -999.2500   100.2806      .2839  -999.2500  -999.2500
 2841.3944  -999.2500  -999.2500   100.2837      .2768  -999.2500  -999.2500
 2841.5468  -999.2500  -999.2500   100.2869      .2361  -999.2500  -999.2500
 2841.6992  -999.2500  -999.2500   100.2901      .1954  -999.2500  -999.2500
 2841.8516  -999.2500  -999.2500   100.2933      .2151  -999.2500  -999.2500
 2842.0040  -999.2500  -999.2500   100.2964      .2507  -999.2500  -999.2500
 2842.1564  -999.2500  -999.2500   100.2996      .2863  -999.2500  -999.2500
 2842.3088  -999.2500  -999.2500   100.3028      .3219  -999.2500  -999.2500
 2842.4612  -999.2500  -999.2500   100.3059      .3019  -999.2500  -999.2500
 2842.6136  -999.2500  -999.2500   100.3091      .2804  -999.2500  -999.2500
 2842.7660  -999.2500  -999.2500   100.3123      .2590  -999.2500  -999.2500
 2842.9184  -999.2500  -999.2500   100.5836      .2376  -999.2500  -999.2500
 2843.0708  -999.2500  -999.2500   100.7997      .2245  -999.2500  -999.2500
 2843.2232  -999.2500  -999.2500   100.3392      .2288  -999.2500  -999.2500
 2843.3756  -999.2500  -999.2500   100.3281      .2331  -999.2500  -999.2500
 2843.5280  -999.2500  -999.2500   100.3801      .2252  -999.2500   578.6639
 2843.6804  -999.2500  -999.2500   100.4321      .1935  -999.2500   568.5250
 2843.8328  -999.2500  -999.2500   100.4540      .1456  -999.2500   702.5450
 2843.9852  -999.2500  -999.2500   100.4643      .1797  -999.2500   678.9628
 2844.1376  -999.2500  -999.2500   100.4745      .3101  -999.2500   495.4833
 2844.2900  -999.2500  -999.2500   100.4848      .6195  -999.2500   577.4148
 2844.4424  -999.2500  -999.2500   100.4951     1.8984  -999.2500   549.0255
 2844.5948  -999.2500  -999.2500   100.5053    11.3453  -999.2500   677.6952
 2844.7472  -999.2500  -999.2500   100.5156    23.3366  -999.2500   551.8845
 2844.8996  -999.2500  -999.2500   100.5258    30.1341  -999.2500   539.7161
 2845.0520  -999.2500  -999.2500   100.5361    30.1594  -999.2500   633.7853
 2845.2044  -999.2500  -999.2500   100.5464    30.1518  -999.2500   650.9857
 2845.3568  -999.2500  -999.2500   100.5566    30.1442  -999.2500   497.5999
 2845.5092  -999.2500  -999.2500   100.5669    30.1366  -999.2500   581.9955
 2845.6616     8.5472  -999.2500   100.5771    30.1290  -999.2500   552.7999
 2845.8140     9.3300  -999.2500   100.5874    30.1214  -999.2500   528.3427
 2845.9664    10.1115  -999.2500   100.5977    30.1138  -999.2500   640.2660
 2846.1188    10.8930  -999.2500   100.6079    30.1062  -999.2500   863.1001
 2846.2712    11.6745  -999.2500   100.6182    30.0986  -999.2500   912.2736
 2846.4236    12.4561  -999.2500   100.6284    30.0910  -999.2500   796.5725
 2846.5760    12.5722  -999.2500   100.6387    30.0834  -999.2500   826.4332
 2846.7284    12.5835  -999.2500   100.5924    30.0758  -999.2500   817.4240
 2846.8808    12.5711  -999.2500   100.5435    30.0682  -999.2500   900.8380
 2847.0332    12.5924  -999.2500   100.4947    30.0607  -999.2500   834.2976
 2847.1856    12.6312  -999.2500   100.4458    30.0531  -999.2500   922.8306
 2847.3380    12.6407  -999.2500   100.3970    30.0455  -999.2500   962.0559
 2847.4904    12.6343  -999.2500   100.3481    30.0379  -999.2500   979.2399
 2847.6428    12.6199  -999.2500   100.2993    30.0303  -999.2500   856.9332
 2847.7952    12.6021  -999.2500   100.2504    30.0227  -999.2500   924.6506
 2847.9476    12.5581  -999.2500   100.2016    30.0151  -999.2500  1013.4269
 2848.1000    12.5275  -999.2500   100.1528    30.0075  -999.2500  1055.0398
 2848.2524    12.5155  -999.2500    99.8231    29.9999  -999.2500  1016.6228
 2848.4048    12.5145  -999.2500    99.0639    29.9923  -999.2500   957.4606
 2848.5572    12.5323  -999.2500    97.3263    29.9847  -999.2500   860.0580
 2848.7096    12.5181  -999.2500    94.2459    29.9771  -999.2500   725.0110
 2848.8620    12.5207  -999.2500    86.0707    29.9895  -999.2500   759.9879
 2849.0144    12.5302  -999.2500    55.5068     3.9013  -999.2500   615.1238
 2849.1668    12.5292  -999.2500    24.8939   -15.0271  -999.2500   932.6750
 2849.3192    12.5282  -999.2500     -.5518   -15.0337  -999.2500  1074.0925
 2849.4716    12.5295  -999.2500     -.4930   -15.0404  -999.2500  1108.5791
 2849.6240    12.5456  -999.2500     -.4342   -15.0470  -999.2500  1072.3784
 2849.7764    12.5449      .0002     -.3753   -15.0537     2.5019  1053.9102
 2849.9288    12.5435      .0002     -.3166   -15.0603     2.5019  1017.1490
 2850.0812    12.5422      .0003     -.2578   -15.0670     2.5019   944.7695
 2850.2336    12.5408      .0003     -.1990   -15.0736     2.5019   769.8949
 2850.3860    12.5395      .0004     -.1402   -15.0803     2.5019   681.0912
 2850.5384    12.5314      .0004     -.0813   -15.0869     2.5019   754.0791
 2850.6908    12.5199      .0005     -.0225   -15.0936     2.5018   777.2786
 2850.8432    12.5152      .0005      .0363   -15.1002     2.5018   823.3544
 2850.9956    12.5137      .0006      .0951   -15.1069     2.5018   885.0494
 2851.1480    12.5030      .0006      .1540   -15.1136     2.5018   768.0066
 2851.3004    12.5124      .0007      .2128   -15.1202     2.5018   928.2910
 2851.4528    12.5290      .0007      .2716   -15.1269     2.5018   955.4917
 2851.6052    12.5275      .0008      .3304   -15.1335     2.5018  1039.9836
