~VERSION INFORMATION
VERS.                                                 2.0:   CWLS Log ASCII Standard-VERSION 2.0
WRAP.                                                  NO:   One line per depth step
~Well Information Block
STRT.M                                          2820.0584:   Top Depth
STOP.M                                          4754.0144:   Bottom Depth
STEP.M                                             .15240:   Depth Increment
NULL.                                            -999.250:   Null Value
FLD .                                             WILDCAT:   Field Name
WELL.                                              15/3-2:   NAME
WBN .                                              15/3-2:   WELLBORE
NATI.                                                 NOR:   COUNTRY
CTRY.                                                 NOR:   COUNTRY
COMP.                             ELF AQUITAINE NORGE A/S:   OPERATOR
PROV.                                           OFF SHORE:   PROVINCE
COUN.                                  POLYGLOMAR DRILLER:   RIG NAME
SPUD.                                          1976/10/25:   SPUD DATE
LATI.                                        58 59 0.50 N:   SURF. LATITUDE
LONG.                                        1 47 12.60 E:   SURF. LONGITUDE
PBWE.                                              15/3-2:   PB WELL ID
APIN.                                              15/3-2:   PB WELLBORE ID
PBWS.                                                 all:   PB WELL NAME SET
~PARAMETER INFORMATION (log)
LNAM.                              FDC/CNL/GR  COMPOSITED:   NAME
LTYP.                                         DEPTH MATCH:   LOG TYPE
LSRV.                                            DEN/NEUT:   LOG SERVICE
LSOU.                                             SPT/NPD:   LOG SOURCE
LVSN.                                                   1:   LOG VERSION
BHIS.                                                   R:   BRIEF HISTORY
FHIS.                                             RAW-LIS:   FULL HISTORY
LCNM.                                        SCHLUMBERGER:   LOGGING CONTRACTOR
TOOL.                             FDC/CNL/GR (COMPOSITED):   TOOL STRING
~Curve Information Block
#MNEM.UNIT                                        API CODE    No Description
#=========                                        ========    == ===========
DEPT.M                                       00 001 00 00:     1  DEPTH
CALI.IN                                                  :     2  Caliper
DRHO.G/CC                                                :     3  Bulk density correction
GR.GAPI                                                  :     4  Gamma Ray
NPHI.%                                                   :     5  Neutron porosity
RHOB.G/CC                                                :     6  Bulk density
TENS.LB                                                  :     7  Cable Tension
~ASCII
# ...
 4357.4696     8.8395     -.0012    97.1007    33.8112     2.5697  -999.2500
 4357.6220     8.8407     -.0002    96.0025    33.7987     2.5527  -999.2500
 4357.7744     8.8418      .0033    91.5488    32.9198     2.5625  -999.2500
 4357.9268     8.8430      .0028    90.2026    32.5624     2.5793  -999.2500
 4358.0792     8.8441     -.0005    91.5519    32.9771     2.5813  -999.2500
 4358.2316     8.8452     -.0015    87.3203    33.0487     2.5841  -999.2500
 4358.3840     8.8464     -.0017    84.0328    31.9005     2.6033  -999.2500
 4358.5364     8.8475     -.0014    82.0210    29.8840     2.6517  -999.2500
 4358.6888     8.8487      .0002    82.6302    29.3633     2.6877  -999.2500
 4358.8412     8.8498     -.0000    89.8873    30.8448     2.6475  -999.2500
 4358.9936     8.8492     -.0024    88.3353    32.6305     2.5788  -999.2500
 4359.1460     8.8483     -.0056    80.2557    31.6084     2.5516  -999.2500
 4359.2984     8.8475     -.0087    69.5303    27.7834     2.5537  -999.2500
 4359.4508     8.8466     -.0131    56.6495    23.7978     2.6111  -999.2500
 4359.6032     8.8457     -.0134    46.0064    18.9837     2.6577  -999.2500
 4359.7556     8.8448     -.0098    41.1407    13.6224     2.7041  -999.2500
 4359.9080     8.8439     -.0081    41.4190    11.4065     2.7117  -999.2500
 4360.0604     8.8430     -.0108    42.6357    12.3841     2.7039  -999.2500
 4360.2128     8.8421     -.0079    46.0383    13.8520     2.7282  -999.2500
 4360.3652     8.8414     -.0083    54.7988    15.4649     2.7547  -999.2500
 4360.5176     8.8425     -.0093    66.1043    18.2628     2.7838  -999.2500
 4360.6700     8.8436      .0058    79.5205    22.8523     2.7734  -999.2500
 4360.8224     8.8448      .0232    91.6474    28.1626     2.7107  -999.2500
 4360.9748     8.8459      .0024    94.7310    31.7291     2.6145  -999.2500
 4361.1272     8.8471     -.0166    92.9686    31.5327     2.5737  -999.2500
 4361.2796     8.8482     -.0114    92.9416    30.9763     2.5922  -999.2500
 4361.4320     8.8494      .0071    92.5538    31.5664     2.6208  -999.2500
 4361.5844     8.8505      .0164    92.0464    32.3099     2.6132  -999.2500
 4361.7368     8.8516      .0077    91.7403    32.6198     2.5872  -999.2500
 4361.8892     8.8528      .0046    92.7559    32.5627     2.5646  -999.2500
 4362.0416     8.8539      .0066    94.6914    31.7354     2.5695  -999.2500
 4362.1940     8.8551      .0075    92.7129    30.5007     2.5871  -999.2500
 4362.3464     8.8562      .0099    89.7294    30.5034     2.6157  -999.2500
 4362.4988     8.8573      .0124    87.2694    30.9999     2.6350  -999.2500
 4362.6512     8.8585      .0121    81.6712    30.2942     2.6892  -999.2500
 4362.8036     8.8596      .0035    77.0267    27.9999     2.7458  -999.2500
 4362.9560     8.8608      .0014    76.7068    26.0641     2.7820  -999.2500
 4363.1084     8.8574      .0110    83.4006    27.6689     2.7713  -999.2500
 4363.2608     8.8531      .0158    89.1206    30.0709     2.7022  -999.2500
 4363.4132     8.8488      .0158    90.3366    31.7961     2.6278  -999.2500
 4363.5656     8.8445      .0141    85.6272    31.2911     2.5892  -999.2500
 4363.7180     8.8402      .0113    79.1087    29.1715     2.5708  -999.2500
 4363.8704     8.8359      .0074    74.5832    27.2893     2.5830  -999.2500
 4364.0228     8.8316      .0026    66.9607    25.4373     2.6171  -999.2500
 4364.1752     8.8328     -.0005    61.2513    23.6248     2.6355  -999.2500
 4364.3276     8.8388     -.0027    61.7161    22.1013     2.6413  -999.2500
 4364.4800     8.8448     -.0011    69.5176    22.4737     2.6244  -999.2500
 4364.6324     8.8508      .0014    78.5471    25.3972     2.6059  -999.2500
 4364.7848     8.8568     -.0001    87.6733    28.4991     2.5896  -999.2500
 4364.9372     8.8628     -.0044    88.3712    30.3398     2.5861  -999.2500
 4365.0896     8.8688     -.0052    89.1058    31.3243     2.5867  -999.2500
 4365.2420     8.8748     -.0004    91.0942    31.7781     2.5641  -999.2500
 4365.3944     8.8808      .0057    94.7604    31.1158     2.5604  -999.2500
 4365.5468     8.8868      .0096    97.7509    31.0142     2.5664  -999.2500
 4365.6992     8.8928      .0087    96.2102    31.7210     2.5677  -999.2500
 4365.8516     8.8988      .0106    94.2474    32.4260     2.5658  -999.2500
 4366.0040     8.9028      .0127    92.7134    32.7783     2.5904  -999.2500
 4366.1564     8.9018      .0032    88.3850    32.3616     2.6287  -999.2500
 4366.3088     8.9009     -.0114    81.7912    31.5093     2.6686  -999.2500
 4366.4612     8.8999     -.0259    76.4712    30.0314     2.7177  -999.2500
 4366.6136     8.8989     -.0331    73.8719    27.9301     2.7746  -999.2500
 4366.7660     8.8980      .0016    78.6575    28.4609     2.7736  -999.2500
 4366.9184     8.8970      .0128    90.9062    30.8429     2.7330  -999.2500
 4367.0708     8.8961      .0072    98.9358    32.0499     2.6274  -999.2500
 4367.2232     8.8951      .0006   100.4651    32.7762     2.5727  -999.2500
 4367.3756     8.8941     -.0032    98.8666    32.8098     2.5705  -999.2500
 4367.5280     8.8977     -.0014    95.9214    31.8843     2.5822  -999.2500
 4367.6804     8.9020     -.0063    92.2022    32.2068     2.6337  -999.2500
 4367.8328     8.9064     -.0142    87.8860    31.2380     2.6868  -999.2500
 4367.9852     8.9108     -.0090    90.0413    29.4111     2.7041  -999.2500
 4368.1376     8.9151      .0011    94.4998    29.9881     2.6581  -999.2500
 4368.2900     8.9195      .0084    97.5413    29.9256     2.6211  -999.2500
 4368.4424     8.9216      .0110    99.7042    30.3456     2.6323  -999.2500
 4368.5948     8.9227      .0067    99.9919    31.4013     2.6349  -999.2500
 4368.7472     8.9239      .0099    99.3729    31.3367     2.6400  -999.2500
 4368.8996     8.9052      .0219    95.7097    30.5512     2.6447  -999.2500
 4369.0520     8.8995      .0259    89.4727    29.6791     2.6702  -999.2500
 4369.2044     8.8876      .0099    86.1772    28.7608     2.7002  -999.2500
 4369.3568     8.8888     -.0076    86.6410    27.6939     2.7348  -999.2500
 4369.5092     8.8899     -.0034    84.9280    26.4158     2.7705  -999.2500
 4369.6616     8.8911      .0062    87.1982    26.9454     2.7320  -999.2500
 4369.8140     8.8922      .0024    91.6903    29.3006     2.6399  -999.2500
 4369.9664     8.8933     -.0057    93.0655    31.6402     2.5624  -999.2500
 4370.1188     8.8945     -.0081    90.5738    31.2137     2.5652  -999.2500
 4370.2712     8.8956     -.0044    91.1384    31.6623     2.5700  -999.2500
 4370.4236     8.8967     -.0068    92.3064    31.9717     2.5754  -999.2500
 4370.5760     8.8979     -.0094    93.5397    31.5953     2.5924  -999.2500
 4370.7284     8.8990     -.0040    92.3639    30.5821     2.6187  -999.2500
 4370.8808     8.9002     -.0063    90.4924    29.3709     2.6232  -999.2500
 4371.0332     8.9013     -.0132    90.7743    28.6910     2.6324  -999.2500
 4371.1856     8.8990     -.0227    91.2399    29.1521     2.6397  -999.2500
 4371.3380     8.8893     -.0374    90.4014    28.3209     2.6419  -999.2500
 4371.4904     8.8862     -.0544    86.1264    27.0596     2.6769  -999.2500
 4371.6428     8.8898     -.0365    82.7055    26.1680     2.7114  -999.2500
 4371.7952     8.8935      .0013    83.7401    27.0680     2.6904  -999.2500
 4371.9476     8.8972      .0026    90.7179    29.8328     2.6566  -999.2500
 4372.1000     8.9009      .0034    96.9718    32.5976     2.5835  -999.2500
 4372.2524     8.9046      .0036   100.1882    32.9336     2.5835  -999.2500
 4372.4048     8.9082      .0030   104.9482    32.3631     2.5887  -999.2500
 4372.5572     8.9119     -.0011   104.7646    31.6304     2.6027  -999.2500
 4372.7096     8.9154     -.0086   103.2936    32.3369     2.5993  -999.2500
 4372.8620     8.9189     -.0056   101.8233    32.7547     2.5842  -999.2500
 4373.0144     8.9223      .0012   100.1395    32.6317     2.5783  -999.2500
 4373.1668     8.9257      .0013    93.7749    31.7307     2.5801  -999.2500
