~VERSION INFORMATION
VERS.                                                 2.0:   CWLS Log ASCII Standard-VERSION 2.0
WRAP.                                                  NO:   One line per depth step
~Well Information Block
STRT.M                                          2820.0584:   Top Depth
STOP.M                                          4754.0144:   Bottom Depth
STEP.M                                             .15240:   Depth Increment
NULL.                                            -999.250:   Null Value
FLD .                                             WILDCAT:   Field Name
WELL.                                              15/3-2:   NAME
WBN .                                              15/3-2:   WELLBORE
NATI.                                                 NOR:   COUNTRY
CTRY.                                                 NOR:   COUNTRY
COMP.                             ELF AQUITAINE NORGE A/S:   OPERATOR
PROV.                                           OFF SHORE:   PROVINCE
COUN.                                  POLYGLOMAR DRILLER:   RIG NAME
SPUD.                                          1976/10/25:   SPUD DATE
LATI.                                        58 59 0.50 N:   SURF. LATITUDE
LONG.                                        1 47 12.60 E:   SURF. LONGITUDE
PBWE.                                              15/3-2:   PB WELL ID
APIN.                                              15/3-2:   PB WELLBORE ID
PBWS.                                                 all:   PB WELL NAME SET
~PARAMETER INFORMATION (log)
LNAM.                              FDC/CNL/GR  COMPOSITED:   NAME
LTYP.                                         DEPTH MATCH:   LOG TYPE
LSRV.                                            DEN/NEUT:   LOG SERVICE
LSOU.                                             SPT/NPD:   LOG SOURCE
LVSN.                                                   1:   LOG VERSION
BHIS.                                                   R:   BRIEF HISTORY
FHIS.                                             RAW-LIS:   FULL HISTORY
LCNM.                                        SCHLUMBERGER:   LOGGING CONTRACTOR
TOOL.                             FDC/CNL/GR (COMPOSITED):   TOOL STRING
~Curve Information Block
#MNEM.UNIT                                        API CODE    No Description
#=========                                        ========    == ===========
DEPT.M                                       00 001 00 00:     1  DEPTH
CALI.IN                                                  :     2  Caliper
DRHO.G/CC                                                :     3  Bulk density correction
GR.GAPI                                                  :     4  Gamma Ray
NPHI.%                                                   :     5  Neutron porosity
RHOB.G/CC                                                :     6  Bulk density
TENS.LB                                                  :     7  Cable Tension
~ASCII
# ...
 3596.6888    12.3586      .0116    23.4041     7.4259     2.6255  2916.9312
 3596.8412    12.3665     -.0005    24.1764     7.8795     2.5988  3526.0254
 3596.9936    12.3584     -.0102    24.1757     7.5859     2.5908  3945.8926
 3597.1460    12.3682     -.0051    24.0616     7.2857     2.5985  3270.7896
 3597.2984    12.3583      .0025    23.4652     7.8714     2.6126  2886.2783
 3597.4508    12.3582      .0027    23.6138     8.4070     2.6173  2903.2173
 3597.6032    12.3509      .0027    24.1727     8.8397     2.6040  2824.8936
 3597.7556    12.3580      .0103    24.4484     9.2623     2.5950  2762.6899
 3597.9080    12.3579      .0171    23.7532     9.0608     2.6089  2732.4595
 3598.0604    12.3610      .0211    22.8164     8.4791     2.6266  2755.8965
 3598.2128    12.3643      .0193    20.3840     7.8847     2.6274  2631.6499
 3598.3652    12.3577      .0215    19.9599     7.2902     2.6355  2687.1396
 3598.5176    12.3612      .0173    20.6299     6.9958     2.6262  2827.7173
 3598.6700    12.3476      .0106    20.1239     6.7342     2.6175  2939.5444
 3598.8224    12.3534      .0018    20.5614     6.4939     2.6069  3089.8779
 3598.9748    12.3515      .0056    20.6014     6.1944     2.6222  3339.4756
 3599.1272    12.3516      .0108    21.4918     6.0863     2.6473  3065.9448
 3599.2796    12.3571      .0135    21.3241     5.9805     2.6493  2788.7354
 3599.4320    12.3517      .0104    21.3913     5.8679     2.6333  2889.8022
 3599.5844    12.3522      .0096    21.3169     5.7743     2.6258  2818.2905
 3599.7368    12.3470      .0117    21.4673     5.7944     2.6294  2832.3203
 3599.8892    12.3520      .0103    22.7580     5.9036     2.6153  2901.9893
 3600.0416    12.3567      .0086    23.1706     6.1704     2.6169  2778.5630
 3600.1940    12.3521      .0088    22.3027     6.3509     2.6100  2932.4839
 3600.3464    12.3510      .0019    21.7184     6.5710     2.5988  2925.2544
 3600.4988    12.3138     -.0069    22.3712     6.8717     2.5874  2925.3623
 3600.6512    12.3467     -.0089    23.1700     7.7980     2.5883  2836.5161
 3600.8036    12.3568     -.0092    23.0733     8.7924     2.5758  2827.2930
 3600.9560    12.3570     -.0090    23.5262     9.0054     2.5743  2719.0532
 3601.1084    12.3572     -.0033    23.4567     8.7664     2.5886  2924.3672
 3601.2608    12.3573      .0036    22.8208     8.5894     2.6069  2990.6631
 3601.4132    12.3476      .0024    21.7848     8.2484     2.6130  3019.1997
 3601.5656    12.3478     -.0043    21.7503     7.9986     2.5985  3379.7036
 3601.7180    12.3547      .0052    21.4866     7.7413     2.6071  3477.6787
 3601.8704    12.3550      .0139    21.6721     7.6420     2.6092  3533.6074
 3602.0228    12.3582      .0122    22.4123     8.1912     2.5985  3198.1860
 3602.1752    12.3584      .0044    22.0195     8.8635     2.5832  3368.8447
 3602.3276    12.3586      .0015    19.8227     9.3872     2.5770  3509.7822
 3602.4800    12.3588      .0023    17.4487     9.0973     2.5679  3040.4795
 3602.6324    12.3590      .0049    16.4609     9.3626     2.5631  2851.7324
 3602.7848    12.3492      .0057    16.9822     9.6948     2.5478  2784.7905
 3602.9372    12.3494      .0077    17.2928     9.6492     2.5470  2841.6191
 3603.0896    12.3496      .0139    16.9963     9.2957     2.5494  2847.5894
 3603.2420    12.3517      .0135    16.7341     8.9346     2.5521  2933.0176
 3603.3944    12.3580      .0148    16.6020     8.6268     2.5566  2941.8252
 3603.5468    12.3600      .0169    17.1017     8.3740     2.5567  2981.4434
 3603.6992    12.3587      .0129    17.3647     8.3786     2.5586  2838.0649
 3603.8516    12.3604      .0169    17.8041     8.6480     2.5664  2730.5928
 3604.0040    12.3507      .0239    18.0341     8.7054     2.5793  2083.4380
 3604.1564    12.3509      .0236    18.1417     8.7948     2.5839   254.3470
 3604.3088    12.3511      .0185    18.2381     8.9613     2.5803   109.0937
 3604.4612    12.3512      .0147    17.8412     9.1218     2.5675   132.7157
 3604.6136    12.3514      .0134    16.4264     8.6083     2.5539   312.9257
 3604.7660    12.3516      .0142    15.4431     8.1394     2.5493   396.1431
 3604.9184    12.3518      .0093    16.1609     7.6722     2.5551   392.7416
 3605.0708    12.3520      .0019    17.3044     7.2396     2.5640   268.4140
 3605.2232    12.3521      .0034    18.1395     6.9186     2.5962   296.5098
 3605.3756    12.3523      .0086    18.6555     7.4969     2.6269   399.9239
 3605.5280    12.3328      .0158    18.8868     8.2656     2.6296   271.2580
 3605.6804    12.3329      .0341    19.3282     7.7879     2.6411   231.6176
 3605.8328    12.3333      .0322    20.0514     7.1868     2.6361   164.0446
 3605.9852    12.3332      .0246    20.0756     6.7212     2.6180   186.4783
 3606.1376    12.3339      .0159    20.7509     6.3438     2.6062   251.7422
 3606.2900    12.3336      .0107    21.1731     6.1716     2.6137   311.5022
 3606.4424    12.3338      .0041    20.6646     6.6847     2.6138   457.1600
 3606.5948    12.3340     -.0021    20.6664     6.9160     2.6121   494.7603
 3606.7472    12.3341     -.0072    20.2123     6.7540     2.5961   273.2807
 3606.8996    12.3343     -.0056    19.4948     6.5373     2.5905   538.7838
 3607.0520    12.3457      .0029    18.6012     6.3202     2.5989   439.8497
 3607.2044    12.3564     -.0050    18.1041     6.2254     2.6031   471.9693
 3607.3568    12.3615     -.0037    17.9046     6.5208     2.5978   401.6153
 3607.5092    12.3648     -.0060    17.9050     6.4906     2.5951   389.6480
 3607.6616    12.3649      .0037    18.1077     6.2493     2.5958   257.0621
 3607.8140    12.3651      .0030    18.8054     6.1401     2.6025   282.9079
 3607.9664    12.3653      .0055    20.4899     6.6951     2.6102   205.8151
 3608.1188    12.3655      .0181    21.0606     7.3053     2.6162   189.9162
 3608.2712    12.3642      .0170    20.5945     8.1037     2.6027   408.2072
 3608.4236    12.3625      .0058    21.2014     8.1529     2.5721   490.7987
 3608.5760    12.3608     -.0018    21.5031     7.8309     2.5685   640.8804
 3608.7284    12.3590      .0153    22.0779     8.0324     2.5816   354.0751
 3608.8808    12.3573      .0324    21.6707     8.5956     2.6084   513.5177
 3609.0332    12.3555      .0333    21.5721     8.6466     2.6280   494.2527
 3609.1856    12.3538      .0179    20.9333     8.2300     2.6065   202.0862
 3609.3380    12.3520      .0119    19.6480     7.8072     2.5849   370.2678
 3609.4904    12.3503      .0017    18.8354     7.2861     2.5812   327.5813
 3609.6428    12.3485     -.0052    19.4232     7.1223     2.5777   472.6146
 3609.7952    12.3488      .0050    20.9813     7.2117     2.5798   309.3270
 3609.9476    12.3516      .0193    21.6963     7.3296     2.5937   426.4407
 3610.1000    12.3544      .0105    21.7431     7.4576     2.5953   726.0265
 3610.2524    12.3572      .0055    22.6154     7.5458     2.5933   555.1431
 3610.4048    12.3583      .0025    22.6187     7.5781     2.6001   643.7439
 3610.5572    12.3585     -.0005    22.6401     7.6264     2.5902   644.6670
 3610.7096    12.3495     -.0008    21.9910     7.4345     2.5836   796.6863
 3610.8620    12.3583      .0026    21.6082     7.1045     2.5796   582.9116
 3611.0144    12.3590     -.0003    21.2240     6.8036     2.5712   424.1086
 3611.1668    12.3592      .0054    19.7811     6.7674     2.5684   302.6027
 3611.3192    12.3594      .0073    18.8801     6.9913     2.5702   291.0778
 3611.4716    12.3596      .0046    18.1195     6.8785     2.5811   345.1166
 3611.6240    12.3597     -.0023    17.7879     6.5217     2.5893   357.8497
 3611.7764    12.3599     -.0090    18.2207     5.6677     2.5878   450.0020
 3611.9288    12.3601      .0012    18.9476     5.2657     2.5867   487.6542
 3612.0812    12.3706      .0061    19.1474     5.8494     2.5722   707.9171
 3612.2336    12.3605      .0037    19.6208     7.4779     2.5734   555.6010
 3612.3860    12.3606      .0036    19.2320     7.0712     2.5734   405.7902
