~VERSION INFORMATION
VERS.                                                 2.0:   CWLS Log ASCII Standard-VERSION 2.0
WRAP.                                                  NO:   One line per depth step
~Well Information Block
STRT.M                                          2820.0584:   Top Depth
STOP.M                                          4754.0144:   Bottom Depth
STEP.M                                             .15240:   Depth Increment
NULL.                                            -999.250:   Null Value
FLD .                                             WILDCAT:   Field Name
WELL.                                              15/3-2:   NAME
WBN .                                              15/3-2:   WELLBORE
NATI.                                                 NOR:   COUNTRY
CTRY.                                                 NOR:   COUNTRY
COMP.                             ELF AQUITAINE NORGE A/S:   OPERATOR
PROV.                                           OFF SHORE:   PROVINCE
COUN.                                  POLYGLOMAR DRILLER:   RIG NAME
SPUD.                                          1976/10/25:   SPUD DATE
LATI.                                        58 59 0.50 N:   SURF. LATITUDE
LONG.                                        1 47 12.60 E:   SURF. LONGITUDE
PBWE.                                              15/3-2:   PB WELL ID
APIN.                                              15/3-2:   PB WELLBORE ID
PBWS.                                                 all:   PB WELL NAME SET
~PARAMETER INFORMATION (log)
LNAM.                              FDC/CNL/GR  COMPOSITED:   NAME
LTYP.                                         DEPTH MATCH:   LOG TYPE
LSRV.                                            DEN/NEUT:   LOG SERVICE
LSOU.                                             SPT/NPD:   LOG SOURCE
LVSN.                                                   1:   LOG VERSION
BHIS.                                                   R:   BRIEF HISTORY
FHIS.                                             RAW-LIS:   FULL HISTORY
LCNM.                                        SCHLUMBERGER:   LOGGING CONTRACTOR
TOOL.                             FDC/CNL/GR (COMPOSITED):   TOOL STRING
~Curve Information Block
#MNEM.UNIT                                        API CODE    No Description
#=========                                        ========    == ===========
DEPT.M                                       00 001 00 00:     1  DEPTH
CALI.IN                                                  :     2  Caliper
DRHO.G/CC                                                :     3  Bulk density correction
GR.GAPI                                                  :     4  Gamma Ray
NPHI.%                                                   :     5  Neutron porosity
RHOB.G/CC                                                :     6  Bulk density
TENS.LB                                                  :     7  Cable Tension
~ASCII
# ...
 3343.0952    12.3989     -.0015    25.8220    15.6274     2.5561  3990.5000
 3343.2476    12.3948     -.0008    27.2023    16.0175     2.5622  3156.9614
 3343.4000    12.3942      .0011    27.4162    16.2276     2.5581  2323.3833
 3343.5524    12.3936      .0064    28.0976    16.4043     2.5612  1489.8052
 3343.7048    12.3929      .0038    29.6806    16.4158     2.5592   654.9906
 3343.8572    12.3987      .0047    30.7930    16.0668     2.5615   -75.0710
 3344.0096    12.3950      .0071    30.2989    15.0809     2.5799   -47.5411
 3344.1620    12.3963      .0108    29.9960    13.7842     2.5844   -20.0113
 3344.3144    12.3879      .0147    29.4143    13.2729     2.5921  1859.5520
 3344.4668    12.3896      .0038    26.6894    13.5809     2.5739  6787.6318
 3344.6192    12.3891     -.0040    25.3583    14.4330     2.5537  5998.7207
 3344.7716    12.3933     -.0128    26.3191    15.8396     2.5507  5209.8096
 3344.9240    12.3878     -.0075    27.6493    17.8258     2.5427  4419.4746
 3345.0764    12.3872     -.0037    27.2782    18.4279     2.5425  3630.4648
 3345.2288    12.3866     -.0073    25.5065    18.0472     2.5410  2841.3853
 3345.3812    12.3979     -.0080    25.3451    17.1702     2.5378  2052.3052
 3345.5336    12.3853     -.0052    26.3884    15.1113     2.5456  1263.2256
 3345.6860    12.3847      .0008    26.6918    12.7660     2.5652   472.9604
 3345.8384    12.3840      .0073    26.4824    10.6852     2.6059     5.6751
 3345.9908    12.3834      .0071    26.6743    10.1313     2.6079    -2.8846
 3346.1432    12.3827      .0017    28.6194    10.5042     2.5817    21.9188
 3346.2956    12.3821      .0001    29.5890    12.0037     2.5669   736.6049
 3346.4480    12.3815      .0061    29.0998    13.0753     2.5864   728.4379
 3346.6004    12.3808      .0013    29.3416    13.8014     2.5890    47.1227
 3346.7528    12.3802      .0048    29.5958    15.1238     2.5866   -17.5879
 3346.9052    12.3796      .0032    28.9266    16.1717     2.5625   -23.9153
 3347.0576    12.3789      .0070    29.6469    16.2107     2.5601  1071.5967
 3347.2100    12.3791      .0325    30.2956    15.4041     2.5690  6557.7852
 3347.3624    12.3777      .0513    30.1711    14.1670     2.5832  6546.0879
 3347.5148    12.3795      .0371    30.7232    13.0078     2.5620  5692.5996
 3347.6672    12.3863      .0072    32.2375    12.6959     2.5491  4837.6611
 3347.8196    12.3884      .0091    32.9167    13.3297     2.5421  3984.0889
 3347.9720    12.3934      .0278    32.8262    14.3289     2.5530  3130.5171
 3348.1244    12.3938      .0300    31.8235    14.8197     2.5743  2277.0225
 3348.2768    12.3936      .0154    30.8380    16.1017     2.5669  1421.9966
 3348.4292    12.3930      .0145    31.4935    17.6754     2.5688   633.4208
 3348.5816    12.3924      .0020    31.2848    17.0519     2.5552  1637.6133
 3348.7340    12.3917      .0061    30.3971    15.5945     2.5486  1500.4272
 3348.8864    12.3945      .0072    30.7386    13.3108     2.5541   612.9497
 3349.0388    12.3905      .0095    30.0100    11.6201     2.5703    15.7338
 3349.1912    12.3854      .0111    28.9357    11.1684     2.5854   311.5920
 3349.3436    12.3892      .0132    27.7808    12.4030     2.5912  2657.1475
 3349.4960    12.3899      .0215    27.1785    12.4175     2.5892  3794.7568
 3349.6484    12.4002      .0079    27.4314    12.6426     2.5664  2827.6514
 3349.8008    12.3972      .0017    27.5986    13.8258     2.5536  1862.0911
 3349.9532    12.3936      .0061    28.9416    14.1423     2.5571   998.7192
 3350.1056    12.3972      .0100    30.3173    14.0133     2.5672   514.4050
 3350.2580    12.3974      .0133    28.9477    14.2129     2.5760   -10.2318
 3350.4104    12.3949      .0140    30.4758    14.0886     2.5758   -46.0150
 3350.5628    12.3944     -.0001    30.6202    13.8412     2.5627  -122.2720
 3350.7152    12.3923     -.0047    29.7330    13.6925     2.5674  -302.8474
 3350.8676    12.3834     -.0009    29.3090    13.7916     2.5744  -326.6135
 3351.0200    12.3829      .0051    29.5603    13.9740     2.5801  -381.9330
 3351.1724    12.3874      .0096    30.0191    14.0071     2.5752  -434.0002
 3351.3248    12.3918      .0118    28.7772    13.9169     2.5708  -126.1231
 3351.4772    12.3912      .0074    29.0213    13.8130     2.5735   597.4589
 3351.6296    12.4016      .0016    30.8475    14.5485     2.5764   611.5895
 3351.7820    12.4002     -.0008    32.1455    15.0790     2.5667   125.6519
 3351.9344    12.4029     -.0026    32.0683    14.6002     2.5549  -355.4597
 3352.0868    12.3893     -.0041    29.9399    13.8279     2.5487  -317.4842
 3352.2392    12.3988     -.0053    28.5858    12.8002     2.5531  -353.0690
 3352.3916    12.3919     -.0056    26.8161    12.3297     2.5606  -457.2905
 3352.5440    12.3880     -.0034    25.4011    12.3874     2.5646  -475.5588
 3352.6964    12.3974     -.0008    24.3035    12.2254     2.5700  -423.0621
 3352.8488    12.4019      .0010    24.7155    11.9425     2.5582  -269.8946
 3353.0012    12.4064     -.0016    25.4223    11.8679     2.5556  1633.2109
 3353.1536    12.4060      .0039    26.1973    12.3739     2.5691  1397.4255
 3353.3060    12.4079      .0025    27.0769    13.0581     2.5662   198.4745
 3353.4584    12.4050     -.0022    28.1211    13.6768     2.5592   240.5267
 3353.6108    12.4046      .0012    29.5641    14.0405     2.5655  1046.6917
 3353.7632    12.4020      .0036    31.1807    13.9468     2.5736  1174.2039
 3353.9156    12.3938     -.0065    31.4331    14.0817     2.5668   930.9294
 3354.0680    12.3840     -.0116    27.7661    13.4358     2.5541   347.5409
 3354.2204    12.3829     -.0105    24.9032    12.7862     2.5456   -55.2475
 3354.3728    12.3825     -.0035    24.0151    11.7938     2.5584   -72.6729
 3354.5252    12.3820      .0038    24.2315    11.0407     2.5737   -79.5897
 3354.6776    12.3816      .0051    23.8272    10.9152     2.5764  2504.9009
 3354.8300    12.3802     -.0005    24.2272    10.9978     2.5719  6452.3740
 3354.9824    12.3708     -.0078    25.0593    11.2713     2.5708  6770.6299
 3355.1348    12.3703     -.0056    25.9368    11.8551     2.5746  6049.3701
 3355.2872    12.3699     -.0092    25.8820    12.9041     2.5703  5328.8945
 3355.4396    12.3694     -.0137    25.4131    14.2418     2.5654  4607.9209
 3355.5920    12.3689     -.0130    25.3936    14.9452     2.5660  3885.9697
 3355.7444    12.3709     -.0123    25.5435    14.9035     2.5718  3165.4014
 3355.8968    12.3730     -.0148    26.2223    14.5176     2.5728  2444.1416
 3356.0492    12.3731     -.0118    25.6504    13.8945     2.5692  1724.0203
 3356.2016    12.3730     -.0044    23.2635    12.6940     2.5772   920.2604
 3356.3540    12.3695      .0077    21.3123    10.4749     2.5847  -323.6855
 3356.5064    12.3761      .0120    19.8838     8.2159     2.5924  -355.2056
 3356.6588    12.3735      .0168    18.9993     7.2256     2.6017  -290.0985
 3356.8112    12.3752      .0145    19.7297     7.5213     2.6241  -246.5138
 3356.9636    12.3747      .0171    20.8412     8.1979     2.6507  -209.7582
 3357.1160    12.3743      .0119    21.5526     8.7582     2.6507    60.6227
 3357.2684    12.3738      .0033    21.6860     8.2451     2.6507   342.8878
 3357.4208    12.3734      .0159    22.6085     7.8505     2.6508   234.1147
 3357.5732    12.3814      .0210    23.0242     7.5693     2.6508   258.8044
 3357.7256    12.3743      .0176    22.1413     7.2882     2.6508   -11.8097
 3357.8780    12.3720      .0123    21.7615     7.0283     2.6508  -279.8748
 3358.0304    12.3715      .0069    21.4233     6.8985     2.6509  -290.6813
 3358.1828    12.3711      .0038    20.2288     7.0413     2.6509  -107.6176
 3358.3352    12.3706      .0066    19.5327     7.3549     2.6509  -167.5563
 3358.4876    12.3726      .0133    19.0560     7.4518     2.6510   -35.6210
 3358.6400    12.3697      .0198    19.3719     6.8427     2.6510    34.2634
 3358.7924    12.3692      .0187    20.3294     6.2808     2.6510    26.2330
