~VERSION INFORMATION
VERS.                                                 2.0:   CWLS Log ASCII Standard-VERSION 2.0
WRAP.                                                  NO:   One line per depth step
~Well Information Block
STRT.M                                          2820.0584:   Top Depth
STOP.M                                          4754.0144:   Bottom Depth
STEP.M                                             .15240:   Depth Increment
NULL.                                            -999.250:   Null Value
FLD .                                             WILDCAT:   Field Name
WELL.                                              15/3-2:   NAME
WBN .                                              15/3-2:   WELLBORE
NATI.                                                 NOR:   COUNTRY
CTRY.                                                 NOR:   COUNTRY
COMP.                             ELF AQUITAINE NORGE A/S:   OPERATOR
PROV.                                           OFF SHORE:   PROVINCE
COUN.                                  POLYGLOMAR DRILLER:   RIG NAME
SPUD.                                          1976/10/25:   SPUD DATE
LATI.                                        58 59 0.50 N:   SURF. LATITUDE
LONG.                                        1 47 12.60 E:   SURF. LONGITUDE
PBWE.                                              15/3-2:   PB WELL ID
APIN.                                              15/3-2:   PB WELLBORE ID
PBWS.                                                 all:   PB WELL NAME SET
~PARAMETER INFORMATION (log)
LNAM.                              FDC/CNL/GR  COMPOSITED:   NAME
LTYP.                                         DEPTH MATCH:   LOG TYPE
LSRV.                                            DEN/NEUT:   LOG SERVICE
LSOU.                                             SPT/NPD:   LOG SOURCE
LVSN.                                                   1:   LOG VERSION
BHIS.                                                   R:   BRIEF HISTORY
FHIS.                                             RAW-LIS:   FULL HISTORY
LCNM.                                        SCHLUMBERGER:   LOGGING CONTRACTOR
TOOL.                             FDC/CNL/GR (COMPOSITED):   TOOL STRING
~Curve Information Block
#MNEM.UNIT                                        API CODE    No Description
#=========                                        ========    == ===========
DEPT.M                                       00 001 00 00:     1  DEPTH
CALI.IN                                                  :     2  Caliper
DRHO.G/CC                                                :     3  Bulk density correction
GR.GAPI                                                  :     4  Gamma Ray
NPHI.%                                                   :     5  Neutron porosity
RHOB.G/CC                                                :     6  Bulk density
TENS.LB                                                  :     7  Cable Tension
~ASCII
# ...
 3977.0792    13.2566      .0256    54.1152    30.1241     2.4783   533.8691
 3977.2316    13.3797      .0132    53.9693    29.9186     2.4740   893.6410
 3977.3840    13.5552      .0094    53.1925    30.3026     2.4741  1242.3582
 3977.5364    13.1449      .0014    52.4610    30.4753     2.5074  2347.0854
 3977.6888    12.9871     -.0021    52.9955    27.7244     2.5327  3267.0508
 3977.8412    12.9777     -.0097    53.1106    24.9566     2.5423  2836.6787
 3977.9936    12.9778     -.0118    51.5494    23.8636     2.5531  2064.5200
 3978.1460    12.9780     -.0028    49.7379    22.7071     2.5632  1452.6614
 3978.2984    12.9595     -.0002    47.9289    21.0926     2.5740   903.0961
 3978.4508    12.9429      .0015    47.9181    20.9021     2.5914   887.8330
 3978.6032    12.9637      .0106    49.4462    20.9899     2.6005   713.3429
 3978.7556    13.0096      .0218    50.4407    21.2939     2.5944   785.7542
 3978.9080    12.9935      .0144    52.0430    22.0508     2.5549   775.0475
 3979.0604    12.9714      .0073    51.3290    22.8159     2.5326   935.8126
 3979.2128    12.9486      .0104    50.6407    23.7814     2.5150   884.2494
 3979.3652    13.0125      .0207    51.3012    25.5299     2.4993   762.2836
 3979.5176    13.1448      .0370    52.0755    27.7919     2.4979   831.0393
 3979.6700    13.2291      .0515    52.7120    29.5271     2.4795   779.1660
 3979.8224    13.2262      .0474    53.9026    30.9588     2.4642   802.7990
 3979.9748    13.2172      .0385    55.7926    32.0892     2.4590   956.8750
 3980.1272    13.2554      .0313    56.0084    33.2052     2.4517   868.9897
 3980.2796    13.2834      .0211    55.1168    32.4735     2.4647   765.8127
 3980.4320    13.1318      .0088    53.6922    29.1413     2.4886   737.1125
 3980.5844    13.0329      .0055    48.4940    25.9356     2.5124   659.3995
 3980.7368    12.9803      .0060    46.2078    23.8950     2.5461   637.5392
 3980.8892    12.9712      .0051    45.2268    23.1791     2.5451   681.5664
 3981.0416    13.0353      .0084    46.2717    24.2821     2.5490  1055.7251
 3981.1940    13.0858      .0136    48.6157    25.4283     2.5329   998.4729
 3981.3464    13.0388      .0083    49.7763    26.2247     2.5220   993.4208
 3981.4988    13.0697      .0080    49.1845    26.3781     2.5234  1032.4431
 3981.6512    13.0157      .0030    48.0116    26.0597     2.5256   921.2266
 3981.8036    12.9469      .0011    49.9977    26.7827     2.5284   974.6953
 3981.9560    12.9646      .0049    50.9761    27.8552     2.5316   948.8945
 3982.1084    12.9962      .0155    52.0834    28.7406     2.5372   898.3398
 3982.2608    13.0019      .0264    53.6615    27.7255     2.5486   916.6471
 3982.4132    12.9947      .0239    55.8256    26.8355     2.5443   911.5175
 3982.5656    12.9947      .0106    57.3266    26.1887     2.5287   961.4078
 3982.7180    13.1280      .0133    55.8594    26.1748     2.5136   947.8937
 3982.8704    13.2381      .0246    51.7480    26.6765     2.5268  1010.7574
 3983.0228    13.2016      .0340    50.8015    27.0804     2.5346   980.3735
 3983.1752    13.1224      .0297    50.6177    26.7888     2.5368   907.4434
 3983.3276    13.1262      .0177    50.5015    26.6057     2.5207   984.8512
 3983.4800    13.2043      .0136    51.4507    27.5906     2.4897   900.6420
 3983.6324    13.2639      .0169    52.5697    28.9996     2.4497   705.5508
 3983.7848    13.3226      .0159    51.6241    29.8754     2.4456   706.3284
 3983.9372    13.2739      .0186    53.6455    29.8383     2.4436   666.9434
 3984.0896    13.0994      .0096    52.4346    29.2017     2.4763   666.6560
 3984.2420    13.0039      .0064    50.2833    28.7813     2.4937   872.5044
 3984.3944    13.0072      .0126    51.0928    28.4520     2.4976   903.0568
 3984.5468    13.0252      .0181    51.8067    29.0436     2.4876   903.2023
 3984.6992    13.0462      .0055    50.7380    27.0041     2.4973   902.9608
 3984.8516    13.0276     -.0024    47.8432    25.1469     2.5144   902.2593
 3985.0040    13.1454      .0022    46.1577    23.6139     2.5278   744.9628
 3985.1564    12.9381      .0043    45.3346    23.5977     2.5403   645.3112
 3985.3088    12.9448     -.0013    44.8873    23.6263     2.5519   466.4068
 3985.4612    12.9396      .0059    45.5098    23.5989     2.5675   404.2388
 3985.6136    12.9289      .0101    47.1607    24.5178     2.5915   589.9636
 3985.7660    12.9413     -.0012    48.9444    23.3605     2.5982   605.2040
 3985.9184    12.9531     -.0012    50.7795    22.6057     2.5973   654.4674
 3986.0708    12.9641     -.0004    50.3072    24.1659     2.5752   700.6100
 3986.2232    12.9596      .0170    49.3287    25.6374     2.5885  1012.8761
 3986.3756    12.9518      .0415    47.5213    25.4303     2.6043  1343.8948
 3986.5280    12.9318      .0333    46.3191    24.1011     2.6023  2468.7529
 3986.6804    12.8909      .0063    45.3989    23.5485     2.5608  2335.1660
 3986.8328    12.8929      .0086    45.9420    23.9882     2.5498  1809.0840
 3986.9852    12.9090      .0040    48.6221    24.9879     2.5482  1122.5303
 3987.1376    12.9225      .0052    50.0377    26.0410     2.5622   929.4415
 3987.2900    12.9393      .0126    50.1708    27.4591     2.5546   896.3646
 3987.4424    13.0009      .0253    49.7457    28.8502     2.5032   919.1976
 3987.5948    13.3028      .0390    48.7404    29.1632     2.4493  1061.6270
 3987.7472    13.1209      .0174    47.9578    27.2657     2.4203   905.2917
 3987.8996    12.9521      .0020    48.6333    25.4128     2.4426   813.2986
 3988.0520    12.9265     -.0004    50.4033    24.7661     2.4720   944.1472
 3988.2044    13.0326      .0083    52.0098    26.1168     2.4777   901.4161
 3988.3568    13.1774      .0190    51.4177    27.4552     2.4736   854.5354
 3988.5092    13.0059      .0364    49.2721    25.8852     2.4673   678.8009
 3988.6616    12.9314      .0202    47.9124    23.8697     2.4478   647.7919
 3988.8140    13.0219      .0176    47.1330    22.9525     2.4590   684.8368
 3988.9664    13.1100      .0352    44.6134    23.2192     2.4704   913.5903
 3989.1188    13.1384      .0498    39.4586    23.9642     2.4855  1259.6279
 3989.2712    13.0553      .0608    39.0595    24.6782     2.4752  1012.9365
 3989.4236    12.9245      .0561    41.3348    24.5875     2.4384   676.6602
 3989.5760    12.7394      .0446    42.9679    23.6889     2.4109   846.0916
 3989.7284    12.6346      .0498    40.3396    22.7716     2.4327   941.9646
 3989.8808    12.6747      .0495    38.7963    22.1254     2.4760   967.7455
 3990.0332    12.8014      .0377    39.3691    22.8151     2.5093   853.3990
 3990.1856    12.8823      .0381    39.4937    23.7496     2.4842   949.2181
 3990.3380    12.9454      .0285    42.5653    25.2974     2.4584   900.3339
 3990.4904    13.0379      .0195    47.8223    28.1553     2.4652  1040.0066
 3990.6428    13.1348      .0181    50.9919    31.0956     2.4845  1232.5879
 3990.7952    13.2220      .0143    52.7110    34.1836     2.4411  1347.6162
 3990.9476    13.3330      .0098    54.8036    36.4135     2.4001  1305.2080
 3991.1000    13.3795      .0129    57.0111    37.4421     2.3896  1008.1436
 3991.2524    13.4314      .0189    58.7686    39.7567     2.3650  1041.5083
 3991.4048    13.5664      .0237    59.3635    40.7122     2.3352  1293.7119
 3991.5572    13.6303      .0207    59.3420    38.8785     2.3193  1383.5198
 3991.7096    13.8217      .0146    57.9479    37.0170     2.3282  1300.7412
 3991.8620    14.0141      .0116    56.6826    35.0918     2.3557   975.9309
 3992.0144    14.0635      .0018    55.7161    33.2883     2.3726   938.0552
 3992.1668    14.0781      .0143    54.0995    33.4785     2.3911  1042.8853
 3992.3192    14.1025      .0351    44.4579    33.7739     2.3985  1150.5234
 3992.4716    13.9208      .0499    46.1801    33.1034     2.4571  1719.5339
 3992.6240    13.8799      .0447    51.8076    34.4394     2.4278  1977.3423
 3992.7764    13.8142      .0248    54.4078    34.7677     2.3972  1468.2786
