~VERSION INFORMATION
VERS.                                                 2.0:   CWLS Log ASCII Standard-VERSION 2.0
WRAP.                                                  NO:   One line per depth step
~Well Information Block
STRT.M                                          2500.4756:   Top Depth
STOP.M                                          2927.5004:   Bottom Depth
STEP.M                                             .15240:   Depth Increment
NULL.                                            -999.250:   Null Value
FLD .                                             WILDCAT:   Field Name
WELL.                                             15/12-2:   NAME
WBN .                                             15/12-2:   WELLBORE
NATI.                                                 NOR:   COUNTRY
BHT1.DEGF                                            77.0:   BH TEMP 1
BHT2.DEGF                                           106.0:   BH TEMP 2
BHT3.DEGF                                           108.0:   BH TEMP 3
BS1 .IN                                             17.50:   BIT SIZE 1
CTRY.                                                 NOR:   COUNTRY
CBD1.M                                              145.0:   CSG 1 DRILL DEP
CBL1.M                                              145.0:   CSG 1 LOG DEP
CS1 .IN                                              30.0:   CSG 1 SIZE
COMP.                                             STATOIL:   OPERATOR
PDAT.                                                 MSL:   PERM DATUM
PROV.                                           NORTH SEA:   PROVINCE
COUN.                                            ROSS RIG:   RIG NAME
SON .                                              01 JAN:   SOURCE OPERATOR NAME
SPUD.                                          1976/01/07:   SPUD DATE
LATI.                                        58 8 31.05 N:   SURF. LATITUDE
LONG.                                        1 55 42.27 E:   SURF. LONGITUDE
BTD1.                                             370.0 M:   TOTAL DEPTH 1
BTD2.                                      1829.3000488 M:   TOTAL DEPTH 2
BTD3.                                      1829.3000488 M:   TOTAL DEPTH 3
PBWE.                                             15/12-2:   PB WELL ID
APIN.                                             15/12-2:   PB WELLBORE ID
PBWS.                                                 all:   PB WELL NAME SET
~PARAMETER INFORMATION (log)
LNAM.                              FDC/CNL/GR  COMPOSITED:   NAME
LTYP.                                         DEPTH MATCH:   LOG TYPE
LSRV.                                            DEN/NEUT:   LOG SERVICE
LSOU.                                             SPT/NPD:   LOG SOURCE
LVSN.                                                   1:   LOG VERSION
BHIS.                                                   R:   BRIEF HISTORY
FHIS.                                             RAW-LIS:   FULL HISTORY
LCNM.                                        SCHLUMBERGER:   LOGGING CONTRACTOR
TOOL.                             FDC/CNL/GR (COMPOSITED):   TOOL STRING
~Curve Information Block
#MNEM.UNIT                                        API CODE    No Description
#=========                                        ========    == ===========
DEPT.M                                       00 001 00 00:     1  DEPTH
DRHO.G/CC                                                :     2  Bulk density correction
GR.GAPI                                                  :     3  Gamma Ray
NPHI.%                                                   :     4  Neutron porosity
RHOB.G/CC                                                :     5  Bulk density
~ASCII
# ...
 2633.9780      .0011    26.8500    20.8677     2.5481
 2634.1304      .0064    26.4314    21.1112     2.5385
 2634.2828      .0160    26.6683    20.5998     2.5396
 2634.4352      .0263    27.7672    19.6048     2.5530
 2634.5876      .0226    30.2095    19.6188     2.5608
 2634.7400      .0147    31.0001    19.9849     2.5413
 2634.8924      .0105    31.9780    20.3182     2.5267
 2635.0448      .0071    31.9612    20.5497     2.5194
 2635.1972      .0034    32.1041    20.9786     2.5155
 2635.3496     -.0064    34.6921    21.5005     2.5088
 2635.5020     -.0026    35.8772    20.7556     2.5082
 2635.6544      .0037    35.8146    19.8892     2.5224
 2635.8068      .0006    34.0366    19.0652     2.5254
 2635.9592      .0003    33.7070    18.9721     2.5150
 2636.1116     -.0003    32.3388    19.4782     2.5200
 2636.2640     -.0041    30.4996    19.7381     2.5254
 2636.4164     -.0081    30.2822    19.1229     2.5195
 2636.5688     -.0005    31.2625    18.6426     2.5223
 2636.7212      .0088    31.2005    18.5627     2.5326
 2636.8736      .0081    29.9663    18.6226     2.5265
 2637.0260      .0070    28.2313    18.5596     2.5289
 2637.1784      .0033    26.6214    18.2535     2.5413
 2637.3308      .0077    25.6894    17.3201     2.5480
 2637.4832      .0124    26.2871    16.4276     2.5551
 2637.6356      .0144    26.9744    15.5618     2.5609
 2637.7880      .0101    27.0194    15.2497     2.5709
 2637.9404      .0014    26.4426    15.1279     2.5714
 2638.0928     -.0040    26.0923    14.9405     2.5622
 2638.2452     -.0017    26.2374    14.6417     2.5601
 2638.3976      .0006    27.6482    14.3230     2.5556
 2638.5500      .0045    28.6299    13.9412     2.5445
 2638.7024      .0111    28.5434    14.0549     2.5328
 2638.8548      .0098    28.5244    15.3138     2.5287
 2639.0072      .0086    27.9706    15.7481     2.5305
 2639.1596      .0045    27.1719    15.9808     2.5366
 2639.3120     -.0023    25.3289    15.6719     2.5405
 2639.4644      .0005    24.5044    14.8474     2.5470
 2639.6168      .0044    25.1151    14.6579     2.5554
 2639.7692      .0085    27.7119    14.3048     2.5665
 2639.9216      .0110    28.2840    14.2543     2.5669
 2640.0740      .0041    26.7592    14.6898     2.5526
 2640.2264      .0036    25.9599    14.4075     2.5458
 2640.3788     -.0059    27.5327    13.9597     2.5320
 2640.5312     -.0095    31.0876    14.3780     2.5254
 2640.6836     -.0056    32.6837    14.7866     2.5261
 2640.8360     -.0031    32.3449    15.4406     2.5257
 2640.9884     -.0057    30.9531    16.3755     2.5202
 2641.1408     -.0154    28.9417    17.4990     2.5177
 2641.2932     -.0092    28.5408    17.8841     2.5163
 2641.4456     -.0039    28.5073    18.4831     2.5209
 2641.5980     -.0035    28.4889    19.2375     2.5231
 2641.7504      .0027    31.3443    20.1056     2.5215
 2641.9028      .0097    31.4333    21.5838     2.5278
 2642.0552      .0004    30.7456    22.2852     2.5228
 2642.2076      .0031    28.5130    22.4076     2.5326
 2642.3600      .0059    28.3323    22.2983     2.5448
 2642.5124     -.0009    26.9856    22.2668     2.5312
 2642.6648      .0038    27.3521    22.4167     2.5374
 2642.8172      .0078    28.4834    22.8238     2.5422
 2642.9696      .0028    29.2379    23.3288     2.5335
 2643.1220     -.0011    31.2506    23.8382     2.5237
 2643.2744     -.0026    32.1655    24.0365     2.5210
 2643.4268     -.0017    33.8265    24.0500     2.5248
 2643.5792      .0012    34.7455    23.9974     2.5326
 2643.7316      .0065    34.5622    24.0965     2.5424
 2643.8840      .0051    34.9243    24.1719     2.5376
 2644.0364      .0031    35.5190    23.4512     2.5404
 2644.1888     -.0000    35.1382    22.4757     2.5363
 2644.3412     -.0034    33.2235    22.2744     2.5261
 2644.4936     -.0044    33.1069    22.4865     2.5090
 2644.6460      .0016    33.2460    22.7315     2.5011
 2644.7984      .0094    34.3886    23.2876     2.4981
 2644.9508      .0094    35.3596    22.9004     2.4967
 2645.1032      .0035    35.9688    22.6460     2.4982
 2645.2556      .0002    36.8845    22.2259     2.5058
 2645.4080      .0024    37.2715    21.5587     2.5175
 2645.5604      .0095    34.0469    21.0693     2.5277
 2645.7128      .0174    30.2021    20.7416     2.5326
 2645.8652      .0241    29.3860    20.3011     2.5279
 2646.0176      .0142    29.9652    20.2692     2.5140
 2646.1700     -.0008    31.3082    20.5545     2.5133
 2646.3224     -.0065    31.2612    21.1728     2.5221
 2646.4748     -.0075    30.2559    21.6857     2.5383
 2646.6272     -.0054    28.0988    22.0336     2.5513
 2646.7796     -.0009    26.3033    20.3073     2.5486
 2646.9320      .0050    26.6273    18.5573     2.5436
 2647.0844      .0109    27.9361    18.0098     2.5465
 2647.2368      .0170    29.4121    17.9965     2.5432
 2647.3892      .0241    30.9204    17.7060     2.5400
 2647.5416      .0148    31.5630    17.6915     2.5289
 2647.6940      .0051    30.9182    17.9742     2.5174
 2647.8464      .0041    30.7137    18.1975     2.5217
 2647.9988      .0021    30.5074    18.4487     2.5262
 2648.1512     -.0006    29.8898    18.9314     2.5343
 2648.3036      .0037    30.4587    19.3190     2.5299
 2648.4560      .0008    30.8003    19.2313     2.5132
 2648.6084     -.0064    28.2244    18.7971     2.5241
 2648.7608     -.0107    27.3731    18.3227     2.5252
 2648.9132     -.0110    27.8699    17.8609     2.5395
 2649.0656     -.0103    29.0420    17.4341     2.5362
 2649.2180     -.0095    28.1611    17.1230     2.5291
 2649.3704     -.0085    27.9467    17.0467     2.5306
 2649.5228     -.0051    30.4266    17.3903     2.5244
 2649.6752      .0027    33.8995    18.1947     2.5320
 2649.8276      .0076    35.3929    18.9979     2.5371
 2649.9800      .0108    35.8283    19.7255     2.5294
 2650.1324      .0133    38.2302    20.1932     2.5279
 2650.2848      .0131    38.8168    20.4811     2.5237
 2650.4372      .0122    37.4720    21.1644     2.5057
 2650.5896      .0088    35.9182    21.7834     2.4905
 2650.7420      .0025    34.9705    21.7638     2.4757
 2650.8944      .0054    35.3649    21.5014     2.4810
 2651.0468      .0076    36.6452    21.0632     2.4948
 2651.1992     -.0023    37.8372    20.8712     2.4842
 2651.3516     -.0004    37.7035    21.5245     2.4748
 2651.5040      .0082    37.5880    22.1988     2.4830
 2651.6564      .0116    36.6818    22.2776     2.4982
 2651.8088      .0085    34.7393    22.1652     2.4962
 2651.9612      .0055    34.1230    22.5214     2.4878
 2652.1136      .0041    35.0539    23.4377     2.4844
 2652.2660      .0034    35.8912    24.0177     2.4922
 2652.4184      .0023    36.5458    24.5338     2.5020
 2652.5708      .0009    36.0894    24.7649     2.5076
 2652.7232     -.0009    34.4393    24.2415     2.5024
 2652.8756      .0061    33.2867    24.6863     2.4985
 2653.0280      .0120    33.0034    24.8891     2.5049
 2653.1804      .0145    32.8431    24.3884     2.5092
 2653.3328      .0237    34.1466    24.2107     2.5219
 2653.4852      .0298    34.4647    24.5094     2.5236
 2653.6376      .0203    33.0500    25.3137     2.5144
 2653.7900      .0093    31.9384    26.6806     2.5084
 2653.9424      .0059    31.4148    27.9499     2.5111
 2654.0948      .0136    30.8764    28.3417     2.5215
 2654.2472      .0111    29.9057    27.4573     2.5254
 2654.3996      .0028    29.5867    25.4091     2.5207
 2654.5520     -.0018    31.0395    24.1462     2.5128
 2654.7044      .0036    33.5365    23.5675     2.5209
 2654.8568      .0135    34.6794    23.1117     2.5284
 2655.0092      .0166    35.5959    23.0214     2.5397
 2655.1616      .0068    35.6194    22.2130     2.5539
 2655.3140      .0024    34.8782    21.1192     2.5505
 2655.4664      .0016    36.9278    18.7666     2.5417
 2655.6188      .0032    37.4767    18.0948     2.5367
 2655.7712      .0052    37.2632    17.7408     2.5380
 2655.9236      .0043    36.2781    17.9035     2.5393
 2656.0760      .0001    34.5593    17.9653     2.5328
