~VERSION INFORMATION
VERS.                                                 2.0:   CWLS Log ASCII Standard-VERSION 2.0
WRAP.                                                  NO:   One line per depth step
~Well Information Block
STRT.M                                          2500.4756:   Top Depth
STOP.M                                          2927.5004:   Bottom Depth
STEP.M                                             .15240:   Depth Increment
NULL.                                            -999.250:   Null Value
FLD .                                             WILDCAT:   Field Name
WELL.                                             15/12-2:   NAME
WBN .                                             15/12-2:   WELLBORE
NATI.                                                 NOR:   COUNTRY
BHT1.DEGF                                            77.0:   BH TEMP 1
BHT2.DEGF                                           106.0:   BH TEMP 2
BHT3.DEGF                                           108.0:   BH TEMP 3
BS1 .IN                                             17.50:   BIT SIZE 1
CTRY.                                                 NOR:   COUNTRY
CBD1.M                                              145.0:   CSG 1 DRILL DEP
CBL1.M                                              145.0:   CSG 1 LOG DEP
CS1 .IN                                              30.0:   CSG 1 SIZE
COMP.                                             STATOIL:   OPERATOR
PDAT.                                                 MSL:   PERM DATUM
PROV.                                           NORTH SEA:   PROVINCE
COUN.                                            ROSS RIG:   RIG NAME
SON .                                              01 JAN:   SOURCE OPERATOR NAME
SPUD.                                          1976/01/07:   SPUD DATE
LATI.                                        58 8 31.05 N:   SURF. LATITUDE
LONG.                                        1 55 42.27 E:   SURF. LONGITUDE
BTD1.                                             370.0 M:   TOTAL DEPTH 1
BTD2.                                      1829.3000488 M:   TOTAL DEPTH 2
BTD3.                                      1829.3000488 M:   TOTAL DEPTH 3
PBWE.                                             15/12-2:   PB WELL ID
APIN.                                             15/12-2:   PB WELLBORE ID
PBWS.                                                 all:   PB WELL NAME SET
~PARAMETER INFORMATION (log)
LNAM.                              FDC/CNL/GR  COMPOSITED:   NAME
LTYP.                                         DEPTH MATCH:   LOG TYPE
LSRV.                                            DEN/NEUT:   LOG SERVICE
LSOU.                                             SPT/NPD:   LOG SOURCE
LVSN.                                                   1:   LOG VERSION
BHIS.                                                   R:   BRIEF HISTORY
FHIS.                                             RAW-LIS:   FULL HISTORY
LCNM.                                        SCHLUMBERGER:   LOGGING CONTRACTOR
TOOL.                             FDC/CNL/GR (COMPOSITED):   TOOL STRING
~Curve Information Block
#MNEM.UNIT                                        API CODE    No Description
#=========                                        ========    == ===========
DEPT.M                                       00 001 00 00:     1  DEPTH
DRHO.G/CC                                                :     2  Bulk density correction
GR.GAPI                                                  :     3  Gamma Ray
NPHI.%                                                   :     4  Neutron porosity
RHOB.G/CC                                                :     5  Bulk density
~ASCII
# ...
 2522.7260      .0013    19.6553    15.2274     2.5629
 2522.8784     -.0017    18.5885    14.7066     2.5456
 2523.0308      .0008    19.7993    15.1666     2.5500
 2523.1832      .0045    22.7864    16.5998     2.5590
 2523.3356      .0046    28.2018    18.7982     2.5577
 2523.4880      .0036    31.0597    21.0028     2.5445
 2523.6404      .0042    33.4240    23.3107     2.5337
 2523.7928      .0072    33.9143    23.6105     2.5366
 2523.9452      .0070    35.4714    23.7231     2.5290
 2524.0976     -.0007    35.3938    24.3585     2.5205
 2524.2500     -.0002    35.3884    23.9425     2.5262
 2524.4024      .0006    36.5753    22.9031     2.5264
 2524.5548      .0117    36.2731    23.2877     2.5211
 2524.7072      .0329    35.5081    23.7829     2.5291
 2524.8596      .0333    35.0683    24.0685     2.5205
 2525.0120      .0272    35.0161    24.3336     2.5185
 2525.1644      .0371    32.0261    23.9886     2.5515
 2525.3168      .0465    29.7149    22.8764     2.5728
 2525.4692      .0377    28.4859    21.2272     2.5859
 2525.6216      .0347    28.4804    20.9625     2.5821
 2525.7740      .0308    31.1589    21.8581     2.5555
 2525.9264      .0336    32.3454    23.5233     2.5476
 2526.0788      .0361    32.3408    24.9904     2.5235
 2526.2312      .0380    33.6020    26.0236     2.5244
 2526.3836      .0519    36.1281    26.6175     2.5139
 2526.5360      .0593    38.9275    27.5731     2.4962
 2526.6884      .0421    41.5509    29.0103     2.4634
 2526.8408      .0229    41.2873    29.8871     2.4466
 2526.9932      .0119    41.1053    29.9336     2.4549
 2527.1456      .0008    41.0999    29.5499     2.4679
 2527.2980     -.0074    40.4980    28.4064     2.4751
 2527.4504      .0064    40.5921    28.0775     2.4844
 2527.6028      .0301    42.1395    27.7596     2.4935
 2527.7552      .0163    42.5463    27.3543     2.4849
 2527.9076      .0086    41.5076    27.3841     2.4883
 2528.0600      .0180    40.9201    27.3129     2.4987
 2528.2124      .0235    40.3688    27.2154     2.5101
 2528.3648      .0163    39.1923    27.0717     2.5065
 2528.5172      .0117    37.0319    26.7624     2.5012
 2528.6696      .0031    34.6104    25.7372     2.5106
 2528.8220      .0125    33.7829    25.1860     2.5296
 2528.9744      .0179    35.0702    24.6269     2.5331
 2529.1268      .0015    35.5117    23.8575     2.5236
 2529.2792     -.0165    35.3300    22.9197     2.5209
 2529.4316     -.0095    36.8388    22.0535     2.5306
 2529.5840     -.0002    39.3204    23.1005     2.5277
 2529.7364      .0010    41.5249    24.1204     2.5243
 2529.8888      .0029    40.3606    24.7119     2.5220
 2530.0412      .0080    39.0180    24.2344     2.5132
 2530.1936     -.0032    38.1738    22.7566     2.5113
 2530.3460      .0012    37.1134    22.8607     2.5298
 2530.4984      .0039    36.5067    23.3254     2.5341
 2530.6508      .0057    37.1199    24.7651     2.5244
 2530.8032      .0055    37.8107    25.5430     2.5263
 2530.9556      .0022    37.7978    25.7459     2.5109
 2531.1080     -.0041    38.6873    25.5606     2.4973
 2531.2604     -.0065    39.1633    26.7548     2.4966
 2531.4128     -.0006    39.4607    27.4530     2.4909
 2531.5652      .0086    39.9058    27.3387     2.4820
 2531.7176      .0086    40.2631    26.3407     2.4844
 2531.8700      .0033    40.3344    25.7703     2.4907
 2532.0224      .0040    41.6787    25.1237     2.4968
 2532.1748      .0092    42.3136    24.3943     2.5019
 2532.3272      .0125    42.4725    23.6281     2.5179
 2532.4796      .0125    43.5534    22.9254     2.5222
 2532.6320      .0181    44.5118    22.3315     2.5131
 2532.7844      .0084    44.9370    22.4465     2.4780
 2532.9368      .0124    44.1962    24.0188     2.4373
 2533.0892      .0081    43.1333    25.2441     2.4212
 2533.2416      .0039    42.3189    26.3823     2.4217
 2533.3940      .0077    42.6089    26.5880     2.4398
 2533.5464     -.0016    43.3893    26.3398     2.4522
 2533.6988      .0042    42.1798    26.0588     2.4554
 2533.8512      .0112    41.8941    26.2556     2.4836
 2534.0036      .0007    41.2598    26.3542     2.4854
 2534.1560      .0019    39.7093    25.9282     2.4903
 2534.3084     -.0037    38.5024    25.1067     2.4921
 2534.4608     -.0024    39.0488    24.1124     2.4944
 2534.6132      .0001    39.8553    25.6496     2.4969
 2534.7656     -.0011    39.4848    25.6948     2.4920
 2534.9180     -.0027    39.4908    25.6558     2.4976
 2535.0704     -.0057    40.2728    25.8627     2.5154
 2535.2228     -.0046    40.7177    25.9934     2.5258
 2535.3752     -.0005    40.2089    25.1283     2.5307
 2535.5276      .0018    39.8710    25.0942     2.5349
 2535.6800      .0040    39.6016    25.5241     2.5375
 2535.8324      .0067    39.5962    25.7165     2.5318
 2535.9848      .0112    41.2911    25.9463     2.5059
 2536.1372      .0182    44.3326    26.3006     2.4902
 2536.2896      .0175    42.9673    26.4347     2.4834
 2536.4420      .0094    41.9193    27.3514     2.4632
 2536.5944      .0266    41.0047    26.8824     2.4606
 2536.7468      .0428    39.6936    26.5921     2.4616
 2536.8992      .0386    38.4335    27.2104     2.4543
 2537.0516      .0526    40.0339    26.9264     2.4790
 2537.2040      .0417    41.9426    26.4590     2.5001
 2537.3564      .0181    43.7739    26.4863     2.5010
 2537.5088      .0179    44.0093    26.9414     2.4952
 2537.6612      .0265    44.5904    27.6386     2.4966
 2537.8136      .0267    42.8025    26.9198     2.4877
 2537.9660      .0279    41.8648    26.5450     2.4741
 2538.1184      .0322    43.2691    27.1211     2.4848
 2538.2708      .0257    42.8722    27.4679     2.5159
 2538.4232      .0135    40.2700    27.2687     2.5312
 2538.5756      .0136    38.1662    26.2961     2.5410
 2538.7280      .0199    37.3153    24.9823     2.5523
 2538.8804      .0207    37.5824    22.7926     2.5345
 2539.0328      .0182    38.4287    22.4718     2.5090
 2539.1852      .0388    39.8528    23.3322     2.4949
 2539.3376      .0463    40.4945    25.4317     2.4881
 2539.4900      .0354    42.4883    27.2189     2.4871
 2539.6424      .0236    44.9217    27.8108     2.4793
 2539.7948      .0172    42.7070    27.6018     2.4566
 2539.9472      .0261    41.1007    27.1187     2.4417
 2540.0996      .0234    40.9345    27.5848     2.4448
 2540.2520      .0165    41.9267    28.0004     2.4512
 2540.4044      .0068    43.0532    28.5052     2.4367
 2540.5568      .0052    43.3038    29.1578     2.4383
 2540.7092      .0102    43.2984    29.7063     2.4387
 2540.8616      .0170    45.9768    29.9719     2.4279
 2541.0140      .0272    44.1497    30.0566     2.4216
 2541.1664      .0127    43.5802    30.0401     2.4011
 2541.3188      .0139    42.2840    30.1106     2.3850
 2541.4712      .0232    40.1356    30.3787     2.3803
 2541.6236      .0223    39.0546    30.9729     2.3866
 2541.7760      .0138    38.2179    31.3923     2.4123
 2541.9284      .0085    38.8883    30.8819     2.4473
 2542.0808      .0040    37.9575    30.2916     2.4777
 2542.2332      .0217    36.5450    28.9883     2.5100
 2542.3856      .0184    34.9567    25.4710     2.5424
 2542.5380     -.0022    33.9884    21.5170     2.5558
 2542.6904     -.0028    33.9829    18.6689     2.5565
 2542.8428      .0098    32.4864    17.7113     2.5543
 2542.9952      .0081    31.9133    17.3261     2.5498
 2543.1476     -.0012    29.6425    17.2399     2.5636
 2543.3000     -.0105    28.5933    17.4034     2.5873
 2543.4524     -.0001    27.9915    17.9108     2.5904
 2543.6048      .0132    27.9860    18.0045     2.5887
 2543.7572      .0148    28.3798    17.6074     2.6011
 2543.9096      .0134    28.8697    18.3985     2.6077
 2544.0620      .0164    29.1625    18.7990     2.6027
 2544.2144      .0183    28.8598    18.6331     2.6006
 2544.3668      .0189    29.1516    18.0855     2.5974
 2544.5192      .0224    29.4443    18.1982     2.5884
 2544.6716      .0238    30.4826    18.4201     2.5730
 2544.8240      .0220    29.2843    18.8526     2.5506
