~VERSION INFORMATION
VERS.                                                 2.0:   CWLS Log ASCII Standard-VERSION 2.0
WRAP.                                                  NO:   One line per depth step
~Well Information Block
STRT.M                                          2500.4756:   Top Depth
STOP.M                                          2927.5004:   Bottom Depth
STEP.M                                             .15240:   Depth Increment
NULL.                                            -999.250:   Null Value
FLD .                                             WILDCAT:   Field Name
WELL.                                             15/12-2:   NAME
WBN .                                             15/12-2:   WELLBORE
NATI.                                                 NOR:   COUNTRY
BHT1.DEGF                                            77.0:   BH TEMP 1
BHT2.DEGF                                           106.0:   BH TEMP 2
BHT3.DEGF                                           108.0:   BH TEMP 3
BS1 .IN                                             17.50:   BIT SIZE 1
CTRY.                                                 NOR:   COUNTRY
CBD1.M                                              145.0:   CSG 1 DRILL DEP
CBL1.M                                              145.0:   CSG 1 LOG DEP
CS1 .IN                                              30.0:   CSG 1 SIZE
COMP.                                             STATOIL:   OPERATOR
PDAT.                                                 MSL:   PERM DATUM
PROV.                                           NORTH SEA:   PROVINCE
COUN.                                            ROSS RIG:   RIG NAME
SON .                                              01 JAN:   SOURCE OPERATOR NAME
SPUD.                                          1976/01/07:   SPUD DATE
LATI.                                        58 8 31.05 N:   SURF. LATITUDE
LONG.                                        1 55 42.27 E:   SURF. LONGITUDE
BTD1.                                             370.0 M:   TOTAL DEPTH 1
BTD2.                                      1829.3000488 M:   TOTAL DEPTH 2
BTD3.                                      1829.3000488 M:   TOTAL DEPTH 3
PBWE.                                             15/12-2:   PB WELL ID
APIN.                                             15/12-2:   PB WELLBORE ID
PBWS.                                                 all:   PB WELL NAME SET
~PARAMETER INFORMATION (log)
LNAM.                              FDC/CNL/GR  COMPOSITED:   NAME
LTYP.                                         DEPTH MATCH:   LOG TYPE
LSRV.                                            DEN/NEUT:   LOG SERVICE
LSOU.                                             SPT/NPD:   LOG SOURCE
LVSN.                                                   1:   LOG VERSION
BHIS.                                                   R:   BRIEF HISTORY
FHIS.                                             RAW-LIS:   FULL HISTORY
LCNM.                                        SCHLUMBERGER:   LOGGING CONTRACTOR
TOOL.                             FDC/CNL/GR (COMPOSITED):   TOOL STRING
~Curve Information Block
#MNEM.UNIT                                        API CODE    No Description
#=========                                        ========    == ===========
DEPT.M                                       00 001 00 00:     1  DEPTH
DRHO.G/CC                                                :     2  Bulk density correction
GR.GAPI                                                  :     3  Gamma Ray
NPHI.%                                                   :     4  Neutron porosity
RHOB.G/CC                                                :     5  Bulk density
~ASCII
# ...
 2589.4772      .0097    22.6014    18.9049     2.5799
 2589.6296      .0097    24.0668    18.7815     2.5875
 2589.7820      .0057    24.3641    18.7224     2.5907
 2589.9344      .0131    23.7572    17.9946     2.5935
 2590.0868      .0170    23.4479    17.7624     2.5965
 2590.2392      .0134    22.5418    17.8758     2.5908
 2590.3916      .0090    22.8868    17.8953     2.5777
 2590.5440      .0049    21.7753    17.3658     2.5664
 2590.6964      .0001    21.6128    16.8237     2.5625
 2590.8488      .0042    22.6096    16.4655     2.5688
 2591.0012      .0127    23.0776    16.0389     2.5721
 2591.1536      .0083    24.8289    15.8627     2.5740
 2591.3060     -.0085    25.7313    16.0987     2.5532
 2591.4584     -.0105    27.0495    16.7481     2.5444
 2591.6108      .0004    27.4957    17.2548     2.5516
 2591.7632      .0141    27.7815    17.7833     2.5632
 2591.9156      .0035    27.1750    17.8241     2.5636
 2592.0680      .0034    24.4589    17.5829     2.5662
 2592.2204      .0006    23.8723    17.3172     2.5588
 2592.3728     -.0002    23.2751    17.0407     2.5608
 2592.5252     -.0013    24.4096    16.8001     2.5597
 2592.6776     -.0027    25.5294    16.5427     2.5520
 2592.8300      .0000    24.9951    16.2895     2.5410
 2592.9824      .0065    23.1847    16.1277     2.5494
 2593.1348      .0089    21.5715    16.1726     2.5551
 2593.2872     -.0051    21.6686    16.9640     2.5517
 2593.4396      .0078    24.6183    18.3246     2.5582
 2593.5920      .0182    26.6236    18.5925     2.5485
 2593.7444      .0152    25.0438    17.9319     2.5350
 2593.8968      .0234    20.8001    17.1852     2.5392
 2594.0492      .0141    20.5311    18.0606     2.5315
 2594.2016      .0247    23.4753    19.3003     2.5327
 2594.3540      .0346    25.3975    19.6227     2.5540
 2594.5064      .0268    26.9581    19.6205     2.5646
 2594.6588      .0175    26.4812    19.0276     2.5543
 2594.8112      .0257    22.9321    17.7527     2.5556
 2594.9636      .0152    21.4411    16.7590     2.5665
 2595.1160      .0084    20.2818    17.2657     2.5831
 2595.2684      .0156    21.7011    17.9336     2.5913
 2595.4208      .0056    23.1161    18.3695     2.5915
 2595.5732     -.0021    23.6258    18.0659     2.5809
 2595.7256     -.0003    23.8804    17.1455     2.5635
 2595.8780     -.0042    23.5307    16.2447     2.5519
 2596.0304     -.0063    23.5493    15.4362     2.5436
 2596.1828      .0065    22.9825    14.8630     2.5539
 2596.3352      .0071    21.6068    14.5691     2.5629
 2596.4876      .0141    20.9351    14.4369     2.5736
 2596.6400      .0210    22.3625    14.3173     2.5762
 2596.7924      .0081    25.7779    15.1054     2.5508
 2596.9448      .0137    26.5653    17.0490     2.5554
 2597.0972      .0048    27.7746    18.8589     2.5681
 2597.2496      .0165    27.6277    19.5037     2.5865
 2597.4020      .0180    27.2230    19.2748     2.5820
 2597.5544      .0114    25.6200    18.9819     2.5667
 2597.7068      .0027    25.5884    18.8725     2.5492
 2597.8592      .0036    25.0554    19.1810     2.5460
 2598.0116      .0089    24.0262    19.7801     2.5621
 2598.1640      .0140    24.2729    20.1803     2.5711
 2598.3164      .0140    25.9849    19.6583     2.5555
 2598.4688     -.0011    25.7012    18.7480     2.5269
 2598.6212      .0064    23.3744    18.3909     2.5282
 2598.7736      .0032    24.7111    17.8249     2.5302
 2598.9260      .0071    26.1825    16.3540     2.5448
 2599.0784      .0094    27.8088    15.2563     2.5387
 2599.2308      .0182    27.6171    14.8324     2.5232
 2599.3832      .0306    24.8251    14.4489     2.5182
 2599.5356      .0000    22.6716    14.1360     2.5183
 2599.6880     -.0027    20.6236    14.2953     2.5216
 2599.8404      .0002    19.5718    15.0056     2.5461
 2599.9928      .0027    20.7658    15.4462     2.5644
 2600.1452      .0013    20.8685    15.3640     2.5677
 2600.2976      .0068    20.7751    14.8436     2.5744
 2600.4500      .0052    20.4477    13.9598     2.5740
 2600.6024      .0083    19.9473    12.8912     2.5713
 2600.7548      .0145    19.8011    12.3606     2.5772
 2600.9072      .0174    20.0489    12.8217     2.5839
 2601.0596      .0070    20.7492    13.3723     2.5919
 2601.2120     -.0119    20.7691    13.5484     2.5933
 2601.3644      .0048    21.4777    13.6473     2.5962
 2601.5168      .0100    22.7228    13.7341     2.6044
 2601.6692      .0066    23.0660    13.7874     2.5837
 2601.8216     -.0034    22.5712    13.8473     2.5685
 2601.9740      .0068    20.6029    14.0216     2.5809
 2602.1264      .0221    19.8516    14.2714     2.5963
 2602.2788      .0213    19.3991    14.4711     2.6039
 2602.4312      .0052    19.6607    14.7417     2.5858
 2602.5836      .0003    19.9510    15.1080     2.5748
 2602.7360      .0025    20.2612    15.6032     2.5678
 2602.8884      .0057    20.5087    16.4527     2.5699
 2603.0408      .0070    20.7675    17.6557     2.5759
 2603.1932      .0015    21.0412    18.7307     2.5747
 2603.3456      .0059    21.1165    19.5868     2.5699
 2603.4980      .0107    21.9732    20.1359     2.5644
 2603.6504      .0070    22.7043    20.7640     2.5693
 2603.8028      .0039    23.6250    20.8444     2.5673
 2603.9552      .0057    24.0498    19.6948     2.5651
 2604.1076      .0085    24.0050    18.5035     2.5686
 2604.2600      .0112    23.9874    19.3390     2.5741
 2604.4124      .0182    23.6477    20.1704     2.5843
 2604.5648      .0292    23.8224    20.2440     2.5905
 2604.7172      .0288    24.2315    18.8809     2.5870
 2604.8696      .0162    22.6934    17.4386     2.5774
 2605.0220      .0050    20.2206    16.1490     2.5644
 2605.1744      .0007    18.8379    15.0919     2.5597
 2605.3268      .0066    18.0209    15.1704     2.5705
 2605.4792      .0142    18.1957    15.7042     2.5880
 2605.6316      .0108    19.6927    16.1965     2.5914
 2605.7840      .0031    20.8219    16.3839     2.5739
 2605.9364      .0032    21.2733    16.0533     2.5664
 2606.0888      .0109    21.6916    15.2639     2.5769
 2606.2412      .0208    21.4322    14.5424     2.5881
 2606.3936      .0184    20.6791    14.0811     2.5823
 2606.5460      .0014    20.2341    13.5460     2.5705
 2606.6984     -.0003    20.4296    13.4372     2.5780
 2606.8508      .0048    20.4690    13.3610     2.5875
 2607.0032      .0056    20.7089    13.2566     2.5916
 2607.1556      .0001    20.9724    13.1019     2.5878
 2607.3080     -.0049    20.8981    12.9343     2.5855
 2607.4604     -.0077    20.4862    13.0338     2.5628
 2607.6128     -.0022    19.7740    13.3224     2.5601
 2607.7652      .0045    20.1894    13.7962     2.5671
 2607.9176      .0052    21.4377    14.1500     2.5713
 2608.0700      .0076    22.3386    14.1913     2.5650
 2608.2224      .0015    23.0485    14.0286     2.5722
 2608.3748      .0037    22.2277    13.8453     2.5886
 2608.5272      .0092    21.3703    13.6988     2.5943
 2608.6796      .0139    20.4290    13.8021     2.5958
 2608.8320      .0168    20.1824    14.6365     2.5871
 2608.9844      .0180    20.1647    15.2821     2.5932
 2609.1368      .0160    21.5541    15.8233     2.5965
 2609.2892      .0062    22.6416    15.4954     2.5912
 2609.4416      .0008    23.3366    14.8211     2.5830
 2609.5940      .0015    22.5903    14.0157     2.5650
 2609.7464      .0020    22.2479    13.4502     2.5632
 2609.8988     -.0006    22.1499    13.7974     2.5561
 2610.0512      .0016    21.3737    14.7003     2.5594
 2610.2036     -.0005    20.7177    15.1871     2.5605
 2610.3560      .0081    20.8618    15.6539     2.5708
 2610.5084      .0111    22.6938    16.2724     2.5796
 2610.6608      .0017    23.6848    16.5486     2.5778
 2610.8132      .0057    23.8229    16.4419     2.5725
 2610.9656      .0155    23.8053    15.9052     2.5850
 2611.1180      .0134    23.2861    15.0505     2.5904
 2611.2704      .0049    21.8985    14.5808     2.5898
 2611.4228      .0066    20.1964    14.2278     2.5858
 2611.5752      .0115    19.9029    13.9226     2.5908
