~VERSION INFORMATION
VERS.                                                 2.0:   CWLS Log ASCII Standard-VERSION 2.0
WRAP.                                                  NO:   One line per depth step
~Well Information Block
STRT.M                                          2500.4756:   Top Depth
STOP.M                                          2927.5004:   Bottom Depth
STEP.M                                             .15240:   Depth Increment
NULL.                                            -999.250:   Null Value
FLD .                                             WILDCAT:   Field Name
WELL.                                             15/12-2:   NAME
WBN .                                             15/12-2:   WELLBORE
NATI.                                                 NOR:   COUNTRY
BHT1.DEGF                                            77.0:   BH TEMP 1
BHT2.DEGF                                           106.0:   BH TEMP 2
BHT3.DEGF                                           108.0:   BH TEMP 3
BS1 .IN                                             17.50:   BIT SIZE 1
CTRY.                                                 NOR:   COUNTRY
CBD1.M                                              145.0:   CSG 1 DRILL DEP
CBL1.M                                              145.0:   CSG 1 LOG DEP
CS1 .IN                                              30.0:   CSG 1 SIZE
COMP.                                             STATOIL:   OPERATOR
PDAT.                                                 MSL:   PERM DATUM
PROV.                                           NORTH SEA:   PROVINCE
COUN.                                            ROSS RIG:   RIG NAME
SON .                                              01 JAN:   SOURCE OPERATOR NAME
SPUD.                                          1976/01/07:   SPUD DATE
LATI.                                        58 8 31.05 N:   SURF. LATITUDE
LONG.                                        1 55 42.27 E:   SURF. LONGITUDE
BTD1.                                             370.0 M:   TOTAL DEPTH 1
BTD2.                                      1829.3000488 M:   TOTAL DEPTH 2
BTD3.                                      1829.3000488 M:   TOTAL DEPTH 3
PBWE.                                             15/12-2:   PB WELL ID
APIN.                                             15/12-2:   PB WELLBORE ID
PBWS.                                                 all:   PB WELL NAME SET
~PARAMETER INFORMATION (log)
LNAM.                              FDC/CNL/GR  COMPOSITED:   NAME
LTYP.                                         DEPTH MATCH:   LOG TYPE
LSRV.                                            DEN/NEUT:   LOG SERVICE
LSOU.                                             SPT/NPD:   LOG SOURCE
LVSN.                                                   1:   LOG VERSION
BHIS.                                                   R:   BRIEF HISTORY
FHIS.                                             RAW-LIS:   FULL HISTORY
LCNM.                                        SCHLUMBERGER:   LOGGING CONTRACTOR
TOOL.                             FDC/CNL/GR (COMPOSITED):   TOOL STRING
~Curve Information Block
#MNEM.UNIT                                        API CODE    No Description
#=========                                        ========    == ===========
DEPT.M                                       00 001 00 00:     1  DEPTH
DRHO.G/CC                                                :     2  Bulk density correction
GR.GAPI                                                  :     3  Gamma Ray
NPHI.%                                                   :     4  Neutron porosity
RHOB.G/CC                                                :     5  Bulk density
~ASCII
# ...
 2678.4788      .0158    30.9599    24.9780     2.5402
 2678.6312      .0167    31.8619    25.3003     2.5407
 2678.7836      .0070    33.6957    24.7332     2.5407
 2678.9360      .0041    36.0584    23.8092     2.5456
 2679.0884      .0037    37.9147    23.0983     2.5494
 2679.2408      .0072    38.2805    23.0670     2.5498
 2679.3932      .0251    36.8732    23.1165     2.5454
 2679.5456      .0356    34.3785    22.6946     2.5102
 2679.6980      .0167    32.1475    23.2361     2.4993
 2679.8504      .0034    32.5058    24.1736     2.5108
 2680.0028      .0039    33.5943    24.8442     2.5202
 2680.1552      .0022    34.6438    25.4497     2.5061
 2680.3076     -.0039    35.9188    26.0455     2.4919
 2680.4600      .0037    37.5596    26.6792     2.4844
 2680.6124      .0023    36.8658    27.3328     2.4944
 2680.7648      .0211    35.6681    27.9984     2.5171
 2680.9172      .0574    35.0602    28.8342     2.5014
 2681.0696      .0907    33.8974    29.5004     2.4709
 2681.2220      .0501    32.1332    28.6480     2.4687
 2681.3744      .0185    28.2752    26.6676     2.4843
 2681.5268     -.0028    23.7578    24.1467     2.5106
 2681.6792     -.0053    21.0500    23.1320     2.5306
 2681.8316      .0085    19.9893    22.5192     2.5355
 2681.9840      .0143    19.9863    22.1686     2.5419
 2682.1364      .0184    21.0396    22.3195     2.5500
 2682.2888      .0198    21.6481    22.8756     2.5502
 2682.4412      .0071    21.4436    23.5614     2.5434
 2682.5936      .0053    21.1283    23.4793     2.5352
 2682.7460      .0037    20.6489    22.5121     2.5397
 2682.8984      .0040    21.8684    21.9476     2.5426
 2683.0508      .0052    23.0390    22.1600     2.5332
 2683.2032      .0077    22.7929    22.6012     2.5285
 2683.3556      .0067    22.1872    22.7023     2.5293
 2683.5080      .0017    22.7659    22.4527     2.5336
 2683.6604      .0015    23.4218    22.2493     2.5268
 2683.8128      .0049    24.2075    22.2683     2.5271
 2683.9652      .0107    25.1874    22.6530     2.5399
 2684.1176      .0240    26.1644    24.0003     2.5447
 2684.2700      .0390    27.5314    25.9890     2.5541
 2684.4224      .0512    29.8729    28.0094     2.5383
 2684.5748      .0572    32.0035    29.1550     2.5285
 2684.7272      .0536    33.2525    28.4058     2.4708
 2684.8796      .0329    33.1065    26.9747     2.4694
 2685.0320      .0126    31.5940    26.2849     2.4660
 2685.1844      .0122    28.6187    24.7633     2.4794
 2685.3368      .0245    24.2360    23.2700     2.4722
 2685.4892      .0120    21.9154    22.0151     2.4721
 2685.6416     -.0053    21.7247    21.8290     2.5187
 2685.7940     -.0005    21.7555    21.6671     2.5455
 2685.9464      .0109    21.7303    21.8229     2.5427
 2686.0988      .0109    22.3449    23.0475     2.5190
 2686.2512      .0091    23.8552    25.6526     2.5031
 2686.4036      .0111    27.3050    27.7886     2.4825
 2686.5560      .0158    31.5598    29.0815     2.4527
 2686.7084      .0243    35.8406    29.8367     2.4394
 2686.8608      .0171    37.4800    30.2092     2.4471
 2687.0132      .0130    37.5232    29.9890     2.4731
 2687.1656     -.0028    38.5130    30.3514     2.5037
 2687.3180     -.0098    39.2876    29.9719     2.5295
 2687.4704     -.0010    38.4346    28.4087     2.5353
 2687.6228      .0033    37.3307    27.4338     2.5260
 2687.7752      .0010    36.5481    28.0345     2.5226
 2687.9276      .0046    32.7795    29.1005     2.5106
 2688.0800      .0065    32.1059    30.2253     2.4792
 2688.2324      .0001    33.5282    31.3904     2.4484
 2688.3848      .0030    36.3872    32.3435     2.4312
 2688.5372      .0156    38.0633    32.7922     2.4284
 2688.6896      .0454    38.0034    31.6985     2.4474
 2688.8420      .0185    38.6104    29.8773     2.4860
 2688.9944      .0073    39.4655    28.9864     2.5096
 2689.1468      .0130    37.9591    27.9442     2.5207
 2689.2992      .0117    36.5158    26.8820     2.5110
 2689.4516      .0040    33.8932    26.9298     2.4976
 2689.6040     -.0074    33.6196    26.6977     2.5076
 2689.7564     -.0089    34.4194    26.0735     2.5088
 2689.9088     -.0091    34.0910    26.4244     2.5006
 2690.0612     -.0107    33.7603    25.3204     2.4736
 2690.2136     -.0134    33.5296    25.6634     2.4731
 2690.3660     -.0140    33.9801    25.6413     2.4763
 2690.5184     -.0138    34.9165    25.1905     2.4697
 2690.6708     -.0135    35.3708    25.6484     2.4675
 2690.8232     -.0109    35.0877    25.6134     2.4784
 2690.9756     -.0053    33.1796    25.2548     2.4918
 2691.1280      .0001    32.1874    24.7253     2.4944
 2691.2804      .0027    32.5389    24.3193     2.5004
 2691.4328      .0054    32.7318    24.6631     2.5113
 2691.5852      .0139    32.3835    25.1293     2.5192
 2691.7376      .0228    31.9179    25.3701     2.5055
 2691.8900      .0163    31.7629    26.2241     2.5013
 2692.0424      .0073    31.9103    27.3805     2.4871
 2692.1948      .0184    32.5693    28.2560     2.4851
 2692.3472      .0424    33.8555    28.8841     2.4946
 2692.4996      .0620    35.4648    28.4302     2.4912
 2692.6520      .0589    36.2721    26.9818     2.4858
 2692.8044      .0318    36.3746    25.4154     2.5061
 2692.9568      .0231    35.8157    24.6064     2.5183
 2693.1092      .0078    34.7058    25.4981     2.5244
 2693.2616     -.0004    33.9249    27.5833     2.5287
 2693.4140      .0079    33.6258    29.7324     2.4969
 2693.5664      .0252    35.3664    31.8524     2.4543
 2693.7188      .0450    38.5558    32.6364     2.4098
 2693.8712      .0244    40.4810    31.4301     2.4147
 2694.0236      .0118    40.9113    29.8882     2.4484
 2694.1760      .0231    39.9168    28.0045     2.4754
 2694.3284      .0215    38.0223    26.9391     2.4966
 2694.4808      .0171    36.1692    26.2935     2.5137
 2694.6332      .0106    36.3073    26.0708     2.5354
 2694.7856      .0289    34.8184    26.3306     2.5194
 2694.9380      .0108    33.6771    26.4597     2.5050
 2695.0904      .0119    34.1284    26.2161     2.4977
 2695.2428      .0045    33.1437    26.0894     2.4770
 2695.3952     -.0014    32.2901    27.3773     2.4692
 2695.5476      .0236    33.2517    29.2878     2.4673
 2695.7000      .0420    34.5466    30.6107     2.4502
 2695.8524      .0285    35.8789    30.2243     2.4462
 2696.0048      .0096    37.0833    29.3604     2.4527
 2696.1572      .0164    37.6361    29.0674     2.4469
 2696.3096      .0073    37.8837    28.8644     2.4645
 2696.4620      .0141    37.9030    28.2170     2.4880
 2696.6144      .0071    38.4211    27.2772     2.5014
 2696.7668      .0050    38.2044    26.5643     2.5123
 2696.9192      .0070    37.6886    26.3794     2.4952
 2697.0716     -.0027    37.8923    27.0674     2.4726
 2697.2240     -.0063    39.2397    28.3494     2.4632
 2697.3764      .0000    41.5594    29.2924     2.4565
 2697.5288      .0243    42.6284    29.9096     2.4562
 2697.6812      .0356    42.9567    30.0848     2.4492
 2697.8336      .0125    43.7145    29.4750     2.4615
 2697.9860      .0016    42.4653    29.3044     2.4952
 2698.1384      .0098    42.5928    29.8115     2.4910
 2698.2908      .0189    44.2457    30.2401     2.4597
 2698.4432      .0142    45.0134    30.7674     2.4275
 2698.5956      .0056    44.8007    31.7954     2.4096
 2698.7480      .0223    46.6711    34.3533     2.4128
 2698.9004      .0417    51.3442    36.7191     2.3692
 2699.0528      .0295    54.5979    37.4562     2.3921
 2699.2052      .0308    53.3395    36.4880     2.3805
 2699.3576      .0432    50.4548    34.1083     2.3706
 2699.5100      .0455    46.4555    31.8703     2.3649
 2699.6624      .0147    42.8772    29.4230     2.4266
 2699.8148     -.0055    39.3697    25.7879     2.4914
 2699.9672      .0009    37.0461    23.5285     2.5241
 2700.1196      .0091    36.3967    22.2551     2.5382
 2700.2720      .0106    36.3307    21.2573     2.5332
 2700.4244      .0045    36.4420    21.1315     2.5185
 2700.5768     -.0014    37.9829    21.5612     2.5088
