~VERSION INFORMATION
VERS.                                                 2.0:   CWLS Log ASCII Standard-VERSION 2.0
WRAP.                                                  NO:   One line per depth step
~Well Information Block
STRT.M                                          2500.4756:   Top Depth
STOP.M                                          2927.5004:   Bottom Depth
STEP.M                                             .15240:   Depth Increment
NULL.                                            -999.250:   Null Value
FLD .                                             WILDCAT:   Field Name
WELL.                                             15/12-2:   NAME
WBN .                                             15/12-2:   WELLBORE
NATI.                                                 NOR:   COUNTRY
BHT1.DEGF                                            77.0:   BH TEMP 1
BHT2.DEGF                                           106.0:   BH TEMP 2
BHT3.DEGF                                           108.0:   BH TEMP 3
BS1 .IN                                             17.50:   BIT SIZE 1
CTRY.                                                 NOR:   COUNTRY
CBD1.M                                              145.0:   CSG 1 DRILL DEP
CBL1.M                                              145.0:   CSG 1 LOG DEP
CS1 .IN                                              30.0:   CSG 1 SIZE
COMP.                                             STATOIL:   OPERATOR
PDAT.                                                 MSL:   PERM DATUM
PROV.                                           NORTH SEA:   PROVINCE
COUN.                                            ROSS RIG:   RIG NAME
SON .                                              01 JAN:   SOURCE OPERATOR NAME
SPUD.                                          1976/01/07:   SPUD DATE
LATI.                                        58 8 31.05 N:   SURF. LATITUDE
LONG.                                        1 55 42.27 E:   SURF. LONGITUDE
BTD1.                                             370.0 M:   TOTAL DEPTH 1
BTD2.                                      1829.3000488 M:   TOTAL DEPTH 2
BTD3.                                      1829.3000488 M:   TOTAL DEPTH 3
PBWE.                                             15/12-2:   PB WELL ID
APIN.                                             15/12-2:   PB WELLBORE ID
PBWS.                                                 all:   PB WELL NAME SET
~PARAMETER INFORMATION (log)
LNAM.                              FDC/CNL/GR  COMPOSITED:   NAME
LTYP.                                         DEPTH MATCH:   LOG TYPE
LSRV.                                            DEN/NEUT:   LOG SERVICE
LSOU.                                             SPT/NPD:   LOG SOURCE
LVSN.                                                   1:   LOG VERSION
BHIS.                                                   R:   BRIEF HISTORY
FHIS.                                             RAW-LIS:   FULL HISTORY
LCNM.                                        SCHLUMBERGER:   LOGGING CONTRACTOR
TOOL.                             FDC/CNL/GR (COMPOSITED):   TOOL STRING
~Curve Information Block
#MNEM.UNIT                                        API CODE    No Description
#=========                                        ========    == ===========
DEPT.M                                       00 001 00 00:     1  DEPTH
DRHO.G/CC                                                :     2  Bulk density correction
GR.GAPI                                                  :     3  Gamma Ray
NPHI.%                                                   :     4  Neutron porosity
RHOB.G/CC                                                :     5  Bulk density
~ASCII
 2500.4756  -999.2500    18.1974  -999.2500  -999.2500
 2500.6280  -999.2500    18.1919  -999.2500  -999.2500
 2500.7804      .0009    17.1878  -999.2500  -999.2500
 2500.9328      .0073    16.0029    16.4546     2.5511
 2501.0852      .0108    15.1906    16.8163     2.5671
 2501.2376      .0040    15.1427    16.8366     2.5727
 2501.3900      .0167    15.9571    16.3539     2.5798
 2501.5424      .0222    16.8602    16.3618     2.5919
 2501.6948      .0058    17.2591    16.0387     2.5681
 2501.8472      .0066    16.7962    16.1844     2.5585
 2501.9996      .0157    15.9956    16.3301     2.5618
 2502.1520      .0101    15.3089    16.4605     2.5604
 2502.3044      .0136    15.7114    16.1609     2.5545
 2502.4568      .0250    16.5884    15.6337     2.5740
 2502.6092      .0101    16.0526    15.2798     2.5755
 2502.7616      .0183    15.2658    15.0580     2.5776
 2502.9140      .0320    14.7262    14.9877     2.5931
 2503.0664      .0219    14.1723    15.7877     2.5903
 2503.2188      .0149    14.1299    16.4871     2.5723
 2503.3712      .0253    15.1391    17.1429     2.5691
 2503.5236      .0170    15.7026    17.4166     2.5743
 2503.6760      .0090    15.6972    16.4345     2.5721
 2503.8284      .0067    15.5225    15.9305     2.5640
 2503.9808     -.0010    15.4663    15.9550     2.5550
 2504.1332     -.0071    15.6424    16.1502     2.5464
 2504.2856     -.0011    15.9135    15.7267     2.5534
 2504.4380      .0065    15.7261    15.2743     2.5543
 2504.5904      .0094    15.1109    14.9541     2.5684
 2504.7428      .0096    14.4628    14.9758     2.5734
 2504.8952      .0062    14.4288    15.2981     2.5643
 2505.0476     -.0008    15.0822    15.3270     2.5419
 2505.2000     -.0036    15.6423    15.1568     2.5534
 2505.3524     -.0011    15.6184    15.0562     2.5558
 2505.5048      .0005    15.3165    15.4284     2.5480
 2505.6572     -.0007    15.0844    16.0420     2.5433
 2505.8096     -.0059    15.2213    16.5275     2.5363
 2505.9620     -.0114    14.9031    16.9617     2.5204
 2506.1144     -.0161    14.0962    17.2256     2.5034
 2506.2668     -.0160    13.3264    17.3345     2.5059
 2506.4192     -.0134    12.9177    16.4101     2.5056
 2506.5716     -.0091    12.6052    15.7983     2.5051
 2506.7240     -.0038    12.4614    16.1328     2.5168
 2506.8764     -.0012    12.7657    16.7700     2.5143
 2507.0288     -.0038    11.8679    16.8793     2.5166
 2507.1812     -.0090    12.4659    16.7076     2.5098
 2507.3336     -.0159    13.4945    16.2974     2.4969
 2507.4860     -.0086    14.0120    15.9356     2.5063
 2507.6384     -.0006    13.7799    15.6268     2.5283
 2507.7908      .0122    14.1767    15.3640     2.5511
 2507.9432      .0136    15.1782    15.5055     2.5685
 2508.0956      .0118    15.3737    15.6034     2.5721
 2508.2480      .0032    14.9828    15.3081     2.5794
 2508.4004      .0019    14.5572    15.0418     2.5543
 2508.5528      .0017    14.3244    15.0048     2.5444
 2508.7052     -.0046    14.0598    15.1608     2.5358
 2508.8576     -.0081    14.2183    15.3726     2.5323
 2509.0100     -.0088    14.6916    15.6195     2.5255
 2509.1624     -.0005    15.0772    15.8394     2.5332
 2509.3148      .0032    14.5473    15.9261     2.5474
 2509.4672      .0052    13.9611    15.9657     2.5505
 2509.6196      .0066    13.7592    16.3322     2.5489
 2509.7720     -.0003    13.9804    16.5379     2.5368
 2509.9244     -.0049    14.4206    16.4528     2.5286
 2510.0768     -.0052    14.7425    16.2740     2.5253
 2510.2292     -.0022    14.8663    16.1447     2.5320
 2510.3816      .0003    14.6849    16.0942     2.5399
 2510.5340      .0029    14.2381    17.4161     2.5348
 2510.6864      .0066    13.7100    17.8383     2.5326
 2510.8388      .0113    12.7570    17.7315     2.5415
 2510.9912      .0155    12.7515    17.6121     2.5347
 2511.1436      .0186    13.8479    17.5961     2.5470
 2511.2960      .0199    14.5296    17.8380     2.5624
 2511.4484      .0178    14.5244    17.4805     2.5695
 2511.6008      .0152    14.1611    17.0251     2.5703
 2511.7532      .0118    13.9171    16.8754     2.5710
 2511.9056      .0058    14.1325    16.8172     2.5631
 2512.0580     -.0013    14.6072    16.7540     2.5473
 2512.2104     -.0051    15.2059    16.3974     2.5360
 2512.3628     -.0083    15.7173    15.8733     2.5311
 2512.5152     -.0089    15.8768    15.5734     2.5208
 2512.6676     -.0039    15.7689    15.6232     2.5329
 2512.8200      .0042    15.1194    15.4513     2.5399
 2512.9724      .0087    14.1252    15.2384     2.5439
 2513.1248     -.0036    13.6014    15.5500     2.5268
 2513.2772      .0009    14.4158    16.4310     2.5176
 2513.4296      .0001    15.4319    16.5733     2.5163
 2513.5820      .0037    15.6409    16.3530     2.5408
 2513.7344      .0090    15.9731    16.5873     2.5628
 2513.8868      .0164    16.9519    16.6430     2.5747
 2514.0392      .0186    17.9421    16.6352     2.5670
 2514.1916      .0114    18.4399    16.7157     2.5497
 2514.3440      .0007    18.1399    16.7111     2.5465
 2514.4964     -.0070    16.8300    16.5988     2.5347
 2514.6488     -.0090    16.1992    16.7870     2.5265
 2514.8012     -.0084    16.1937    16.6597     2.5200
 2514.9536     -.0067    16.2923    16.2872     2.5180
 2515.1060      .0027    15.7230    16.0300     2.5342
 2515.2584      .0086    15.1278    15.7595     2.5573
 2515.4108      .0080    14.9790    15.2170     2.5590
 2515.5632      .0016    14.9736    15.3365     2.5683
 2515.7156     -.0003    15.1197    16.0197     2.5531
 2515.8680      .0075    15.5722    16.5320     2.5378
 2516.0204      .0083    16.0116    16.8497     2.5393
 2516.1728      .0015    15.8164    16.9467     2.5445
 2516.3252     -.0005    15.2904    16.9113     2.5428
 2516.4776     -.0014    17.2465    16.9079     2.5495
 2516.6300      .0021    16.4948    16.5105     2.5449
 2516.7824      .0011    16.5293    16.3624     2.5460
 2516.9348     -.0002    16.7927    16.6476     2.5516
 2517.0872     -.0016    15.9926    16.9140     2.5551
 2517.2396     -.0022    16.7989    16.8637     2.5449
 2517.3920     -.0017    17.5407    16.9371     2.5476
 2517.5444      .0003    16.8331    16.9050     2.5370
 2517.6968     -.0013    16.4679    16.5880     2.5252
 2517.8492     -.0065    16.1317    16.8798     2.4977
 2518.0016      .0112    16.0793    18.0022     2.4987
 2518.1540      .0081    16.0737    18.8438     2.5001
 2518.3064      .0003    16.0683    18.7327     2.4889
 2518.4588      .0018    16.0628    17.7971     2.4995
 2518.6112      .0058    15.7123    16.7853     2.5216
 2518.7636      .0051    15.1305    15.6150     2.5386
 2518.9160     -.0009    15.4568    14.8947     2.5368
 2519.0684     -.0079    16.4141    15.4618     2.5191
 2519.2208     -.0042    17.3713    16.4019     2.5156
 2519.3732      .0020    18.7285    16.4113     2.5320
 2519.5256      .0061    19.1558    16.2919     2.5529
 2519.6780      .0044    19.1504    16.8616     2.5684
 2519.8304     -.0008    20.7821    17.4414     2.5467
 2519.9828     -.0004    22.6208    18.3093     2.5424
 2520.1352      .0019    24.5544    18.7686     2.5530
 2520.2876      .0034    25.7594    18.9636     2.5558
 2520.4400      .0040    24.9964    18.8663     2.5632
 2520.5924      .0040    24.1881    18.7561     2.5578
 2520.7448     -.0005    23.9473    17.9613     2.5477
 2520.8972     -.0041    22.8534    17.3196     2.5398
 2521.0496      .0021    22.6798    17.8644     2.5509
 2521.2020     -.0013    22.3771    17.9444     2.5627
 2521.3544     -.0011    20.4133    16.9134     2.5641
 2521.5068     -.0011    19.5004    16.0843     2.5614
 2521.6592     -.0024    19.3777    15.9513     2.5671
 2521.8116     -.0076    20.5619    16.2608     2.5481
 2521.9640     -.0071    21.3727    16.6238     2.5481
 2522.1164     -.0038    22.7338    17.5106     2.5481
 2522.2688      .0069    24.9061    18.3466     2.5593
 2522.4212      .0086    25.9560    17.9493     2.5516
 2522.5736      .0059    22.4580    16.8224     2.5588
