~VERSION INFORMATION
VERS.                                                 2.0:   CWLS Log ASCII Standard-VERSION 2.0
WRAP.                                                  NO:   One line per depth step
~Well Information Block
STRT.M                                          2500.4756:   Top Depth
STOP.M                                          2927.5004:   Bottom Depth
STEP.M                                             .15240:   Depth Increment
NULL.                                            -999.250:   Null Value
FLD .                                             WILDCAT:   Field Name
WELL.                                             15/12-2:   NAME
WBN .                                             15/12-2:   WELLBORE
NATI.                                                 NOR:   COUNTRY
BHT1.DEGF                                            77.0:   BH TEMP 1
BHT2.DEGF                                           106.0:   BH TEMP 2
BHT3.DEGF                                           108.0:   BH TEMP 3
BS1 .IN                                             17.50:   BIT SIZE 1
CTRY.                                                 NOR:   COUNTRY
CBD1.M                                              145.0:   CSG 1 DRILL DEP
CBL1.M                                              145.0:   CSG 1 LOG DEP
CS1 .IN                                              30.0:   CSG 1 SIZE
COMP.                                             STATOIL:   OPERATOR
PDAT.                                                 MSL:   PERM DATUM
PROV.                                           NORTH SEA:   PROVINCE
COUN.                                            ROSS RIG:   RIG NAME
SON .                                              01 JAN:   SOURCE OPERATOR NAME
SPUD.                                          1976/01/07:   SPUD DATE
LATI.                                        58 8 31.05 N:   SURF. LATITUDE
LONG.                                        1 55 42.27 E:   SURF. LONGITUDE
BTD1.                                             370.0 M:   TOTAL DEPTH 1
BTD2.                                      1829.3000488 M:   TOTAL DEPTH 2
BTD3.                                      1829.3000488 M:   TOTAL DEPTH 3
PBWE.                                             15/12-2:   PB WELL ID
APIN.                                             15/12-2:   PB WELLBORE ID
PBWS.                                                 all:   PB WELL NAME SET
~PARAMETER INFORMATION (log)
LNAM.                              FDC/CNL/GR  COMPOSITED:   NAME
LTYP.                                         DEPTH MATCH:   LOG TYPE
LSRV.                                            DEN/NEUT:   LOG SERVICE
LSOU.                                             SPT/NPD:   LOG SOURCE
LVSN.                                                   1:   LOG VERSION
BHIS.                                                   R:   BRIEF HISTORY
FHIS.                                             RAW-LIS:   FULL HISTORY
LCNM.                                        SCHLUMBERGER:   LOGGING CONTRACTOR
TOOL.                             FDC/CNL/GR (COMPOSITED):   TOOL STRING
~Curve Information Block
#MNEM.UNIT                                        API CODE    No Description
#=========                                        ========    == ===========
DEPT.M                                       00 001 00 00:     1  DEPTH
DRHO.G/CC                                                :     2  Bulk density correction
GR.GAPI                                                  :     3  Gamma Ray
NPHI.%                                                   :     4  Neutron porosity
RHOB.G/CC                                                :     5  Bulk density
~ASCII
# ...
 2856.4820      .0057    41.8342    24.1518     2.4253
 2856.6344      .0111    40.1960    24.3494     2.4168
 2856.7868      .0079    39.6808    24.7624     2.3827
 2856.9392      .0078    40.1212    25.2021     2.3450
 2857.0916      .0073    40.4402    25.5277     2.3344
 2857.2440     -.0008    39.1477    26.0144     2.3290
 2857.3964     -.0081    37.9225    26.7544     2.3175
 2857.5488     -.0086    37.2966    26.8707     2.2982
 2857.7012     -.0057    37.3128    26.2995     2.2901
 2857.8536     -.0023    37.5666    25.9997     2.2932
 2858.0060     -.0047    36.7688    25.8939     2.2986
 2858.1584     -.0172    35.2892    25.3878     2.3164
 2858.3108     -.0249    34.5931    24.9178     2.3324
 2858.4632     -.0205    34.9151    24.7764     2.3412
 2858.6156     -.0220    35.0195    25.2455     2.3492
 2858.7680     -.0126    34.9919    25.7438     2.3695
 2858.9204     -.0102    36.2495    25.8898     2.3643
 2859.0728     -.0103    36.1886    25.8708     2.3584
 2859.2252     -.0034    38.0411    25.1108     2.3546
 2859.3776     -.0021    39.3929    24.4271     2.3692
 2859.5300     -.0069    40.6891    23.5420     2.3868
 2859.6824     -.0116    41.9629    22.3279     2.4084
 2859.8348     -.0216    42.0554    21.5547     2.4436
 2859.9872     -.0249    39.6259    22.3829     2.4951
 2860.1396     -.0237    37.2393    23.5144     2.5473
 2860.2920     -.0197    36.3588    23.9924     2.6341
 2860.4444     -.0094    35.6246    23.2941     2.7103
 2860.5968     -.0001    33.9580    22.4750     2.7440
 2860.7492      .0099    31.8838    22.0531     2.7698
 2860.9016      .0186    31.6727    21.5121     2.7366
 2861.0540      .0112    35.7405    20.2861     2.6778
 2861.2064      .0051    39.5861    18.7250     2.6040
 2861.3588      .0013    40.0852    17.8477     2.5174
 2861.5112     -.0025    38.9871    18.2816     2.4347
 2861.6636      .0068    38.1007    19.8705     2.3897
 2861.8160      .0179    36.8453    22.2170     2.3764
 2861.9684      .0149    34.9851    23.3074     2.3775
 2862.1208      .0098    32.4458    23.8860     2.3836
 2862.2732      .0063    31.0512    23.7685     2.3978
 2862.4256     -.0017    30.8580    23.2245     2.4149
 2862.5780      .0069    29.3707    22.3433     2.4129
 2862.7304     -.0040    26.2926    21.0550     2.4000
 2862.8828     -.0079    24.4727    19.4032     2.3898
 2863.0352      .0059    23.6287    17.3893     2.3844
 2863.1876     -.0013    23.0110    16.9787     2.3767
 2863.3400     -.0114    22.4410    17.3922     2.3627
 2863.4924     -.0138    22.1373    17.3421     2.3509
 2863.6448     -.0124    23.2161    17.3020     2.3575
 2863.7972     -.0191    25.6349    17.3206     2.3622
 2863.9496     -.0185    26.5516    16.8509     2.3819
 2864.1020     -.0156    26.3596    16.3282     2.4040
 2864.2544     -.0204    26.2262    15.7564     2.4094
 2864.4068     -.0276    26.0574    15.0343     2.4065
 2864.5592     -.0368    26.4038    14.8174     2.4074
 2864.7116     -.0384    26.6307    15.3394     2.4099
 2864.8640     -.0311    25.4911    16.0093     2.4060
 2865.0164     -.0227    24.1208    15.9175     2.3971
 2865.1688     -.0158    23.9875    15.1975     2.4100
 2865.3212     -.0097    24.5410    14.1925     2.4267
 2865.4736     -.0130    24.8176    13.0128     2.4618
 2865.6260     -.0042    26.1346    12.4052     2.4920
 2865.7784      .0000    26.7098    12.0877     2.5095
 2865.9308     -.0078    26.1070    12.2021     2.5039
 2866.0832     -.0227    26.0348    13.1454     2.4889
 2866.2356     -.0127    26.6490    13.9181     2.4930
 2866.3880     -.0076    28.2737    14.6642     2.4917
 2866.5404     -.0102    30.9703    14.9787     2.4798
 2866.6928     -.0101    32.6162    15.4231     2.4861
 2866.8452     -.0036    32.9654    15.9900     2.5024
 2866.9976      .0084    33.7937    17.1429     2.5251
 2867.1500      .0137    35.3871    18.2780     2.5498
 2867.3024      .0195    37.2979    19.4775     2.5732
 2867.4548      .0139    42.6195    21.2934     2.5919
 2867.6072      .0172    47.6438    22.8838     2.6120
 2867.7596      .0174    51.5565    23.4700     2.6426
 2867.9120      .0166    53.5801    23.9416     2.6485
 2868.0644      .0170    54.1846    24.5139     2.6469
 2868.2168      .0173    54.9872    24.5041     2.6415
 2868.3692      .0173    55.9804    24.3972     2.6356
 2868.5216      .0182    55.7326    24.6644     2.6300
 2868.6740      .0210    56.1377    24.6240     2.6251
 2868.8264      .0192    56.8918    24.4401     2.6218
 2868.9788      .0153    59.4659    24.4750     2.6205
 2869.1312      .0148    60.5028    24.6709     2.6203
 2869.2836      .0131    59.6973    24.8046     2.6194
 2869.4360      .0368    60.6026    24.7587     2.6259
 2869.5884      .0127    61.6551    24.3378     2.6177
 2869.7408      .0020    60.7536    23.1192     2.5997
 2869.8932      .0286    60.5493    22.1613     2.5876
 2870.0456      .0258    59.3803    21.8308     2.5808
 2870.1980      .0114    60.0116    22.9203     2.5880
 2870.3504      .0106    59.2621    23.4744     2.6179
 2870.5028      .0088    61.6507    24.1658     2.6607
 2870.6552      .0040    63.3375    24.5548     2.6880
 2870.8076      .0044    62.9001    24.2900     2.6870
 2870.9600      .0270    61.4824    24.9973     2.6688
 2871.1124      .0548    59.7043    25.1093     2.6704
 2871.2648      .0526    57.9521    25.0306     2.6481
 2871.4172      .0131    57.8118    24.6179     2.6204
 2871.5696      .0103    58.6257    24.1318     2.5947
 2871.7220      .0217    59.6881    24.0812     2.5879
 2871.8744      .0387    59.0228    25.5753     2.6039
 2872.0268      .0623    58.4343    28.1807     2.6174
 2872.1792      .0838    59.8899    30.2568     2.6035
 2872.3316      .0721    60.4572    31.2834     2.5842
 2872.4840      .0419    59.9221    30.6791     2.5888
 2872.6364      .0245    60.3032    29.6949     2.5931
 2872.7888      .0337    60.9922    29.4685     2.5756
 2872.9412      .0660    61.9508    29.9126     2.5344
 2873.0936      .0543    60.8121    29.4681     2.5037
 2873.2460      .0296    60.5083    29.9799     2.4807
 2873.3984     -.0099    60.4960    30.5778     2.4651
 2873.5508     -.0059    60.2328    30.7922     2.5145
 2873.7032     -.0274    60.3556    29.3548     2.5566
 2873.8556     -.0122    58.5622    28.2334     2.5814
 2874.0080      .0054    59.5248    27.4322     2.5774
 2874.1604      .0301    60.1862    27.2676     2.5959
 2874.3128      .0578    60.7651    27.6040     2.6049
 2874.4652      .0760    63.2765    28.9230     2.6372
 2874.6176      .0639    64.0528    29.8532     2.6577
 2874.7700      .0329    63.7536    30.4982     2.6608
 2874.9224      .0316    62.1518    31.1054     2.6333
 2875.0748      .0553    60.5951    31.7802     2.5892
 2875.2272      .0521    60.0372    32.5884     2.5761
 2875.3796      .0174    58.6764    33.4756     2.5509
 2875.5320      .0078    58.1237    33.4986     2.5348
 2875.6844      .0106    58.0787    32.3140     2.5139
 2875.8368      .0085    59.3720    30.8243     2.4940
 2875.9892      .0237    61.2102    29.1697     2.4398
 2876.1416      .0387    64.7612    28.9720     2.4178
 2876.2940      .0554    68.4350    29.8598     2.4427
 2876.4464      .0392    70.5131    30.6254     2.4955
 2876.5988      .0316    69.7028    31.1490     2.5712
 2876.7512      .0467    69.3216    31.9699     2.5871
 2876.9036      .0383    69.9245    32.5875     2.5712
 2877.0560      .0178    69.1336    32.1485     2.5290
 2877.2084      .0213    69.0768    31.7267     2.5320
 2877.3608      .0312    69.6655    31.6070     2.5428
 2877.5132      .0293    68.1247    32.2968     2.5491
 2877.6656      .0310    66.0069    31.9706     2.5730
 2877.8180      .0489    64.9285    29.9423     2.5808
 2877.9704      .0333    64.9339    29.5812     2.5681
 2878.1228      .0223    63.3591    28.7475     2.5721
 2878.2752      .0269    63.9528    28.2088     2.5896
 2878.4276      .0364    66.4912    29.8264     2.5808
 2878.5800      .0395    67.5146    34.1511     2.5984
