~VERSION INFORMATION
VERS.                                                 2.0:   CWLS Log ASCII Standard-VERSION 2.0
WRAP.                                                  NO:   One line per depth step
~Well Information Block
STRT.M                                          2500.4756:   Top Depth
STOP.M                                          2927.5004:   Bottom Depth
STEP.M                                             .15240:   Depth Increment
NULL.                                            -999.250:   Null Value
FLD .                                             WILDCAT:   Field Name
WELL.                                             15/12-2:   NAME
WBN .                                             15/12-2:   WELLBORE
NATI.                                                 NOR:   COUNTRY
BHT1.DEGF                                            77.0:   BH TEMP 1
BHT2.DEGF                                           106.0:   BH TEMP 2
BHT3.DEGF                                           108.0:   BH TEMP 3
BS1 .IN                                             17.50:   BIT SIZE 1
CTRY.                                                 NOR:   COUNTRY
CBD1.M                                              145.0:   CSG 1 DRILL DEP
CBL1.M                                              145.0:   CSG 1 LOG DEP
CS1 .IN                                              30.0:   CSG 1 SIZE
COMP.                                             STATOIL:   OPERATOR
PDAT.                                                 MSL:   PERM DATUM
PROV.                                           NORTH SEA:   PROVINCE
COUN.                                            ROSS RIG:   RIG NAME
SON .                                              01 JAN:   SOURCE OPERATOR NAME
SPUD.                                          1976/01/07:   SPUD DATE
LATI.                                        58 8 31.05 N:   SURF. LATITUDE
LONG.                                        1 55 42.27 E:   SURF. LONGITUDE
BTD1.                                             370.0 M:   TOTAL DEPTH 1
BTD2.                                      1829.3000488 M:   TOTAL DEPTH 2
BTD3.                                      1829.3000488 M:   TOTAL DEPTH 3
PBWE.                                             15/12-2:   PB WELL ID
APIN.                                             15/12-2:   PB WELLBORE ID
PBWS.                                                 all:   PB WELL NAME SET
~PARAMETER INFORMATION (log)
LNAM.                              FDC/CNL/GR  COMPOSITED:   NAME
LTYP.                                         DEPTH MATCH:   LOG TYPE
LSRV.                                            DEN/NEUT:   LOG SERVICE
LSOU.                                             SPT/NPD:   LOG SOURCE
LVSN.                                                   1:   LOG VERSION
BHIS.                                                   R:   BRIEF HISTORY
FHIS.                                             RAW-LIS:   FULL HISTORY
LCNM.                                        SCHLUMBERGER:   LOGGING CONTRACTOR
TOOL.                             FDC/CNL/GR (COMPOSITED):   TOOL STRING
~Curve Information Block
#MNEM.UNIT                                        API CODE    No Description
#=========                                        ========    == ===========
DEPT.M                                       00 001 00 00:     1  DEPTH
DRHO.G/CC                                                :     2  Bulk density correction
GR.GAPI                                                  :     3  Gamma Ray
NPHI.%                                                   :     4  Neutron porosity
RHOB.G/CC                                                :     5  Bulk density
~ASCII
# ...
 2656.2284      .0016    32.8683    17.4566     2.5338
 2656.3808      .0056    32.8362    17.1946     2.5330
 2656.5332      .0029    33.2804    17.1148     2.5267
 2656.6856      .0002    33.4862    16.9986     2.5181
 2656.8380      .0063    34.1791    16.8570     2.5241
 2656.9904      .0158    35.1778    16.5095     2.5372
 2657.1428      .0207    36.1085    16.5330     2.5331
 2657.2952      .0151    36.4031    17.1830     2.5185
 2657.4476      .0073    35.7165    17.8819     2.5050
 2657.6000      .0047    33.9795    18.9568     2.5017
 2657.7524      .0039    32.5593    19.5558     2.5015
 2657.9048      .0053    32.6383    19.5817     2.5072
 2658.0572      .0102    33.7199    19.6400     2.5070
 2658.2096      .0089    34.2023    20.1291     2.5004
 2658.3620      .0049    34.3931    20.5299     2.4989
 2658.5144     -.0003    34.5333    20.4815     2.4967
 2658.6668     -.0011    34.4083    19.4364     2.4951
 2658.8192      .0033    35.2410    19.3116     2.5020
 2658.9716      .0052    36.0439    19.3175     2.5160
 2659.1240      .0050    36.1547    19.5955     2.5242
 2659.2764      .0053    36.1758    20.0834     2.5270
 2659.4288      .0038    37.3397    20.6807     2.5212
 2659.5812      .0030    38.5033    21.3097     2.5135
 2659.7336      .0059    39.3251    21.9752     2.5237
 2659.8860      .0104    39.6875    22.8448     2.5327
 2660.0384      .0123    40.1996    23.7803     2.5268
 2660.1908      .0032    40.1240    24.2768     2.5103
 2660.3432      .0005    39.3927    24.1205     2.5046
 2660.4956      .0025    39.1976    23.4409     2.5091
 2660.6480      .0037    39.3910    24.1644     2.5085
 2660.8004     -.0006    39.8637    24.9308     2.5114
 2660.9528     -.0040    39.7215    25.7048     2.5084
 2661.1052      .0050    39.2513    25.7112     2.4994
 2661.2576      .0184    39.7450    25.1015     2.4841
 2661.4100      .0317    41.4389    24.7574     2.4636
 2661.5624      .0320    43.4463    25.1176     2.4541
 2661.7148      .0118    44.3351    25.8032     2.4318
 2661.8672      .0008    42.9908    26.3110     2.4230
 2662.0196      .0027    41.3418    26.0474     2.4173
 2662.1720      .0020    40.7600    24.9079     2.4042
 2662.3244      .0060    40.7527    25.1869     2.3993
 2662.4768      .0172    39.7498    25.4638     2.4105
 2662.6292      .0185    38.1339    25.1506     2.4166
 2662.7816      .0136    38.4056    25.2341     2.4089
 2662.9340      .0156    39.4792    26.0291     2.4085
 2663.0864      .0163    39.1643    26.5685     2.4163
 2663.2388      .0141    38.1172    26.7811     2.4328
 2663.3912      .0042    37.8294    26.7245     2.4205
 2663.5436      .0073    37.3161    26.3492     2.4037
 2663.6960      .0102    36.8049    25.8594     2.4083
 2663.8484      .0059    36.7833    25.2825     2.4132
 2664.0008      .0044    37.6941    24.9876     2.4215
 2664.1532      .0100    39.0356    24.7394     2.4340
 2664.3056      .0140    40.4071    24.2734     2.4392
 2664.4580      .0070    41.0121    23.8862     2.4374
 2664.6104     -.0006    40.7853    23.7893     2.4405
 2664.7628      .0010    40.1097    23.8943     2.4512
 2664.9152      .0029    39.5448    24.0399     2.4541
 2665.0676      .0019    38.9092    24.3263     2.4463
 2665.2200      .0028    37.4580    24.7312     2.4420
 2665.3724      .0033    36.4192    25.4783     2.4368
 2665.5248      .0028    36.2932    27.6976     2.4363
 2665.6772      .0017    36.2689    30.0489     2.4455
 2665.8296     -.0014    36.4254    31.5861     2.4460
 2665.9820     -.0028    36.7959    33.0568     2.4495
 2666.1344      .0018    36.7233    33.4076     2.4490
 2666.2868      .0021    36.8170    32.7637     2.4282
 2666.4392      .0005    38.3652    31.7729     2.3766
 2666.5916      .0048    40.2060    31.2003     2.3125
 2666.7440      .0106    40.3936    31.2783     2.2548
 2666.8964      .0178    40.8708    32.2641     2.2283
 2667.0488      .0233    41.0605    33.8604     2.2389
 2667.2012      .0153    41.3065    35.5244     2.2388
 2667.3536      .0071    39.5493    35.8945     2.2411
 2667.5060     -.0014    37.2272    36.3926     2.2277
 2667.6584     -.0059    34.9730    37.7303     2.2189
 2667.8108     -.0033    34.0107    38.7118     2.2161
 2667.9632      .0008    34.5578    39.1575     2.2132
 2668.1156      .0033    32.9488    37.8230     2.2096
 2668.2680      .0021    32.8778    34.2941     2.2441
 2668.4204      .0038    33.6922    30.2720     2.3089
 2668.5728      .0054    33.7077    28.3654     2.4040
 2668.7252      .0147    32.9017    28.1074     2.4631
 2668.8776      .0092    32.5537    28.3807     2.4990
 2669.0300      .0103    32.1759    28.6519     2.5162
 2669.1824      .0031    31.8841    28.7968     2.5308
 2669.3348      .0043    33.2391    29.6981     2.5329
 2669.4872      .0077    37.4293    31.5193     2.4946
 2669.6396      .0280    41.7453    34.3962     2.4590
 2669.7920      .0424    45.7860    37.3781     2.4273
 2669.9444      .0357    49.4683    38.8567     2.3877
 2670.0968      .0398    50.6858    39.3270     2.3601
 2670.2492      .0547    51.6478    39.6159     2.3637
 2670.4016      .0782    52.8496    39.6937     2.3870
 2670.5540      .0981    52.4981    39.6334     2.4240
 2670.7064      .0990    51.6375    39.5603     2.4434
 2670.8588      .0878    49.8278    39.5476     2.4414
 2671.0112      .0902    48.1006    39.6833     2.4494
 2671.1636      .1011    48.8101    40.0336     2.4646
 2671.3160      .1000    50.4155    40.5051     2.4652
 2671.4684      .0905    50.2996    40.9005     2.4528
 2671.6208      .0802    48.1696    40.3714     2.4390
 2671.7732      .0668    46.1576    38.3247     2.4238
 2671.9256      .0399    45.1047    36.4413     2.3995
 2672.0780      .0114    44.4709    35.3763     2.3739
 2672.2304      .0142    44.8800    33.9450     2.3625
 2672.3828      .0327    44.5212    32.3930     2.3577
 2672.5352      .0349    43.6221    31.5606     2.3523
 2672.6876      .0274    43.4530    31.1788     2.3545
 2672.8400      .0323    43.6554    30.3503     2.3658
 2672.9924      .0246    45.0877    29.1050     2.3850
 2673.1448      .0207    46.9675    28.4859     2.4117
 2673.2972      .0208    47.2082    29.1305     2.4314
 2673.4496      .0280    45.7091    30.0215     2.4456
 2673.6020      .0434    45.0351    30.5310     2.4481
 2673.7544      .0683    44.0946    31.0514     2.4497
 2673.9068      .0964    43.8648    31.6725     2.4666
 2674.0592      .1079    43.5236    32.1541     2.4756
 2674.2116      .0917    43.1146    32.9779     2.4559
 2674.3640      .0532    44.8466    34.2168     2.4133
 2674.5164      .0577    46.5019    34.4322     2.4054
 2674.6688      .0687    47.0357    33.4927     2.4150
 2674.8212      .0946    46.6230    31.7231     2.4340
 2674.9736      .1061    43.3728    29.9389     2.4588
 2675.1260      .1252    42.5575    29.4271     2.4974
 2675.2784      .1319    44.4013    30.5150     2.5130
 2675.4308      .1182    43.9483    30.3289     2.5124
 2675.5832      .1084    43.4034    28.9267     2.5119
 2675.7356      .0925    42.6114    27.8895     2.4996
 2675.8880      .0681    39.9015    27.8386     2.4837
 2676.0404      .0483    36.9718    29.6134     2.4577
 2676.1928      .0419    33.6219    30.6175     2.4283
 2676.3452      .0500    29.8606    31.0704     2.3984
 2676.4976      .0466    28.2345    31.9133     2.3820
 2676.6500      .0250    26.8449    32.6968     2.3892
 2676.8024      .0047    26.4312    32.0082     2.4470
 2676.9548     -.0030    26.4370    28.3924     2.4983
 2677.1072     -.0005    26.7626    23.8027     2.5220
 2677.2596     -.0002    27.5199    21.1005     2.5248
 2677.4120     -.0026    28.2916    20.0030     2.5236
 2677.5644     -.0021    28.4752    20.1303     2.5243
 2677.7168      .0015    29.3852    21.0797     2.5309
 2677.8692      .0008    30.1617    22.0624     2.5316
 2678.0216     -.0021    30.1412    22.6974     2.5255
 2678.1740     -.0003    30.2613    23.1303     2.5284
 2678.3264      .0061    30.5561    23.7571     2.5445
