~VERSION INFORMATION
VERS.                                                 2.0:   CWLS Log ASCII Standard-VERSION 2.0
WRAP.                                                  NO:   One line per depth step
~Well Information Block
STRT.M                                          2500.4756:   Top Depth
STOP.M                                          2927.5004:   Bottom Depth
STEP.M                                             .15240:   Depth Increment
NULL.                                            -999.250:   Null Value
FLD .                                             WILDCAT:   Field Name
WELL.                                             15/12-2:   NAME
WBN .                                             15/12-2:   WELLBORE
NATI.                                                 NOR:   COUNTRY
BHT1.DEGF                                            77.0:   BH TEMP 1
BHT2.DEGF                                           106.0:   BH TEMP 2
BHT3.DEGF                                           108.0:   BH TEMP 3
BS1 .IN                                             17.50:   BIT SIZE 1
CTRY.                                                 NOR:   COUNTRY
CBD1.M                                              145.0:   CSG 1 DRILL DEP
CBL1.M                                              145.0:   CSG 1 LOG DEP
CS1 .IN                                              30.0:   CSG 1 SIZE
COMP.                                             STATOIL:   OPERATOR
PDAT.                                                 MSL:   PERM DATUM
PROV.                                           NORTH SEA:   PROVINCE
COUN.                                            ROSS RIG:   RIG NAME
SON .                                              01 JAN:   SOURCE OPERATOR NAME
SPUD.                                          1976/01/07:   SPUD DATE
LATI.                                        58 8 31.05 N:   SURF. LATITUDE
LONG.                                        1 55 42.27 E:   SURF. LONGITUDE
BTD1.                                             370.0 M:   TOTAL DEPTH 1
BTD2.                                      1829.3000488 M:   TOTAL DEPTH 2
BTD3.                                      1829.3000488 M:   TOTAL DEPTH 3
PBWE.                                             15/12-2:   PB WELL ID
APIN.                                             15/12-2:   PB WELLBORE ID
PBWS.                                                 all:   PB WELL NAME SET
~PARAMETER INFORMATION (log)
LNAM.                              FDC/CNL/GR  COMPOSITED:   NAME
LTYP.                                         DEPTH MATCH:   LOG TYPE
LSRV.                                            DEN/NEUT:   LOG SERVICE
LSOU.                                             SPT/NPD:   LOG SOURCE
LVSN.                                                   1:   LOG VERSION
BHIS.                                                   R:   BRIEF HISTORY
FHIS.                                             RAW-LIS:   FULL HISTORY
LCNM.                                        SCHLUMBERGER:   LOGGING CONTRACTOR
TOOL.                             FDC/CNL/GR (COMPOSITED):   TOOL STRING
~Curve Information Block
#MNEM.UNIT                                        API CODE    No Description
#=========                                        ========    == ===========
DEPT.M                                       00 001 00 00:     1  DEPTH
DRHO.G/CC                                                :     2  Bulk density correction
GR.GAPI                                                  :     3  Gamma Ray
NPHI.%                                                   :     4  Neutron porosity
RHOB.G/CC                                                :     5  Bulk density
~ASCII
# ...
 2767.4804      .0088   126.6583    39.8627     2.3755
 2767.6328      .0112   127.0758    39.0035     2.3912
 2767.7852      .0144   127.0147    37.7999     2.3947
 2767.9376      .0196   127.8106    37.4615     2.3917
 2768.0900      .0011   125.9492    38.0050     2.3969
 2768.2424     -.0100   122.0961    38.9924     2.4128
 2768.3948     -.0058   122.5238    39.6188     2.4092
 2768.5472     -.0096   120.3063    39.5381     2.3943
 2768.6996     -.0041   118.1500    38.7533     2.3841
 2768.8520     -.0031   117.6194    37.5630     2.3799
 2769.0044     -.0049   117.8940    36.8378     2.3828
 2769.1568     -.0124   117.0854    36.5597     2.3795
 2769.3092     -.0141   113.9892    36.6083     2.3732
 2769.4616     -.0033   112.7572    36.7076     2.3674
 2769.6140      .0054   114.6309    36.9055     2.3645
 2769.7664      .0080   116.4788    37.2412     2.3719
 2769.9188      .0074   117.3842    37.4000     2.3823
 2770.0712      .0042   117.0533    37.3208     2.3811
 2770.2236     -.0008   116.3308    37.8007     2.3712
 2770.3760     -.0056   116.8981    38.2728     2.3636
 2770.5284     -.0047   118.9708    38.6165     2.3638
 2770.6808     -.0035   119.6026    38.6239     2.3600
 2770.8332     -.0080   117.0372    38.3334     2.3504
 2770.9856     -.0037   113.8652    38.1665     2.3539
 2771.1380     -.0008   111.5970    38.1180     2.3599
 2771.2904     -.0080   109.6927    38.1353     2.3677
 2771.4428     -.0102   110.4819    38.1897     2.3939
 2771.5952     -.0054   112.6281    38.1851     2.3988
 2771.7476      .0010   113.4427    38.3036     2.3834
 2771.9000      .0075   113.1746    38.4643     2.3702
 2772.0524      .0117   113.4187    38.6554     2.3669
 2772.2048      .0065   114.0576    38.3778     2.3556
 2772.3572     -.0014   113.8565    38.2409     2.3517
 2772.5096      .0030   112.8802    38.1534     2.3687
 2772.6620      .0003   111.9452    38.1070     2.3937
 2772.8144     -.0019   111.8593    38.0770     2.4016
 2772.9668     -.0030   112.2316    38.1044     2.3859
 2773.1192      .0019   112.4180    38.3024     2.3727
 2773.2716      .0038   114.1956    38.6285     2.3685
 2773.4240      .0021   115.1805    38.8958     2.3545
 2773.5764     -.0048   114.2162    39.0978     2.3351
 2773.7288     -.0030   116.8160    39.2759     2.3299
 2773.8812     -.0016   118.8333    38.9253     2.3419
 2774.0336     -.0045   118.1281    38.3512     2.3533
 2774.1860     -.0055   116.9498    37.8687     2.3609
 2774.3384     -.0026   114.0230    37.6063     2.3645
 2774.4908     -.0026   112.4241    37.3347     2.3676
 2774.6432     -.0024   113.0828    37.9557     2.3665
 2774.7956     -.0013   114.1216    38.6434     2.3748
 2774.9480     -.0008   113.8892    39.3414     2.3815
 2775.1004     -.0010   112.9495    40.0974     2.3845
 2775.2528     -.0049   111.2949    40.9618     2.3856
 2775.4052     -.0127   112.2204    41.0042     2.3823
 2775.5576     -.0137   112.0671    40.5957     2.3804
 2775.7100     -.0089   113.5041    38.6252     2.3799
 2775.8624     -.0046   115.7202    36.7936     2.3722
 2776.0148     -.0026   117.1777    35.5897     2.3703
 2776.1672     -.0053   116.9023    35.0267     2.3674
 2776.3196     -.0064   116.9707    33.8014     2.3638
 2776.4720     -.0018   116.9700    32.8161     2.3684
 2776.6244     -.0042   114.8447    31.3261     2.3802
 2776.7768     -.0041   113.4914    33.1766     2.3821
 2776.9292     -.0014   113.2502    34.8960     2.3716
 2777.0816      .0028   113.6744    36.9711     2.3649
 2777.2340      .0042   113.2888    39.2905     2.3634
 2777.3864     -.0001   114.0965    39.1345     2.3604
 2777.5388     -.0006   116.2147    39.1358     2.3538
 2777.6912     -.0077   115.5993    39.9197     2.3472
 2777.8436     -.0073   111.1112    39.6200     2.3396
 2777.9960     -.0037   110.3270    38.1311     2.3493
 2778.1484      .0012   109.3078    37.7791     2.3604
 2778.3008      .0038   107.5879    37.3969     2.3828
 2778.4532     -.0017   108.8131    36.4254     2.3917
 2778.6056     -.0038   111.9428    35.1268     2.3686
 2778.7580     -.0089   113.0929    33.3877     2.3609
 2778.9104     -.0091   110.9156    34.8352     2.3495
 2779.0628      .0006   107.5270    36.1332     2.3385
 2779.2152      .0155   104.7847    36.8671     2.3285
 2779.3676      .0288   104.8391    37.5337     2.3164
 2779.5200      .0260   106.7467    37.2015     2.3119
 2779.6724      .0208   107.9924    36.5332     2.3203
 2779.8248      .0074   110.3875    36.9387     2.3325
 2779.9772      .0134   111.4881    37.5038     2.3438
 2780.1296      .0158   111.8480    37.5032     2.3387
 2780.2820      .0183   111.9869    36.7391     2.3282
 2780.4344      .0219   111.9578    36.6036     2.3015
 2780.5868      .0154   113.2550    36.9986     2.2900
 2780.7392      .0254   111.4657    37.7012     2.2811
 2780.8916      .0278   109.0556    38.1490     2.2751
 2781.0440      .0114   108.5751    37.7967     2.2813
 2781.1964      .0163   107.6106    37.0011     2.2964
 2781.3488      .0197   105.5023    37.5268     2.3036
 2781.5012      .0013   104.5100    38.6500     2.3274
 2781.6536     -.0023   107.6853    38.5734     2.3600
 2781.8060     -.0063   108.9611    37.9362     2.3851
 2781.9584      .0053   106.7043    37.6751     2.3919
 2782.1108      .0126   104.0902    37.3739     2.3775
 2782.2632      .0114   102.8821    37.4893     2.3606
 2782.4156      .0056   102.5339    36.4802     2.3571
 2782.5680      .0062   101.5059    35.2072     2.3677
 2782.7204      .0104   100.1104    35.1930     2.3784
 2782.8728      .0102   103.0368    35.0259     2.3785
 2783.0252      .0116   106.1898    34.8704     2.3790
 2783.1776     -.0028   107.4766    35.1771     2.3845
 2783.3300     -.0069   106.5309    35.2095     2.3888
 2783.4824     -.0058   104.8569    34.8247     2.3911
 2783.6348     -.0035   105.0019    34.5342     2.4043
 2783.7872     -.0067   102.8882    34.5276     2.4167
 2783.9396     -.0098   100.1615    34.7915     2.4175
 2784.0920     -.0087    99.7016    35.2607     2.3942
 2784.2444     -.0049   101.6765    35.6525     2.3562
 2784.3968     -.0018   104.6172    35.9896     2.3532
 2784.5492     -.0004   105.6940    35.9744     2.3626
 2784.7016     -.0003   106.5937    35.0719     2.3677
 2784.8540      .0006   108.1894    35.3916     2.3743
 2785.0064      .0044   108.9015    36.1459     2.3776
 2785.1588      .0055   107.8943    35.5124     2.3853
 2785.3112      .0007   107.6566    34.8036     2.3950
 2785.4636      .0050   109.3916    34.5671     2.4018
 2785.6160      .0072   110.9025    34.5653     2.4059
 2785.7684      .0045   111.1421    33.4077     2.4200
 2785.9208      .0021   111.1884    32.3890     2.4362
 2786.0732      .0045   107.9913    31.9460     2.4475
 2786.2256      .0057   102.4892    31.9461     2.4654
 2786.3780      .0035    96.6439    31.4314     2.4790
 2786.5304     -.0002    92.3027    31.0921     2.4826
 2786.6828      .0034    91.9316    35.2311     2.4429
 2786.8352      .0137    95.8587    37.8180     2.4065
 2786.9876      .0151   101.4830    38.0781     2.4014
 2787.1400      .0062   103.7551    38.0508     2.4016
 2787.2924      .0005   105.9544    37.8723     2.4031
 2787.4448     -.0039   107.3931    37.8050     2.4035
 2787.5972     -.0061   105.6465    37.8096     2.4038
 2787.7496     -.0040   103.2671    37.8234     2.4041
 2787.9020     -.0047   104.6458    37.9158     2.3966
 2788.0544      .0022   109.5955    38.0313     2.3878
 2788.2068     -.0023   115.9997    38.1898     2.3921
 2788.3592     -.0057   118.9382    38.3630     2.4072
 2788.5116     -.0037   119.6317    38.5871     2.4170
 2788.6640      .0047   119.2971    38.5821     2.4062
 2788.8164      .0166   119.2186    38.3853     2.3891
 2788.9688      .0160   117.5540    38.2106     2.3795
 2789.1212      .0003   115.3726    38.0962     2.3741
 2789.2736     -.0009   113.9677    38.1800     2.3688
 2789.4260      .0001   112.3494    38.5043     2.3600
 2789.5784      .0009   112.0549    38.9791     2.3512
