~VERSION INFORMATION
VERS.                                                 2.0:   CWLS Log ASCII Standard-VERSION 2.0
WRAP.                                                  NO:   One line per depth step
~Well Information Block
STRT.M                                          2500.4756:   Top Depth
STOP.M                                          2927.5004:   Bottom Depth
STEP.M                                             .15240:   Depth Increment
NULL.                                            -999.250:   Null Value
FLD .                                             WILDCAT:   Field Name
WELL.                                             15/12-2:   NAME
WBN .                                             15/12-2:   WELLBORE
NATI.                                                 NOR:   COUNTRY
BHT1.DEGF                                            77.0:   BH TEMP 1
BHT2.DEGF                                           106.0:   BH TEMP 2
BHT3.DEGF                                           108.0:   BH TEMP 3
BS1 .IN                                             17.50:   BIT SIZE 1
CTRY.                                                 NOR:   COUNTRY
CBD1.M                                              145.0:   CSG 1 DRILL DEP
CBL1.M                                              145.0:   CSG 1 LOG DEP
CS1 .IN                                              30.0:   CSG 1 SIZE
COMP.                                             STATOIL:   OPERATOR
PDAT.                                                 MSL:   PERM DATUM
PROV.                                           NORTH SEA:   PROVINCE
COUN.                                            ROSS RIG:   RIG NAME
SON .                                              01 JAN:   SOURCE OPERATOR NAME
SPUD.                                          1976/01/07:   SPUD DATE
LATI.                                        58 8 31.05 N:   SURF. LATITUDE
LONG.                                        1 55 42.27 E:   SURF. LONGITUDE
BTD1.                                             370.0 M:   TOTAL DEPTH 1
BTD2.                                      1829.3000488 M:   TOTAL DEPTH 2
BTD3.                                      1829.3000488 M:   TOTAL DEPTH 3
PBWE.                                             15/12-2:   PB WELL ID
APIN.                                             15/12-2:   PB WELLBORE ID
PBWS.                                                 all:   PB WELL NAME SET
~PARAMETER INFORMATION (log)
LNAM.                              FDC/CNL/GR  COMPOSITED:   NAME
LTYP.                                         DEPTH MATCH:   LOG TYPE
LSRV.                                            DEN/NEUT:   LOG SERVICE
LSOU.                                             SPT/NPD:   LOG SOURCE
LVSN.                                                   1:   LOG VERSION
BHIS.                                                   R:   BRIEF HISTORY
FHIS.                                             RAW-LIS:   FULL HISTORY
LCNM.                                        SCHLUMBERGER:   LOGGING CONTRACTOR
TOOL.                             FDC/CNL/GR (COMPOSITED):   TOOL STRING
~Curve Information Block
#MNEM.UNIT                                        API CODE    No Description
#=========                                        ========    == ===========
DEPT.M                                       00 001 00 00:     1  DEPTH
DRHO.G/CC                                                :     2  Bulk density correction
GR.GAPI                                                  :     3  Gamma Ray
NPHI.%                                                   :     4  Neutron porosity
RHOB.G/CC                                                :     5  Bulk density
~ASCII
# ...
 2900.9828      .0208    11.8121      .7476     2.8841
 2901.1352      .0187    11.5615      .6758     2.9025
 2901.2876      .0180    12.5248      .5829     2.9161
 2901.4400      .0200    13.0207      .4775     2.9217
 2901.5924      .0098    13.1067      .3855     2.8728
 2901.7448      .0039    13.4186      .2870     2.8627
 2901.8972      .0043    11.8208      .1612     2.8727
 2902.0496      .0078    11.1097      .0605     2.8866
 2902.2020      .0164    12.7471     -.0222     2.9105
 2902.3544      .0239    14.2531     -.1023     2.9164
 2902.5068      .0215    15.1355     -.1784     2.9091
 2902.6592      .0099    15.6051     -.2411     2.9123
 2902.8116      .0020    14.5880     -.2729     2.9211
 2902.9640      .0058    13.7941     -.3223     2.9300
 2903.1164      .0095    13.7990     -.4142     2.9352
 2903.2688      .0112    13.8038     -.5200     2.9321
 2903.4212      .0123    13.8087     -.6362     2.9058
 2903.5736      .0128    13.8135     -.6718     2.9121
 2903.7260      .0127    13.6410     -.6948     2.9265
 2903.8784      .0121    12.9896     -.7178     2.9477
 2904.0308      .0105    13.3512     -.7408     2.9491
 2904.1832      .0099    13.6214     -.7711     2.9462
 2904.3356      .0137    12.4800     -.8336     2.9491
 2904.4880      .0164    11.2846     -.9220     2.9620
 2904.6404      .0182    11.2284     -.9794     2.9582
 2904.7928      .0182    11.4715     -.5782     2.9450
 2904.9452      .0109    11.4763      .1350     2.9428
 2905.0976      .0201    11.4614      .7840     2.9472
 2905.2500      .0256    11.3469     1.0306     2.9404
 2905.4024      .0261    11.2524     1.0327     2.9296
 2905.5548      .0304    11.5549     1.0467     2.9317
 2905.7072      .0239    11.9479     1.1176     2.9322
 2905.8596      .0130    12.6721     1.3223     2.9165
 2906.0120     -.0013    13.2976     1.5705     2.9173
 2906.1644      .0021    13.7364     1.7696     2.9270
 2906.3168      .0066    13.1446     1.9526     2.9346
 2906.4692      .0040    12.4775     2.1857     2.9332
 2906.6216      .0075    13.0322     2.3757     2.9274
 2906.7740      .0037    14.4590     2.5652     2.9320
 2906.9264      .0042    14.8823     2.8923     2.9182
 2907.0788     -.0002    13.8978     3.1582     2.9218
 2907.2312      .0072    13.6326     3.2489     2.9331
 2907.3836      .0174    13.3737     3.2858     2.9471
 2907.5360      .0220    12.2748     3.2264     2.9609
 2907.6884      .0198    12.1591     3.1152     2.9874
 2907.8408      .0283    11.9903     3.0421     2.9994
 2907.9932      .0258    11.4188     2.9731     3.0149
 2908.1456      .0164    12.0905     2.8135     3.0164
 2908.2980      .0120    12.8332     2.7495     2.9859
 2908.4504      .0111    13.0160     2.7037     2.9566
 2908.6028      .0150    12.7633     2.5463     2.9523
 2908.7552      .0163    12.5311     2.2742     2.9565
 2908.9076      .0093    11.9003     2.0528     2.9454
 2909.0600      .0054    11.8460     1.9664     2.9281
 2909.2124      .0252    11.4941     2.0718     2.9451
 2909.3648      .0396    11.0220     2.2177     2.9475
 2909.5172      .0283    11.3401     2.4277     2.9377
 2909.6696      .0092    12.5125     2.6457     2.9164
 2909.8220      .0063    12.0757     2.9303     2.9345
 2909.9744      .0078    11.9164     3.3024     2.9265
 2910.1268     -.0035    12.2955     3.3967     2.9119
 2910.2792     -.0074    12.5984     3.3113     2.8876
 2910.4316      .0002    12.8418     3.2215     2.8600
 2910.5840      .0093    12.8466     3.2504     2.8371
 2910.7364     -.0073    12.7332     3.2049     2.8304
 2910.8888     -.0055    12.2611     2.9155     2.8870
 2911.0412      .0016    12.2660     2.5198     2.8847
 2911.1936      .0017    12.4241     2.1131     2.8928
 2911.3460     -.0024    13.2478     1.7195     2.9102
 2911.4984      .0091    14.0825     1.3790     2.9272
 2911.6508      .0115    14.0711     1.1450     2.9237
 2911.8032      .0053    13.6190      .9891     2.9337
 2911.9556      .0121    11.7060      .8971     2.9276
 2912.1080      .0075    11.4663      .7961     2.9149
 2912.2604      .0100    11.7917      .6955     2.9068
 2912.4128      .0237    12.1615      .6291     2.8762
 2912.5652      .0330    12.2871      .5518     2.8575
 2912.7176      .0427    12.0331      .3966     2.8564
 2912.8700      .0417    11.4901      .1955     2.8842
 2913.0224      .0352    11.7339     -.0328     2.9099
 2913.1748      .0310    11.7977     -.2034     2.9089
 2913.3272      .0301    12.2383     -.3593     2.8988
 2913.4796      .0148    12.9781     -.4866     2.9217
 2913.6320      .0013    12.6512     -.5848     2.9382
 2913.7844      .0009    12.2457     -.6362     2.9415
 2913.9368      .0077    11.8090     -.6840     2.9384
 2914.0892      .0135    11.7679     -.7150     2.9189
 2914.2416      .0148    11.7728     -.7264     2.9309
 2914.3940      .0144    11.7776     -.6871     2.9385
 2914.5464      .0155    11.8416     -.6124     2.9256
 2914.6988      .0170    12.2328     -.4911     2.9150
 2914.8512      .0225    12.6565     -.3675     2.9079
 2915.0036      .0313    12.0497     -.2245     2.9082
 2915.1560      .0239    12.5670     -.0312     2.9208
 2915.3084      .0116    12.8987      .2146     2.9238
 2915.4608      .0060    12.4235      .4729     2.9178
 2915.6132      .0064    11.6515      .9297     2.9042
 2915.7656      .0201    11.8394     1.3823     2.8864
 2915.9180      .0289    11.5885     2.0079     2.8643
 2916.0704      .0195    11.9172     2.6613     2.8554
 2916.2228      .0158    12.2423     3.0235     2.8604
 2916.3752      .0174    12.1985     3.3852     2.8644
 2916.5276      .0177    12.3815     3.7259     2.8945
 2916.6800      .0128    11.9904     3.9314     2.9178
 2916.8324      .0246    11.6183     3.9087     2.9193
 2916.9848      .0346    12.9734     3.7868     2.8892
 2917.1372      .0315    14.0960     3.6447     2.8641
 2917.2896      .0066    14.0252     3.4730     2.8690
 2917.4420     -.0035    12.9315     3.1733     2.8801
 2917.5944      .0007    11.8580     2.7716     2.8888
 2917.7468      .0032    10.6687     2.4117     2.8996
 2917.8992     -.0012    10.9966     2.1066     2.9085
 2918.0516      .0044    11.0014     1.9781     2.9110
 2918.2040      .0087    10.9473     1.8702     2.9123
 2918.3564      .0026    10.7143     1.8068     2.9157
 2918.5088     -.0086    10.7184     1.7843     2.9169
 2918.6612     -.0119    10.7232     1.7863     2.9054
 2918.8136     -.0065    10.7281     1.8007     2.8840
 2918.9660      .0035    10.7330     1.8112     2.8654
 2919.1184      .0106    10.7378     1.7174     2.8481
 2919.2708      .0029    10.7427     1.6520     2.8416
 2919.4232      .0094    10.7475     1.6268     2.8447
 2919.5756      .0083    10.7524     1.6207     2.8496
 2919.7280      .0039    10.7573     1.6599     2.8355
 2919.8804      .0027    10.7621     1.7324     2.8209
 2920.0328      .0011    10.7670     1.8382     2.8076
 2920.1852     -.0088    10.7718     1.8980     2.7889
 2920.3376     -.0023    10.7767     1.8742     2.7583
 2920.4900      .0100    10.7816     1.8541     2.7433
 2920.6424      .0248    10.7864     1.8499     2.7413
 2920.7948      .0496    10.7913     1.8498     2.8036
 2920.9472      .0398    10.7961     1.8446     2.8369
 2921.0996      .0767    10.8010     1.8259     2.8139
 2921.2520      .0763    10.8059     1.8073     2.7886
 2921.4044      .0337    10.8107     1.7968     2.7323
 2921.5568      .0417    10.8156     1.8196     2.7571
 2921.7092      .0309    10.8204     1.8425     2.8303
 2921.8616      .0506    10.8253     1.8649     2.8365
 2922.0140      .0786    10.8301     1.8867     2.8355
 2922.1664      .0721    10.8350     1.9085     2.8563
 2922.3188      .0884    10.8399     1.9302     2.8800
 2922.4712      .0906    10.8447     1.9519     2.8901
 2922.6236      .0973    10.8496     1.9705     2.8729
 2922.7760      .1032    10.8545     1.9753     2.8438
 2922.9284      .0845    10.8593     1.9757     2.8535
 2923.0808      .0774    10.8642     1.9761     2.8523
