~VERSION INFORMATION
VERS.                                                 2.0:   CWLS Log ASCII Standard-VERSION 2.0
WRAP.                                                  NO:   One line per depth step
~Well Information Block
STRT.M                                          2500.4756:   Top Depth
STOP.M                                          2927.5004:   Bottom Depth
STEP.M                                             .15240:   Depth Increment
NULL.                                            -999.250:   Null Value
FLD .                                             WILDCAT:   Field Name
WELL.                                             15/12-2:   NAME
WBN .                                             15/12-2:   WELLBORE
NATI.                                                 NOR:   COUNTRY
BHT1.DEGF                                            77.0:   BH TEMP 1
BHT2.DEGF                                           106.0:   BH TEMP 2
BHT3.DEGF                                           108.0:   BH TEMP 3
BS1 .IN                                             17.50:   BIT SIZE 1
CTRY.                                                 NOR:   COUNTRY
CBD1.M                                              145.0:   CSG 1 DRILL DEP
CBL1.M                                              145.0:   CSG 1 LOG DEP
CS1 .IN                                              30.0:   CSG 1 SIZE
COMP.                                             STATOIL:   OPERATOR
PDAT.                                                 MSL:   PERM DATUM
PROV.                                           NORTH SEA:   PROVINCE
COUN.                                            ROSS RIG:   RIG NAME
SON .                                              01 JAN:   SOURCE OPERATOR NAME
SPUD.                                          1976/01/07:   SPUD DATE
LATI.                                        58 8 31.05 N:   SURF. LATITUDE
LONG.                                        1 55 42.27 E:   SURF. LONGITUDE
BTD1.                                             370.0 M:   TOTAL DEPTH 1
BTD2.                                      1829.3000488 M:   TOTAL DEPTH 2
BTD3.                                      1829.3000488 M:   TOTAL DEPTH 3
PBWE.                                             15/12-2:   PB WELL ID
APIN.                                             15/12-2:   PB WELLBORE ID
PBWS.                                                 all:   PB WELL NAME SET
~PARAMETER INFORMATION (log)
LNAM.                              FDC/CNL/GR  COMPOSITED:   NAME
LTYP.                                         DEPTH MATCH:   LOG TYPE
LSRV.                                            DEN/NEUT:   LOG SERVICE
LSOU.                                             SPT/NPD:   LOG SOURCE
LVSN.                                                   1:   LOG VERSION
BHIS.                                                   R:   BRIEF HISTORY
FHIS.                                             RAW-LIS:   FULL HISTORY
LCNM.                                        SCHLUMBERGER:   LOGGING CONTRACTOR
TOOL.                             FDC/CNL/GR (COMPOSITED):   TOOL STRING
~Curve Information Block
#MNEM.UNIT                                        API CODE    No Description
#=========                                        ========    == ===========
DEPT.M                                       00 001 00 00:     1  DEPTH
DRHO.G/CC                                                :     2  Bulk density correction
GR.GAPI                                                  :     3  Gamma Ray
NPHI.%                                                   :     4  Neutron porosity
RHOB.G/CC                                                :     5  Bulk density
~ASCII
# ...
 2745.2300      .0111   127.1010    45.9395     2.1968
 2745.3824      .0062   123.3590    45.1944     2.2190
 2745.5348      .0082   120.7238    44.0887     2.2165
 2745.6872      .0110   116.3713    43.1383     2.2039
 2745.8396      .0029   114.4959    44.9015     2.2034
 2745.9920     -.0019   113.7451    46.2871     2.2360
 2746.1444      .0028   114.9147    45.7173     2.2561
 2746.2968      .0086   117.5661    45.7424     2.2649
 2746.4492      .0095   119.6373    46.0266     2.2377
 2746.6016      .0113   119.3457    45.0856     2.2337
 2746.7540      .0221   115.8710    43.8068     2.2412
 2746.9064      .0286   111.8397    42.3543     2.2447
 2747.0588      .0270   108.4273    41.2310     2.2663
 2747.2112      .0216   108.2827    39.9801     2.2893
 2747.3636      .0098   110.4648    39.1530     2.2918
 2747.5160      .0089   111.0811    38.5779     2.2712
 2747.6684      .0105   110.0931    38.1405     2.2551
 2747.8208      .0162   110.4648    39.3291     2.2707
 2747.9732      .0495   111.5306    39.7284     2.2868
 2748.1256      .0398   110.0618    39.8571     2.2914
 2748.2780      .0235   108.1678    40.3948     2.2948
 2748.4304      .0139   107.7666    40.6505     2.2661
 2748.5828      .0086   110.8775    40.5798     2.2693
 2748.7352      .0164   115.4638    40.3579     2.2893
 2748.8876      .0188   118.9070    40.1860     2.3274
 2749.0400      .0233   121.3463    40.2681     2.3370
 2749.1924      .0221   121.0960    39.7932     2.3411
 2749.3448      .0187   120.1721    40.1993     2.3403
 2749.4972      .0246   118.2883    40.7382     2.3286
 2749.6496      .0264   117.3287    41.1168     2.3045
 2749.8020      .0258   116.2391    41.3696     2.2830
 2749.9544      .0152   115.7170    42.6773     2.2698
 2750.1068      .0200   114.9176    44.0420     2.2655
 2750.2592      .0228   111.1976    42.1477     2.2634
 2750.4116      .0262   110.3429    41.7393     2.2896
 2750.5640      .0252   110.6016    42.3083     2.3009
 2750.7164      .0158   113.8088    43.2688     2.3009
 2750.8688      .0063   116.6553    44.0077     2.2768
 2751.0212      .0017   121.5230    42.7904     2.2568
 2751.1736     -.0012   129.3060    40.8531     2.2543
 2751.3260     -.0038   134.7063    40.5428     2.2668
 2751.4784      .0030   137.0275    41.1184     2.2866
 2751.6308      .0191   136.0901    40.5424     2.3019
 2751.7832      .0293   132.5358    40.7346     2.2980
 2751.9356      .0370   129.2726    41.7160     2.2989
 2752.0880      .0455   127.6276    41.4525     2.3068
 2752.2404      .0378   127.6741    40.9555     2.3037
 2752.3928      .0182   129.7031    39.5372     2.3043
 2752.5452      .0113   131.9003    40.8381     2.3148
 2752.6976      .0104   135.0267    41.7778     2.3266
 2752.8500      .0064   139.6976    41.3396     2.3219
 2753.0024      .0029   144.3561    40.4494     2.3234
 2753.1548      .0000   148.6170    39.6281     2.3292
 2753.3072     -.0019   150.8501    39.1685     2.3266
 2753.4596     -.0024   149.8656    39.4326     2.3074
 2753.6120     -.0012   147.4485    39.0853     2.2863
 2753.7644      .0029   147.7957    39.2106     2.2662
 2753.9168      .0062   150.7326    39.2219     2.2516
 2754.0692      .0063   154.3692    39.2697     2.2518
 2754.2216      .0080   155.6259    40.0503     2.2678
 2754.3740      .0148   155.9933    41.2198     2.2849
 2754.5264      .0171   158.7159    41.6414     2.3002
 2754.6788      .0060   162.8207    40.7653     2.3148
 2754.8312      .0040   165.5639    39.7377     2.3184
 2754.9836      .0010   166.3117    39.6862     2.2979
 2755.1360     -.0017   163.1070    40.4962     2.2880
 2755.2884     -.0009   157.3391    41.3963     2.2865
 2755.4408      .0007   150.7446    41.4868     2.2891
 2755.5932      .0002   144.8668    41.4939     2.3074
 2755.7456      .0031   141.6442    42.1629     2.3027
 2755.8980      .0130   138.9520    41.6422     2.2904
 2756.0504      .0142   131.8829    40.6650     2.2914
 2756.2028      .0045   125.5211    39.0583     2.3187
 2756.3552      .0017   123.9487    37.8781     2.3276
 2756.5076      .0021   124.3010    37.3676     2.3158
 2756.6600      .0080   126.9673    38.9351     2.2952
 2756.8124      .0064   134.0474    40.8847     2.2685
 2756.9648     -.0049   142.7831    40.4029     2.2506
 2757.1172     -.0119   149.7207    39.7112     2.2503
 2757.2696     -.0069   154.4761    38.9318     2.2545
 2757.4220      .0021   157.4875    39.3575     2.2650
 2757.5744      .0014   159.9973    39.8005     2.2791
 2757.7268     -.0018   164.7910    40.1264     2.2999
 2757.8792      .0058   169.0629    40.7510     2.3280
 2758.0316     -.0022   167.4053    41.7834     2.3403
 2758.1840     -.0036   162.5502    41.4018     2.3249
 2758.3364     -.0022   159.1065    41.1224     2.3145
 2758.4888      .0009   155.5379    41.5538     2.3047
 2758.6412      .0048   151.6906    42.3672     2.2931
 2758.7936      .0117   148.3264    43.3599     2.2895
 2758.9460      .0270   145.0862    42.0951     2.2955
 2759.0984      .0416   140.7009    40.8921     2.3022
 2759.2508      .0323   139.1624    40.3676     2.3196
 2759.4032      .0216   137.6291    40.1749     2.3451
 2759.5556      .0234   135.6017    39.8815     2.3509
 2759.7080      .0070   134.4670    39.0572     2.3445
 2759.8604      .0030   133.1772    37.8921     2.3292
 2760.0128     -.0002   131.2581    36.7391     2.3248
 2760.1652     -.0056   132.3033    35.9349     2.3207
 2760.3176      .0035   133.5208    35.8287     2.3268
 2760.4700      .0108   132.5389    36.7415     2.3413
 2760.6224      .0108   130.2618    38.0517     2.3279
 2760.7748      .0071   128.1212    39.0624     2.3083
 2760.9272      .0090   124.5199    39.4111     2.2983
 2761.0796      .0157   122.2389    39.3582     2.2976
 2761.2320      .0058   122.8879    39.1706     2.2619
 2761.3844     -.0045   124.0136    38.8047     2.2476
 2761.5368     -.0067   123.5374    38.7031     2.2559
 2761.6892     -.0057   124.5271    39.8838     2.2655
 2761.8416     -.0014   126.1216    41.1873     2.2814
 2761.9940      .0134   128.6403    42.5385     2.2999
 2762.1464      .0213   130.1092    42.6942     2.3140
 2762.2988      .0200   129.9735    42.3450     2.3103
 2762.4512      .0283   130.5118    41.7570     2.3004
 2762.6036      .0297   133.1116    41.0353     2.2925
 2762.7560      .0237   133.5515    40.0482     2.2953
 2762.9084      .0166   130.1523    40.0813     2.3087
 2763.0608      .0177   129.5354    40.5366     2.3008
 2763.2132      .0270   130.1643    40.8188     2.2816
 2763.3656      .0247   129.9363    40.3042     2.2928
 2763.5180      .0337   131.5689    39.7106     2.3144
 2763.6704      .0450   134.4376    39.4867     2.3301
 2763.8228      .0468   134.5981    39.2106     2.3327
 2763.9752      .0260   135.0330    38.3614     2.3291
 2764.1276      .0023   137.3939    37.4207     2.3293
 2764.2800      .0036   137.2864    36.9321     2.3242
 2764.4324      .0123   135.4250    36.8786     2.3015
 2764.5848      .0148   134.3364    36.5682     2.2947
 2764.7372      .0124   134.2344    37.0546     2.2857
 2764.8896      .0039   133.4541    36.4700     2.2934
 2765.0420     -.0043   131.8698    36.9344     2.3024
 2765.1944     -.0078   132.2644    37.8076     2.3094
 2765.3468     -.0097   133.8503    38.2967     2.3172
 2765.4992     -.0134   133.4409    40.3585     2.3324
 2765.6516     -.0171   134.1277    41.0353     2.3377
 2765.8040     -.0104   136.4684    39.7371     2.3375
 2765.9564     -.0003   136.8163    38.4662     2.3406
 2766.1088      .0040   137.7722    37.8095     2.3486
 2766.2612      .0046   136.8415    37.7670     2.3545
 2766.4136      .0060   132.7042    38.2848     2.3525
 2766.5660      .0115   130.3007    39.4620     2.3513
 2766.7184      .0156   129.3755    39.4985     2.3549
 2766.8708      .0102   128.0344    40.2906     2.3593
 2767.0232      .0071   125.8239    41.3484     2.3584
 2767.1756      .0097   126.1690    41.4440     2.3673
 2767.3280      .0072   126.1094    40.4585     2.3749
