~VERSION INFORMATION
VERS.                                                 2.0:   CWLS Log ASCII Standard-VERSION 2.0
WRAP.                                                  NO:   One line per depth step
~Well Information Block
STRT.M                                          2500.4756:   Top Depth
STOP.M                                          2927.5004:   Bottom Depth
STEP.M                                             .15240:   Depth Increment
NULL.                                            -999.250:   Null Value
FLD .                                             WILDCAT:   Field Name
WELL.                                             15/12-2:   NAME
WBN .                                             15/12-2:   WELLBORE
NATI.                                                 NOR:   COUNTRY
BHT1.DEGF                                            77.0:   BH TEMP 1
BHT2.DEGF                                           106.0:   BH TEMP 2
BHT3.DEGF                                           108.0:   BH TEMP 3
BS1 .IN                                             17.50:   BIT SIZE 1
CTRY.                                                 NOR:   COUNTRY
CBD1.M                                              145.0:   CSG 1 DRILL DEP
CBL1.M                                              145.0:   CSG 1 LOG DEP
CS1 .IN                                              30.0:   CSG 1 SIZE
COMP.                                             STATOIL:   OPERATOR
PDAT.                                                 MSL:   PERM DATUM
PROV.                                           NORTH SEA:   PROVINCE
COUN.                                            ROSS RIG:   RIG NAME
SON .                                              01 JAN:   SOURCE OPERATOR NAME
SPUD.                                          1976/01/07:   SPUD DATE
LATI.                                        58 8 31.05 N:   SURF. LATITUDE
LONG.                                        1 55 42.27 E:   SURF. LONGITUDE
BTD1.                                             370.0 M:   TOTAL DEPTH 1
BTD2.                                      1829.3000488 M:   TOTAL DEPTH 2
BTD3.                                      1829.3000488 M:   TOTAL DEPTH 3
PBWE.                                             15/12-2:   PB WELL ID
APIN.                                             15/12-2:   PB WELLBORE ID
PBWS.                                                 all:   PB WELL NAME SET
~PARAMETER INFORMATION (log)
LNAM.                              FDC/CNL/GR  COMPOSITED:   NAME
LTYP.                                         DEPTH MATCH:   LOG TYPE
LSRV.                                            DEN/NEUT:   LOG SERVICE
LSOU.                                             SPT/NPD:   LOG SOURCE
LVSN.                                                   1:   LOG VERSION
BHIS.                                                   R:   BRIEF HISTORY
FHIS.                                             RAW-LIS:   FULL HISTORY
LCNM.                                        SCHLUMBERGER:   LOGGING CONTRACTOR
TOOL.                             FDC/CNL/GR (COMPOSITED):   TOOL STRING
~Curve Information Block
#MNEM.UNIT                                        API CODE    No Description
#=========                                        ========    == ===========
DEPT.M                                       00 001 00 00:     1  DEPTH
DRHO.G/CC                                                :     2  Bulk density correction
GR.GAPI                                                  :     3  Gamma Ray
NPHI.%                                                   :     4  Neutron porosity
RHOB.G/CC                                                :     5  Bulk density
~ASCII
# ...
 2611.7276      .0137    20.8376    13.6783     2.5975
 2611.8800      .0123    21.2951    13.6269     2.6049
 2612.0324      .0111    21.3532    13.6903     2.5997
 2612.1848      .0147    19.9990    14.0838     2.5835
 2612.3372      .0171    18.7840    14.7546     2.5818
 2612.4896      .0143    18.7237    15.5316     2.5884
 2612.6420      .0158    19.6404    16.2593     2.5916
 2612.7944      .0140    20.7811    16.8382     2.5813
 2612.9468      .0027    21.8733    17.0841     2.5623
 2613.0992      .0004    23.0258    16.8825     2.5605
 2613.2516      .0048    23.5401    17.3129     2.5664
 2613.4040      .0046    23.8148    17.4219     2.5643
 2613.5564      .0066    24.5149    16.9197     2.5670
 2613.7088      .0119    24.8180    16.1450     2.5736
 2613.8612      .0167    23.5422    15.5044     2.5770
 2614.0136      .0160    21.4406    15.2234     2.5788
 2614.1660      .0113    20.3866    15.1760     2.5773
 2614.3184      .0045    19.8644    15.3281     2.5662
 2614.4708     -.0006    19.5728    15.8044     2.5527
 2614.6232     -.0008    20.1725    16.4403     2.5534
 2614.7756      .0035    22.1361    16.8147     2.5622
 2614.9280      .0079    22.7502    16.4308     2.5663
 2615.0804      .0061    22.7325    15.3073     2.5653
 2615.2328      .0017    22.4827    14.0954     2.5626
 2615.3852     -.0010    21.2952    13.8815     2.5562
 2615.5376     -.0058    20.0554    14.5973     2.5517
 2615.6900     -.0128    21.2384    15.4831     2.5489
 2615.8424     -.0129    23.1790    15.9699     2.5505
 2615.9948     -.0036    24.7450    15.9843     2.5614
 2616.1472      .0077    23.6693    15.3648     2.5737
 2616.2996      .0041    22.5945    14.7732     2.5785
 2616.4520      .0014    21.8672    14.9643     2.5628
 2616.6044     -.0016    20.5315    15.6932     2.5444
 2616.7568     -.0104    20.2075    16.2766     2.5321
 2616.9092     -.0136    21.3839    16.5473     2.5367
 2617.0616     -.0127    23.0982    16.5719     2.5374
 2617.2140     -.0033    23.0805    16.5581     2.5386
 2617.3664      .0025    21.9506    16.7145     2.5435
 2617.5188      .0070    23.2212    17.0423     2.5548
 2617.6712     -.0029    25.2551    17.3158     2.5517
 2617.8236      .0034    26.8228    17.4498     2.5600
 2617.9760      .0047    27.1387    17.2595     2.5561
 2618.1284      .0011    28.2398    16.8923     2.5563
 2618.2808     -.0049    27.0563    15.8291     2.5620
 2618.4332     -.0081    24.2630    14.6818     2.5669
 2618.5856     -.0049    21.8764    14.0590     2.5715
 2618.7380      .0001    20.9433    13.9012     2.5698
 2618.8904     -.0028    21.7214    13.8832     2.5522
 2619.0428      .0013    22.6269    14.0569     2.5500
 2619.1952      .0015    23.9458    14.6443     2.5539
 2619.3476     -.0068    25.4428    15.6495     2.5565
 2619.5000     -.0092    25.5041    16.5850     2.5608
 2619.6524     -.0031    26.2959    17.0851     2.5629
 2619.8048      .0113    26.3492    16.9962     2.5788
 2619.9572     -.0011    24.9993    16.4212     2.5539
 2620.1096     -.0072    22.6306    15.8852     2.5497
 2620.2620     -.0032    20.7007    15.5197     2.5430
 2620.4144     -.0016    20.0490    15.2654     2.5469
 2620.5668     -.0076    22.3291    15.4789     2.5362
 2620.7192     -.0086    24.9895    16.6309     2.5467
 2620.8716     -.0030    26.7068    17.9141     2.5610
 2621.0240      .0102    27.2768    19.4218     2.5773
 2621.1764      .0155    27.4616    20.1062     2.5702
 2621.3288      .0153    26.8917    20.5086     2.5655
 2621.4812      .0067    26.0959    20.6462     2.5661
 2621.6336     -.0053    25.8878    20.7955     2.5658
 2621.7860     -.0072    25.7997    21.3647     2.5606
 2621.9384     -.0047    24.6604    21.9583     2.5556
 2622.0908      .0005    24.3165    22.3395     2.5532
 2622.2432      .0050    22.3854    22.2548     2.5592
 2622.3956      .0043    20.1879    21.2307     2.5687
 2622.5480      .0020    19.3414    20.0427     2.5678
 2622.7004      .0037    20.0001    19.6398     2.5765
 2622.8528      .0094    21.1686    19.2533     2.5843
 2623.0052      .0135    22.6043    18.9405     2.5910
 2623.1576      .0109    23.7200    18.3626     2.5948
 2623.3100      .0063    24.8058    17.6762     2.5920
 2623.4624      .0112    24.5816    16.8576     2.5926
 2623.6148      .0175    23.7249    16.4961     2.5865
 2623.7672      .0207    23.9309    16.1589     2.5766
 2623.9196      .0284    23.7628    15.8764     2.5831
 2624.0720      .0280    23.5023    15.5127     2.5931
 2624.2244      .0174    23.8028    15.1335     2.5948
 2624.3768      .0150    23.7671    14.8936     2.5972
 2624.5292      .0077    22.9371    14.7832     2.5936
 2624.6816     -.0022    21.9736    14.6002     2.5808
 2624.8340     -.0096    21.5938    14.1502     2.5648
 2624.9864     -.0106    21.5536    13.8135     2.5554
 2625.1388     -.0077    20.7301    13.9674     2.5550
 2625.2912     -.0064    20.1175    13.9016     2.5505
 2625.4436     -.0060    19.8081    13.3845     2.5527
 2625.5960     -.0049    20.1360    12.9093     2.5497
 2625.7484     -.0032    20.2700    12.8682     2.5495
 2625.9008     -.0003    21.3038    13.3199     2.5527
 2626.0532     -.0082    21.9335    13.6582     2.5583
 2626.2056     -.0091    22.9816    13.6322     2.5684
 2626.3580     -.0051    23.8276    13.5535     2.5687
 2626.5104      .0000    23.1163    13.6937     2.5650
 2626.6628     -.0012    21.7041    13.8431     2.5720
 2626.8152      .0072    19.5330    13.7433     2.5788
 2626.9676      .0071    18.9585    13.9668     2.5753
 2627.1200     -.0011    18.9125    14.5492     2.5681
 2627.2724      .0023    19.6582    15.0145     2.5638
 2627.4248      .0136    20.2676    15.1456     2.5648
 2627.5772      .0085    20.9427    15.0664     2.5537
 2627.7296     -.0050    20.9721    14.9610     2.5422
 2627.8820      .0031    22.3999    14.8422     2.5660
 2628.0344      .0059    23.0510    14.6417     2.5782
 2628.1868     -.0013    24.3371    14.1181     2.5791
 2628.3392      .0090    24.6551    13.2142     2.5770
 2628.4916      .0096    24.0155    13.1353     2.5898
 2628.6440      .0134    23.0827    13.7044     2.6009
 2628.7964      .0139    21.0612    13.8380     2.5999
 2628.9488      .0134    20.4196    13.2835     2.5848
 2629.1012      .0080    20.0971    12.6622     2.5748
 2629.2536      .0139    19.9521    12.4204     2.5795
 2629.4060      .0132    20.5777    12.6250     2.5726
 2629.5584      .0071    21.6566    13.2798     2.5649
 2629.7108      .0024    22.8084    14.0867     2.5559
 2629.8632      .0085    24.2862    14.6770     2.5594
 2630.0156      .0143    23.8673    15.0767     2.5796
 2630.1680      .0084    22.8667    15.4874     2.5815
 2630.3204      .0026    22.9982    15.5538     2.5717
 2630.4728      .0032    23.3791    15.6158     2.5660
 2630.6252      .0133    23.1284    15.6857     2.5742
 2630.7776      .0167    21.8616    15.9882     2.5843
 2630.9300      .0113    20.3745    16.3771     2.5889
 2631.0824      .0076    20.2283    16.9925     2.5890
 2631.2348      .0050    21.5596    17.0701     2.5827
 2631.3872      .0028    23.9803    17.0754     2.5785
 2631.5396      .0064    25.7309    18.2420     2.5761
 2631.6920      .0073    26.3995    19.0227     2.5622
 2631.8444      .0035    26.4177    19.5269     2.5512
 2631.9968      .0068    26.5528    19.4127     2.5512
 2632.1492      .0113    26.5658    18.9036     2.5604
 2632.3016      .0090    25.8473    18.1397     2.5659
 2632.4540      .0026    24.1975    18.2353     2.5601
 2632.6064     -.0004    23.5356    19.0167     2.5552
 2632.7588      .0020    25.7651    19.6713     2.5541
 2632.9112      .0034    28.0891    20.2295     2.5545
 2633.0636      .0007    29.7534    21.3532     2.5370
 2633.2160      .0006    30.0952    21.5182     2.5293
 2633.3684      .0036    30.2197    21.2005     2.5430
 2633.5208      .0039    30.0891    20.2565     2.5581
 2633.6732      .0026    28.5315    19.9157     2.5534
 2633.8256      .0013    28.2353    20.4275     2.5449
