~VERSION INFORMATION
VERS.                                                 2.0:   CWLS Log ASCII Standard-VERSION 2.0
WRAP.                                                  NO:   One line per depth step
~Well Information Block
STRT.M                                          2500.4756:   Top Depth
STOP.M                                          2927.5004:   Bottom Depth
STEP.M                                             .15240:   Depth Increment
NULL.                                            -999.250:   Null Value
FLD .                                             WILDCAT:   Field Name
WELL.                                             15/12-2:   NAME
WBN .                                             15/12-2:   WELLBORE
NATI.                                                 NOR:   COUNTRY
BHT1.DEGF                                            77.0:   BH TEMP 1
BHT2.DEGF                                           106.0:   BH TEMP 2
BHT3.DEGF                                           108.0:   BH TEMP 3
BS1 .IN                                             17.50:   BIT SIZE 1
CTRY.                                                 NOR:   COUNTRY
CBD1.M                                              145.0:   CSG 1 DRILL DEP
CBL1.M                                              145.0:   CSG 1 LOG DEP
CS1 .IN                                              30.0:   CSG 1 SIZE
COMP.                                             STATOIL:   OPERATOR
PDAT.                                                 MSL:   PERM DATUM
PROV.                                           NORTH SEA:   PROVINCE
COUN.                                            ROSS RIG:   RIG NAME
SON .                                              01 JAN:   SOURCE OPERATOR NAME
SPUD.                                          1976/01/07:   SPUD DATE
LATI.                                        58 8 31.05 N:   SURF. LATITUDE
LONG.                                        1 55 42.27 E:   SURF. LONGITUDE
BTD1.                                             370.0 M:   TOTAL DEPTH 1
BTD2.                                      1829.3000488 M:   TOTAL DEPTH 2
BTD3.                                      1829.3000488 M:   TOTAL DEPTH 3
PBWE.                                             15/12-2:   PB WELL ID
APIN.                                             15/12-2:   PB WELLBORE ID
PBWS.                                                 all:   PB WELL NAME SET
~PARAMETER INFORMATION (log)
LNAM.                              FDC/CNL/GR  COMPOSITED:   NAME
LTYP.                                         DEPTH MATCH:   LOG TYPE
LSRV.                                            DEN/NEUT:   LOG SERVICE
LSOU.                                             SPT/NPD:   LOG SOURCE
LVSN.                                                   1:   LOG VERSION
BHIS.                                                   R:   BRIEF HISTORY
FHIS.                                             RAW-LIS:   FULL HISTORY
LCNM.                                        SCHLUMBERGER:   LOGGING CONTRACTOR
TOOL.                             FDC/CNL/GR (COMPOSITED):   TOOL STRING
~Curve Information Block
#MNEM.UNIT                                        API CODE    No Description
#=========                                        ========    == ===========
DEPT.M                                       00 001 00 00:     1  DEPTH
DRHO.G/CC                                                :     2  Bulk density correction
GR.GAPI                                                  :     3  Gamma Ray
NPHI.%                                                   :     4  Neutron porosity
RHOB.G/CC                                                :     5  Bulk density
~ASCII
# ...
 2722.9796      .0030   118.6804    44.2476     2.1143
 2723.1320      .0014   117.6576    42.8293     2.1536
 2723.2844      .0030   117.7176    41.3080     2.1739
 2723.4368      .0045   121.8306    41.4473     2.1644
 2723.5892      .0029   126.5704    42.9137     2.1460
 2723.7416     -.0001   127.1797    43.5389     2.1313
 2723.8940      .0081   125.6054    44.5366     2.1290
 2724.0464      .0162   119.8151    44.7386     2.1425
 2724.1988      .0142   120.5800    44.5794     2.1396
 2724.3512     -.0005   122.7518    44.3997     2.1293
 2724.5036      .0004   125.4310    44.1277     2.1408
 2724.6560      .0055   124.1350    43.6427     2.1576
 2724.8084      .0088   123.0395    43.9991     2.1538
 2724.9608      .0191   126.6337    45.4519     2.1768
 2725.1132      .0213   130.1676    45.3580     2.2173
 2725.2656      .0179   132.1306    44.1211     2.2241
 2725.4180      .0181   132.0885    42.7768     2.2302
 2725.5704      .0224   130.0377    41.9502     2.2262
 2725.7228      .0119   132.7314    41.8525     2.2209
 2725.8752      .0161   134.4550    42.0966     2.2206
 2726.0276      .0181   133.5265    42.3609     2.2263
 2726.1800      .0090   133.4910    42.4313     2.2213
 2726.3324      .0186   133.7427    42.8682     2.2096
 2726.4848      .0097   133.1021    44.5356     2.1965
 2726.6372      .0151   132.7500    45.7258     2.1790
 2726.7896      .0097   134.1238    45.6170     2.1634
 2726.9420      .0055   135.5935    44.3099     2.1735
 2727.0944      .0032   133.4582    42.6151     2.1927
 2727.2468      .0013   133.9988    41.6446     2.2031
 2727.3992     -.0004   140.6534    41.5704     2.2080
 2727.5516      .0005   142.4712    41.2708     2.2057
 2727.7040      .0078   142.2192    41.1610     2.1955
 2727.8564      .0042   142.3393    41.3941     2.1923
 2728.0088      .0126   141.0000    41.5958     2.1979
 2728.1612      .0102   137.3957    41.7476     2.1960
 2728.3136      .0063   133.8543    41.9333     2.1901
 2728.4660      .0152   130.8284    42.6069     2.1831
 2728.6184      .0026   129.5286    43.8860     2.1580
 2728.7708      .0004   129.1301    44.7091     2.1532
 2728.9232      .0080   127.0739    44.3536     2.1829
 2729.0756      .0170   126.0512    43.4510     2.1982
 2729.2280      .0210   128.5320    43.0097     2.2077
 2729.3804      .0258   131.9606    43.9889     2.2391
 2729.5328      .0297   136.0961    45.1730     2.2671
 2729.6852      .0123   137.3728    46.4946     2.2793
 2729.8376      .0151   136.6321    47.8116     2.2738
 2729.9900      .0320   136.2228    46.2329     2.2640
 2730.1424      .0232   137.6339    44.8216     2.2490
 2730.2948      .0115   142.0253    43.3977     2.2377
 2730.4472      .0036   145.4496    42.3881     2.2345
 2730.5996     -.0042   146.1505    42.3771     2.2356
 2730.7520     -.0122   143.2595    43.3713     2.2352
 2730.9044     -.0036   142.0439    44.5661     2.2308
 2731.0568      .0065   139.9724    45.2853     2.2253
 2731.2092      .0109   137.9642    45.7027     2.2184
 2731.3616      .0131   138.0161    45.8277     2.2032
 2731.5140      .0134   138.6717    45.7246     2.1662
 2731.6664      .0209   138.5815    45.5339     2.1297
 2731.8188      .0206   135.5880    45.2674     2.1407
 2731.9712      .0066   133.7021    45.2598     2.1786
 2732.1236     -.0056   133.7870    45.3454     2.2055
 2732.2760     -.0073   136.2666    44.4855     2.2196
 2732.4284     -.0057   139.7429    43.2112     2.2325
 2732.5808     -.0039   141.7784    42.7739     2.2472
 2732.7332     -.0029   139.3796    43.9551     2.2521
 2732.8856      .0016   136.7025    45.6841     2.2310
 2733.0380      .0206   135.0191    45.5846     2.1947
 2733.1904      .0384   132.3717    45.1005     2.1727
 2733.3428      .0303   129.8996    44.8365     2.1621
 2733.4952      .0104   127.9012    44.3113     2.1598
 2733.6476      .0071   125.6561    42.8691     2.1635
 2733.8000      .0166   123.9220    42.0380     2.1765
 2733.9524      .0164   125.2074    42.8743     2.1911
 2734.1048      .0043   128.3781    43.1976     2.2067
 2734.2572     -.0000   130.1682    42.4664     2.2260
 2734.4096      .0067   132.9502    42.0374     2.2473
 2734.5620      .0083   138.0928    42.4509     2.2381
 2734.7144      .0071   142.3258    43.0054     2.2271
 2734.8668      .0185   145.4116    42.6121     2.2277
 2735.0192      .0197   145.7945    42.2189     2.2218
 2735.1716      .0114   142.4790    42.9738     2.2176
 2735.3240      .0082   142.1319    44.3141     2.2251
 2735.4764      .0045   140.5148    45.5293     2.2261
 2735.6288      .0171   137.4483    45.3002     2.2274
 2735.7812      .0259   135.4339    44.2840     2.2329
 2735.9336      .0139   132.7123    43.7838     2.2301
 2736.0860      .0086   128.3385    44.2851     2.1938
 2736.2384      .0119   123.3355    44.6130     2.1554
 2736.3908      .0153   115.0831    44.9807     2.1498
 2736.5432      .0149   111.1509    45.8637     2.1579
 2736.6956      .0130   113.9029    45.6367     2.1653
 2736.8480      .0116   117.8418    44.2060     2.1685
 2737.0004      .0087   122.7350    42.6557     2.1804
 2737.1528      .0027   124.0635    41.4350     2.2139
 2737.3052      .0005   124.3186    41.0441     2.2422
 2737.4576      .0061   124.6329    41.5499     2.2591
 2737.6100      .0162   122.4269    42.4765     2.2563
 2737.7624      .0147   122.9382    43.1621     2.2485
 2737.9148      .0074   123.8205    43.2007     2.2594
 2738.0672      .0051   124.6551    43.4601     2.2704
 2738.2196      .0101   125.9418    44.0582     2.2783
 2738.3720      .0133   128.2572    44.3521     2.2814
 2738.5244      .0113   128.3791    43.8397     2.2815
 2738.6768      .0052   127.3730    43.1509     2.2781
 2738.8292      .0010   128.2675    42.6979     2.2751
 2738.9816     -.0005   131.0652    40.8202     2.2745
 2739.1340      .0006   133.5726    38.5351     2.2615
 2739.2864      .0050   131.7929    37.8421     2.2482
 2739.4388      .0093   129.7793    37.8377     2.2397
 2739.5912      .0016   128.9039    37.7272     2.2517
 2739.7436      .0012   128.4409    37.9744     2.2583
 2739.8960     -.0017   131.0742    38.6301     2.2571
 2740.0484     -.0062   134.7599    38.9998     2.2634
 2740.2008      .0022   136.2259    39.0597     2.2692
 2740.3532      .0075   136.3504    38.7252     2.2795
 2740.5056      .0094   130.0570    38.6593     2.2974
 2740.6580      .0109   127.1987    40.2444     2.3120
 2740.8104      .0159   127.4565    42.3513     2.3046
 2740.9628      .0037   129.2303    43.5653     2.3083
 2741.1152      .0250   130.5618    41.6939     2.3115
 2741.2676      .0279   130.6303    39.4564     2.3142
 2741.4200      .0137   131.6566    40.6132     2.3086
 2741.5724      .0068   132.9032    41.9713     2.3073
 2741.7248      .0016   129.9228    42.7157     2.2973
 2741.8772      .0034   126.6334    42.4231     2.2962
 2742.0296      .0023   123.8016    41.3947     2.2910
 2742.1820      .0035   123.2126    40.3312     2.2809
 2742.3344      .0072   122.0673    40.0823     2.2696
 2742.4868      .0159   121.8713    40.8125     2.2421
 2742.6392      .0261   122.4646    41.7751     2.2291
 2742.7916      .0403   120.7444    43.0967     2.2243
 2742.9440      .0477   118.9561    43.8100     2.2378
 2743.0964      .0261   119.0019    43.0754     2.2628
 2743.2488      .0142   118.8408    41.9562     2.2789
 2743.4012      .0130   118.5096    41.7338     2.2849
 2743.5536      .0037   116.1371    42.7438     2.2648
 2743.7060     -.0069   115.5147    43.3569     2.2690
 2743.8584     -.0125   116.9851    43.9625     2.2446
 2744.0108      .0047   120.5752    43.4062     2.2189
 2744.1632      .0216   122.8818    42.0740     2.1921
 2744.3156      .0207   123.4976    40.8122     2.1919
 2744.4680      .0353   120.4262    41.5389     2.2087
 2744.6204      .0431   119.1366    43.3214     2.2163
 2744.7728      .0543   120.5625    44.2103     2.2248
 2744.9252      .0195   122.0170    44.7115     2.2087
 2745.0776      .0026   125.9685    45.4165     2.1882
