~VERSION INFORMATION
VERS.                                                 2.0:   CWLS Log ASCII Standard-VERSION 2.0
WRAP.                                                  NO:   One line per depth step
~Well Information Block
STRT.M                                          2500.4756:   Top Depth
STOP.M                                          2927.5004:   Bottom Depth
STEP.M                                             .15240:   Depth Increment
NULL.                                            -999.250:   Null Value
FLD .                                             WILDCAT:   Field Name
WELL.                                             15/12-2:   NAME
WBN .                                             15/12-2:   WELLBORE
NATI.                                                 NOR:   COUNTRY
BHT1.DEGF                                            77.0:   BH TEMP 1
BHT2.DEGF                                           106.0:   BH TEMP 2
BHT3.DEGF                                           108.0:   BH TEMP 3
BS1 .IN                                             17.50:   BIT SIZE 1
CTRY.                                                 NOR:   COUNTRY
CBD1.M                                              145.0:   CSG 1 DRILL DEP
CBL1.M                                              145.0:   CSG 1 LOG DEP
CS1 .IN                                              30.0:   CSG 1 SIZE
COMP.                                             STATOIL:   OPERATOR
PDAT.                                                 MSL:   PERM DATUM
PROV.                                           NORTH SEA:   PROVINCE
COUN.                                            ROSS RIG:   RIG NAME
SON .                                              01 JAN:   SOURCE OPERATOR NAME
SPUD.                                          1976/01/07:   SPUD DATE
LATI.                                        58 8 31.05 N:   SURF. LATITUDE
LONG.                                        1 55 42.27 E:   SURF. LONGITUDE
BTD1.                                             370.0 M:   TOTAL DEPTH 1
BTD2.                                      1829.3000488 M:   TOTAL DEPTH 2
BTD3.                                      1829.3000488 M:   TOTAL DEPTH 3
PBWE.                                             15/12-2:   PB WELL ID
APIN.                                             15/12-2:   PB WELLBORE ID
PBWS.                                                 all:   PB WELL NAME SET
~PARAMETER INFORMATION (log)
LNAM.                              FDC/CNL/GR  COMPOSITED:   NAME
LTYP.                                         DEPTH MATCH:   LOG TYPE
LSRV.                                            DEN/NEUT:   LOG SERVICE
LSOU.                                             SPT/NPD:   LOG SOURCE
LVSN.                                                   1:   LOG VERSION
BHIS.                                                   R:   BRIEF HISTORY
FHIS.                                             RAW-LIS:   FULL HISTORY
LCNM.                                        SCHLUMBERGER:   LOGGING CONTRACTOR
TOOL.                             FDC/CNL/GR (COMPOSITED):   TOOL STRING
~Curve Information Block
#MNEM.UNIT                                        API CODE    No Description
#=========                                        ========    == ===========
DEPT.M                                       00 001 00 00:     1  DEPTH
DRHO.G/CC                                                :     2  Bulk density correction
GR.GAPI                                                  :     3  Gamma Ray
NPHI.%                                                   :     4  Neutron porosity
RHOB.G/CC                                                :     5  Bulk density
~ASCII
# ...
 2544.9764      .0168    29.4270    19.5149     2.5374
 2545.1288      .0077    29.7729    19.9786     2.5331
 2545.2812     -.0011    30.9081    20.1421     2.5396
 2545.4336      .0019    31.6131    20.2157     2.5442
 2545.5860      .0034    31.7909    20.2893     2.5498
 2545.7384      .0084    31.7864    20.9423     2.5455
 2545.8908      .0059    30.4390    21.2439     2.5552
 2546.0432      .0074    31.1791    21.0199     2.5553
 2546.1956      .0118    31.1736    20.7315     2.5564
 2546.3480      .0024    29.7167    20.7602     2.5494
 2546.5004      .0060    30.2160    20.7995     2.5281
 2546.6528      .0029    30.8301    21.3408     2.5369
 2546.8052      .0042    31.1518    22.2167     2.5504
 2546.9576      .0102    31.5133    22.6741     2.5548
 2547.1100      .0154    32.6320    22.4811     2.5561
 2547.2624      .0136    32.9247    22.1179     2.5871
 2547.4148      .0170    32.2293    21.8648     2.5695
 2547.5672      .0225    31.7219    21.5278     2.5544
 2547.7196      .0222    32.3023    21.2520     2.5488
 2547.8720      .0156    32.9029    21.6339     2.5237
 2548.0244      .0072    33.9412    22.5917     2.5252
 2548.1768      .0005    33.2742    22.5179     2.5485
 2548.3292     -.0008    31.1962    21.1447     2.5620
 2548.4816     -.0012    29.1768    19.7108     2.5552
 2548.6340      .0060    28.4025    18.7910     2.5522
 2548.7864      .0037    28.3970    18.8661     2.5443
 2548.9388      .0002    29.1357    19.2704     2.5359
 2549.0912     -.0033    30.0605    19.6303     2.5331
 2549.2436      .0020    30.1217    19.8909     2.5319
 2549.3960      .0096    30.0154    20.0447     2.5403
 2549.5484      .0127    30.3052    20.1496     2.5491
 2549.7008      .0083    32.0046    20.0970     2.5500
 2549.8532     -.0050    31.9374    20.0981     2.5436
 2550.0056     -.0004    31.0373    20.2917     2.5520
 2550.1580      .0056    31.0318    20.5140     2.5560
 2550.3104      .0150    31.0264    20.9640     2.5482
 2550.4628      .0144    33.5514    21.5616     2.5446
 2550.6152      .0082    33.9976    22.0686     2.5408
 2550.7676      .0030    33.6892    21.8306     2.5378
 2550.9200      .0001    34.2728    21.5927     2.5359
 2551.0724     -.0027    34.2616    21.2425     2.5469
 2551.2248      .0005    33.9513    20.7370     2.5538
 2551.3772      .0098    33.4935    20.0598     2.5523
 2551.5296      .0111    32.1998    19.8847     2.5512
 2551.6820      .0143    32.5330    20.1420     2.5442
 2551.8344      .0201    34.7226    20.7337     2.5396
 2551.9868      .0238    35.9887    21.3503     2.5355
 2552.1392      .0210    34.7434    21.5326     2.5256
 2552.2916      .0071    33.0730    20.9219     2.5268
 2552.4440      .0040    33.2588    20.3104     2.5402
 2552.5964      .0090    33.0152    19.4808     2.5441
 2552.7488      .0098    31.1504    18.6365     2.5480
 2552.9012     -.0008    29.0871    17.9510     2.5527
 2553.0536     -.0023    27.2511    17.3584     2.5388
 2553.2060     -.0015    26.6387    18.0249     2.5277
 2553.3584     -.0123    25.4341    17.6133     2.5337
 2553.5108     -.0082    25.7203    17.1221     2.5465
 2553.6632     -.0007    24.1855    16.6258     2.5493
 2553.8156      .0067    25.1000    17.4601     2.5515
 2553.9680      .0025    25.8826    18.4457     2.5552
 2554.1204      .0017    26.8101    18.7766     2.5559
 2554.2728      .0060    26.8531    19.2869     2.5507
 2554.4252      .0004    27.4374    19.3620     2.5549
 2554.5776      .0076    27.7236    18.6240     2.5667
 2554.7300      .0154    27.0270    18.0670     2.5679
 2554.8824      .0171    27.5939    18.3709     2.5687
 2555.0348      .0104    28.5814    18.1317     2.5837
 2555.1872      .0050    28.9798    18.6110     2.5893
 2555.3396      .0089    30.2840    19.3400     2.5735
 2555.4920      .0131    31.2284    20.1698     2.5593
 2555.6444      .0130    31.2176    21.6049     2.5492
 2555.7968      .0137    31.5037    21.1115     2.5413
 2555.9492      .0036    31.1936    20.6161     2.5405
 2556.1016     -.0007    30.0975    19.4353     2.5531
 2556.2540     -.0001    27.9989    18.9387     2.5685
 2556.4064      .0076    27.5798    19.2174     2.5508
 2556.5588      .0001    28.3132    19.5500     2.5723
 2556.7112      .0097    28.4503    20.0148     2.5820
 2556.8636      .0140    29.1914    20.3960     2.5496
 2557.0160      .0013    29.3762    20.5377     2.5395
 2557.1684     -.0045    28.1162    19.8178     2.5400
 2557.3208     -.0096    27.6483    18.9411     2.5482
 2557.4732     -.0095    26.7812    18.8300     2.5483
 2557.6256     -.0063    26.8878    18.9715     2.5507
 2557.7780     -.0038    29.1189    19.4580     2.5478
 2557.9304      .0001    29.8450    19.9255     2.5460
 2558.0828      .0043    30.0675    20.1345     2.5418
 2558.2352      .0052    30.9879    20.3198     2.5533
 2558.3876      .0120    31.0015    20.4879     2.5478
 2558.5400      .0040    30.8492    20.7093     2.5519
 2558.6924      .0065    29.6360    21.0946     2.5626
 2558.8448      .0168    29.7721    20.8615     2.5650
 2558.9972      .0193    30.8203    20.6877     2.5521
 2559.1496      .0117    30.9415    20.8716     2.5400
 2559.3020      .0037    31.5888    21.2033     2.5383
 2559.4544     -.0004    31.8119    21.5459     2.5385
 2559.6068     -.0008    32.9526    21.8928     2.5344
 2559.7592     -.0015    30.6287    22.1209     2.5350
 2559.9116      .0021    30.3678    21.7726     2.5385
 2560.0640      .0094    29.4528    20.6216     2.5406
 2560.2164      .0138    30.4915    19.1938     2.5459
 2560.3688      .0156    30.8455    18.4805     2.5482
 2560.5212      .0085    30.8335    18.5676     2.5406
 2560.6736     -.0007    31.4177    18.7337     2.5275
 2560.8260      .0021    30.8107    18.9662     2.5269
 2560.9784      .0097    29.9543    19.6372     2.5413
 2561.1308      .0177    30.6018    20.5379     2.5497
 2561.2832      .0135    31.6678    21.2747     2.5419
 2561.4356      .0032    31.6596    21.8466     2.5353
 2561.5880      .0003    30.7505    21.9328     2.5448
 2561.7404      .0073    31.7808    21.8887     2.5575
 2561.8928      .0111    32.5140    22.7521     2.5625
 2562.0452      .0101    32.4441    22.2909     2.5565
 2562.1976      .0045    30.6244    21.0372     2.5442
 2562.3500      .0018    28.9995    20.4574     2.5418
 2562.5024      .0100    28.5911    20.9285     2.5560
 2562.6548      .0186    28.9437    21.3858     2.5707
 2562.8072      .0281    29.2390    21.7803     2.5708
 2562.9596      .0184    30.4229    22.1148     2.5627
 2563.1120      .0084    32.1457    21.6652     2.5474
 2563.2644      .0092    33.3001    21.9999     2.5372
 2563.4168      .0073    33.3812    22.3010     2.5304
 2563.5692      .0043    32.6805    22.4843     2.5218
 2563.7216      .0010    32.6680    22.2158     2.5118
 2563.8740      .0009    32.1008    21.8454     2.5078
 2564.0264      .0041    30.1207    22.0799     2.5138
 2564.1788     -.0018    30.9889    22.0165     2.5205
 2564.3312     -.0065    32.0239    21.5867     2.5218
 2564.4836     -.0108    31.6878    22.0114     2.5203
 2564.6360     -.0038    30.6148    22.5666     2.5123
 2564.7884      .0008    29.9666    22.5560     2.5113
 2564.9408     -.0027    31.2676    22.3959     2.5062
 2565.0932      .0036    31.3678    22.3463     2.5221
 2565.2456      .0107    31.3558    22.2805     2.5351
 2565.3980      .0156    30.9194    22.4090     2.5453
 2565.5504      .0084    30.7357    22.6824     2.5396
 2565.7028      .0030    30.7237    21.8562     2.5291
 2565.8552      .0112    32.3726    20.8461     2.5342
 2566.0076      .0100    32.9711    20.5480     2.5474
 2566.1600      .0054    34.0660    21.0631     2.5404
 2566.3124      .0114    33.6560    21.7620     2.5391
 2566.4648      .0120    33.9420    22.4263     2.5251
 2566.6172      .0155    34.2280    22.0627     2.5232
 2566.7696      .0241    33.9516    21.8869     2.5481
 2566.9220      .0256    32.4227    22.4010     2.5632
 2567.0744      .0134    32.7019    22.7668     2.5538
