~VERSION INFORMATION
VERS.                                                 2.0:   CWLS Log ASCII Standard-VERSION 2.0
WRAP.                                                  NO:   One line per depth step
~Well Information Block
STRT.M                                          2500.4756:   Top Depth
STOP.M                                          2927.5004:   Bottom Depth
STEP.M                                             .15240:   Depth Increment
NULL.                                            -999.250:   Null Value
FLD .                                             WILDCAT:   Field Name
WELL.                                             15/12-2:   NAME
WBN .                                             15/12-2:   WELLBORE
NATI.                                                 NOR:   COUNTRY
BHT1.DEGF                                            77.0:   BH TEMP 1
BHT2.DEGF                                           106.0:   BH TEMP 2
BHT3.DEGF                                           108.0:   BH TEMP 3
BS1 .IN                                             17.50:   BIT SIZE 1
CTRY.                                                 NOR:   COUNTRY
CBD1.M                                              145.0:   CSG 1 DRILL DEP
CBL1.M                                              145.0:   CSG 1 LOG DEP
CS1 .IN                                              30.0:   CSG 1 SIZE
COMP.                                             STATOIL:   OPERATOR
PDAT.                                                 MSL:   PERM DATUM
PROV.                                           NORTH SEA:   PROVINCE
COUN.                                            ROSS RIG:   RIG NAME
SON .                                              01 JAN:   SOURCE OPERATOR NAME
SPUD.                                          1976/01/07:   SPUD DATE
LATI.                                        58 8 31.05 N:   SURF. LATITUDE
LONG.                                        1 55 42.27 E:   SURF. LONGITUDE
BTD1.                                             370.0 M:   TOTAL DEPTH 1
BTD2.                                      1829.3000488 M:   TOTAL DEPTH 2
BTD3.                                      1829.3000488 M:   TOTAL DEPTH 3
PBWE.                                             15/12-2:   PB WELL ID
APIN.                                             15/12-2:   PB WELLBORE ID
PBWS.                                                 all:   PB WELL NAME SET
~PARAMETER INFORMATION (log)
LNAM.                              FDC/CNL/GR  COMPOSITED:   NAME
LTYP.                                         DEPTH MATCH:   LOG TYPE
LSRV.                                            DEN/NEUT:   LOG SERVICE
LSOU.                                             SPT/NPD:   LOG SOURCE
LVSN.                                                   1:   LOG VERSION
BHIS.                                                   R:   BRIEF HISTORY
FHIS.                                             RAW-LIS:   FULL HISTORY
LCNM.                                        SCHLUMBERGER:   LOGGING CONTRACTOR
TOOL.                             FDC/CNL/GR (COMPOSITED):   TOOL STRING
~Curve Information Block
#MNEM.UNIT                                        API CODE    No Description
#=========                                        ========    == ===========
DEPT.M                                       00 001 00 00:     1  DEPTH
DRHO.G/CC                                                :     2  Bulk density correction
GR.GAPI                                                  :     3  Gamma Ray
NPHI.%                                                   :     4  Neutron porosity
RHOB.G/CC                                                :     5  Bulk density
~ASCII
# ...
 2811.9812      .0311    69.2589    34.3155     2.3465
 2812.1336      .0187    71.1731    33.2395     2.3554
 2812.2860      .0195    73.7347    32.2835     2.3569
 2812.4384      .0237    73.5500    31.4522     2.3599
 2812.5908      .0122    73.7980    30.4931     2.4028
 2812.7432      .0033    74.1458    28.8640     2.4388
 2812.8956      .0112    72.7684    27.0008     2.4584
 2813.0480      .0166    70.1849    25.2444     2.4673
 2813.2004      .0395    67.8204    24.4468     2.4700
 2813.3528      .0634    66.6979    24.6467     2.4716
 2813.5052      .0630    67.5157    25.9341     2.4192
 2813.6576      .0496    67.4267    27.5572     2.4052
 2813.8100      .0469    66.1595    28.2735     2.3967
 2813.9624      .0731    65.3966    27.7668     2.4220
 2814.1148      .0711    65.5400    27.5354     2.4427
 2814.2672      .0571    65.9294    27.7212     2.4458
 2814.4196      .0433    65.9745    27.3723     2.4790
 2814.5720      .0194    63.4912    25.9426     2.5075
 2814.7244      .0138    60.5639    23.1175     2.5265
 2814.8768      .0142    57.5497    20.7728     2.5359
 2815.0292      .0046    54.2507    20.7438     2.5209
 2815.1816     -.0010    53.0057    21.8239     2.5027
 2815.3340     -.0008    53.4014    22.8549     2.5001
 2815.4864      .0012    53.7090    23.3582     2.4938
 2815.6388      .0098    54.5339    22.9268     2.4840
 2815.7912      .0156    55.3127    23.1591     2.4917
 2815.9436      .0041    55.8592    24.5457     2.4927
 2816.0960     -.0028    55.5038    25.6450     2.4833
 2816.2484      .0084    55.4204    27.1624     2.4579
 2816.4008      .0212    55.9486    28.8917     2.4296
 2816.5532      .0306    57.1235    29.7687     2.4119
 2816.7056      .0115    58.7695    29.5776     2.4194
 2816.8580      .0078    58.6336    29.1587     2.4758
 2817.0104      .0069    57.9889    28.4493     2.5069
 2817.1628      .0064    57.1484    27.4626     2.5203
 2817.3152      .0099    54.6898    26.9956     2.5270
 2817.4676      .0177    54.3979    27.2735     2.5313
 2817.6200      .0203    53.4803    27.6232     2.5189
 2817.7724      .0135    51.7667    27.6913     2.4940
 2817.9248      .0146    49.7581    27.5079     2.4883
 2818.0772      .0129    46.2337    27.4718     2.4715
 2818.2296      .0021    40.4246    27.6940     2.4342
 2818.3820     -.0047    34.8981    28.3500     2.3769
 2818.5344     -.0046    30.7733    29.2095     2.3145
 2818.6868     -.0057    28.5108    29.8453     2.2688
 2818.8392     -.0107    27.3056    30.7304     2.2423
 2818.9916     -.0120    27.7771    31.0653     2.2364
 2819.1440     -.0100    28.3144    30.2822     2.2246
 2819.2964     -.0047    27.3576    29.5940     2.2116
 2819.4488     -.0006    25.5195    29.3113     2.2049
 2819.6012     -.0035    24.6413    29.8662     2.1901
 2819.7536     -.0054    24.9753    30.5892     2.1786
 2819.9060     -.0012    25.5842    30.5269     2.1751
 2820.0584      .0020    26.1485    30.9435     2.1778
 2820.2108      .0016    27.2407    31.3515     2.1813
 2820.3632     -.0017    29.6943    31.7699     2.1787
 2820.5156     -.0093    32.1608    31.9231     2.1661
 2820.6680     -.0175    33.6396    31.2783     2.1665
 2820.8204     -.0183    33.2575    30.5377     2.1889
 2820.9728     -.0134    33.2500    29.5819     2.2194
 2821.1252     -.0062    34.1329    28.5173     2.2455
 2821.2776      .0002    35.0947    27.8575     2.2644
 2821.4300      .0014    36.0324    28.1442     2.2783
 2821.5824     -.0021    35.7704    28.9702     2.2838
 2821.7348     -.0054    34.5058    29.0701     2.2757
 2821.8872     -.0100    35.0161    29.0714     2.2609
 2822.0396     -.0114    36.0767    29.0577     2.2562
 2822.1920     -.0095    37.3381    28.6138     2.2646
 2822.3444     -.0098    38.6619    28.4987     2.2770
 2822.4968     -.0084    39.5988    28.6216     2.2903
 2822.6492     -.0045    39.4922    28.7004     2.2992
 2822.8016     -.0038    38.3454    29.0523     2.3013
 2822.9540     -.0040    36.8725    29.4308     2.3137
 2823.1064      .0019    35.9871    29.2622     2.3225
 2823.2588     -.0057    35.9097    29.4150     2.3059
 2823.4112     -.0150    37.1086    29.6719     2.2961
 2823.5636     -.0064    38.4592    29.7122     2.2996
 2823.7160     -.0010    38.4594    29.6258     2.3110
 2823.8684     -.0118    36.5081    29.4142     2.3068
 2824.0208     -.0195    35.1727    29.3665     2.2726
 2824.1732     -.0197    34.7159    29.8731     2.2407
 2824.3256     -.0181    33.1764    30.3328     2.2128
 2824.4780     -.0158    30.2220    29.9227     2.1912
 2824.6304     -.0172    29.7072    29.2487     2.1809
 2824.7828     -.0213    28.8034    28.5730     2.1746
 2824.9352     -.0258    25.9452    27.7622     2.1676
 2825.0876     -.0321    23.5990    27.3402     2.1652
 2825.2400     -.0359    23.1945    27.6675     2.1642
 2825.3924     -.0328    23.9029    28.3480     2.1650
 2825.5448     -.0253    25.9784    28.8514     2.1414
 2825.6972     -.0253    28.4513    29.4776     2.1158
 2825.8496     -.0255    29.7736    29.9726     2.1052
 2826.0020     -.0234    30.3567    29.7704     2.0969
 2826.1544     -.0236    30.7911    29.9020     2.0944
 2826.3068     -.0243    30.7772    30.2012     2.1033
 2826.4592     -.0217    30.7633    29.8863     2.1168
 2826.6116     -.0224    30.8378    29.5561     2.1267
 2826.7640     -.0246    30.7572    29.1000     2.1330
 2826.9164     -.0266    29.6567    28.5763     2.1340
 2827.0688     -.0251    28.9197    28.1699     2.1660
 2827.2212     -.0186    29.1888    27.9509     2.1778
 2827.3736     -.0140    27.9675    27.6251     2.1767
 2827.5260     -.0174    27.5686    27.1747     2.1851
 2827.6784     -.0205    26.4381    26.6923     2.1836
 2827.8308     -.0185    25.6971    26.0875     2.1720
 2827.9832     -.0172    26.2632    25.4595     2.1590
 2828.1356     -.0199    26.7475    25.0915     2.1648
 2828.2880     -.0210    26.4188    25.3411     2.1720
 2828.4404     -.0190    26.4592    26.1330     2.1809
 2828.5928     -.0169    26.6073    26.4826     2.1901
 2828.7452     -.0114    26.2993    26.7634     2.1944
 2828.8976     -.0093    25.2445    27.4910     2.1896
 2829.0500     -.0111    25.0469    28.0797     2.1930
 2829.2024     -.0134    25.3732    28.1580     2.2053
 2829.3548     -.0161    24.7737    27.2531     2.2042
 2829.5072     -.0174    23.4827    25.7001     2.1904
 2829.6596     -.0172    22.5935    24.4933     2.2030
 2829.8120     -.0147    23.3108    23.6198     2.2166
 2829.9644     -.0125    24.0574    23.8213     2.2261
 2830.1168     -.0099    23.4189    24.4155     2.2357
 2830.2692     -.0063    21.9601    24.6751     2.2335
 2830.4216     -.0038    22.3457    25.2505     2.2116
 2830.5740     -.0091    22.2189    26.0892     2.1995
 2830.7264     -.0108    22.3274    26.5405     2.1982
 2830.8788     -.0084    23.6655    26.4780     2.1959
 2831.0312     -.0057    24.6783    25.5676     2.1945
 2831.1836     -.0101    23.8244    25.3312     2.1902
 2831.3360     -.0104    21.7172    25.5221     2.1793
 2831.4884     -.0116    20.9083    26.1296     2.1646
 2831.6408     -.0123    21.2555    27.1902     2.1651
 2831.7932     -.0064    22.3478    28.3543     2.1750
 2831.9456     -.0048    23.0050    29.0266     2.1744
 2832.0980     -.0116    22.9998    28.5112     2.1688
 2832.2504     -.0159    22.5984    28.6942     2.1579
 2832.4028     -.0153    21.9235    29.2118     2.1569
 2832.5552     -.0090    21.2268    29.6417     2.1667
 2832.7076     -.0031    21.0345    30.0438     2.1651
 2832.8600     -.0065    21.3049    30.1844     2.1598
 2833.0124     -.0162    21.9497    29.6129     2.1759
 2833.1648     -.0136    22.9644    28.9633     2.1943
 2833.3172     -.0037    22.6170    28.9555     2.1986
 2833.4696      .0004    22.8576    29.2898     2.1841
 2833.6220     -.0046    24.0317    29.3892     2.1713
 2833.7744     -.0090    23.6357    29.3176     2.1704
 2833.9268     -.0103    22.0607    29.0320     2.1750
 2834.0792     -.0106    20.8418    28.3894     2.1825
