~VERSION INFORMATION
VERS.                                                 2.0:   CWLS Log ASCII Standard-VERSION 2.0
WRAP.                                                  NO:   One line per depth step
~Well Information Block
STRT.M                                          2500.4756:   Top Depth
STOP.M                                          2927.5004:   Bottom Depth
STEP.M                                             .15240:   Depth Increment
NULL.                                            -999.250:   Null Value
FLD .                                             WILDCAT:   Field Name
WELL.                                             15/12-2:   NAME
WBN .                                             15/12-2:   WELLBORE
NATI.                                                 NOR:   COUNTRY
BHT1.DEGF                                            77.0:   BH TEMP 1
BHT2.DEGF                                           106.0:   BH TEMP 2
BHT3.DEGF                                           108.0:   BH TEMP 3
BS1 .IN                                             17.50:   BIT SIZE 1
CTRY.                                                 NOR:   COUNTRY
CBD1.M                                              145.0:   CSG 1 DRILL DEP
CBL1.M                                              145.0:   CSG 1 LOG DEP
CS1 .IN                                              30.0:   CSG 1 SIZE
COMP.                                             STATOIL:   OPERATOR
PDAT.                                                 MSL:   PERM DATUM
PROV.                                           NORTH SEA:   PROVINCE
COUN.                                            ROSS RIG:   RIG NAME
SON .                                              01 JAN:   SOURCE OPERATOR NAME
SPUD.                                          1976/01/07:   SPUD DATE
LATI.                                        58 8 31.05 N:   SURF. LATITUDE
LONG.                                        1 55 42.27 E:   SURF. LONGITUDE
BTD1.                                             370.0 M:   TOTAL DEPTH 1
BTD2.                                      1829.3000488 M:   TOTAL DEPTH 2
BTD3.                                      1829.3000488 M:   TOTAL DEPTH 3
PBWE.                                             15/12-2:   PB WELL ID
APIN.                                             15/12-2:   PB WELLBORE ID
PBWS.                                                 all:   PB WELL NAME SET
~PARAMETER INFORMATION (log)
LNAM.                              FDC/CNL/GR  COMPOSITED:   NAME
LTYP.                                         DEPTH MATCH:   LOG TYPE
LSRV.                                            DEN/NEUT:   LOG SERVICE
LSOU.                                             SPT/NPD:   LOG SOURCE
LVSN.                                                   1:   LOG VERSION
BHIS.                                                   R:   BRIEF HISTORY
FHIS.                                             RAW-LIS:   FULL HISTORY
LCNM.                                        SCHLUMBERGER:   LOGGING CONTRACTOR
TOOL.                             FDC/CNL/GR (COMPOSITED):   TOOL STRING
~Curve Information Block
#MNEM.UNIT                                        API CODE    No Description
#=========                                        ========    == ===========
DEPT.M                                       00 001 00 00:     1  DEPTH
DRHO.G/CC                                                :     2  Bulk density correction
GR.GAPI                                                  :     3  Gamma Ray
NPHI.%                                                   :     4  Neutron porosity
RHOB.G/CC                                                :     5  Bulk density
~ASCII
# ...
 2789.7308      .0037   111.1215    39.1519     2.3395
 2789.8832      .0077   109.1809    38.9254     2.3199
 2790.0356      .0079   108.9990    38.7809     2.3046
 2790.1880      .0073   111.6484    38.7594     2.2977
 2790.3404      .0042   111.6480    38.7067     2.3002
 2790.4928     -.0020   111.1842    38.7027     2.3088
 2790.6452     -.0038   110.6868    38.7105     2.3229
 2790.7976      .0022   110.1398    38.7435     2.3303
 2790.9500      .0011   109.3829    38.8485     2.3344
 2791.1024     -.0020   108.7603    38.7349     2.3527
 2791.2548      .0029   108.4958    38.4031     2.3738
 2791.4072      .0114   107.4259    38.3061     2.3802
 2791.5596      .0084   106.5652    38.5030     2.3649
 2791.7120     -.0013   105.1201    38.7385     2.3525
 2791.8644     -.0026   106.3786    38.9418     2.3344
 2792.0168      .0057   106.6436    39.2471     2.3280
 2792.1692      .0045   106.7640    39.5922     2.3280
 2792.3216      .0046   106.0577    39.4631     2.3342
 2792.4740      .0035   106.2574    38.3095     2.3371
 2792.6264      .0020   105.5654    36.4829     2.3468
 2792.7788      .0005   103.2882    34.9158     2.3595
 2792.9312     -.0020   100.2842    34.3475     2.3666
 2793.0836     -.0080    98.7983    35.1359     2.3583
 2793.2360     -.0139   101.6490    36.5995     2.3610
 2793.3884     -.0127   104.7471    37.6161     2.3582
 2793.5408     -.0053   106.8522    37.2048     2.3409
 2793.6932      .0011   107.5657    37.0669     2.3260
 2793.8456      .0006   105.9978    37.5020     2.3197
 2793.9980     -.0030   101.7615    37.5163     2.3322
 2794.1504     -.0045    98.2679    36.5596     2.3585
 2794.3028      .0005    96.4048    35.7297     2.3747
 2794.4552      .0063    97.4590    36.5556     2.3760
 2794.6076      .0017    99.1329    37.1671     2.3557
 2794.7600     -.0064    99.5232    37.5410     2.3405
 2794.9124     -.0121   100.9897    37.3680     2.3419
 2795.0648     -.0055   102.9888    36.0422     2.3509
 2795.2172      .0031   104.8498    34.4295     2.3637
 2795.3696      .0049   104.9812    34.3384     2.3756
 2795.5220      .0056   102.8314    35.0491     2.3868
 2795.6744      .0074    99.9602    35.0890     2.3964
 2795.8268      .0037    96.6721    34.0894     2.4014
 2795.9792      .0020    94.4190    33.3473     2.4038
 2796.1316      .0026    91.9262    33.3004     2.4015
 2796.2840      .0062    92.2860    33.7289     2.3985
 2796.4364      .0141    96.2036    34.1182     2.3972
 2796.5888      .0157    99.1268    34.2421     2.3892
 2796.7412      .0028    98.9209    34.1487     2.3926
 2796.8936      .0018    98.2182    33.3326     2.4090
 2797.0460      .0080    98.7316    32.6843     2.4221
 2797.1984      .0109   100.5741    32.9357     2.4250
 2797.3508      .0075   101.2285    33.6419     2.4140
 2797.5032      .0031    98.8300    33.8918     2.4225
 2797.6556      .0029    96.7314    33.8729     2.4334
 2797.8080      .0050    95.5216    34.4914     2.4359
 2797.9604      .0034    92.3237    34.6328     2.4310
 2798.1128     -.0012    91.8142    33.4205     2.4040
 2798.2652     -.0108    92.2522    33.2759     2.3901
 2798.4176     -.0162    93.0924    33.4954     2.3812
 2798.5700     -.0125    93.0002    32.8730     2.3689
 2798.7224     -.0210    89.8497    31.4198     2.3747
 2798.8748     -.0082    85.8621    29.6674     2.4100
 2799.0272     -.0002    82.9175    27.9692     2.4382
 2799.1796     -.0115    78.2940    26.7445     2.4700
 2799.3320     -.0081    72.6873    27.9006     2.4789
 2799.4844      .0044    70.1734    31.6571     2.4049
 2799.6368      .0041    72.7715    34.3358     2.3612
 2799.7892     -.0021    78.8409    35.1936     2.3916
 2799.9416      .0069    83.0699    33.9518     2.4687
 2800.0940      .0122    83.0055    32.4652     2.4703
 2800.2464      .0133    81.1247    32.1819     2.4553
 2800.3988     -.0002    80.8430    32.3632     2.4350
 2800.5512     -.0067    81.6468    32.3045     2.4365
 2800.7036     -.0039    81.4167    32.7837     2.4158
 2800.8560      .0071    80.2741    33.5391     2.3861
 2801.0084      .0217    76.9788    34.6782     2.3820
 2801.1608      .0428    72.3345    34.3179     2.4291
 2801.3132      .0465    66.5570    32.0707     2.4378
 2801.4656      .0123    59.5370    28.4565     2.5069
 2801.6180     -.0088    51.7419    25.3625     2.5788
 2801.7704      .0193    46.8572    23.0374     2.6091
 2801.9228      .0696    49.7565    23.6878     2.5675
 2802.0752      .0804    60.1920    27.3608     2.4931
 2802.2276      .0647    69.0504    31.0877     2.4276
 2802.3800      .0342    70.9264    31.1328     2.3851
 2802.5324      .0138    72.4662    31.3945     2.3753
 2802.6848      .0130    73.7748    32.1583     2.4108
 2802.8372      .0262    72.1997    32.2492     2.4204
 2802.9896      .0417    71.2009    33.1600     2.4303
 2803.1420      .0400    71.6049    33.7631     2.4232
 2803.2944      .0181    72.5143    34.3655     2.4076
 2803.4468      .0312    71.7568    34.2662     2.3855
 2803.5992      .0573    70.7763    35.1510     2.3569
 2803.7516      .0585    72.0344    36.6649     2.3552
 2803.9040      .0339    73.5252    38.6751     2.3180
 2804.0564      .0152    73.8449    38.2684     2.2739
 2804.2088      .0107    73.3897    38.2109     2.2417
 2804.3612      .0228    71.3151    38.6337     2.2454
 2804.5136      .0420    70.6090    38.5966     2.2888
 2804.6660      .0439    70.3857    37.8977     2.3361
 2804.8184      .0269    70.6680    38.8385     2.3806
 2804.9708      .0292    71.4089    38.2274     2.3991
 2805.1232      .0346    71.7197    36.3634     2.3936
 2805.2756      .0239    72.0318    34.9664     2.3818
 2805.4280      .0296    72.5545    33.9911     2.3779
 2805.5804      .0422    74.9019    34.0332     2.3904
 2805.7328      .0321    76.5217    34.1041     2.4116
 2805.8852      .0263    75.4528    33.9574     2.4147
 2806.0376      .0263    72.0633    33.9143     2.4306
 2806.1900      .0295    72.1403    33.8787     2.4541
 2806.3424      .0238    72.3352    33.8465     2.4742
 2806.4948      .0157    71.9304    33.8818     2.4700
 2806.6472      .0144    71.0526    33.2472     2.4636
 2806.7996      .0142    70.6592    32.2988     2.4781
 2806.9520      .0066    70.7337    30.7441     2.4948
 2807.1044     -.0067    72.2013    28.7110     2.4832
 2807.2568     -.0058    73.8236    27.2905     2.4837
 2807.4092      .0096    71.8294    27.3373     2.4975
 2807.5616      .0252    69.2533    28.0987     2.5166
 2807.7140      .0424    69.4481    28.8813     2.5211
 2807.8664      .0595    70.3328    29.0920     2.5033
 2808.0188      .0747    68.6812    27.8386     2.4909
 2808.1712      .0668    66.6909    26.1955     2.4894
 2808.3236      .0389    65.3214    25.5879     2.4787
 2808.4760      .0249    61.8220    25.4487     2.4675
 2808.6284      .0281    59.6463    25.4057     2.4927
 2808.7808      .0270    58.2283    25.4290     2.5404
 2808.9332      .0330    57.4470    25.5043     2.5657
 2809.0856      .0441    59.6492    25.6061     2.5903
 2809.2380      .0306    61.4685    25.7117     2.6019
 2809.3904      .0127    63.3985    25.7998     2.5624
 2809.5428      .0045    64.4928    25.8241     2.5196
 2809.6952      .0042    66.1951    25.9410     2.5119
 2809.8476      .0095    66.6719    26.4551     2.5144
 2810.0000      .0175    68.2438    27.2857     2.4999
 2810.1524      .0215    69.9835    28.1000     2.4711
 2810.3048      .0287    69.6860    28.4890     2.4567
 2810.4572      .0274    68.8248    28.3012     2.4480
 2810.6096      .0265    67.5258    27.9267     2.4415
 2810.7620      .0246    66.8356    28.9603     2.4470
 2810.9144      .0108    67.4589    32.3367     2.4208
 2811.0668      .0192    68.3899    33.7662     2.3923
 2811.2192      .0303    67.1747    33.8815     2.3602
 2811.3716      .0480    67.1991    33.9958     2.3535
 2811.5240      .0366    66.5867    34.1652     2.3456
 2811.6764      .0347    66.1099    34.3639     2.3493
 2811.8288      .0316    67.5605    34.7713     2.3516
