~VERSION INFORMATION
VERS.                                                 2.0:   CWLS Log ASCII Standard-VERSION 2.0
WRAP.                                                  NO:   One line per depth step
~Well Information Block
STRT.M                                          2500.4756:   Top Depth
STOP.M                                          2927.5004:   Bottom Depth
STEP.M                                             .15240:   Depth Increment
NULL.                                            -999.250:   Null Value
FLD .                                             WILDCAT:   Field Name
WELL.                                             15/12-2:   NAME
WBN .                                             15/12-2:   WELLBORE
NATI.                                                 NOR:   COUNTRY
BHT1.DEGF                                            77.0:   BH TEMP 1
BHT2.DEGF                                           106.0:   BH TEMP 2
BHT3.DEGF                                           108.0:   BH TEMP 3
BS1 .IN                                             17.50:   BIT SIZE 1
CTRY.                                                 NOR:   COUNTRY
CBD1.M                                              145.0:   CSG 1 DRILL DEP
CBL1.M                                              145.0:   CSG 1 LOG DEP
CS1 .IN                                              30.0:   CSG 1 SIZE
COMP.                                             STATOIL:   OPERATOR
PDAT.                                                 MSL:   PERM DATUM
PROV.                                           NORTH SEA:   PROVINCE
COUN.                                            ROSS RIG:   RIG NAME
SON .                                              01 JAN:   SOURCE OPERATOR NAME
SPUD.                                          1976/01/07:   SPUD DATE
LATI.                                        58 8 31.05 N:   SURF. LATITUDE
LONG.                                        1 55 42.27 E:   SURF. LONGITUDE
BTD1.                                             370.0 M:   TOTAL DEPTH 1
BTD2.                                      1829.3000488 M:   TOTAL DEPTH 2
BTD3.                                      1829.3000488 M:   TOTAL DEPTH 3
PBWE.                                             15/12-2:   PB WELL ID
APIN.                                             15/12-2:   PB WELLBORE ID
PBWS.                                                 all:   PB WELL NAME SET
~PARAMETER INFORMATION (log)
LNAM.                              FDC/CNL/GR  COMPOSITED:   NAME
LTYP.                                         DEPTH MATCH:   LOG TYPE
LSRV.                                            DEN/NEUT:   LOG SERVICE
LSOU.                                             SPT/NPD:   LOG SOURCE
LVSN.                                                   1:   LOG VERSION
BHIS.                                                   R:   BRIEF HISTORY
FHIS.                                             RAW-LIS:   FULL HISTORY
LCNM.                                        SCHLUMBERGER:   LOGGING CONTRACTOR
TOOL.                             FDC/CNL/GR (COMPOSITED):   TOOL STRING
~Curve Information Block
#MNEM.UNIT                                        API CODE    No Description
#=========                                        ========    == ===========
DEPT.M                                       00 001 00 00:     1  DEPTH
DRHO.G/CC                                                :     2  Bulk density correction
GR.GAPI                                                  :     3  Gamma Ray
NPHI.%                                                   :     4  Neutron porosity
RHOB.G/CC                                                :     5  Bulk density
~ASCII
# ...
 2878.7324      .0208    65.2145    34.3081     2.5913
 2878.8848      .0396    62.3025    34.4541     2.5908
 2879.0372      .0436    61.5421    34.7773     2.5409
 2879.1896      .0175    60.5427    35.5483     2.5285
 2879.3420      .0083    60.3361    36.5032     2.5048
 2879.4944      .0187    62.3405    37.0923     2.4438
 2879.6468      .0224    63.3696    37.8913     2.4147
 2879.7992      .0065    63.2942    39.2104     2.3760
 2879.9516      .0009    63.2918    38.8390     2.3571
 2880.1040      .0038    63.0149    37.2046     2.3979
 2880.2564      .0191    61.8869    35.7094     2.4546
 2880.4088      .0425    60.9006    35.0554     2.4817
 2880.5612      .0315    63.0752    35.2435     2.4968
 2880.7136      .0210    65.4817    35.6018     2.4775
 2880.8660      .0147    65.7415    35.9629     2.4570
 2881.0184      .0128    62.5354    35.2731     2.4488
 2881.1708      .0220    61.2708    34.4245     2.4686
 2881.3232      .0490    60.5929    34.4825     2.4666
 2881.4756      .0270    62.0717    35.6994     2.3884
 2881.6280      .0059    65.2548    38.6405     2.2771
 2881.7804     -.0014    66.5368    38.2550     2.2120
 2881.9328     -.0071    67.8655    35.5304     2.2579
 2882.0852      .0033    71.4287    33.7557     2.3808
 2882.2376      .0145    72.2775    33.3754     2.4902
 2882.3900      .0210    71.9227    34.8178     2.5337
 2882.5424      .0327    70.5215    35.1043     2.5361
 2882.6948      .0440    70.8721    34.3105     2.5168
 2882.8472      .0508    69.0335    33.7830     2.5058
 2882.9996      .0434    66.7478    32.9454     2.5172
 2883.1520      .0316    65.6891    32.6358     2.5243
 2883.3044      .0106    66.2722    32.6603     2.4992
 2883.4568      .0177    64.0869    32.9217     2.4878
 2883.6092      .0346    62.6359    34.3829     2.4593
 2883.7616      .0530    61.9490    36.2056     2.3937
 2883.9140      .0572    60.1982    38.2039     2.3386
 2884.0664      .0655    59.5220    39.6845     2.2848
 2884.2188      .0344    60.7318    40.0683     2.2221
 2884.3712      .0047    62.3424    39.1823     2.2227
 2884.5236      .0113    64.9140    37.8784     2.3132
 2884.6760      .0178    66.8803    37.1648     2.3815
 2884.8284      .0061    66.5658    36.0373     2.4254
 2884.9808      .0006    65.6144    33.4069     2.5129
 2885.1332      .0071    66.0493    30.6748     2.5619
 2885.2856      .0136    67.5325    29.2019     2.5625
 2885.4380      .0205    68.5656    28.6055     2.5590
 2885.5904      .0256    69.0553    28.4815     2.5629
 2885.7428      .0220    69.7584    28.4638     2.5748
 2885.8952      .0192    69.6216    28.4894     2.5603
 2886.0476      .0322    69.9890    28.7571     2.5784
 2886.2000      .0657    70.4226    29.6304     2.5611
 2886.3524      .0633    69.9276    29.9479     2.5342
 2886.5048      .0390    70.6578    29.6091     2.5382
 2886.6572      .0594    71.7919    29.1868     2.5265
 2886.8096      .0578    69.9607    29.7004     2.4884
 2886.9620      .0548    66.7358    29.2538     2.4588
 2887.1144      .0304    64.8918    27.9824     2.4092
 2887.2668      .0187    63.3232    27.0293     2.4007
 2887.4192      .0555    61.4797    26.4939     2.3834
 2887.5716      .0171    60.7042    27.7245     2.4947
 2887.7240      .0013    60.5716    27.2350     2.6155
 2887.8764      .0117    58.8437    25.5346     2.6437
 2888.0288      .0327    57.8374    24.5700     2.6731
 2888.1812      .0515    57.3554    23.3968     2.7011
 2888.3336      .0628    54.3617    20.9123     2.7409
 2888.4860      .0324    47.9448    18.2510     2.7795
 2888.6384      .0093    39.0682    15.2708     2.8045
 2888.7908      .0147    32.6679    12.3134     2.8519
 2888.9432      .0202    27.9336     9.6427     2.8990
 2889.0956      .0181    22.2193     5.9652     2.9257
 2889.2480      .0098    18.3349     2.2956     2.9179
 2889.4004      .0132    15.3015      .7312     2.9278
 2889.5528      .0136    13.8700      .2721     2.9273
 2889.7052      .0095    13.1211      .0828     2.9181
 2889.8576      .0068    13.8958      .0332     2.9176
 2890.0100      .0064    14.8238      .0337     2.9230
 2890.1624      .0068    15.0680      .0365     2.9284
 2890.3148      .0102    14.2836      .0515     2.9507
 2890.4672      .0181    15.2155      .0746     2.9698
 2890.6196      .0250    16.0770      .0983     2.9794
 2890.7720      .0250    16.2324      .1244     2.9827
 2890.9244      .0210    16.2536      .1534     2.9719
 2891.0768      .0149    15.1840      .1952     2.9745
 2891.2292      .0121    13.6324      .2426     2.9814
 2891.3816      .0102    13.6632      .2763     2.9885
 2891.5340      .0131    15.3467      .2993     2.9879
 2891.6864      .0343    16.1721      .4190     2.9654
 2891.8388      .0236    16.1111      .5597     2.9545
 2891.9912      .0104    15.8706      .7044     2.9625
 2892.1436      .0060    15.8095      .8808     2.9664
 2892.2960      .0023    15.5691     1.1662     2.9551
 2892.4484      .0027    15.6266     1.4515     2.9462
 2892.6008      .0055    15.8622     1.7266     2.9421
 2892.7532      .0124    15.6038     1.9384     2.9268
 2892.9056      .0186    14.3770     1.9986     2.9161
 2893.0580      .0163    13.7613     1.9717     2.9181
 2893.2104     -.0015    14.2880     1.9752     2.9383
 2893.3628     -.0020    14.5147     2.0269     2.9341
 2893.5152      .0033    13.8869     2.1580     2.9316
 2893.6676      .0123    13.7370     2.2804     2.9257
 2893.8200      .0294    13.7080     2.2387     2.9171
 2893.9724      .0273    14.0006     2.0764     2.9218
 2894.1248      .0183    13.8774     2.1280     2.9366
 2894.2772      .0301    14.4122     2.3751     2.9411
 2894.4296      .0400    14.6802     2.5672     2.9314
 2894.5820      .0351    14.9672     2.5880     2.9123
 2894.7344      .0447    15.6189     2.2989     2.9162
 2894.8868      .0322    15.3959     1.7706     2.9415
 2895.0392      .0217    14.4499     1.3881     2.9742
 2895.1916      .0298    13.6357     1.2714     2.9786
 2895.3440      .0248    13.4474     1.2410     2.9668
 2895.4964      .0056    13.4453     1.2195     2.9432
 2895.6488     -.0002    13.4434     1.1991     2.9240
 2895.8012      .0026    13.3824     1.1846     2.9208
 2895.9536      .0082    13.0828     1.2023     2.9206
 2896.1060      .0058    12.7982     1.3083     2.9243
 2896.2584      .0161    12.6031     1.4927     2.9222
 2896.4108      .0207    12.6944     1.6814     2.9047
 2896.5632      .0196    13.3302     1.8299     2.9040
 2896.7156      .0071    13.4301     1.9076     2.9231
 2896.8680      .0069    13.4869     1.9520     2.9224
 2897.0204      .0064    13.6649     1.9923     2.9177
 2897.1728      .0071    13.4264     2.1413     2.9185
 2897.3252      .0117    13.6672     2.2770     2.9189
 2897.4776      .0075    14.6113     2.4276     2.9377
 2897.6300      .0017    14.8715     2.7060     2.9444
 2897.7824      .0097    15.4242     3.0326     2.9364
 2897.9348      .0105    13.3571     3.3020     2.9270
 2898.0872      .0169    13.1154     3.1431     2.9247
 2898.2396      .0225    13.1136     2.7926     2.9208
 2898.3920      .0064    13.1706     2.6462     2.9103
 2898.5444      .0026    13.4066     2.5902     2.9035
 2898.6968      .0025    13.4055     2.1633     2.9017
 2898.8492      .0115    13.3445     1.7139     2.9067
 2899.0016      .0207    13.4968     1.5220     2.9234
 2899.1540      .0248    15.2064     1.3460     2.9286
 2899.3064      .0153    15.9386     1.2597     2.9124
 2899.4588      .0222    16.5370     1.2826     2.8990
 2899.6112      .0342    16.3705     1.3059     2.8846
 2899.7636      .0578    16.5235     1.3307     2.8700
 2899.9160      .0739    16.7638     1.3554     2.8673
 2900.0684      .0822    14.9907     1.3597     2.8870
 2900.2208      .0649    13.9555     1.2924     2.9143
 2900.3732      .0376    13.7115     1.1618     2.9322
 2900.5256      .0362    13.7164     1.0370     2.9183
 2900.6780      .0321    13.5972      .9183     2.8976
 2900.8304      .0254    12.8718      .8153     2.8833
