~VERSION INFORMATION
VERS.                                                 2.0:   CWLS Log ASCII Standard-VERSION 2.0
WRAP.                                                  NO:   One line per depth step
~Well Information Block
STRT.M                                           480.4136:   Top Depth
STOP.M                                          3575.6576:   Bottom Depth
STEP.M                                             .15240:   Depth Increment
NULL.                                            -999.250:   Null Value
FLD .                                                   -:   Field Name
WELL.                                             15/9-14:   NAME
WBN .                                             15/9-14:   WELLBORE
NATI.                                                 NOR:   COUNTRY
CTRY.                                                 NOR:   COUNTRY
COMP.                                             STATOIL:   OPERATOR
PROV.                                           NORTH SEA:   PROVINCE
COUN.                                        DEEPSEA SAGA:   RIG NAME
SPUD.                                          1982/05/01:   SPUD DATE
LATI.                                       58 17 23.19 N:   SURF. LATITUDE
LONG.                                        1 41 28.06 E:   SURF. LONGITUDE
PBWE.                                             15/9-14:   PB WELL ID
APIN.                                             15/9-14:   PB WELLBORE ID
PBWS.                                                 all:   PB WELL NAME SET
~PARAMETER INFORMATION (log)
LNAM.                              LDT/CNL/GR  COMPOSITED:   NAME
LTYP.                                         DEPTH MATCH:   LOG TYPE
LSRV.                                           LATEROLOG:   LOG SERVICE
LSOU.                                             SPT/NPD:   LOG SOURCE
LVSN.                                                   1:   LOG VERSION
BHIS.                                                   R:   BRIEF HISTORY
FHIS.                                             RAW-LIS:   FULL HISTORY
LCNM.                                        SCHLUMBERGER:   LOGGING CONTRACTOR
TOOL.                             LDT/CNL/GR (COMPOSITED):   TOOL STRING
~Curve Information Block
#MNEM.UNIT                                        API CODE    No Description
#=========                                        ========    == ===========
DEPT.M                                       00 001 00 00:     1  DEPTH
CALI.IN                                                  :     2  Caliper
CS.                                                      :     3  Cable Speed
DRHO.G/CC                                                :     4  Bulk density correction
GR.GAPI                                                  :     5  Gamma Ray
NPHI.%                                                   :     6  Neutron porosity
PEF.B/E                                                  :     7  Photo-electric factor
RHOB.G/CC                                                :     8  Bulk density
TENS.LB                                                  :     9  Cable Tension
~ASCII
# ...
  887.7788    17.9375  1996.0000      .0273   100.6875    42.6270     2.1074     2.0664  1415.0000
  887.9312    17.8281  1996.0000      .0186    97.5000    42.5293     2.1309     2.0508  1410.0000
  888.0836    17.8281  1996.0000      .0410    95.3750    43.2129     2.1113     2.0820  1425.0000
  888.2360    18.0156  1996.0000      .0527    95.0000    49.3164     2.1211     2.1074  1405.0000
  888.3884    18.2813  1995.0000      .0469    92.8750    49.6094     2.0566     2.1133  1415.0000
  888.5408    18.2813  1995.0000      .0288    87.1250    50.2441     2.1113     2.0937  1425.0000
  888.6932    18.3906  1995.0000      .0366    90.3750    47.0703     2.1211     2.1016  1435.0000
  888.8456    18.2813  1995.0000      .0527    92.6875    48.2422     2.3379     2.1191  1435.0000
  888.9980    18.1250  1995.0000      .0474    94.6875    46.9238     2.4141     2.1211  1425.0000
  889.1504    18.0313  1995.0000      .0312    89.2500    44.2871     2.3867     2.1172  1415.0000
  889.3028    18.0469  1995.0000      .0273    90.1875    43.2617     2.2832     2.1152  1425.0000
  889.4552    18.1250  1996.0000      .0366    89.3750    42.5293     2.2422     2.1270  1415.0000
  889.6076    18.1719  1996.0000      .0405    90.8125    50.2930     2.2871     2.1211  1425.0000
  889.7600    18.1875  1997.0000      .0420    90.7500    50.5371     2.2871     2.1211  1415.0000
  889.9124    18.2031  1996.0000      .0259    92.0625    49.8535     2.2988     2.1035  1420.0000
  890.0648    18.2656  1996.0000      .0244    90.1875    45.1172     2.2949     2.1055  1415.0000
  890.2172    18.1875  1995.0000      .0229    84.1875    44.0430     2.1348     2.1152  1420.0000
  890.3696    18.1875  1995.0000      .0312    82.2500    43.6523     2.1074     2.1309  1415.0000
  890.5220    18.2969  1996.0000      .0356    79.8125    42.0898     2.1504     2.1406  1420.0000
  890.6744    18.3125  1997.0000      .0322    78.5000    46.9727     2.2520     2.1309  1420.0000
  890.8268    18.2500  1998.0000      .0303    75.7500    51.2695     2.2461     2.1191  1425.0000
  890.9792    18.2813  1998.0000      .0317    75.5000    51.2695     2.1543     2.1191  1425.0000
  891.1316    18.2813  1998.0000      .0459    80.1250    53.9062     2.1445     2.1348  1420.0000
  891.2840    18.2813  1999.0000      .0640    80.9375    50.8789     2.1348     2.1504  1420.0000
  891.4364    18.0000  2000.0000      .0610    82.9375    52.7832     2.2324     2.1230  1420.0000
  891.5888    18.0000  1999.0000      .0762    84.3750    47.9004     2.2383     2.1172  1430.0000
  891.7412    18.0781  1997.0000      .0981    84.3750    50.4395     2.1777     2.1289  1430.0000
  891.8936    18.0781  1996.0000      .0972    85.3125    53.0762     2.1074     2.1270  1440.0000
  892.0460    18.0156  1996.0000      .0894    83.6875    50.4883     2.1348     2.1172  1420.0000
  892.1984    17.9844  1995.0000      .0586    86.3750    49.7070     2.1641     2.0801  1435.0000
  892.3508    18.0000  1994.0000      .0679    89.8750    50.0977     2.1387     2.0703  1420.0000
  892.5032    18.0781  1995.0000      .0615    85.6250    51.9043     2.0273     2.0449  1425.0000
  892.6556    18.0625  1996.0000      .0840    85.5000    53.1250     2.0293     2.0566  1415.0000
  892.8080    18.2500  1996.0000      .0796    81.5000    52.1484     2.0469     2.0547  1420.0000
  892.9604    17.9219  1996.0000      .0630    84.5000    53.1250     2.0703     2.0332  1420.0000
  893.1128    17.8594  1997.0000      .0620    85.5625    51.9043     2.0469     2.0332  1430.0000
  893.2652    17.9219  1997.0000      .0742    81.5000    50.5859     1.9873     2.0273  1425.0000
  893.4176    17.7656  1996.0000      .1084    79.5625    48.7305     2.0176     2.0547  1425.0000
  893.5700    17.6875  1996.0000      .0996    76.1250    48.7793     1.9639     2.0215  1425.0000
  893.7224    17.7500  1996.0000      .1201    80.9375    51.8555     1.9727     2.0312  1445.0000
  893.8748    17.5781  1995.0000      .0864    83.6250    52.3437     1.9189     1.9980  1405.0000
  894.0272    18.0000  1995.0000      .0962    87.5625    49.2187     1.9951     2.0098  1440.0000
  894.1796    18.0625  1995.0000      .0757    85.8125    47.8516     2.0625     1.9873  1430.0000
  894.3320    18.0313  1996.0000      .0806    85.5000    53.2715     2.1191     2.0039  1425.0000
  894.4844    18.0156  1995.0000      .0625    81.8125    62.8906     2.2441     2.0117  1450.0000
  894.6368    18.0469  1996.0000      .0522    79.1250    58.1055     2.2363     2.0449  1425.0000
  894.7892    18.0469  1997.0000      .0620    74.6875    53.3691     2.2461     2.0723  1440.0000
  894.9416    18.0938  1995.0000      .0801    75.3125    51.9531     2.0781     2.0937  1440.0000
  895.0940    18.2656  1996.0000      .0879    75.8125    54.8828     1.9922     2.0723  1420.0000
  895.2464    18.3594  1997.0000      .1001    78.4375    54.0039     1.9697     2.0664  1440.0000
  895.3988    18.2031  1996.0000      .0737    77.6250    54.5410     2.0273     2.0332  1420.0000
  895.5512    18.0781  1995.0000      .0625    77.6250    50.3906     2.0156     2.0391  1420.0000
  895.7036    18.1406  1995.0000      .0630    80.2500    51.6113     1.9922     2.0332  1420.0000
  895.8560    17.8281  1996.0000      .0801    82.8750    43.4570     1.9873     2.0430  1440.0000
  896.0084    17.7031  1997.0000      .0752    86.4375    45.9473     2.0508     2.0371  1425.0000
  896.1608    17.4688  1998.0000      .0371    87.2500    47.2656     2.1680     2.0332  1435.0000
  896.3132    17.4219  1997.0000      .0122    83.3125    50.2441     2.2109     2.0312  1430.0000
  896.4656    17.3906  1997.0000      .0083    82.2500    50.1465     2.2793     2.0430  1430.0000
  896.6180    17.2188  1995.0000      .0151    77.0000    51.0254     2.2441     2.0547  1420.0000
  896.7704    17.4219  1996.0000      .0200    80.7500    51.3672     2.1621     2.0762  1415.0000
  896.9228    17.4688  1994.0000      .0166    78.2500    52.4414     2.1973     2.0840  1425.0000
  897.0752    17.4688  1995.0000      .0098    82.6875    50.4395     2.1211     2.0898  1420.0000
  897.2276    17.4688  1996.0000      .0103    79.1250    49.6582     2.1602     2.0820  1425.0000
  897.3800    17.4844  1995.0000      .0220    81.8750    49.0234     2.0684     2.0898  1430.0000
  897.5324    17.3281  1995.0000      .0273    79.6250    48.4375     2.0840     2.0879  1425.0000
  897.6848    17.3594  1996.0000      .0283    80.8125    47.2656     2.1172     2.0977  1435.0000
  897.8372    17.3438  1997.0000      .0225    80.3750    46.9238     2.1562     2.0937  1415.0000
  897.9896    17.3438  1997.0000      .0200    78.8125    47.9980     2.2520     2.0937  1445.0000
  898.1420    17.3438  1997.0000      .0234    77.6250    50.2441     2.2559     2.0977  1425.0000
  898.2944    17.3594  1996.0000      .0254    76.5000    49.2187     2.1309     2.0996  1425.0000
  898.4468    17.3281  1995.0000      .0234    76.0000    50.4883     2.1113     2.0937  1420.0000
  898.5992    17.2500  1995.0000      .0181    77.6250    49.7070     2.1270     2.0840  1425.0000
  898.7516    17.2031  1995.0000      .0107    82.2500    51.3672     2.3008     2.0723  1420.0000
  898.9040    17.1875  1995.0000      .0127    83.3125    52.9785     2.3535     2.0781  1425.0000
  899.0564    17.2656  1994.0000      .0156    84.3750    53.3691     2.2930     2.0859  1425.0000
  899.2088    17.2969  1994.0000      .0195    79.4375    50.5859     2.2676     2.0996  1420.0000
  899.3612    17.3281  1994.0000      .0244    81.5625    45.6055     2.1562     2.0996  1435.0000
  899.5136    17.3594  1995.0000      .0283    81.9375    44.2383     2.1016     2.1016  1425.0000
  899.6660    17.3594  1996.0000      .0352    86.8750    46.0449     2.0859     2.0957  1425.0000
  899.8184    17.3281  1997.0000      .0376    86.4375    50.1953     2.1328     2.0996  1420.0000
  899.9708    17.2813  1997.0000      .0391    81.7500    49.8535     2.1855     2.0918  1440.0000
