~VERSION INFORMATION
VERS.                                                 2.0:   CWLS Log ASCII Standard-VERSION 2.0
WRAP.                                                  NO:   One line per depth step
~Well Information Block
STRT.M                                           480.4136:   Top Depth
STOP.M                                          3575.6576:   Bottom Depth
STEP.M                                             .15240:   Depth Increment
NULL.                                            -999.250:   Null Value
FLD .                                                   -:   Field Name
WELL.                                             15/9-14:   NAME
WBN .                                             15/9-14:   WELLBORE
NATI.                                                 NOR:   COUNTRY
CTRY.                                                 NOR:   COUNTRY
COMP.                                             STATOIL:   OPERATOR
PROV.                                           NORTH SEA:   PROVINCE
COUN.                                        DEEPSEA SAGA:   RIG NAME
SPUD.                                          1982/05/01:   SPUD DATE
LATI.                                       58 17 23.19 N:   SURF. LATITUDE
LONG.                                        1 41 28.06 E:   SURF. LONGITUDE
PBWE.                                             15/9-14:   PB WELL ID
APIN.                                             15/9-14:   PB WELLBORE ID
PBWS.                                                 all:   PB WELL NAME SET
~PARAMETER INFORMATION (log)
LNAM.                              LDT/CNL/GR  COMPOSITED:   NAME
LTYP.                                         DEPTH MATCH:   LOG TYPE
LSRV.                                           LATEROLOG:   LOG SERVICE
LSOU.                                             SPT/NPD:   LOG SOURCE
LVSN.                                                   1:   LOG VERSION
BHIS.                                                   R:   BRIEF HISTORY
FHIS.                                             RAW-LIS:   FULL HISTORY
LCNM.                                        SCHLUMBERGER:   LOGGING CONTRACTOR
TOOL.                             LDT/CNL/GR (COMPOSITED):   TOOL STRING
~Curve Information Block
#MNEM.UNIT                                        API CODE    No Description
#=========                                        ========    == ===========
DEPT.M                                       00 001 00 00:     1  DEPTH
CALI.IN                                                  :     2  Caliper
CS.                                                      :     3  Cable Speed
DRHO.G/CC                                                :     4  Bulk density correction
GR.GAPI                                                  :     5  Gamma Ray
NPHI.%                                                   :     6  Neutron porosity
PEF.B/E                                                  :     7  Photo-electric factor
RHOB.G/CC                                                :     8  Bulk density
TENS.LB                                                  :     9  Cable Tension
~ASCII
# ...
 1714.8536    14.8281  1941.0000      .0044    75.5000    44.5801     2.3398     2.0703  2180.0000
 1715.0060    14.4141  1943.0000      .0015    74.8125    45.0684     2.3281     2.0762  2170.0000
 1715.1584    14.2109  1945.0000      .0024    70.4375    46.1914     2.3418     2.0801  2180.0000
 1715.3108    13.9141  1946.0000      .0078    72.7500    44.5801     2.3633     2.0918  2210.0000
 1715.4632    14.0234  1946.0000      .0122    70.1875    45.4102     2.4258     2.0957  2164.0000
 1715.6156    14.1406  1945.0000      .0117    71.8750    45.6055     2.4160     2.0957  2170.0000
 1715.7680    14.3984  1946.0000      .0078    72.8125    46.9238     2.2598     2.0820  2174.0000
 1715.9204    15.1641  1945.0000      .0073    72.7500    45.4590     2.1562     2.0684  2150.0000
 1716.0728    15.2344  1944.0000      .0093    71.2500    44.6289     2.1309     2.0605  2150.0000
 1716.2252    14.6406  1944.0000      .0137    68.3125    41.2109     2.1895     2.0586  2190.0000
 1716.3776    14.4766  1943.0000      .0215    69.3750    39.7949     2.2539     2.0723  2180.0000
 1716.5300    14.5469  1943.0000      .0166    70.0000    41.0156     2.1992     2.0703  2170.0000
 1716.6824    14.2656  1945.0000      .0068    68.8750    45.1172     2.1562     2.0625  2180.0000
 1716.8348    14.7109  1944.0000      .0000    66.3125    48.0957     2.2070     2.0371  2174.0000
 1716.9872    14.6953  1944.0000      .0098    61.8437    47.8027     2.2344     2.0234  2154.0000
 1717.1396    14.9062  1943.0000      .0273    62.1250    42.1387     2.3086     1.9912  2180.0000
 1717.2920    15.4453  1942.0000      .0566    62.8438    40.0879     2.3984     1.9834  2200.0000
 1717.4444    14.3047  1942.0000      .0728    64.9375    41.1621     2.4316     1.9609  2184.0000
 1717.5968    13.7578  1941.0000      .0967    64.5625    46.9727     2.4062     1.9814  2174.0000
 1717.7492    13.8047  1940.0000      .1011    64.2500    46.7285     2.4824     1.9551  2170.0000
 1717.9016    13.9141  1939.0000      .0913    66.1875    49.4141     2.5977     1.8936  2160.0000
 1718.0540    14.2266  1940.0000      .0571    66.3750    48.9746     2.6602     1.8467  2160.0000
 1718.2064    14.8672  1941.0000      .0146    69.0000    48.9258     2.5820     1.8613  2180.0000
 1718.3588    14.6016  1941.0000      .0044    67.1875    48.7305     2.4277     1.9600  2160.0000
 1718.5112    14.8047  1942.0000      .0073    64.1875    48.5352     2.4922     2.0234  2180.0000
 1718.6636    14.5078  1942.0000      .0127    59.6875    49.8047     2.5195     1.9941  2190.0000
 1718.8160    14.3203  1942.0000      .0273    59.4688    46.8262     2.5566     1.9717  2180.0000
 1718.9684    14.1406  1942.0000      .0161    64.1875    46.3379     2.5762     1.9385  2170.0000
 1719.1208    14.0625  1942.0000      .0225    66.4375    46.7285     2.4199     1.9814  2190.0000
 1719.2732    14.2656  1943.0000      .0142    68.9375    48.1934     2.3965     1.9980  2214.0000
 1719.4256    14.2109  1944.0000      .0244    68.4375    53.2715     2.3457     2.0371  2200.0000
 1719.5780    14.5469  1945.0000      .0161    67.3125    52.8320     2.3281     2.0332  2190.0000
 1719.7304    14.3203  1946.0000      .0142    68.9375    53.4668     2.3379     2.0391  2164.0000
 1719.8828    14.3828  1946.0000      .0132    65.6250    49.0723     2.4551     1.9951  2164.0000
 1720.0352    14.0078  1946.0000      .0566    69.8750    47.9980     2.5781     1.9932  2190.0000
 1720.1876    14.3750  1946.0000      .0762    69.6250    47.6074     2.5527     1.9854  2190.0000
 1720.3400    14.4375  1946.0000      .0747    75.0625    46.7285     2.3945     2.0176  2160.0000
 1720.4924    14.0938  1946.0000      .0322    79.0000    51.2695     2.2285     2.0332  2160.0000
 1720.6448    13.9844  1945.0000      .0137    78.8750    50.8301     2.2637     2.0527  2204.0000
 1720.7972    14.1719  1944.0000      .0122    80.3125    49.4141     2.2754     2.0684  2200.0000
 1720.9496    14.2656  1944.0000      .0112    73.7500    40.7715     2.3789     2.0723  2210.0000
 1721.1020    14.0391  1945.0000      .0044    75.1250    39.1602     2.4395     2.0391  2190.0000
 1721.2544    15.0000  1946.0000      .0107    71.2500    38.8672     2.5703     1.9785  2190.0000
 1721.4068    15.5156  1947.0000      .0396    69.0625    40.4297     2.6211     1.9629  2190.0000
 1721.5592    14.6172  1947.0000      .0591    68.1250    41.3574     2.8594     1.9990  2190.0000
 1721.7116    13.9687  1946.0000      .0581    69.4375    42.3828     3.7051     2.1250  2180.0000
 1721.8640    14.2109  1946.0000      .0127    70.6875    43.0664     3.5156     2.2266  2170.0000
 1722.0164    14.2500  1944.0000      .0259    65.6875    45.3125     3.0410     2.3457  2170.0000
 1722.1688    13.9844  1943.0000      .0127    63.7500    43.1152     2.4453     2.2324  2170.0000
 1722.3212    15.1641  1942.0000      .0215    67.1250    47.2656     2.3594     2.1484  2180.0000
 1722.4736    15.1641  1942.0000      .0088    69.1875    44.7754     2.3281     2.0781  2170.0000
 1722.6260    15.3672  1942.0000      .0112    72.9375    50.2930     2.3691     2.0801  2210.0000
 1722.7784    14.9062  1942.0000      .0181    77.0000    49.2676     2.3184     2.0937  2230.0000
 1722.9308    15.4609  1943.0000      .0127    79.1250    50.7812     2.2910     2.0918  2170.0000
 1723.0832    15.5703  1943.0000      .0088    78.5625    44.5312     2.2695     2.0918  2190.0000
 1723.2356    14.6562  1942.0000      .0098    73.2500    45.2148     2.2637     2.0937  2234.0000
 1723.3880    15.8516  1943.0000      .0146    70.7500    41.5527     2.3164     2.0977  2230.0000
 1723.5404    16.1875  1943.0000      .0117    68.2500    43.9941     2.3398     2.0918  2190.0000
 1723.6928    15.0313  1943.0000      .0005    66.5000    42.2363     2.3223     2.0703  2220.0000
 1723.8452    14.4141  1943.0000     -.0024    68.9375    44.7754     2.2988     2.0645  2214.0000
 1723.9976    14.9375  1943.0000     -.0054    67.2500    44.5801     2.3008     2.0625  2190.0000
 1724.1500    15.4219  1943.0000      .0005    69.0000    45.9961     2.4043     2.0625  2190.0000
 1724.3024    14.9922  1944.0000      .0083    67.3125    46.4355     2.3809     2.0527  2214.0000
 1724.4548    14.7734  1944.0000      .0068    73.6250    46.6797     2.3008     2.0391  2170.0000
 1724.6072    15.1250  1944.0000      .0088    74.0625    46.8262     2.1914     2.0371  2170.0000
 1724.7596    14.5859  1944.0000      .0029    77.6250    49.7070     2.2168     2.0332  2230.0000
 1724.9120    14.2344  1943.0000      .0098    74.5625    50.9766     2.3086     2.0488  2220.0000
 1725.0644    14.4219  1944.0000      .0068    76.3125    51.5137     2.4180     2.0488  2180.0000
 1725.2168    14.3437  1943.0000      .0083    72.5000    45.0195     2.5000     2.0547  2180.0000
 1725.3692    14.3750  1942.0000      .0068    73.7500    47.3633     2.6152     2.0449  2224.0000
 1725.5216    14.4375  1942.0000      .0098    72.3750    45.3613     2.5840     2.0586  2194.0000
 1725.6740    15.2031  1943.0000      .0054    74.6875    45.6055     2.4531     2.0645  2164.0000
 1725.8264    15.7109  1943.0000      .0024    72.0625    39.9414     2.2812     2.0762  2180.0000
 1725.9788    15.6484  1942.0000      .0000    72.3750    37.9395     2.2852     2.0840  2194.0000
 1726.1312    15.0937  1941.0000      .0024    70.9375    40.6738     2.3047     2.0957  2190.0000
 1726.2836    15.3281  1941.0000      .0029    70.1250    39.5508     2.3359     2.1074  2184.0000
 1726.4360    15.4687  1942.0000      .0044    67.9375    41.5039     2.2344     2.0996  2190.0000
 1726.5884    13.8906  1942.0000      .0044    68.4375    42.2363     2.2383     2.0625  2200.0000
 1726.7408    14.2266  1942.0000      .0034    67.9375    45.7520     2.1953     2.0332  2200.0000
 1726.8932    14.1719  1941.0000      .0083    66.9375    44.8242     2.2773     2.0273  2184.0000
 1727.0456    14.1875  1941.0000      .0098    68.9375    46.6309     2.2832     2.0508  2224.0000
