~VERSION INFORMATION
VERS.                                                 2.0:   CWLS Log ASCII Standard-VERSION 2.0
WRAP.                                                  NO:   One line per depth step
~Well Information Block
STRT.M                                           480.4136:   Top Depth
STOP.M                                          3575.6576:   Bottom Depth
STEP.M                                             .15240:   Depth Increment
NULL.                                            -999.250:   Null Value
FLD .                                                   -:   Field Name
WELL.                                             15/9-14:   NAME
WBN .                                             15/9-14:   WELLBORE
NATI.                                                 NOR:   COUNTRY
CTRY.                                                 NOR:   COUNTRY
COMP.                                             STATOIL:   OPERATOR
PROV.                                           NORTH SEA:   PROVINCE
COUN.                                        DEEPSEA SAGA:   RIG NAME
SPUD.                                          1982/05/01:   SPUD DATE
LATI.                                       58 17 23.19 N:   SURF. LATITUDE
LONG.                                        1 41 28.06 E:   SURF. LONGITUDE
PBWE.                                             15/9-14:   PB WELL ID
APIN.                                             15/9-14:   PB WELLBORE ID
PBWS.                                                 all:   PB WELL NAME SET
~PARAMETER INFORMATION (log)
LNAM.                              LDT/CNL/GR  COMPOSITED:   NAME
LTYP.                                         DEPTH MATCH:   LOG TYPE
LSRV.                                           LATEROLOG:   LOG SERVICE
LSOU.                                             SPT/NPD:   LOG SOURCE
LVSN.                                                   1:   LOG VERSION
BHIS.                                                   R:   BRIEF HISTORY
FHIS.                                             RAW-LIS:   FULL HISTORY
LCNM.                                        SCHLUMBERGER:   LOGGING CONTRACTOR
TOOL.                             LDT/CNL/GR (COMPOSITED):   TOOL STRING
~Curve Information Block
#MNEM.UNIT                                        API CODE    No Description
#=========                                        ========    == ===========
DEPT.M                                       00 001 00 00:     1  DEPTH
CALI.IN                                                  :     2  Caliper
CS.                                                      :     3  Cable Speed
DRHO.G/CC                                                :     4  Bulk density correction
GR.GAPI                                                  :     5  Gamma Ray
NPHI.%                                                   :     6  Neutron porosity
PEF.B/E                                                  :     7  Photo-electric factor
RHOB.G/CC                                                :     8  Bulk density
TENS.LB                                                  :     9  Cable Tension
~ASCII
# ...
 3566.5136     7.5430  1811.0000      .0121   114.7500    24.2987  -999.2500     2.5161  3770.0000
 3566.6660     7.5430  1811.0000      .0029   114.7500    25.3896  -999.2500     2.5026  3810.0000
 3566.8184     7.5430  1811.0000      .0040   114.7500    26.0230  -999.2500     2.4951  3860.0000
 3566.9708     7.5137  1811.0000      .0171   114.7500    25.7933  -999.2500     2.5029  3930.0000
 3567.1232     7.5245  1812.0000      .0401   114.7500    24.7248  -999.2500     2.5309  3870.0000
 3567.2756     7.5253  1812.0000      .0312   114.7500    24.0811  -999.2500     2.5272  3830.0000
 3567.4280     7.5175  1813.0000      .0301   114.7500    24.1606  -999.2500     2.5264  3784.0000
 3567.5804     7.5156  1814.0000      .0215   114.7500    24.8550  -999.2500     2.5184  3750.0000
 3567.7328     7.5066  1815.0000      .0167   114.7500    24.7469  -999.2500     2.5081  3700.0000
 3567.8852     7.4918  1816.0000      .0101   114.7500    24.7339  -999.2500     2.5013  3660.0000
 3568.0376     7.5005  1818.0000      .0045   114.7500    24.1089  -999.2500     2.4924  3590.0000
 3568.1900     7.4886  1819.0000      .0030   114.7500    23.9258  -999.2500     2.4979  3524.0000
 3568.3424     7.4936  1820.0000      .0014   114.7500    23.9258  -999.2500     2.4938  3464.0000
 3568.4948     7.4899  1819.0000      .0041   114.7500    23.9258  -999.2500     2.4953  3420.0000
 3568.6472     7.4852  1820.0000      .0022   114.7500    23.9258  -999.2500     2.4914  3360.0000
 3568.7996     7.4875  1820.0000      .0034   114.7500    23.9258  -999.2500     2.4902  3310.0000
 3568.9520     7.4851  1821.0000      .0059   114.7500    23.9258  -999.2500     2.4918  3264.0000
 3569.1044     7.4875  1822.0000      .0123   114.7500    23.9258  -999.2500     2.5001  3200.0000
 3569.2568     7.4883  1822.0000      .0117   114.7500    23.9258  -999.2500     2.5035  3170.0000
 3569.4092     7.4851  1823.0000      .0080   114.7500    23.9258  -999.2500     2.4943  3110.0000
 3569.5616     7.4876  1823.0000      .0081   114.7500    23.9258  -999.2500     2.4842  3044.0000
 3569.7140     7.4947  1823.0000      .0095   114.7500    23.9258  -999.2500     2.4889  3060.0000
 3569.8664     7.5026  1823.0000      .0122   114.7500    23.9258  -999.2500     2.5016  3064.0000
 3570.0188     7.5072  1823.0000     -.0024   114.7500    23.9258  -999.2500     2.4876  3060.0000
 3570.1712     7.4750  1823.0000      .0004   114.7500    23.9258  -999.2500     2.4778  3060.0000
 3570.3236     7.4588  1823.0000      .0023   114.7500    23.9671  -999.2500     2.4749  3040.0000
 3570.4760     7.4803  1824.0000      .0058   114.7500    23.9330  -999.2500     2.4862  3050.0000
 3570.6284     7.4777  1825.0000      .0068   114.7500    23.9258  -999.2500     2.4983  3060.0000
 3570.7808     7.4699  1826.0000      .0102   114.7500    23.9258  -999.2500     2.5034  3060.0000
 3570.9332     7.4687  1827.0000      .0205   114.7500    23.9258  -999.2500     2.5157  3054.0000
 3571.0856     7.4654  1828.0000      .0139   114.7500    23.9258  -999.2500     2.5091  3060.0000
 3571.2380     7.4683  1828.0000      .0089   114.7500    23.9258  -999.2500     2.5027  3040.0000
 3571.3904     7.4756  1828.0000      .0126   114.7500    23.9258  -999.2500     2.5054  3050.0000
 3571.5428     7.4594  1829.0000      .0097   114.7500    23.9688  -999.2500     2.5059  3034.0000
 3571.6952     7.4640  1829.0000      .0075   114.7500    23.9313  -999.2500     2.5059  3034.0000
 3571.8476     7.4648  1829.0000      .0125   114.7500    23.9258  -999.2500     2.5076  3024.0000
 3572.0000     7.4683  1829.0000      .0145   114.7500    23.9258  -999.2500     2.5113  3020.0000
 3572.1524     7.4582  1828.0000      .0239   114.7500    23.9697  -999.2500     2.5222  3034.0000
 3572.3048     7.4570  1827.0000      .0174   114.7500    23.9746  -999.2500     2.5146  3044.0000
 3572.4572     7.4570  1827.0000      .0339   114.7500    23.9746  -999.2500     2.5154  3024.0000
 3572.6096     7.4570  1827.0000      .0392   114.7500    23.9746  -999.2500     2.5138  3040.0000
 3572.7620     7.4642  1827.0000      .0328   114.7500    23.9299  -999.2500     2.5065  3030.0000
 3572.9144     7.4325  1828.0000      .0241   114.7500    23.9708  -999.2500     2.5023  3030.0000
 3573.0668     7.4297  1829.0000      .0126   114.7500    23.9746  -999.2500     2.4929  3010.0000
 3573.2192     7.4297  1831.0000      .0081   114.7500    23.9746  -999.2500     2.4976  3020.0000
 3573.3716     7.4188  1832.0000      .0060   114.7500    23.9746  -999.2500     2.5017  3030.0000
 3573.5240     7.4436  1833.0000      .0045   114.7500    23.9746  -999.2500     2.5001  3044.0000
 3573.6764     7.4380  1834.0000      .0095   114.7500    23.9746  -999.2500     2.5018  3040.0000
 3573.8288     7.4449  1834.0000      .0112   114.7500    23.9746  -999.2500     2.5001  3020.0000
 3573.9812     7.4379  1834.0000      .0163   114.7500    23.9746  -999.2500     2.5112  3000.0000
 3574.1336     7.4300  1836.0000      .0077   114.7500    23.9746  -999.2500     2.4987  2990.0000
 3574.2860     7.4297  1837.0000      .0064   114.7500    23.9746  -999.2500     2.4905  3000.0000
 3574.4384     7.4297  1839.0000      .0063   114.7500    23.9746  -999.2500     2.4827  3010.0000
 3574.5908     7.4297  1841.0000      .0120   114.7500    23.9746  -999.2500     2.4881  3020.0000
 3574.7432     7.4297  1844.0000      .0122   114.7500    23.9746  -999.2500     2.4883  3010.0000
 3574.8956     7.4297  1847.0000      .0122   114.7500    23.9746  -999.2500     2.4883  3000.0000
 3575.0480     7.4297  1850.0000      .0122   114.7500    23.9746  -999.2500     2.4883  3010.0000
 3575.2004     7.4297  1852.0000      .0122   114.7500    23.9746  -999.2500     2.4883  3010.0000
 3575.3528     7.4297  1852.0000      .0122   114.7500    23.9746  -999.2500     2.4883  2990.0000
 3575.5052     7.4297   500.0000      .0122   114.7500    23.9746  -999.2500     2.4883  2960.0000
 3575.6576     8.5000  2292.0000      .0122   114.7500  -999.2500  -999.2500  -999.2500  2810.0000
