~VERSION INFORMATION
VERS.                                                 2.0:   CWLS Log ASCII Standard-VERSION 2.0
WRAP.                                                  NO:   One line per depth step
~Well Information Block
STRT.M                                           480.4136:   Top Depth
STOP.M                                          3575.6576:   Bottom Depth
STEP.M                                             .15240:   Depth Increment
NULL.                                            -999.250:   Null Value
FLD .                                                   -:   Field Name
WELL.                                             15/9-14:   NAME
WBN .                                             15/9-14:   WELLBORE
NATI.                                                 NOR:   COUNTRY
CTRY.                                                 NOR:   COUNTRY
COMP.                                             STATOIL:   OPERATOR
PROV.                                           NORTH SEA:   PROVINCE
COUN.                                        DEEPSEA SAGA:   RIG NAME
SPUD.                                          1982/05/01:   SPUD DATE
LATI.                                       58 17 23.19 N:   SURF. LATITUDE
LONG.                                        1 41 28.06 E:   SURF. LONGITUDE
PBWE.                                             15/9-14:   PB WELL ID
APIN.                                             15/9-14:   PB WELLBORE ID
PBWS.                                                 all:   PB WELL NAME SET
~PARAMETER INFORMATION (log)
LNAM.                              LDT/CNL/GR  COMPOSITED:   NAME
LTYP.                                         DEPTH MATCH:   LOG TYPE
LSRV.                                           LATEROLOG:   LOG SERVICE
LSOU.                                             SPT/NPD:   LOG SOURCE
LVSN.                                                   1:   LOG VERSION
BHIS.                                                   R:   BRIEF HISTORY
FHIS.                                             RAW-LIS:   FULL HISTORY
LCNM.                                        SCHLUMBERGER:   LOGGING CONTRACTOR
TOOL.                             LDT/CNL/GR (COMPOSITED):   TOOL STRING
~Curve Information Block
#MNEM.UNIT                                        API CODE    No Description
#=========                                        ========    == ===========
DEPT.M                                       00 001 00 00:     1  DEPTH
CALI.IN                                                  :     2  Caliper
CS.                                                      :     3  Cable Speed
DRHO.G/CC                                                :     4  Bulk density correction
GR.GAPI                                                  :     5  Gamma Ray
NPHI.%                                                   :     6  Neutron porosity
PEF.B/E                                                  :     7  Photo-electric factor
RHOB.G/CC                                                :     8  Bulk density
TENS.LB                                                  :     9  Cable Tension
~ASCII
# ...
 3159.1484     9.5083  1759.5879     -.0060    51.5475    31.5464  -999.2500     1.9464  5828.0127
 3159.3008     9.5514  1761.2913     -.0071    51.7981    33.5870  -999.2500     1.9646  5764.8574
 3159.4532     9.5828  1762.2891     -.0062    50.8139    34.2039  -999.2500     1.9879  5699.0859
 3159.6056     9.6485  1763.2876     -.0128    53.1664    32.5309  -999.2500     2.0009  5617.6484
 3159.7580     9.7120  1764.8542     -.0077    57.1005    34.4601  -999.2500     2.0237  5572.6338
 3159.9104     9.7867  1767.5664      .0005    67.5908    36.2219  -999.2500     2.0485  5505.8750
 3160.0628     9.8423  1769.0000      .0135    73.7963    36.6487  -999.2500     2.0767  5444.2549
 3160.2152     9.9246  1769.0000      .0282    76.6143    34.3242  -999.2500     2.1043  5382.7539
 3160.3676    10.0030  1769.2769      .0607    73.3761    31.2040  -999.2500     2.1600  5309.1777
 3160.5200    10.0742  1770.2747      .0823    73.0090    31.8471  -999.2500     2.2103  5243.5137
 3160.6724    10.2130  1771.2720      .0984    74.9695    33.6799  -999.2500     2.2659  5181.5039
 3160.8248    10.3067  1772.2715      .1042    77.5377    36.2230  -999.2500     2.3144  5120.0508
 3160.9772    10.3771  1773.0000      .1002    78.2254    34.7788  -999.2500     2.3453  5071.8975
 3161.1296    10.4015  1773.5313      .1266    76.3262    34.1882  -999.2500     2.3971  5012.0635
 3161.2820    10.4552  1775.2639      .1532    75.6155    32.8850  -999.2500     2.4402  4955.3281
 3161.4344    10.4609  1776.2620      .1784    75.9048    34.0204  -999.2500     2.4830  4899.0410
 3161.5868    10.4609  1777.5208      .1593    75.1127    34.1754  -999.2500     2.4831  4824.3770
 3161.7392    10.4589  1779.5151      .1300    72.7547    34.7168  -999.2500     2.4664  4764.5439
 3161.8916    10.4551  1781.2559      .1293    72.1995    34.6666  -999.2500     2.4781  4707.7119
 3162.0440    10.4728  1782.2539      .1341    73.0208    35.0300  -999.2500     2.4859  4653.7119
 3162.1964    10.4960  1783.7583      .1467    71.5365    36.9802  -999.2500     2.4966  4585.8428
 3162.3488    10.4688  1786.5015      .1531    71.4014    38.7587  -999.2500     2.4980  4524.9395
 3162.5012    10.4883  1788.7427      .1613    66.7815    40.1602  -999.2500     2.5029  4451.1631
 3162.6536    10.4861  1791.4895      .1708    66.2285    40.8276  -999.2500     2.5133  4387.2705
 3162.8060    10.5061  1793.0000      .1627    64.7819    41.3542  -999.2500     2.5072  4327.4365
 3162.9584    10.4728  1793.2427      .1751    65.2945    40.3137  -999.2500     2.5250  4253.3164
 3163.1108    10.4684  1794.2395      .1503    66.1017    40.8105  -999.2500     2.5052  4203.7061
 3163.2632    10.4570  1794.7632      .1220    62.6785    40.2769  -999.2500     2.4650  4141.5801
 3163.4156    10.4612  1794.2349      .1010    61.4658    37.6545  -999.2500     2.4033  4092.0317
 3163.5680    10.9149  1794.7664      .1257    57.3761    32.2700  -999.2500     2.3898  4022.2461
 3163.7204    11.1665  1794.0000      .1099    59.0121    31.1612  -999.2500     2.3350  3954.7349
 3163.8728    11.2337  1794.6853      .1032    65.1695    33.9106  -999.2500     2.3164  3907.0957
 3164.0252    11.2719  1797.4512      .0809    71.8159    39.1249  -999.2500     2.2734  3838.7197
 3164.1776    11.3150  1799.2256      .1218    74.0183    38.7600  -999.2500     2.3044  3786.4639
 3164.3300    11.3108  1800.0000      .1218    73.4514    37.4573  -999.2500     2.2908  3728.8354
 3164.4824    11.3679  1800.2192      .0976    73.9110    31.2810  -999.2500     2.2580  3672.4639
 3164.6348    11.6687  1801.0000      .0587    75.5926    28.7123  -999.2500     2.2198  3599.1201
 3164.7872    12.5777  1801.0000      .0473    76.1302    27.5940  -999.2500     2.2449  3527.3599
 3164.9396    12.3667  1800.7842      .0588    75.1826    30.1519  -999.2500     2.3137  3473.4023
 3165.0920    12.4185  1800.6384      .0700    74.9774    34.2868  -999.2500     2.3792  3693.3599
 3165.2444    12.4062  1803.2107      .0674    75.9553    36.7830  -999.2500     2.3925  3642.6133
 3165.3968    12.3105  1804.0000      .0637    79.3221    36.7535  -999.2500     2.3840  3587.5400
 3165.5492    12.0324  1803.7935      .0758    81.1897    34.6167  -999.2500     2.3817  3528.4414
 3165.7016    12.3432  1802.7952      .0980    84.7289    33.3151  -999.2500     2.3720  3470.8926
 3165.8540    12.2738  1801.7971      .0990    85.9583    34.4459  -999.2500     2.3072  3420.8115
 3166.0064    12.3953  1800.8003      .0734    88.1377    36.0736  -999.2500     2.2317  3407.2266
 3166.1588    12.5481  1799.8015      .0306    87.1667    37.9362  -999.2500     2.1645  3373.7280
 3166.3112    12.7186  1798.6069      .0139    84.6572    39.0588  -999.2500     2.1620  3513.9297
 3166.4636    12.7727  1797.0000      .0128    82.2861    37.6401  -999.2500     2.1819  3516.4478
 3166.6160    12.7564  1797.3833      .0131    79.7917    35.9957  -999.2500     2.2078  3454.2490
 3166.7684    12.2133  1798.8098      .0124    81.2897    36.2287  -999.2500     2.2486  3409.0894
 3166.9208    11.7590  1797.8127      .0141    79.1561    36.8777  -999.2500     2.2657  3321.8721
 3167.0732    11.2817  1796.8145      .0294    79.7597    35.8937  -999.2500     2.2429  3396.8159
 3167.2256    11.5062  1796.1833      .0452    79.9830    34.8526  -999.2500     2.1713  3685.2310
 3167.3780    10.6165  1797.1792      .0582    76.6098    34.4080  -999.2500     2.1489  3654.3232
 3167.5304    10.4180  1798.1792      .0759    73.5892    36.3098  -999.2500     2.1956  3599.2480
 3167.6828    10.5120  1799.1770      .0957    71.2706    35.0122  -999.2500     2.2884  3546.4590
 3167.8352    10.5150  1800.0000      .1080    74.3789    33.7954  -999.2500     2.3567  3510.9917
 3167.9876    10.3024  1800.0000      .0784    72.6761    29.8574  -999.2500     2.4539  3418.2881
 3168.1400     9.6458  1800.0000      .0138    67.8556    28.3141  -999.2500     2.5885  3400.4434
 3168.2924     9.6367  1799.8335      .0123    63.9061    27.2227  -999.2500     2.8704  3361.6543
 3168.4448     9.6665  1798.8352      .0021    64.5295    27.4745  -999.2500     2.9040  3409.8877
 3168.5972     9.8335  1798.0000     -.0029    65.8225    25.3146  -999.2500     2.7043  3459.0205
 3168.7496    10.4435  1798.0000     -.0033    68.4171    23.5164  -999.2500     2.4863  3460.5176
 3168.9020    10.5747  1797.8401      .0298    67.9431    24.2070  -999.2500     2.4226  3489.2075
 3169.0544    10.6809  1797.1567      .0862    65.9216    26.0388  -999.2500     2.4693  3452.3965
 3169.2068    10.6899  1797.8450      .1101    65.8002    27.9146  -999.2500     2.5273  3388.4502
 3169.3592    10.6996  1797.0000      .0933    67.5705    28.1437  -999.2500     2.4862  3384.5601
 3169.5116    10.6832  1797.1516      .1084    68.2271    29.5790  -999.2500     2.4943  3406.0542
 3169.6640    10.7623  1797.8513      .1015    67.9450    27.9535  -999.2500     2.4855  3378.9487
 3169.8164    11.2142  1797.1455      .1061    70.1454    28.4913  -999.2500     2.4848  3326.7041
 3169.9688    11.8547  1797.8560      .0841    76.9140    30.0013  -999.2500     2.4347  3205.8398
 3170.1212    11.7781  1796.8564      .0879    79.1148    34.9555  -999.2500     2.3940  3356.5547
 3170.2736    12.0554  1796.1392      .1072    76.7621    36.2670  -999.2500     2.3874  3699.0112
 3170.4260    12.1906  1797.2751      .1015    71.6835    35.0452  -999.2500     2.3715  3721.7437
 3170.5784    12.3277  1799.1357      .1060    71.2144    31.4330  -999.2500     2.3990  3664.5684
 3170.7308    11.8050  1800.0000      .0731    74.2318    30.1401  -999.2500     2.4010  3620.5918
 3170.8832    11.6397  1800.1328      .0367    80.3725    30.6137  -999.2500     2.3905  3550.7041
 3171.0356    11.5261  1800.8691      .0141    84.0860    33.3462  -999.2500     2.3772  3476.9219
 3171.1880    11.5238  1800.0000      .0362    81.3313    34.4132  -999.2500     2.3804  3391.2637
 3171.3404    11.7012  1799.8752      .0857    77.8213    33.0383  -999.2500     2.3875  3409.9839
