~VERSION INFORMATION
VERS.                                                 2.0:   CWLS Log ASCII Standard-VERSION 2.0
WRAP.                                                  NO:   One line per depth step
~Well Information Block
STRT.M                                           480.4136:   Top Depth
STOP.M                                          3575.6576:   Bottom Depth
STEP.M                                             .15240:   Depth Increment
NULL.                                            -999.250:   Null Value
FLD .                                                   -:   Field Name
WELL.                                             15/9-14:   NAME
WBN .                                             15/9-14:   WELLBORE
NATI.                                                 NOR:   COUNTRY
CTRY.                                                 NOR:   COUNTRY
COMP.                                             STATOIL:   OPERATOR
PROV.                                           NORTH SEA:   PROVINCE
COUN.                                        DEEPSEA SAGA:   RIG NAME
SPUD.                                          1982/05/01:   SPUD DATE
LATI.                                       58 17 23.19 N:   SURF. LATITUDE
LONG.                                        1 41 28.06 E:   SURF. LONGITUDE
PBWE.                                             15/9-14:   PB WELL ID
APIN.                                             15/9-14:   PB WELLBORE ID
PBWS.                                                 all:   PB WELL NAME SET
~PARAMETER INFORMATION (log)
LNAM.                              LDT/CNL/GR  COMPOSITED:   NAME
LTYP.                                         DEPTH MATCH:   LOG TYPE
LSRV.                                           LATEROLOG:   LOG SERVICE
LSOU.                                             SPT/NPD:   LOG SOURCE
LVSN.                                                   1:   LOG VERSION
BHIS.                                                   R:   BRIEF HISTORY
FHIS.                                             RAW-LIS:   FULL HISTORY
LCNM.                                        SCHLUMBERGER:   LOGGING CONTRACTOR
TOOL.                             LDT/CNL/GR (COMPOSITED):   TOOL STRING
~Curve Information Block
#MNEM.UNIT                                        API CODE    No Description
#=========                                        ========    == ===========
DEPT.M                                       00 001 00 00:     1  DEPTH
CALI.IN                                                  :     2  Caliper
CS.                                                      :     3  Cable Speed
DRHO.G/CC                                                :     4  Bulk density correction
GR.GAPI                                                  :     5  Gamma Ray
NPHI.%                                                   :     6  Neutron porosity
PEF.B/E                                                  :     7  Photo-electric factor
RHOB.G/CC                                                :     8  Bulk density
TENS.LB                                                  :     9  Cable Tension
~ASCII
# ...
 2541.9284    12.6016  1822.0000      .0034    55.5000    47.2656     3.4590     2.1914  3080.0000
 2542.0808    12.7344  1823.0000      .0073    50.5313    48.6328     3.6035     2.2285  3010.0000
 2542.2332    12.7500  1823.0000      .0117    47.1562    50.0000     3.1016     2.2773  3000.0000
 2542.3856    12.5625  1822.0000      .0117    45.5625    51.3184     2.5684     2.3105  3050.0000
 2542.5380    12.7734  1823.0000      .0020    43.6875    52.0508     2.2852     2.2441  2990.0000
 2542.6904    12.8281  1823.0000      .0093    42.2500    50.8301     2.1855     2.2246  2910.0000
 2542.8428    12.8984  1824.0000      .0215    40.5937    49.0723     2.2637     2.2109  2890.0000
 2542.9952    12.9453  1823.0000      .0493    43.5313    47.3145     2.2461     2.2559  3150.0000
 2543.1476    13.0312  1824.0000      .0488    43.5937    48.1934     2.4121     2.2422  3120.0000
 2543.3000    13.0547  1824.0000      .0454    44.2500    51.2207     2.5566     2.2266  3050.0000
 2543.4524    13.1094  1826.0000      .0493    47.1562    52.2949     2.7500     2.1426  3004.0000
 2543.6048    12.8672  1825.0000      .0610    46.6875    49.9512     2.9648     2.0332  2980.0000
 2543.7572    13.4688  1824.0000      .0337    47.9375    47.9492     3.1875     1.9336  2884.0000
 2543.9096    13.7656  1822.0000      .0039    44.4688    43.6035     3.4004     1.9238  2850.0000
 2544.0620    13.4688  1821.0000     -.0215    46.7500    41.2598     3.2520     1.9863  3154.0000
 2544.2144    13.1406  1821.0000     -.0151    48.5313    35.0586     3.2734     2.0645  3250.0000
 2544.3668    13.1406  1822.0000     -.0024    45.8750    38.4277     3.1504     2.1035  3180.0000
 2544.5192    13.1250  1822.0000      .0259    43.6875    37.0605     3.2734     2.1309  3094.0000
 2544.6716    13.1250  1822.0000      .0503    41.7187    36.9629     3.3164     2.1621  3050.0000
 2544.8240    13.1250  1823.0000      .0508    45.2812    33.1543     3.5215     2.1602  2924.0000
 2544.9764    13.1250  1824.0000      .0464    48.4688    34.9121     3.5371     2.1582  2980.0000
 2545.1288    13.1406  1824.0000      .0493    54.6250    39.5020     3.5566     2.1523  3050.0000
 2545.2812    13.1250  1825.0000      .0557    55.5625    43.3105     3.5937     2.1562  2990.0000
 2545.4336    13.1250  1825.0000      .0532    55.6250    43.3105     3.6016     2.1484  2934.0000
 2545.5860    13.1406  1825.0000      .0435    52.1875    44.5801     4.6484     2.1348  2920.0000
 2545.7384    13.1484  1825.0000      .0439    50.9062    42.4805     7.6719     2.1387  2850.0000
 2545.8908    13.1406  1826.0000      .0405    47.7812    40.6250    11.3359     2.0801  2770.0000
 2546.0432    14.0078  1825.0000      .0371    46.6563    35.8398     5.7266     1.9775  2690.0000
 2546.1956    14.6406  1824.0000      .0293    44.1875    36.7676     3.6641     1.8418  2624.0000
 2546.3480    15.7109  1822.0000      .0215    47.5625    41.7969     2.6016     1.7666  2550.0000
 2546.5004    15.7031  1820.0000      .0117    46.3750    53.5645     2.5820     1.7285  2490.0000
 2546.6528    15.7031  1819.0000      .0049    44.7188    51.7090     2.5156     1.7305  2394.0000
 2546.8052    15.7031  1817.0000     -.0015    39.0938    42.2852     2.5566     1.7305  2340.0000
 2546.9576    15.6641  1814.0000     -.0103    39.3437    27.5879     2.6348     1.7275  2254.0000
 2547.1100    15.6641  1811.0000     -.0205    42.6562    28.4668     2.6680     1.7188  2244.0000
 2547.2624    15.6641  1807.0000     -.0264    43.2500    33.7891     2.6992     1.7129  2190.0000
 2547.4148    15.6484  1803.0000     -.0308    46.4688    40.5762     2.6934     1.7109  1760.0000
 2547.5672    15.6641  1795.0000     -.0303    46.9688    40.3320     2.7363     1.7158  2200.0000
 2547.7196    15.6641  1778.0000     -.0332    50.7188    40.5762     2.6934     1.7158  5068.0000
 2547.8720    15.6484  1779.0000     -.0332    49.9687    39.8926     2.6875     1.7227  5000.0000
 2548.0244    15.6328  1781.0000     -.0342    51.1250    39.0625     2.7051     1.7334  4908.0000
 2548.1768    15.6328  1783.0000     -.0342    53.7187    43.2617     2.7754     1.7402  4840.0000
 2548.3292    15.6328  1785.0000     -.0381    52.8125    42.4316     2.8125     1.7412  4768.0000
 2548.4816    15.6328  1787.0000     -.0400    52.3125    43.2617     2.8047     1.7441  4684.0000
 2548.6340    15.6328  1788.0000     -.0420    51.1875    40.6738     2.7793     1.7529  4592.0000
 2548.7864    15.6328  1791.0000     -.0371    51.8750    43.0664     2.7344     1.7676  4528.0000
 2548.9388    15.6172  1793.0000     -.0386    51.7813    45.6543     2.8242     1.7725  4452.0000
 2549.0912    15.6172  1796.0000     -.0352    49.5938    47.3145     2.8809     1.7813  4380.0000
 2549.2436    15.6328  1797.0000     -.0361    44.5000    43.8965     2.9375     1.7852  4312.0000
 2549.3960    15.6172  1799.0000     -.0312    40.4375    42.0410     2.8984     1.7949  4244.0000
 2549.5484    15.6172  1800.0000     -.0327    40.1562    40.6738     2.9512     1.7988  4168.0000
 2549.7008    15.6172  1801.0000     -.0322    44.5938    42.5293     2.9883     1.8057  4080.0000
 2549.8532    15.5703  1803.0000     -.0337    50.6250    40.6738     2.9961     1.8105  4000.0000
 2550.0056    15.5234  1805.0000     -.0352    51.4062    43.5547     2.9746     1.8154  3930.0000
 2550.1580    15.5156  1807.0000     -.0352    52.5625    42.2363     3.0781     1.8203  3850.0000
 2550.3104    15.5000  1809.0000     -.0327    50.2500    44.7754     3.1426     1.8291  3770.0000
 2550.4628    13.2187  1811.0000     -.0312    51.5938    45.6055     3.2070     1.8975  3690.0000
 2550.6152    12.8984  1813.0000     -.0176    53.1563    44.7266     3.0664     2.0312  3610.0000
 2550.7676    13.0547  1815.0000     -.0020    55.5313    39.3555     3.1191     2.0937  3540.0000
 2550.9200    14.2109  1817.0000      .0298    55.1875    34.3262     3.1973     2.0527  3460.0000
 2551.0724    15.0547  1819.0000      .0601    55.2812    36.0352     3.1934     2.0215  3384.0000
 2551.2248    15.5547  1820.0000      .0713    56.6250    39.5996     3.2559     2.0469  3324.0000
 2551.3772    13.2813  1820.0000      .0640    58.7500    40.7715     3.2031     2.0801  3250.0000
 2551.5296    13.9844  1821.0000      .0259    60.0938    38.3301     3.2344     2.0879  3170.0000
 2551.6820    12.9922  1822.0000      .0146    58.1875    38.0859     2.9590     2.1777  3090.0000
 2551.8344    12.8828  1822.0000      .0029    53.4062    38.5254     3.0645     2.2988  2984.0000
 2551.9868    13.1875  1823.0000      .0029    50.7188    37.6953     3.0957     2.3164  2970.0000
 2552.1392    13.8047  1822.0000     -.0049    53.1875    37.3047     3.2031     2.1816  2970.0000
 2552.2916    13.8359  1821.0000      .0015    60.3125    37.3535     3.3320     2.0742  2970.0000
 2552.4440    13.9453  1823.0000      .0127    63.6250    41.9922     3.5488     2.0254  2990.0000
 2552.5964    13.8047  1824.0000      .0576    67.0000    44.0918     3.5879     2.0977  2974.0000
 2552.7488    13.9297  1824.0000      .0640    65.1875    47.2656     3.4629     2.1406  2930.0000
 2552.9012    14.1016  1824.0000      .0786    65.2500    44.0430     3.3203     2.1582  2974.0000
 2553.0536    14.6250  1824.0000      .0728    63.1563    42.2363     3.2969     2.1328  2940.0000
 2553.2060    14.4766  1824.0000      .0889    62.3437    40.4785     3.0879     2.1719  2964.0000
 2553.3584    12.6016  1825.0000      .0723    59.6562    43.7988     3.1270     2.2617  2950.0000
 2553.5108    12.5469  1825.0000      .0200    53.5000    43.0664     3.2012     2.3555  2960.0000
 2553.6632    12.5703  1823.0000     -.0073    46.8750    36.4258     3.4336     2.4258  3000.0000
 2553.8156    12.8516  1823.0000     -.0146    44.9063    26.1230     3.3848     2.3437  2974.0000
 2553.9680    13.5938  1824.0000      .0093    49.1875    18.8477     3.4687     2.1992  2920.0000
 2554.1204    14.1328  1824.0000      .0503    56.1563    21.7285     3.4531     2.1289  2980.0000
