~VERSION INFORMATION
VERS.                                                 2.0:   CWLS Log ASCII Standard-VERSION 2.0
WRAP.                                                  NO:   One line per depth step
~Well Information Block
STRT.M                                           480.4136:   Top Depth
STOP.M                                          3575.6576:   Bottom Depth
STEP.M                                             .15240:   Depth Increment
NULL.                                            -999.250:   Null Value
FLD .                                                   -:   Field Name
WELL.                                             15/9-14:   NAME
WBN .                                             15/9-14:   WELLBORE
NATI.                                                 NOR:   COUNTRY
CTRY.                                                 NOR:   COUNTRY
COMP.                                             STATOIL:   OPERATOR
PROV.                                           NORTH SEA:   PROVINCE
COUN.                                        DEEPSEA SAGA:   RIG NAME
SPUD.                                          1982/05/01:   SPUD DATE
LATI.                                       58 17 23.19 N:   SURF. LATITUDE
LONG.                                        1 41 28.06 E:   SURF. LONGITUDE
PBWE.                                             15/9-14:   PB WELL ID
APIN.                                             15/9-14:   PB WELLBORE ID
PBWS.                                                 all:   PB WELL NAME SET
~PARAMETER INFORMATION (log)
LNAM.                              LDT/CNL/GR  COMPOSITED:   NAME
LTYP.                                         DEPTH MATCH:   LOG TYPE
LSRV.                                           LATEROLOG:   LOG SERVICE
LSOU.                                             SPT/NPD:   LOG SOURCE
LVSN.                                                   1:   LOG VERSION
BHIS.                                                   R:   BRIEF HISTORY
FHIS.                                             RAW-LIS:   FULL HISTORY
LCNM.                                        SCHLUMBERGER:   LOGGING CONTRACTOR
TOOL.                             LDT/CNL/GR (COMPOSITED):   TOOL STRING
~Curve Information Block
#MNEM.UNIT                                        API CODE    No Description
#=========                                        ========    == ===========
DEPT.M                                       00 001 00 00:     1  DEPTH
CALI.IN                                                  :     2  Caliper
CS.                                                      :     3  Cable Speed
DRHO.G/CC                                                :     4  Bulk density correction
GR.GAPI                                                  :     5  Gamma Ray
NPHI.%                                                   :     6  Neutron porosity
PEF.B/E                                                  :     7  Photo-electric factor
RHOB.G/CC                                                :     8  Bulk density
TENS.LB                                                  :     9  Cable Tension
~ASCII
  480.4136    19.2031  2035.0000     -.5415    37.0625    60.2051    62.6250     2.1621  1085.0000
  480.5660    19.2031  2035.0000     -.5381    36.2813    56.1523    64.5625     2.1680  1080.0000
  480.7184    19.2031  2034.0000     -.5400    38.7187    53.7109    43.0625     2.1758  1095.0000
  480.8708    19.2031  2032.0000     -.5381    39.1563    56.2988    40.0938     2.1660  1105.0000
  481.0232    19.2031  2032.0000     -.5449    40.0938    53.5156    36.3438     2.1543  1085.0000
  481.1756    19.2031  2032.0000     -.5425    39.5938    57.8613    49.0625     2.1484  1085.0000
  481.3280    19.2031  2032.0000     -.5415    40.4687    54.8828    50.0938     2.1348  1085.0000
  481.4804    19.2031  2034.0000     -.5361    36.5000    58.5937    55.1250     2.1094  1090.0000
  481.6328    19.2031  2036.0000     -.5298    33.3750    55.5664    51.9063     2.0977  1090.0000
  481.7852    19.2031  2037.0000     -.5244    33.9375    57.0801    46.9375     2.0977  1095.0000
  481.9376    19.2031  2036.0000     -.5200    34.1875    52.9297    45.7500     2.1152  1095.0000
  482.0900    19.2031  2035.0000     -.5244    35.8438    51.6113    43.0313     2.1230  1090.0000
  482.2424    19.2031  2037.0000     -.5215    32.2813    52.5879    42.1562     2.1504  1080.0000
  482.3948    19.2031  2037.0000     -.5117    34.9687    52.4902    55.1875     2.1758  1085.0000
  482.5472    19.2188  2037.0000     -.5029    39.0625    54.6875    50.4687     2.1895  1085.0000
  482.6996    19.1875  2036.0000     -.4971    38.5313    54.1992   101.0625     2.1992  1085.0000
  482.8520    19.1875  2034.0000     -.5073    38.7813    57.5195   104.2500     2.1934  1095.0000
  483.0044    19.1875  2034.0000     -.5190    36.4063    56.6406    76.8125     2.1777  1100.0000
  483.1568    19.1875  2035.0000     -.5303    37.3125    56.6406    39.6250     2.1445  1095.0000
  483.3092    19.1875  2036.0000     -.5327    35.7188    60.6445    32.1562     2.1172  1080.0000
  483.4616    19.1875  2037.0000     -.5366    34.8750    59.7656    34.7188     2.1055  1085.0000
  483.6140    19.1875  2036.0000     -.5513    37.0313    56.4453    31.8125     2.0918  1095.0000
  483.7664    19.1563  2034.0000     -.5522    38.0937    54.3945    32.7188     2.1094  1100.0000
  483.9188    19.1563  2035.0000     -.5513    34.5313    57.8613    32.1875     2.1172  1085.0000
  484.0712    19.1563  2035.0000     -.5415    33.9375    59.1797    61.5000     2.1367  1080.0000
  484.2236    19.1406  2035.0000     -.5439    33.9063    54.8340    69.9375     2.1348  1080.0000
  484.3760    19.1406  2032.0000     -.5225    34.6562    51.3672    52.4687     2.1680  1090.0000
  484.5284    19.1563  2031.0000     -.5088    33.2500    50.4395    37.1250     2.1797  1095.0000
  484.6808    19.1094  2031.0000     -.5005    30.5156    50.0488    36.1563     2.1914  1100.0000
  484.8332    19.1094  2033.0000     -.5059    31.3750    49.6094    37.8125     2.1836  1085.0000
  484.9856    19.1250  2034.0000     -.5225    31.9844    51.3672    51.7500     2.1699  1080.0000
  485.1380    19.1250  2033.0000     -.5229    34.2188    51.8066    62.5938     2.1660  1105.0000
  485.2904    19.1406  2033.0000     -.5195    34.5000    50.9766   101.1250     2.1484  1115.0000
  485.4428    19.1406  2033.0000     -.5029    32.3438    52.0508    43.3750     2.1641  1105.0000
  485.5952    19.1406  2034.0000     -.4897    31.0000    54.4922    29.4219     2.1777  1085.0000
  485.7476    19.1250  2034.0000     -.5010    30.7500    61.8164    26.5000     2.1855  1080.0000
  485.9000    19.1406  2033.0000     -.5190    28.4844    60.8398    34.9063     2.1738  1095.0000
  486.0524    19.1094  2034.0000     -.5327    28.1563    57.6660    38.3438     2.1719  1105.0000
  486.2048    19.0781  2035.0000     -.5308    25.9375    53.1250    30.6406     2.1602  1105.0000
  486.3572    19.0781  2036.0000     -.5132    28.7344    50.0488    32.4375     2.1582  1120.0000
  486.5096    19.1094  2036.0000     -.5005    30.6875    53.6621    34.2188     2.1406  1105.0000
  486.6620    19.1406  2036.0000     -.5005    31.5312    54.6875    83.1250     2.1172  1100.0000
  486.8144    19.1406  2039.0000     -.4966    32.8750    60.6934    62.5938     2.2031  1105.0000
  486.9668    19.1094  2037.0000     -.5786    32.5938    62.2070    49.0312     2.1543  1100.0000
  487.1192    19.1094  2037.0000     -.5894    34.8125    59.2285    30.9844     2.2949  1085.0000
  487.2716    19.0938  2035.0000     -.6152    37.1250    54.8340    43.5313     2.1699  1075.0000
  487.4240    19.2031  2034.0000     -.5347    37.3125    56.8359    51.1563     2.2285  1075.0000
  487.5764    19.2656  2033.0000     -.5386    37.2188    52.6855    62.8438     2.1367  1090.0000
  487.7288    19.2656  2031.0000     -.5405    35.1875    59.2285    49.5625     2.1484  1100.0000
  487.8812    19.2656  2031.0000     -.5684    33.0000    53.2715    59.5312     2.1465  1105.0000
  488.0336    19.2656  2031.0000     -.5630    33.5625    58.8379    46.8750     2.1680  1090.0000
  488.1860    19.2656  2032.0000     -.5757    32.1875    55.7617    37.9375     2.1582  1080.0000
  488.3384    19.2500  2033.0000     -.5723    32.5313    57.0801    36.0313     2.1621  1110.0000
  488.4908    19.2344  2033.0000     -.5820    30.0625    54.7363    85.1250     2.1543  1060.0000
  488.6432    19.1719  2034.0000     -.5903    31.4688    54.7852   201.0000     2.1328  1100.0000
  488.7956    19.1719  2034.0000     -.5996    34.2188    57.3242   106.8750     2.1055  1080.0000
  488.9480    19.1719  2035.0000     -.5972    36.5000    61.6699    51.8437     2.0977  1075.0000
  489.1004    19.1719  2035.0000     -.5884    35.6875    60.2051    52.2813     2.0977  1090.0000
  489.2528    19.1719  2034.0000     -.5845    33.6563    62.7930    59.1875     2.1035  1095.0000
  489.4052    19.1719  2034.0000     -.5728    32.2188    61.8164    39.8125     2.1035  1085.0000
  489.5576    19.1719  2033.0000     -.5640    31.3594    60.3027    44.7188     2.1055  1090.0000
  489.7100    19.1563  2033.0000     -.5435    30.2812    56.7383    38.6250     2.1152  1090.0000
  489.8624    19.1719  2035.0000     -.5454    29.5313    54.7363    46.2500     2.0977  1085.0000
  490.0148    19.1563  2035.0000     -.5415    31.2969    54.2969    41.1250     2.0820  1085.0000
  490.1672    19.1563  2036.0000     -.5576    34.0938    48.5352    48.0625     2.0527  1095.0000
  490.3196    19.1563  2035.0000     -.5674    35.4688    48.0469    63.4062     2.0410  1095.0000
  490.4720    19.1563  2034.0000     -.5718    34.0312    45.6055    50.8438     2.0527  1095.0000
  490.6244    19.1563  2036.0000     -.5581    32.1250    51.3672    77.6875     2.0781  1105.0000
  490.7768    19.1563  2036.0000     -.5522    34.4063    62.9883    44.3750     2.0801  1085.0000
  490.9292    19.1406  2035.0000     -.5508    35.1250    67.3828    36.6563     2.0645  1095.0000
  491.0816    19.1563  2034.0000     -.5459    34.4688    64.8926    23.4219     2.0645  1085.0000
  491.2340    19.1406  2032.0000     -.5552    34.8125    53.7598    31.7031     2.0508  1095.0000
  491.3864    19.1406  2032.0000     -.5610    35.1875    55.2246    41.7500     2.0488  1100.0000
  491.5388    19.1406  2033.0000     -.5659    35.7500    52.7344    67.9375     2.0527  1095.0000
  491.6912    19.1406  2035.0000     -.5518    31.1719    53.6133    54.1250     2.0859  1100.0000
  491.8436    19.1406  2034.0000     -.5527    31.4531    53.1738    41.7187     2.1016  1095.0000
  491.9960    19.0625  2035.0000     -.5518    32.3125    56.9824    38.4688     2.1152  1095.0000
  492.1484    18.8438  2034.0000     -.5630    34.0000    58.2031    38.4688     2.1152  1105.0000
  492.3008    18.7969  2034.0000     -.5391    32.6563    54.4922    22.9219     2.1289  1080.0000
  492.4532    18.6719  2035.0000     -.4185    32.3438    56.1523    14.5000     2.2109  1110.0000
  492.6056    18.7500  2034.0000     -.2314    30.4063    54.5410     9.3281     2.3594  1085.0000
