~VERSION INFORMATION
VERS.                                                 2.0:   CWLS Log ASCII Standard-VERSION 2.0
WRAP.                                                  NO:   One line per depth step
~Well Information Block
STRT.M                                           480.4136:   Top Depth
STOP.M                                          3575.6576:   Bottom Depth
STEP.M                                             .15240:   Depth Increment
NULL.                                            -999.250:   Null Value
FLD .                                                   -:   Field Name
WELL.                                             15/9-14:   NAME
WBN .                                             15/9-14:   WELLBORE
NATI.                                                 NOR:   COUNTRY
CTRY.                                                 NOR:   COUNTRY
COMP.                                             STATOIL:   OPERATOR
PROV.                                           NORTH SEA:   PROVINCE
COUN.                                        DEEPSEA SAGA:   RIG NAME
SPUD.                                          1982/05/01:   SPUD DATE
LATI.                                       58 17 23.19 N:   SURF. LATITUDE
LONG.                                        1 41 28.06 E:   SURF. LONGITUDE
PBWE.                                             15/9-14:   PB WELL ID
APIN.                                             15/9-14:   PB WELLBORE ID
PBWS.                                                 all:   PB WELL NAME SET
~PARAMETER INFORMATION (log)
LNAM.                              LDT/CNL/GR  COMPOSITED:   NAME
LTYP.                                         DEPTH MATCH:   LOG TYPE
LSRV.                                           LATEROLOG:   LOG SERVICE
LSOU.                                             SPT/NPD:   LOG SOURCE
LVSN.                                                   1:   LOG VERSION
BHIS.                                                   R:   BRIEF HISTORY
FHIS.                                             RAW-LIS:   FULL HISTORY
LCNM.                                        SCHLUMBERGER:   LOGGING CONTRACTOR
TOOL.                             LDT/CNL/GR (COMPOSITED):   TOOL STRING
~Curve Information Block
#MNEM.UNIT                                        API CODE    No Description
#=========                                        ========    == ===========
DEPT.M                                       00 001 00 00:     1  DEPTH
CALI.IN                                                  :     2  Caliper
CS.                                                      :     3  Cable Speed
DRHO.G/CC                                                :     4  Bulk density correction
GR.GAPI                                                  :     5  Gamma Ray
NPHI.%                                                   :     6  Neutron porosity
PEF.B/E                                                  :     7  Photo-electric factor
RHOB.G/CC                                                :     8  Bulk density
TENS.LB                                                  :     9  Cable Tension
~ASCII
# ...
 2122.2188    14.5469  1870.0000     -.0015    51.7813    48.7305     2.8594     2.0664  2530.0000
 2122.3712    14.5625  1870.0000     -.0010    53.9688    50.5859     3.0176     2.0469  2574.0000
 2122.5236    13.7813  1869.0000      .0063    54.0938    47.4121     3.1855     2.0332  2600.0000
 2122.6760    13.8203  1867.0000      .0215    51.1250    47.8027     3.8008     2.0684  2614.0000
 2122.8284    13.9687  1867.0000      .0400    50.5937    48.5840     3.8066     2.1348  2560.0000
 2122.9808    14.4687  1867.0000      .0459    46.6563    47.6074     3.2559     2.1953  2590.0000
 2123.1332    14.9609  1869.0000      .0317    42.5313    45.9961     2.7969     2.1895  2580.0000
 2123.2856    14.6250  1869.0000      .0117    38.9688    43.6035     2.8242     2.1758  2570.0000
 2123.4380    14.3047  1871.0000      .0068    38.1250    40.4785     2.9785     2.2109  2580.0000
 2123.5904    14.8516  1870.0000     -.0015    36.1250    35.0098     2.8398     2.2383  2610.0000
 2123.7428    15.6172  1869.0000     -.0020    34.0312    27.3438     2.9727     2.2109  2550.0000
 2123.8952    16.4688  1867.0000     -.0186    35.9062    28.2715     2.8730     2.0937  2584.0000
 2124.0476    13.7813  1869.0000     -.0117    40.5625    34.1309     2.9355     2.0234  2610.0000
 2124.2000    14.1328  1870.0000     -.0068    44.6875    40.3809     2.7070     2.0059  2570.0000
 2124.3524    14.8047  1870.0000      .0024    46.4062    43.0176     2.8633     2.0352  2610.0000
 2124.5048    14.9609  1870.0000     -.0029    47.0000    45.6055     2.7637     2.0527  2590.0000
 2124.6572    14.3047  1870.0000      .0024    50.1562    46.0937     2.8477     2.0723  2560.0000
 2124.8096    14.2500  1871.0000      .0024    48.1563    46.1426     2.8574     2.0645  2540.0000
 2124.9620    13.8984  1869.0000      .0039    48.5625    45.4590     2.9336     2.0488  2590.0000
 2125.1144    14.2109  1870.0000     -.0044    45.1250    49.4629     2.7617     2.0312  2620.0000
 2125.2668    14.6797  1869.0000     -.0088    45.5000    47.4609     2.8398     2.0195  2614.0000
 2125.4192    14.9453  1868.0000      .0000    46.5625    47.9004     2.8750     2.0254  2550.0000
 2125.5716    14.2656  1867.0000      .0088    46.3125    47.0215     3.0781     2.0176  2564.0000
 2125.7240    13.0312  1868.0000      .0132    47.5938    50.1465     3.0469     2.0273  2584.0000
 2125.8764    13.2187  1869.0000      .0122    46.6875    49.0723     2.9102     2.0430  2580.0000
 2126.0288    13.7578  1870.0000      .0117    47.5938    46.7773     2.8066     2.0742  2570.0000
 2126.1812    14.2891  1871.0000      .0137    48.0625    44.7266     2.6855     2.0918  2570.0000
 2126.3336    14.3203  1871.0000      .0078    45.4063    47.2168     2.8203     2.0781  2560.0000
 2126.4860    13.3906  1872.0000      .0039    43.2188    48.8281     2.8340     2.0488  2560.0000
 2126.6384    14.4922  1872.0000      .0039    41.1875    48.3887     2.8574     2.0332  2640.0000
 2126.7908    14.6172  1869.0000      .0059    45.0000    46.7773     2.6953     2.0234  2614.0000
 2126.9432    14.8984  1867.0000      .0059    46.5625    46.9727     2.8027     1.9971  2544.0000
 2127.0956    15.1641  1867.0000      .0303    48.6875    49.9023     2.7559     2.0098  2540.0000
 2127.2480    14.9375  1867.0000      .0146    47.8750    50.3418     2.8320     1.9971  2580.0000
 2127.4004    14.4375  1867.0000      .0098    49.0625    51.4160     2.6953     2.0312  2610.0000
 2127.5528    14.4219  1867.0000     -.0151    46.0625    47.5586     2.7090     2.0293  2560.0000
 2127.7052    14.3203  1866.0000     -.0142    48.6875    45.5566     2.6914     2.0410  2560.0000
 2127.8576    14.4141  1867.0000     -.0142    47.5625    45.5566     2.6953     2.0293  2570.0000
 2128.0100    15.0469  1865.0000     -.0015    51.1250    47.4121     2.7969     2.0293  2620.0000
 2128.1624    15.1094  1865.0000     -.0029    47.1875    50.2441     2.8691     1.9941  2580.0000
 2128.3148    13.7656  1865.0000      .0210    47.2500    48.9258     2.8242     2.0059  2580.0000
 2128.4672    12.9922  1863.0000      .0137    47.3125    51.5625     2.6641     1.9990  2574.0000
 2128.6196    13.0156  1863.0000      .0181    47.5313    49.0723     2.5527     2.0312  2610.0000
 2128.7720    13.0156  1862.0000     -.0044    47.5938    50.9277     2.6191     2.0098  2600.0000
 2128.9244    13.0859  1863.0000     -.0010    46.7187    51.9531     2.7910     2.0078  2564.0000
 2129.0768    13.4062  1864.0000      .0127    48.4062    51.8066     2.8457     2.0195  2530.0000
 2129.2292    13.3359  1864.0000      .0142    46.9375    50.5371     2.7715     2.0332  2560.0000
 2129.3816    13.7656  1866.0000      .0078    45.4063    45.4590     2.6465     2.0488  2600.0000
 2129.5340    14.1875  1866.0000     -.0024    46.7500    46.3379     2.7070     2.0547  2584.0000
 2129.6864    14.7891  1867.0000     -.0039    45.6875    47.9980     2.6953     2.0566  2570.0000
 2129.8388    14.3984  1863.0000     -.0044    45.9062    50.8301     2.6895     2.0488  2580.0000
 2129.9912    13.5156  1864.0000     -.0088    42.5313    51.4160     2.6230     2.0391  2590.0000
 2130.1436    13.4688  1865.0000     -.0068    45.5937    50.0000     2.6738     2.0391  2590.0000
 2130.2960    14.1562  1865.0000     -.0054    47.5938    46.4355     2.6543     2.0430  2610.0000
 2130.4484    14.7109  1865.0000     -.0005    50.2812    46.5332     2.7715     2.0469  2570.0000
 2130.6008    14.3828  1864.0000     -.0005    48.8125    46.2402     2.7910     2.0488  2560.0000
 2130.7532    13.7969  1864.0000      .0010    50.0938    48.0469     2.7852     2.0449  2560.0000
 2130.9056    14.4531  1861.0000      .0020    47.8750    46.3379     2.6211     2.0469  2560.0000
 2131.0580    13.3750  1859.0000      .0000    45.7500    43.7988     2.6074     2.0449  2594.0000
 2131.2104    13.3125  1857.0000     -.0015    42.5625    46.7285     2.6660     2.0469  2550.0000
 2131.3628    13.2969  1856.0000      .0034    44.3125    45.7520     2.9004     2.0586  2550.0000
 2131.5152    13.5547  1853.0000      .0132    47.5000    46.3867     2.9004     2.0762  2554.0000
 2131.6676    13.5781  1851.0000      .0156    49.2500    42.4805     2.9219     2.0801  2594.0000
 2131.8200    13.5547  1849.0000      .0093    47.8750    41.6016     2.7539     2.0801  2590.0000
 2131.9724    13.9453  1847.0000      .0054    49.2187    44.7266     2.6641     2.0840  2560.0000
 2132.1248    13.5547  1846.0000      .0029    49.3125    43.7500     2.6523     2.0937  2590.0000
 2132.2772    13.5547  1843.0000      .0000    47.2813    44.3848     2.6758     2.0977  2610.0000
 2132.4296    13.6484  1840.0000     -.0015    45.4687    45.2148     2.7285     2.0996  2570.0000
 2132.5820    13.6641  1837.0000      .0029    41.5312    49.6094     2.7246     2.1113  2570.0000
 2132.7344    13.4062  1833.0000      .0044    41.4688    48.2910     2.8457     2.1250  2590.0000
 2132.8868    13.3359  1830.0000      .0068    39.3750    46.6797     2.9375     2.1426  2560.0000
 2133.0392    13.4297  1829.0000      .0039    42.8125    45.5566     3.0801     2.1562  2570.0000
 2133.1916    13.2578  1829.0000      .0005    45.2188    49.2187     3.0059     2.1641  2560.0000
 2133.3440    13.1641  1831.0000     -.0034    45.5625    47.0215     3.0117     2.1621  2590.0000
 2133.4964    13.3750  1830.0000      .0010    44.7188    45.9961     2.9297     2.1621  2574.0000
 2133.6488    13.4688  1830.0000      .0054    42.3125    43.0664     2.9746     2.1582  2564.0000
 2133.8012    13.2813  1829.0000      .0083    41.9688    44.2871     3.0059     2.1582  2570.0000
 2133.9536    13.2187  1829.0000      .0034    39.9063    44.1895     3.0254     2.1445  2564.0000
 2134.1060    13.3750  1830.0000      .0039    39.2500    42.9199     2.9219     2.1387  2574.0000
 2134.2584    13.3281  1832.0000      .0024    39.5938    42.0898     2.8711     2.1309  2570.0000
 2134.4108    14.1719  1831.0000      .0034    40.0625    41.6992     3.0195     2.1465  2550.0000
