~VERSION INFORMATION
VERS.                                                 2.0:   CWLS Log ASCII Standard-VERSION 2.0
WRAP.                                                  NO:   One line per depth step
~Well Information Block
STRT.M                                           480.4136:   Top Depth
STOP.M                                          3575.6576:   Bottom Depth
STEP.M                                             .15240:   Depth Increment
NULL.                                            -999.250:   Null Value
FLD .                                                   -:   Field Name
WELL.                                             15/9-14:   NAME
WBN .                                             15/9-14:   WELLBORE
NATI.                                                 NOR:   COUNTRY
CTRY.                                                 NOR:   COUNTRY
COMP.                                             STATOIL:   OPERATOR
PROV.                                           NORTH SEA:   PROVINCE
COUN.                                        DEEPSEA SAGA:   RIG NAME
SPUD.                                          1982/05/01:   SPUD DATE
LATI.                                       58 17 23.19 N:   SURF. LATITUDE
LONG.                                        1 41 28.06 E:   SURF. LONGITUDE
PBWE.                                             15/9-14:   PB WELL ID
APIN.                                             15/9-14:   PB WELLBORE ID
PBWS.                                                 all:   PB WELL NAME SET
~PARAMETER INFORMATION (log)
LNAM.                              LDT/CNL/GR  COMPOSITED:   NAME
LTYP.                                         DEPTH MATCH:   LOG TYPE
LSRV.                                           LATEROLOG:   LOG SERVICE
LSOU.                                             SPT/NPD:   LOG SOURCE
LVSN.                                                   1:   LOG VERSION
BHIS.                                                   R:   BRIEF HISTORY
FHIS.                                             RAW-LIS:   FULL HISTORY
LCNM.                                        SCHLUMBERGER:   LOGGING CONTRACTOR
TOOL.                             LDT/CNL/GR (COMPOSITED):   TOOL STRING
~Curve Information Block
#MNEM.UNIT                                        API CODE    No Description
#=========                                        ========    == ===========
DEPT.M                                       00 001 00 00:     1  DEPTH
CALI.IN                                                  :     2  Caliper
CS.                                                      :     3  Cable Speed
DRHO.G/CC                                                :     4  Bulk density correction
GR.GAPI                                                  :     5  Gamma Ray
NPHI.%                                                   :     6  Neutron porosity
PEF.B/E                                                  :     7  Photo-electric factor
RHOB.G/CC                                                :     8  Bulk density
TENS.LB                                                  :     9  Cable Tension
~ASCII
# ...
 2739.4388    12.1953  1727.0000     -.0288    15.2656    17.7246     4.3633     2.4785  3150.0000
 2739.5912    12.1875  1726.0000     -.0288    12.8594    17.5293     4.3516     2.4805  3164.0000
 2739.7436    12.1953  1726.0000     -.0269    13.5234    18.4570     4.3984     2.4766  3190.0000
 2739.8960    12.1953  1726.0000     -.0220    14.2187    18.9941     4.2930     2.4629  3174.0000
 2740.0484    12.2109  1725.0000     -.0176    15.3516    20.0195     4.0508     2.4355  3174.0000
 2740.2008    12.1953  1724.0000     -.0171    16.9219    20.8008     3.9551     2.4160  3160.0000
 2740.3532    12.1953  1722.0000     -.0132    17.6094    22.8516     3.9883     2.4082  3180.0000
 2740.5056    12.2109  1722.0000     -.0176    17.1563    24.6094     4.0156     2.4004  3174.0000
 2740.6580    12.1953  1722.0000     -.0205    17.5781    26.0254     4.0391     2.3867  3174.0000
 2740.8104    12.1875  1723.0000     -.0186    18.4531    25.8301     4.0273     2.3809  3150.0000
 2740.9628    12.1719  1722.0000     -.0127    19.7656    26.5137     4.0430     2.3789  3160.0000
 2741.1152    12.1875  1721.0000     -.0142    19.1250    26.3672     4.1055     2.3672  3144.0000
 2741.2676    12.1719  1722.0000     -.0161    18.2344    25.4883     4.0273     2.3633  3160.0000
 2741.4200    12.2109  1722.0000     -.0156    19.5625    24.7559     3.9746     2.3691  3124.0000
 2741.5724    12.1875  1722.0000     -.0073    19.5313    24.7559     3.9902     2.3867  3134.0000
 2741.7248    12.1719  1722.0000     -.0098    19.0781    25.3418     4.0625     2.3750  3150.0000
 2741.8772    12.1328  1721.0000     -.0103    17.7656    25.8789     4.3750     2.3555  3110.0000
 2742.0296    12.1172  1721.0000     -.0142    17.3281    26.1230     4.3594     2.3301  3110.0000
 2742.1820    12.2500  1721.0000     -.0073    17.5469    27.6855     4.3984     2.3398  3120.0000
 2742.3344    12.3203  1722.0000     -.0098    16.2031    27.5391     4.3203     2.3652  3120.0000
 2742.4868    12.3438  1722.0000     -.0107    16.6875    27.7832     4.3242     2.3945  3090.0000
 2742.6392    12.3438  1722.0000     -.0122    17.8125    25.6836     4.2461     2.4141  3110.0000
 2742.7916    12.3438  1723.0000     -.0078    21.5938    24.7070     3.9668     2.4336  3120.0000
 2742.9440    12.3203  1723.0000     -.0078    23.5781    23.6816     3.7734     2.4570  3114.0000
 2743.0964    12.3203  1724.0000     -.0166    25.2812    23.5352     4.0078     2.4492  3110.0000
 2743.2488    12.4219  1723.0000     -.0156    22.3750    24.7070     4.3047     2.4414  3124.0000
 2743.4012    12.5703  1723.0000     -.0088    21.9375    25.6348     4.5469     2.4258  3130.0000
 2743.5536    12.2891  1723.0000     -.0068    18.8438    25.5859     4.2773     2.4160  3150.0000
 2743.7060    12.2891  1723.0000     -.0112    19.7031    25.0488     4.1016     2.4062  3130.0000
 2743.8584    12.3047  1724.0000     -.0205    19.2344    25.1953     4.0586     2.4004  3124.0000
 2744.0108    12.2891  1726.0000     -.0225    21.2500    26.2695     4.2930     2.4258  3140.0000
 2744.1632    12.2891  1726.0000     -.0249    21.7500    25.2441     4.3125     2.4531  3134.0000
 2744.3156    12.2891  1726.0000     -.0229    22.8594    23.3887     4.4336     2.4844  3110.0000
 2744.4680    12.2891  1725.0000     -.0225    22.3906    22.4609     4.4414     2.5020  3140.0000
 2744.6204    12.2891  1726.0000     -.0234    22.7812    21.5332     4.4961     2.4941  3170.0000
 2744.7728    12.2891  1725.0000     -.0225    23.6719    22.0215     4.2148     2.4961  3170.0000
 2744.9252    12.2891  1725.0000     -.0220    23.6875    21.5820     4.2109     2.4902  3130.0000
 2745.0776    12.2812  1724.0000     -.0190    24.1406    22.6563     4.0117     2.5000  3120.0000
 2745.2300    12.2812  1723.0000     -.0234    21.2656    21.9238     4.1055     2.5020  3120.0000
 2745.3824    12.2812  1723.0000     -.0254    22.1406    20.6055     4.2266     2.5176  3154.0000
 2745.5348    12.2812  1723.0000     -.0303    21.7031    19.4336     4.5977     2.5195  3150.0000
 2745.6872    12.2812  1723.0000     -.0264    23.9688    18.3594     4.5937     2.5312  3144.0000
 2745.8396    12.2812  1723.0000     -.0249    22.0156    19.1895     4.4570     2.5469  3150.0000
 2745.9920    12.2812  1723.0000     -.0264    21.1563    17.8223     4.4648     2.5664  3144.0000
 2746.1444    12.3281  1723.0000     -.0317    20.0313    16.3086     4.3008     2.5625  3160.0000
 2746.2968    12.3203  1723.0000     -.0317    21.9844    14.1113     4.1641     2.5469  3184.0000
 2746.4492    12.3281  1723.0000     -.0244    24.5938    14.6973     4.2812     2.5488  3170.0000
 2746.6016    12.3203  1723.0000     -.0215    25.0000    18.3105     4.4375     2.5469  3174.0000
 2746.7540    12.3203  1722.0000     -.0234    23.4219    19.3848     4.3242     2.5391  3154.0000
 2746.9064    12.3281  1722.0000     -.0239    21.1563    19.0430     4.0820     2.5273  3160.0000
 2747.0588    12.3438  1721.0000     -.0205    18.4844    17.0410     3.9629     2.5254  3144.0000
 2747.2112    12.3438  1720.0000     -.0176    17.6250    16.1621     4.0039     2.5234  3190.0000
 2747.3636    12.3594  1718.0000     -.0210    16.3594    15.7715     3.7148     2.5117  3194.0000
 2747.5160    12.3594  1719.0000     -.0229    17.2656    15.1855     3.7480     2.5039  3200.0000
 2747.6684    12.3828  1719.0000     -.0273    16.1719    16.2109     3.8457     2.4941  3200.0000
 2747.8208    12.3828  1719.0000     -.0269    16.3906    16.9434     4.1914     2.4824  3200.0000
 2747.9732    12.3984  1719.0000     -.0254    17.0625    17.5293     4.0781     2.4668  3190.0000
 2748.1256    12.5234  1719.0000     -.0093    19.7344    16.7969     4.1211     2.4805  3214.0000
 2748.2780    12.2500  1720.0000     -.0103    22.1719    18.9453     4.0703     2.4941  3214.0000
 2748.4304    12.2500  1720.0000     -.0112    20.5781    20.9961     4.3984     2.5215  3180.0000
 2748.5828    12.2500  1720.0000     -.0259    19.4688    21.4844     4.3828     2.5098  3160.0000
 2748.7352    12.2500  1720.0000     -.0215    16.4063    18.9941     4.3437     2.5137  3164.0000
 2748.8876    12.2500  1719.0000     -.0200    15.7734    16.3086     4.2461     2.5156  3180.0000
 2749.0400    12.2500  1720.0000     -.0181    15.5469    14.8926     3.9824     2.5137  3194.0000
 2749.1924    12.2500  1720.0000     -.0083    16.6094    15.1367     3.7910     2.5195  3204.0000
 2749.3448    12.2344  1721.0000     -.0112    20.0781    15.9180     3.5820     2.4902  3210.0000
 2749.4972    12.2266  1722.0000     -.0024    24.0312    16.7969     3.2383     2.4824  3190.0000
 2749.6496    12.1719  1723.0000     -.0005    24.7188    17.4805     3.3750     2.4453  3170.0000
 2749.8020    11.9844  1725.0000      .0098    27.4531    17.7246     3.2187     2.4004  3174.0000
 2749.9544    11.8984  1725.0000      .0117    26.7969    19.5313     3.2988     2.3457  3170.0000
 2750.1068    11.9297  1726.0000      .0078    29.9219    21.5820     3.0098     2.2988  3150.0000
 2750.2592    11.8594  1727.0000      .0044    28.7969    22.9492     3.1191     2.2793  3154.0000
 2750.4116    11.8359  1727.0000     -.0039    31.4531    22.8516     3.2285     2.2852  3134.0000
 2750.5640    11.8047  1727.0000     -.0068    31.3906    21.5332     3.1875     2.3086  3140.0000
 2750.7164    11.7812  1727.0000     -.0039    33.3438    22.9492     2.9863     2.3086  3130.0000
 2750.8688    11.7422  1726.0000     -.0054    31.2969    24.3652     2.8555     2.2598  3160.0000
 2751.0212    11.7422  1725.0000     -.0103    33.2500    26.6113     2.7969     2.2070  3144.0000
 2751.1736    11.7578  1724.0000     -.0156    30.8750    25.9766     2.8086     2.1816  3140.0000
 2751.3260    11.7422  1725.0000     -.0190    32.8438    26.5137     2.7734     2.1797  3130.0000
 2751.4784    11.7031  1724.0000     -.0190    32.4687    25.7324     2.7988     2.1836  3134.0000
 2751.6308    11.6875  1725.0000     -.0181    31.8125    26.3184     2.8262     2.1816  3100.0000
