~VERSION INFORMATION
VERS.                                                 2.0:   CWLS Log ASCII Standard-VERSION 2.0
WRAP.                                                  NO:   One line per depth step
~Well Information Block
STRT.M                                           480.4136:   Top Depth
STOP.M                                          3575.6576:   Bottom Depth
STEP.M                                             .15240:   Depth Increment
NULL.                                            -999.250:   Null Value
FLD .                                                   -:   Field Name
WELL.                                             15/9-14:   NAME
WBN .                                             15/9-14:   WELLBORE
NATI.                                                 NOR:   COUNTRY
CTRY.                                                 NOR:   COUNTRY
COMP.                                             STATOIL:   OPERATOR
PROV.                                           NORTH SEA:   PROVINCE
COUN.                                        DEEPSEA SAGA:   RIG NAME
SPUD.                                          1982/05/01:   SPUD DATE
LATI.                                       58 17 23.19 N:   SURF. LATITUDE
LONG.                                        1 41 28.06 E:   SURF. LONGITUDE
PBWE.                                             15/9-14:   PB WELL ID
APIN.                                             15/9-14:   PB WELLBORE ID
PBWS.                                                 all:   PB WELL NAME SET
~PARAMETER INFORMATION (log)
LNAM.                              LDT/CNL/GR  COMPOSITED:   NAME
LTYP.                                         DEPTH MATCH:   LOG TYPE
LSRV.                                           LATEROLOG:   LOG SERVICE
LSOU.                                             SPT/NPD:   LOG SOURCE
LVSN.                                                   1:   LOG VERSION
BHIS.                                                   R:   BRIEF HISTORY
FHIS.                                             RAW-LIS:   FULL HISTORY
LCNM.                                        SCHLUMBERGER:   LOGGING CONTRACTOR
TOOL.                             LDT/CNL/GR (COMPOSITED):   TOOL STRING
~Curve Information Block
#MNEM.UNIT                                        API CODE    No Description
#=========                                        ========    == ===========
DEPT.M                                       00 001 00 00:     1  DEPTH
CALI.IN                                                  :     2  Caliper
CS.                                                      :     3  Cable Speed
DRHO.G/CC                                                :     4  Bulk density correction
GR.GAPI                                                  :     5  Gamma Ray
NPHI.%                                                   :     6  Neutron porosity
PEF.B/E                                                  :     7  Photo-electric factor
RHOB.G/CC                                                :     8  Bulk density
TENS.LB                                                  :     9  Cable Tension
~ASCII
# ...
  690.2684    18.3125  2032.0000      .0684    70.3125    48.2910     2.0918     2.0566  1240.0000
  690.4208    18.3438  2032.0000      .0674    70.3750    45.8496     2.0566     2.0469  1255.0000
  690.5732    18.3594  2030.0000      .0879    69.1250    46.7773     2.1172     2.0645  1250.0000
  690.7256    18.4063  2030.0000      .0889    71.6250    47.1191     2.1152     2.0625  1250.0000
  690.8780    18.5625  2028.0000      .0894    72.8750    46.0937     2.1953     2.0684  1240.0000
  691.0304    18.7813  2028.0000      .0801    77.0625    45.7520     2.2012     2.0684  1240.0000
  691.1828    19.0000  2028.0000      .0728    78.1250    45.4590     2.2402     2.0684  1245.0000
  691.3352    18.9844  2027.0000      .0684    79.8125    44.2383     2.2617     2.0723  1250.0000
  691.4876    18.8125  2028.0000      .0615    84.0625    50.0000     2.2090     2.0703  1240.0000
  691.6400    18.8438  2028.0000      .0479    87.4375    50.2441     2.1797     2.0488  1255.0000
  691.7924    18.8438  2029.0000      .0474    87.5000    52.7832     2.1777     2.0391  1275.0000
  691.9448    18.5625  2030.0000      .0410    87.0000    50.0488     2.2344     2.0215  1255.0000
  692.0972    18.5625  2028.0000      .0464    86.0625    51.5137     2.2207     2.0273  1260.0000
  692.2496    18.5781  2027.0000      .0444    85.5000    50.8301     2.2324     2.0391  1245.0000
  692.4020    18.5938  2028.0000      .0537    82.8750    53.2227     2.2187     2.0781  1265.0000
  692.5544    18.6563  2027.0000      .0400    80.8750    52.1484     2.3027     2.0918  1265.0000
  692.7068    18.7656  2028.0000      .0400    78.2500    49.9023     2.3125     2.1094  1245.0000
  692.8592    18.7656  2026.0000      .0205    75.6250    44.2383     2.3184     2.0879  1260.0000
  693.0116    19.0313  2026.0000      .0757    74.3125    39.8438     2.3437     2.1523  1250.0000
  693.1640    19.0313  2027.0000      .0918    74.4375    37.9395     2.3477     2.1855  1260.0000
  693.3164    19.2656  2028.0000      .1113    74.3750    36.4746     2.2988     2.2383  1265.0000
  693.4688    19.8438  2028.0000      .0728    75.2500    37.8906     2.2090     2.2187  1275.0000
  693.6212    19.6094  2028.0000      .0767    74.1875    40.1367     2.2168     2.2363  1265.0000
  693.7736    19.5313  2027.0000      .0737    73.7500    40.4297     2.2910     2.2344  1260.0000
  693.9260    19.4844  2028.0000      .0732    76.7500    39.8926     2.3398     2.2363  1260.0000
  694.0784    19.4844  2028.0000      .0464    78.1250    39.8926     2.3047     2.2109  1260.0000
  694.2308    19.5781  2028.0000      .0391    77.6875    41.3574     2.2734     2.2070  1260.0000
  694.3832    19.6094  2028.0000      .0410    74.1250    40.7715     2.2832     2.2129  1275.0000
  694.5356    19.6719  2028.0000      .0508    73.8125    40.1855     2.2988     2.2266  1250.0000
  694.6880    19.7656  2029.0000      .0562    72.6250    40.7227     2.2773     2.2246  1290.0000
  694.8404    19.7344  2029.0000      .0562    73.1250    40.4785     2.2676     2.2227  1270.0000
  694.9928    19.6875  2030.0000      .0601    70.5000    40.5273     2.2695     2.2285  1250.0000
  695.1452    19.7813  2030.0000      .0610    70.4375    39.2578     2.3047     2.2363  1265.0000
  695.2976    19.7656  2030.0000      .0596    68.6875    37.6953     2.3008     2.2383  1270.0000
  695.4500    20.1563  2029.0000      .0508    73.0000    37.0117     2.2715     2.2187  1270.0000
  695.6024    19.8906  2027.0000      .0566    74.4375    36.6211     2.3203     2.2227  1275.0000
  695.7548    20.0000  2026.0000      .0723    75.5000    38.7207     2.3789     2.2363  1270.0000
  695.9072    20.0625  2026.0000      .0830    74.5625    41.2598     2.3848     2.2520  1280.0000
  696.0596    20.1250  2026.0000      .0776    76.5000    39.3555     2.2461     2.2441  1265.0000
  696.2120    20.1875  2026.0000      .0596    77.5625    37.4512     2.1777     2.2109  1270.0000
  696.3644    20.1094  2027.0000      .0562    77.8750    34.1309     2.1270     2.1738  1260.0000
  696.5168    19.3906  2028.0000      .0645    74.9375    37.2070     2.1875     2.1562  1280.0000
  696.6692    19.5313  2028.0000      .0879    71.2500    41.0645     2.1211     2.1777  1270.0000
  696.8216    19.7813  2027.0000      .0928    66.0000    44.0918     2.0176     2.1875  1260.0000
  696.9740    20.2344  2027.0000      .0913    66.3125    43.8477     1.8174     2.1348  1260.0000
  697.1264    20.5156  2028.0000      .1162    66.9375    47.2168     1.8037     2.0430  1275.0000
  697.2788    20.2969  2028.0000      .1431    65.3750    47.1680     1.8320     2.0195  1280.0000
  697.4312    19.8750  2026.0000      .1333    67.8125    50.0977     2.0762     2.0410  1265.0000
  697.5836    19.5156  2024.0000      .0723    67.1875    46.1914     2.0996     2.0898  1270.0000
  697.7360    19.1094  2024.0000      .0327    69.8750    45.6055     2.1172     2.1270  1255.0000
  697.8884    18.4531  2025.0000      .0127    67.3125    47.5098     2.0937     2.1348  1290.0000
  698.0408    18.2969  2025.0000      .0151    68.8125    46.6797     2.0820     2.1426  1255.0000
  698.1932    18.3125  2025.0000      .0107    73.1250    48.8770     2.1211     2.1426  1295.0000
  698.3456    18.3125  2026.0000      .0205    77.3750    48.4863     2.1309     2.1406  1295.0000
  698.4980    18.3125  2027.0000      .0210    76.6875    50.5371     2.1641     2.1289  1265.0000
  698.6504    18.2344  2030.0000      .0317    73.5000    47.4609     2.1777     2.1406  1275.0000
  698.8028    18.2344  2030.0000      .0283    73.6250    42.0898     2.1504     2.1406  1245.0000
  698.9552    18.3125  2029.0000      .0293    75.4375    40.7227     2.0859     2.1465  1270.0000
  699.1076    18.3125  2027.0000      .0322    80.4375    43.8477     2.0430     2.1387  1250.0000
  699.2600    18.1250  2027.0000      .0327    83.0000    47.3633     2.0859     2.1328  1270.0000
  699.4124    18.0781  2027.0000      .0322    83.3750    45.3125     2.2070     2.1387  1270.0000
  699.5648    18.2500  2027.0000      .0215    78.0625    43.7012     2.2363     2.1406  1250.0000
  699.7172    18.4063  2027.0000      .0215    76.3750    41.2598     2.1992     2.1523  1260.0000
  699.8696    18.4844  2027.0000      .0161    78.8125    44.0430     2.1953     2.1445  1235.0000
  700.0220    18.4531  2027.0000      .0103    81.0625    43.1641     2.1582     2.1406  1275.0000
  700.1744    18.4531  2028.0000      .0049    79.1250    43.3594     2.2246     2.1348  1275.0000
  700.3268    18.3594  2026.0000      .0093    76.3750    42.1875     2.2090     2.1406  1255.0000
  700.4792    18.4219  2026.0000      .0215    77.8750    40.7227     2.2285     2.1504  1275.0000
  700.6316    18.4219  2027.0000      .0303    74.8125    40.3320     2.1562     2.1602  1225.0000
  700.7840    18.3125  2027.0000      .0283    76.3125    37.3047     2.1426     2.1504  1285.0000
  700.9364    18.3125  2027.0000      .0249    74.8125    36.3770     2.1426     2.1406  1275.0000
  701.0888    18.1094  2026.0000      .0259    77.8750    38.4766     2.1992     2.1328  1285.0000
  701.2412    18.2031  2026.0000      .0332    77.8125    43.4082     2.1875     2.1504  1255.0000
  701.3936    18.3125  2025.0000      .0366    78.6250    45.7520     2.1992     2.1562  1280.0000
  701.5460    18.2188  2025.0000      .0376    78.3750    44.1406     2.1445     2.1719  1240.0000
  701.6984    18.5156  2027.0000      .0337    81.1250    41.2109     2.0801     2.1699  1285.0000
  701.8508    18.5625  2026.0000      .0308    81.0000    39.9902     2.0312     2.1719  1265.0000
  702.0032    18.5625  2027.0000      .0342    80.3125    41.5039     2.0391     2.1582  1265.0000
  702.1556    18.3125  2027.0000      .0205    75.8125    41.9434     2.1133     2.1328  1275.0000
  702.3080    18.4531  2026.0000      .0156    77.8125    44.5312     2.1348     2.1250  1265.0000
  702.4604    18.5469  2025.0000      .0127    79.1875    46.2891     2.1953     2.1348  1280.0000
