~VERSION INFORMATION
VERS.                                                 2.0:   CWLS Log ASCII Standard-VERSION 2.0
WRAP.                                                  NO:   One line per depth step
~Well Information Block
STRT.M                                           480.4136:   Top Depth
STOP.M                                          3575.6576:   Bottom Depth
STEP.M                                             .15240:   Depth Increment
NULL.                                            -999.250:   Null Value
FLD .                                                   -:   Field Name
WELL.                                             15/9-14:   NAME
WBN .                                             15/9-14:   WELLBORE
NATI.                                                 NOR:   COUNTRY
CTRY.                                                 NOR:   COUNTRY
COMP.                                             STATOIL:   OPERATOR
PROV.                                           NORTH SEA:   PROVINCE
COUN.                                        DEEPSEA SAGA:   RIG NAME
SPUD.                                          1982/05/01:   SPUD DATE
LATI.                                       58 17 23.19 N:   SURF. LATITUDE
LONG.                                        1 41 28.06 E:   SURF. LONGITUDE
PBWE.                                             15/9-14:   PB WELL ID
APIN.                                             15/9-14:   PB WELLBORE ID
PBWS.                                                 all:   PB WELL NAME SET
~PARAMETER INFORMATION (log)
LNAM.                              LDT/CNL/GR  COMPOSITED:   NAME
LTYP.                                         DEPTH MATCH:   LOG TYPE
LSRV.                                           LATEROLOG:   LOG SERVICE
LSOU.                                             SPT/NPD:   LOG SOURCE
LVSN.                                                   1:   LOG VERSION
BHIS.                                                   R:   BRIEF HISTORY
FHIS.                                             RAW-LIS:   FULL HISTORY
LCNM.                                        SCHLUMBERGER:   LOGGING CONTRACTOR
TOOL.                             LDT/CNL/GR (COMPOSITED):   TOOL STRING
~Curve Information Block
#MNEM.UNIT                                        API CODE    No Description
#=========                                        ========    == ===========
DEPT.M                                       00 001 00 00:     1  DEPTH
CALI.IN                                                  :     2  Caliper
CS.                                                      :     3  Cable Speed
DRHO.G/CC                                                :     4  Bulk density correction
GR.GAPI                                                  :     5  Gamma Ray
NPHI.%                                                   :     6  Neutron porosity
PEF.B/E                                                  :     7  Photo-electric factor
RHOB.G/CC                                                :     8  Bulk density
TENS.LB                                                  :     9  Cable Tension
~ASCII
# ...
 1307.4884    17.4063  1954.0000      .0117    29.1406    36.5234     1.5566     2.0391  1765.0000
 1307.6408    18.0156  1957.0000      .0107    28.8125    37.0117     1.5225     2.0312  1780.0000
 1307.7932    19.1406  1958.0000      .0132    27.0000    35.1074     1.5410     2.0371  1760.0000
 1307.9456    18.9844  1957.0000      .0073    29.0938    37.3535     1.5215     2.0410  1765.0000
 1308.0980    17.5625  1957.0000      .0078    29.1250    38.6719     1.5010     2.0410  1780.0000
 1308.2504    17.9219  1957.0000      .0068    32.3125    39.9414     1.5527     2.0293  1775.0000
 1308.4028    18.7813  1958.0000      .0186    30.5781    36.3281     1.6094     2.0234  1795.0000
 1308.5552    18.4375  1958.0000      .0557    30.5156    36.2305     1.7188     2.0586  1785.0000
 1308.7076    18.3438  1957.0000      .0825    27.1250    36.0352     1.6396     2.0937  1775.0000
 1308.8600    18.2656  1957.0000      .0552    28.6094    38.6230     1.6201     2.0762  1790.0000
 1309.0124    18.3125  1956.0000      .0117    27.2500    36.7188     1.5908     2.0273  1800.0000
 1309.1648    18.6563  1956.0000      .0103    27.4531    37.0605     1.6641     2.0098  1795.0000
 1309.3172    18.6719  1956.0000      .0493    29.0000    35.8398     1.7061     2.0293  1780.0000
 1309.4696    18.7188  1956.0000      .0933    29.2813    36.2793     1.7207     2.0645  1770.0000
 1309.6220    17.9219  1956.0000      .0962    30.5625    36.0840     1.7412     2.0645  1810.0000
 1309.7744    17.5313  1956.0000      .0981    31.8594    35.8887     1.7432     2.0703  1770.0000
 1309.9268    18.2656  1956.0000      .0830    33.4375    35.2051     1.7627     2.0703  1770.0000
 1310.0792    17.9219  1955.0000      .0698    34.2188    32.7148     1.7578     2.0781  1780.0000
 1310.2316    18.0156  1955.0000      .0508    31.4063    32.6172     1.8340     2.0742  1790.0000
 1310.3840    18.8125  1956.0000      .0527    29.2813    33.0566     1.7471     2.0723  1780.0000
 1310.5364    17.8438  1956.0000      .0669    29.2500    35.3027     1.7764     2.0684  1780.0000
 1310.6888    17.9375  1955.0000      .0732    31.9063    37.9395     1.7627     1.9902  1785.0000
 1310.8412    18.5000  1956.0000      .0820    31.7500    40.5762     1.9268     1.9668  1770.0000
 1310.9936    18.5156  1957.0000      .0557    35.4688    41.6992     1.9453     1.9268  1785.0000
 1311.1460    18.7031  1958.0000      .0591    40.1250    40.1855     2.0820     1.9785  1795.0000
 1311.2984    19.6250  1957.0000      .0684    53.9062    43.3105     2.1797     2.0215  1790.0000
 1311.4508    19.1094  1956.0000      .0933    63.3125    45.4590     2.4199     2.0703  1785.0000
 1311.6032    18.0313  1956.0000      .0884    68.0625    48.1934     2.3906     2.0918  1785.0000
 1311.7556    18.2500  1956.0000      .0786    66.1875    47.9980     2.3652     2.0859  1790.0000
 1311.9080    17.8281  1957.0000      .0718    66.8750    48.8770     2.2285     2.0801  1770.0000
 1312.0604    18.0469  1958.0000      .0781    69.0000    51.0742     2.1484     2.0879  1790.0000
 1312.2128    17.8594  1957.0000      .0786    69.8125    49.6582     2.0391     2.0879  1805.0000
 1312.3652    17.9531  1957.0000      .0864    69.3750    48.7305     1.9873     2.0742  1760.0000
 1312.5176    17.7188  1957.0000      .0918    68.0000    47.4121     1.9561     2.0391  1835.0000
 1312.6700    17.9375  1956.0000      .0957    69.3750    48.4375     1.9160     1.9844  1815.0000
 1312.8224    17.9063  1956.0000      .1152    72.5625    52.9785     1.9180     1.9814  1790.0000
 1312.9748    18.0000  1956.0000      .1016    71.3750    52.9785     1.9102     1.9619  1795.0000
 1313.1272    17.3594  1955.0000      .0835    70.5625    50.4883     1.9258     1.9766  1800.0000
 1313.2796    17.7813  1953.0000      .0664    72.1250    45.3125     1.9336     1.9873  1790.0000
 1313.4320    17.7188  1952.0000      .0698    75.0625    46.1426     1.9326     2.0176  1785.0000
 1313.5844    17.5469  1952.0000      .0776    71.0000    46.5332     1.9551     2.0293  1810.0000
 1313.7368    17.5156  1953.0000      .0654    64.1250    46.5820     1.9658     2.0156  1790.0000
 1313.8892    17.4063  1954.0000      .0542    64.0000    46.5332     1.9922     2.0020  1785.0000
 1314.0416    17.8750  1954.0000      .0454    68.4375    47.2656     1.9902     1.9990  1795.0000
 1314.1940    17.9063  1954.0000      .0454    71.6250    46.0937     1.9424     1.9795  1785.0000
 1314.3464    18.1875  1953.0000      .0669    72.1250    44.0918     1.9609     1.9756  1795.0000
 1314.4988    18.1250  1951.0000      .1006    71.8125    41.2598     1.9609     1.9785  1795.0000
 1314.6512    18.2344  1950.0000      .1128    71.3750    45.8496     1.9463     1.9814  1805.0000
 1314.8036    18.4375  1948.0000      .0889    69.8125    45.4102     1.9336     1.9629  1805.0000
 1314.9560    18.4063  1947.0000      .0576    68.2500    48.6816     1.9707     1.9502  1795.0000
 1315.1084    18.1406  1945.0000      .0415    62.8438    45.9473     2.0117     1.9453  1785.0000
 1315.2608    18.0938  1943.0000      .0625    61.3750    47.1191     2.0293     1.9531  1785.0000
 1315.4132    17.9063  1942.0000      .0903    63.2188    49.8535     1.9658     1.9600  1790.0000
 1315.5656    17.9219  1938.0000      .1152    64.5625    53.8086     1.9629     1.9775  1795.0000
 1315.7180    18.3125  1934.0000      .0908    66.0000    56.5918     1.9814     1.9697  1785.0000
 1315.8704    18.3125  1931.0000      .0615    66.2500    55.9570     2.0547     1.9717  1805.0000
 1316.0228    18.2969  1927.0000      .0410    69.1250    56.4941     2.0723     1.9580  1795.0000
 1316.1752    17.9219  1922.0000      .0410    67.6250    51.6113     2.0195     1.9570  1790.0000
 1316.3276    17.8594  1919.0000      .0269    65.8125    51.6113     1.9316     1.9375  1810.0000
 1316.4800    17.7969  1915.0000      .0107    64.6875    48.4375     1.8740     1.9160  1765.0000
 1316.6324    17.9844  1913.0000      .0142    64.6250    52.2461     1.7920     1.8779  1795.0000
 1316.7848    17.7813  1913.0000      .0518    61.4062    52.3437     1.8066     1.8721  1795.0000
 1316.9372    17.9063  1913.0000      .0532    61.2500    53.8574     1.8311     1.8467  1800.0000
 1317.0896    17.7813  1912.0000      .0474    59.7188    54.2480     1.9766     1.8652  1805.0000
 1317.2420    17.7656  1911.0000      .0298    59.8750    51.9043     1.9922     1.8809  1795.0000
 1317.3944    17.8438  1908.0000      .0396    57.1562    51.4648     2.0234     1.9326  1795.0000
 1317.5468    18.5625  1912.0000      .0386    57.4063    50.7812     1.9551     1.9609  1810.0000
 1317.6992    17.7188  1913.0000      .0386    58.8750    51.4648     1.9551     1.9795  1790.0000
 1317.8516    17.8438  1915.0000      .0444    59.0000    50.6836     1.9307     1.9756  1800.0000
 1318.0040    17.7969  1917.0000      .0698    61.0937    55.5664     1.9014     1.9902  1800.0000
 1318.1564    18.2500  1918.0000      .0522    64.6250    56.9824     1.8887     1.9531  1760.0000
 1318.3088    17.7188  1917.0000      .0503    68.1250    56.8359     1.8613     1.9561  1820.0000
 1318.4612    17.7344  1918.0000      .0381    66.5000    54.8340     1.8711     1.9531  1765.0000
 1318.6136    17.8125  1919.0000      .0410    66.0625    52.4414     1.8828     1.9570  1780.0000
 1318.7660    17.7031  1918.0000      .0562    66.6250    54.3945     1.9102     1.9551  1820.0000
 1318.9184    18.0625  1917.0000      .0864    69.6875    50.9766     1.9492     1.9473  1770.0000
 1319.0708    18.3125  1914.0000      .1069    73.5000    52.8320     1.9609     1.9492  1815.0000
 1319.2232    18.0469  1914.0000      .1128    74.8750    49.8535     1.9619     1.9492  1785.0000
 1319.3756    18.0781  1913.0000      .1084    77.5625    48.7305     1.9170     1.9404  1805.0000
 1319.5280    18.5938  1913.0000      .1191    74.0000    49.5117     1.8721     1.9492  1800.0000
 1319.6804    18.3906  1914.0000      .1162    71.7500    52.6855     1.8770     1.9561  1790.0000
