~VERSION INFORMATION
VERS.                                                 2.0:   CWLS Log ASCII Standard-VERSION 2.0
WRAP.                                                  NO:   One line per depth step
~Well Information Block
STRT.M                                           480.4136:   Top Depth
STOP.M                                          3575.6576:   Bottom Depth
STEP.M                                             .15240:   Depth Increment
NULL.                                            -999.250:   Null Value
FLD .                                                   -:   Field Name
WELL.                                             15/9-14:   NAME
WBN .                                             15/9-14:   WELLBORE
NATI.                                                 NOR:   COUNTRY
CTRY.                                                 NOR:   COUNTRY
COMP.                                             STATOIL:   OPERATOR
PROV.                                           NORTH SEA:   PROVINCE
COUN.                                        DEEPSEA SAGA:   RIG NAME
SPUD.                                          1982/05/01:   SPUD DATE
LATI.                                       58 17 23.19 N:   SURF. LATITUDE
LONG.                                        1 41 28.06 E:   SURF. LONGITUDE
PBWE.                                             15/9-14:   PB WELL ID
APIN.                                             15/9-14:   PB WELLBORE ID
PBWS.                                                 all:   PB WELL NAME SET
~PARAMETER INFORMATION (log)
LNAM.                              LDT/CNL/GR  COMPOSITED:   NAME
LTYP.                                         DEPTH MATCH:   LOG TYPE
LSRV.                                           LATEROLOG:   LOG SERVICE
LSOU.                                             SPT/NPD:   LOG SOURCE
LVSN.                                                   1:   LOG VERSION
BHIS.                                                   R:   BRIEF HISTORY
FHIS.                                             RAW-LIS:   FULL HISTORY
LCNM.                                        SCHLUMBERGER:   LOGGING CONTRACTOR
TOOL.                             LDT/CNL/GR (COMPOSITED):   TOOL STRING
~Curve Information Block
#MNEM.UNIT                                        API CODE    No Description
#=========                                        ========    == ===========
DEPT.M                                       00 001 00 00:     1  DEPTH
CALI.IN                                                  :     2  Caliper
CS.                                                      :     3  Cable Speed
DRHO.G/CC                                                :     4  Bulk density correction
GR.GAPI                                                  :     5  Gamma Ray
NPHI.%                                                   :     6  Neutron porosity
PEF.B/E                                                  :     7  Photo-electric factor
RHOB.G/CC                                                :     8  Bulk density
TENS.LB                                                  :     9  Cable Tension
~ASCII
# ...
 1097.6336    17.6250  1947.0000      .0957    51.7500    48.5840     1.9170     1.9727  1625.0000
 1097.7860    17.6250  1947.0000      .0869    53.3438    50.4395     1.8857     1.9531  1620.0000
 1097.9384    17.4375  1948.0000      .0903    56.7500    52.0020     1.8672     1.9443  1610.0000
 1098.0908    17.4688  1950.0000      .1074    59.5000    55.1758     1.9258     1.9619  1620.0000
 1098.2432    17.3594  1952.0000      .0869    60.9375    55.2246     1.9580     1.9600  1605.0000
 1098.3956    17.4844  1952.0000      .0615    58.5937    56.8359     2.0312     1.9805  1615.0000
 1098.5480    17.8438  1951.0000      .0527    58.4062    53.4668     1.9912     2.0176  1595.0000
 1098.7004    17.5938  1951.0000      .0669    59.0625    53.9551     2.0137     2.0449  1630.0000
 1098.8528    17.4844  1950.0000      .0859    63.6250    51.2695     1.9834     2.0508  1600.0000
 1099.0052    17.4219  1949.0000      .0879    64.5625    49.7070     1.9531     2.0430  1620.0000
 1099.1576    17.4844  1948.0000      .0688    64.8750    51.9531     1.8809     2.0137  1615.0000
 1099.3100    17.4375  1948.0000      .0557    58.7813    55.0781     1.8408     1.9775  1605.0000
 1099.4624    17.2500  1948.0000      .0601    58.4062    52.7832     1.8379     1.9629  1595.0000
 1099.6148    17.3438  1948.0000      .0596    57.5938    52.2949     1.8525     1.9463  1605.0000
 1099.7672    17.4844  1947.0000      .0747    59.5312    50.2441     1.9336     1.9668  1605.0000
 1099.9196    17.5781  1948.0000      .0732    58.0000    54.6387     1.9385     1.9541  1605.0000
 1100.0720    17.2344  1949.0000      .1040    55.5313    51.3672     1.9561     1.9697  1625.0000
 1100.2244    17.3750  1949.0000      .1191    54.5625    50.8789     1.9229     1.9902  1615.0000
 1100.3768    17.7188  1949.0000      .1055    53.9062    50.2441     1.9180     1.9707  1630.0000
 1100.5292    17.4688  1948.0000      .1201    58.0937    53.8086     1.9287     1.9873  1630.0000
 1100.6816    17.8438  1946.0000      .1045    57.9375    54.4434     1.9463     1.9688  1590.0000
 1100.8340    17.9063  1947.0000      .1060    58.3125    51.7090     1.9609     2.0039  1635.0000
 1100.9864    17.5156  1948.0000      .0635    55.4687    50.9766     1.9385     1.9902  1595.0000
 1101.1388    17.5000  1948.0000      .0586    55.0313    50.2441     1.8857     1.9775  1595.0000
 1101.2912    17.5000  1949.0000      .0703    56.0625    50.2441     1.8555     1.9404  1610.0000
 1101.4436    18.0625  1948.0000      .1030    58.0625    54.0039     1.8818     1.9551  1575.0000
 1101.5960    17.6719  1950.0000      .0972    58.3438    55.9082     1.9365     1.9463  1625.0000
 1101.7484    17.3906  1950.0000      .1084    59.6875    55.8594     2.0000     1.9932  1600.0000
 1101.9008    17.6406  1950.0000      .1060    58.3438    50.8301     2.0020     2.0020  1625.0000
 1102.0532    17.7188  1951.0000      .1362    60.1250    49.1211     2.0742     2.0781  1605.0000
 1102.2056    17.6094  1950.0000      .1055    58.4688    53.2227     2.1172     2.0840  1610.0000
 1102.3580    17.6094  1951.0000      .0693    58.3438    57.6660     2.1406     2.0996  1600.0000
 1102.5104    17.5781  1952.0000      .0298    57.8750    54.9316     2.1152     2.0762  1605.0000
 1102.6628    17.5781  1952.0000      .0166    56.8750    53.7598     2.1152     2.0859  1605.0000
 1102.8152    17.7188  1951.0000      .0181    54.0000    53.7109     2.0234     2.0410  1615.0000
 1102.9676    18.1719  1952.0000      .0210    52.0938    61.4258     1.9658     1.9658  1615.0000
 1103.1200    17.5938  1953.0000      .0371    51.5938    59.3262     1.9131     1.9365  1600.0000
 1103.2724    17.5938  1953.0000      .0571    54.5625    54.0039     1.9277     1.9570  1640.0000
 1103.4248    17.5000  1952.0000      .0498    58.7187    48.1445     1.9033     1.9688  1605.0000
 1103.5772    17.7344  1951.0000      .0693    58.7187    45.8008     1.8877     1.9873  1610.0000
 1103.7296    17.6406  1950.0000      .0703    63.2500    43.2617     1.9150     1.9795  1615.0000
 1103.8820    18.1406  1949.0000      .1045    63.1563    44.9707     1.8799     2.0078  1610.0000
 1104.0344    17.5156  1949.0000      .1216    66.0000    45.1172     1.8838     2.0176  1605.0000
 1104.1868    17.5625  1948.0000      .1240    60.4063    50.1465     1.8779     2.0137  1600.0000
 1104.3392    17.4844  1948.0000      .1304    55.5000    51.5137     1.8975     2.0254  1615.0000
 1104.4916    17.4844  1948.0000      .1313    55.0625    54.1504     1.8672     2.0273  1600.0000
 1104.6440    17.7188  1950.0000      .1387    60.8125    51.6113     1.8389     2.0371  1605.0000
 1104.7964    17.8125  1952.0000      .1240    64.0000    48.9746     1.8076     2.0098  1630.0000
 1104.9488    18.0000  1951.0000      .1196    62.8750    47.1191     1.7734     1.9980  1590.0000
 1105.1012    17.8125  1951.0000      .1099    62.0625    47.9980     1.7510     1.9590  1620.0000
 1105.2536    17.8906  1950.0000      .1235    57.5625    51.0254     1.7744     1.9697  1615.0000
 1105.4060    18.2813  1949.0000      .0947    57.3125    56.1035     1.7852     1.9307  1600.0000
 1105.5584    17.6094  1949.0000      .0947    52.5313    55.9570     1.8213     1.9619  1640.0000
 1105.7108    17.8281  1949.0000      .0503    58.9062    54.1016     1.8486     1.9346  1600.0000
 1105.8632    17.3906  1948.0000      .0635    60.3125    53.6621     1.9014     1.9648  1625.0000
 1106.0156    17.7813  1948.0000      .0630    63.3750    53.9062     1.9238     1.9668  1605.0000
 1106.1680    17.5625  1948.0000      .0596    58.3750    58.0078     1.8789     1.9824  1620.0000
 1106.3204    18.4063  1948.0000      .0415    58.5625    54.8828     1.8457     1.9834  1625.0000
 1106.4728    17.6094  1950.0000      .0366    57.7188    54.7852     1.8564     1.9795  1605.0000
 1106.6252    17.9531  1948.0000      .0493    58.8750    54.2480     2.0059     1.9785  1610.0000
 1106.7776    17.4063  1949.0000      .0532    56.6563    51.3672     2.1250     1.9990  1610.0000
 1106.9300    17.4844  1948.0000      .0269    55.8125    54.0039     2.1348     2.0039  1640.0000
 1107.0824    17.5781  1949.0000      .0269    58.9375    48.5840     1.9766     2.0410  1585.0000
 1107.2348    17.7188  1948.0000      .0181    59.2187    52.3437     1.9492     2.0195  1645.0000
 1107.3872    17.5781  1948.0000      .0396    57.4687    46.2402     1.9150     2.0137  1595.0000
 1107.5396    17.4531  1947.0000      .0474    58.1563    45.2148     1.9658     1.9951  1650.0000
 1107.6920    17.3750  1948.0000      .0513    61.9063    44.5312     1.9600     2.0117  1605.0000
 1107.8444    17.4375  1948.0000      .0371    66.6875    46.9238     2.0254     2.0234  1625.0000
 1107.9968    17.4375  1949.0000      .0254    67.5000    48.2422     2.0957     2.0469  1595.0000
 1108.1492    17.5000  1950.0000      .0259    69.0625    47.2168     2.1230     2.0566  1595.0000
 1108.3016    17.5000  1949.0000      .0269    69.6875    47.5586     2.0762     2.0664  1615.0000
 1108.4540    17.4844  1950.0000      .0205    71.4375    49.4629     2.0586     2.0547  1635.0000
 1108.6064    17.4063  1951.0000      .0273    72.9375    50.1953     2.0879     2.0449  1625.0000
 1108.7588    17.3438  1949.0000      .0381    74.1250    47.8516     2.1270     2.0273  1585.0000
 1108.9112    17.1875  1948.0000      .0591    70.9375    46.3867     2.1387     2.0430  1605.0000
 1109.0636    17.4063  1948.0000      .0513    64.6875    47.7051     2.1426     2.0449  1615.0000
 1109.2160    17.5625  1949.0000      .0337    59.3125    51.1719     1.9824     2.0469  1610.0000
 1109.3684    17.4375  1950.0000      .0132    58.8438    50.0488     1.8662     1.9980  1630.0000
 1109.5208    17.3906  1949.0000      .0112    54.3437    46.9238     1.7725     1.9053  1600.0000
 1109.6732    18.3281  1949.0000      .0249    54.7188    43.7500     1.7988     1.8643  1610.0000
 1109.8256    20.1094  1948.0000      .0342    54.1563    43.7988     1.9102     1.8701  1595.0000
