~VERSION INFORMATION
VERS.                                                 2.0:   CWLS Log ASCII Standard-VERSION 2.0
WRAP.                                                  NO:   One line per depth step
~Well Information Block
STRT.M                                           480.4136:   Top Depth
STOP.M                                          3575.6576:   Bottom Depth
STEP.M                                             .15240:   Depth Increment
NULL.                                            -999.250:   Null Value
FLD .                                                   -:   Field Name
WELL.                                             15/9-14:   NAME
WBN .                                             15/9-14:   WELLBORE
NATI.                                                 NOR:   COUNTRY
CTRY.                                                 NOR:   COUNTRY
COMP.                                             STATOIL:   OPERATOR
PROV.                                           NORTH SEA:   PROVINCE
COUN.                                        DEEPSEA SAGA:   RIG NAME
SPUD.                                          1982/05/01:   SPUD DATE
LATI.                                       58 17 23.19 N:   SURF. LATITUDE
LONG.                                        1 41 28.06 E:   SURF. LONGITUDE
PBWE.                                             15/9-14:   PB WELL ID
APIN.                                             15/9-14:   PB WELLBORE ID
PBWS.                                                 all:   PB WELL NAME SET
~PARAMETER INFORMATION (log)
LNAM.                              LDT/CNL/GR  COMPOSITED:   NAME
LTYP.                                         DEPTH MATCH:   LOG TYPE
LSRV.                                           LATEROLOG:   LOG SERVICE
LSOU.                                             SPT/NPD:   LOG SOURCE
LVSN.                                                   1:   LOG VERSION
BHIS.                                                   R:   BRIEF HISTORY
FHIS.                                             RAW-LIS:   FULL HISTORY
LCNM.                                        SCHLUMBERGER:   LOGGING CONTRACTOR
TOOL.                             LDT/CNL/GR (COMPOSITED):   TOOL STRING
~Curve Information Block
#MNEM.UNIT                                        API CODE    No Description
#=========                                        ========    == ===========
DEPT.M                                       00 001 00 00:     1  DEPTH
CALI.IN                                                  :     2  Caliper
CS.                                                      :     3  Cable Speed
DRHO.G/CC                                                :     4  Bulk density correction
GR.GAPI                                                  :     5  Gamma Ray
NPHI.%                                                   :     6  Neutron porosity
PEF.B/E                                                  :     7  Photo-electric factor
RHOB.G/CC                                                :     8  Bulk density
TENS.LB                                                  :     9  Cable Tension
~ASCII
# ...
 3356.6588     8.5000  1816.0000     -.0396    56.5938    16.0156  -999.2500     2.5879  3500.0000
 3356.8112     8.5078  1814.0000     -.0356    50.1875    16.6016  -999.2500     2.5937  3550.0000
 3356.9636     8.5000  1813.0000     -.0322    45.4687    16.4063  -999.2500     2.5918  3560.0000
 3357.1160     8.5078  1815.0000     -.0391    45.2500    16.3574  -999.2500     2.5781  3544.0000
 3357.2684     8.5234  1816.0000     -.0474    43.7187    15.4785  -999.2500     2.5762  3554.0000
 3357.4208     8.5000  1817.0000     -.0439    43.4688    15.6250  -999.2500     2.5977  3520.0000
 3357.5732     8.5000  1816.0000     -.0391    46.3125    14.7949  -999.2500     2.6133  3534.0000
 3357.7256     8.4766  1816.0000     -.0244    54.9063    13.7207  -999.2500     2.5996  3564.0000
 3357.8780     8.4531  1815.0000     -.0327    59.8750    13.9160  -999.2500     2.5391  3560.0000
 3358.0304     8.4766  1814.0000     -.0386    60.7500    16.6992  -999.2500     2.4453  3550.0000
 3358.1828     8.5078  1815.0000     -.0386    60.6563    20.2637  -999.2500     2.4160  3540.0000
 3358.3352     8.5391  1815.0000     -.0337    64.4375    21.1426  -999.2500     2.4277  3540.0000
 3358.4876     8.5703  1816.0000     -.0327    66.6250    20.8496  -999.2500     2.4766  3550.0000
 3358.6400     8.5859  1816.0000     -.0376    63.3438    19.5801  -999.2500     2.4883  3550.0000
 3358.7924     8.5703  1818.0000     -.0410    62.5313    19.6777  -999.2500     2.4707  3490.0000
 3358.9448     8.5547  1819.0000     -.0332    55.0000    18.5547  -999.2500     2.4609  3490.0000
 3359.0972     8.5703  1817.0000     -.0317    54.1563    18.7988  -999.2500     2.4316  3470.0000
 3359.2496     8.5547  1817.0000     -.0356    49.3437    20.1172  -999.2500     2.3867  3514.0000
 3359.4020     8.5469  1817.0000     -.0264    56.9063    21.2891  -999.2500     2.3906  3560.0000
 3359.5544     8.4844  1817.0000     -.0303    69.8125    20.6055  -999.2500     2.4316  3574.0000
 3359.7068     8.5078  1819.0000     -.0308    73.3750    19.4336  -999.2500     2.4980  3530.0000
 3359.8592     8.4687  1819.0000     -.0249    65.7500    18.3105  -999.2500     2.5352  3544.0000
 3360.0116     8.5000  1819.0000     -.0210    48.4062    18.7012  -999.2500     2.5234  3550.0000
 3360.1640     8.4922  1820.0000     -.0142    38.9688    18.2617  -999.2500     2.5215  3514.0000
 3360.3164     8.4766  1819.0000     -.0376    36.0625    18.7988  -999.2500     2.4922  3450.0000
 3360.4688     8.4844  1817.0000     -.0405    32.3750    17.6270  -999.2500     2.4805  3434.0000
 3360.6212     8.4531  1816.0000     -.0464    32.0938    16.6504  -999.2500     2.4648  3470.0000
 3360.7736     8.4453  1814.0000     -.0371    31.3750    14.8926  -999.2500     2.4629  3520.0000
 3360.9260     8.4922  1814.0000     -.0376    35.9375    14.7461  -999.2500     2.4551  3624.0000
 3361.0784     8.4766  1815.0000     -.0386    35.5313    14.4043  -999.2500     2.4570  3590.0000
 3361.2308     8.4453  1817.0000     -.0400    39.5625    14.2578  -999.2500     2.4766  3510.0000
 3361.3832     8.4609  1818.0000     -.0430    39.0625    13.2324  -999.2500     2.4902  3494.0000
 3361.5356     8.4375  1817.0000     -.0312    41.9688    13.0859  -999.2500     2.4766  3500.0000
 3361.6880     8.4297  1817.0000     -.0249    43.1875    14.6484  -999.2500     2.4492  3464.0000
 3361.8404     8.4531  1816.0000     -.0278    48.3750    15.8203  -999.2500     2.4199  3464.0000
 3361.9928     8.4609  1817.0000     -.0259    49.0938    16.5527  -999.2500     2.4336  3470.0000
 3362.1452     8.4922  1816.0000     -.0259    49.0312    16.6016  -999.2500     2.4473  3460.0000
 3362.2976     8.5547  1816.0000     -.0156    44.3125    17.2852  -999.2500     2.4805  3464.0000
 3362.4500     8.5469  1816.0000     -.0220    40.9688    17.4316  -999.2500     2.5078  3450.0000
 3362.6024     8.4922  1817.0000     -.0352    38.5625    15.5762  -999.2500     2.5371  3450.0000
 3362.7548     8.4609  1818.0000     -.0259    38.6250    12.9395  -999.2500     2.5898  3460.0000
 3362.9072     8.4531  1819.0000     -.0215    42.5625    10.0586  -999.2500     2.6289  3470.0000
 3363.0596     8.4609  1820.0000     -.0186    41.5312     9.1797  -999.2500     2.6621  3504.0000
 3363.2120     8.3906  1818.0000     -.0229    41.4688     9.4727  -999.2500     2.6562  3490.0000
 3363.3644     8.3984  1818.0000     -.0298    38.9688    10.3516  -999.2500     2.6289  3510.0000
 3363.5168     8.3906  1819.0000     -.0166    39.6875    11.1816  -999.2500     2.5801  3520.0000
 3363.6692     8.3984  1819.0000     -.0220    40.0000    13.1836  -999.2500     2.5078  3524.0000
 3363.8216     8.4219  1819.0000     -.0059    39.0312    14.4043  -999.2500     2.4941  3534.0000
 3363.9740     8.4141  1819.0000     -.0225    42.7188    15.8691  -999.2500     2.4785  3530.0000
 3364.1264     8.3828  1820.0000     -.0303    44.2187    15.9180  -999.2500     2.4648  3520.0000
 3364.2788     8.4375  1820.0000     -.0508    53.0000    16.2598  -999.2500     2.4336  3520.0000
 3364.4312     8.4922  1821.0000     -.0444    53.4062    15.7715  -999.2500     2.4531  3500.0000
 3364.5836     8.4844  1821.0000     -.0474    59.8437    16.2109  -999.2500     2.4844  3460.0000
 3364.7360     8.5000  1820.0000     -.0498    60.4687    15.9180  -999.2500     2.4980  3470.0000
 3364.8884     8.4766  1820.0000     -.0488    62.8750    15.3809  -999.2500     2.5059  3474.0000
 3365.0408     8.4687  1820.0000     -.0405    60.0938    14.9902  -999.2500     2.5117  3460.0000
 3365.1932     8.4531  1819.0000     -.0264    53.5000    16.4063  -999.2500     2.5137  3460.0000
 3365.3456     8.4219  1819.0000     -.0254    48.1250    18.0664  -999.2500     2.4746  3470.0000
 3365.4980     8.3828  1819.0000     -.0249    43.4688    19.4824  -999.2500     2.4258  3504.0000
 3365.6504     8.3359  1820.0000     -.0273    42.4375    19.5801  -999.2500     2.3652  3524.0000
 3365.8028     8.3203  1821.0000     -.0308    38.9063    19.6289  -999.2500     2.3301  3530.0000
 3365.9552     8.3828  1820.0000     -.0459    37.1562    19.3359  -999.2500     2.2988  3530.0000
 3366.1076     8.3203  1820.0000     -.0317    38.5625    20.0195  -999.2500     2.3301  3530.0000
 3366.2600     8.3437  1820.0000     -.0430    44.5000    19.6777  -999.2500     2.3242  3530.0000
 3366.4124     8.3359  1820.0000     -.0273    47.2813    19.0430  -999.2500     2.3672  3510.0000
 3366.5648     8.3359  1820.0000     -.0537    45.1250    18.0176  -999.2500     2.3516  3454.0000
 3366.7172     8.3359  1821.0000     -.0469    43.6875    17.9688  -999.2500     2.3613  3470.0000
 3366.8696     8.3437  1822.0000     -.0522    41.9063    19.2871  -999.2500     2.3320  3470.0000
 3367.0220     8.3281  1822.0000     -.0576    46.9063    20.0684  -999.2500     2.2988  3484.0000
 3367.1744     8.3516  1822.0000     -.0566    44.6562    20.7031  -999.2500     2.2969  3474.0000
 3367.3268     8.3047  1822.0000     -.0571    47.2813    18.8477  -999.2500     2.2930  3494.0000
 3367.4792     8.3594  1821.0000     -.0479    50.2188    17.9199  -999.2500     2.3105  3490.0000
 3367.6316     8.3281  1821.0000     -.0371    54.1250    18.2129  -999.2500     2.3340  3490.0000
 3367.7840     8.3359  1820.0000     -.0317    50.8438    19.0430  -999.2500     2.3711  3470.0000
 3367.9364     8.3672  1819.0000     -.0244    44.0312    20.1172  -999.2500     2.4141  3484.0000
 3368.0888     8.3828  1819.0000     -.0181    41.2187    20.7520  -999.2500     2.4375  3470.0000
 3368.2412     8.3750  1820.0000     -.0161    42.0938    20.5078  -999.2500     2.4160  3464.0000
 3368.3936     8.3828  1821.0000     -.0186    39.6250    20.8008  -999.2500     2.3691  3460.0000
 3368.5460     8.3906  1821.0000     -.0391    40.2812    19.8730  -999.2500     2.3066  3454.0000
 3368.6984     8.3672  1820.0000     -.0439    39.2188    20.7031  -999.2500     2.2734  3450.0000
 3368.8508     8.3828  1819.0000     -.0430    47.8125    19.7266  -999.2500     2.2715  3450.0000
