~VERSION INFORMATION
VERS.                                                 2.0:   CWLS Log ASCII Standard-VERSION 2.0
WRAP.                                                  NO:   One line per depth step
~Well Information Block
STRT.M                                           480.4136:   Top Depth
STOP.M                                          3575.6576:   Bottom Depth
STEP.M                                             .15240:   Depth Increment
NULL.                                            -999.250:   Null Value
FLD .                                                   -:   Field Name
WELL.                                             15/9-14:   NAME
WBN .                                             15/9-14:   WELLBORE
NATI.                                                 NOR:   COUNTRY
CTRY.                                                 NOR:   COUNTRY
COMP.                                             STATOIL:   OPERATOR
PROV.                                           NORTH SEA:   PROVINCE
COUN.                                        DEEPSEA SAGA:   RIG NAME
SPUD.                                          1982/05/01:   SPUD DATE
LATI.                                       58 17 23.19 N:   SURF. LATITUDE
LONG.                                        1 41 28.06 E:   SURF. LONGITUDE
PBWE.                                             15/9-14:   PB WELL ID
APIN.                                             15/9-14:   PB WELLBORE ID
PBWS.                                                 all:   PB WELL NAME SET
~PARAMETER INFORMATION (log)
LNAM.                              LDT/CNL/GR  COMPOSITED:   NAME
LTYP.                                         DEPTH MATCH:   LOG TYPE
LSRV.                                           LATEROLOG:   LOG SERVICE
LSOU.                                             SPT/NPD:   LOG SOURCE
LVSN.                                                   1:   LOG VERSION
BHIS.                                                   R:   BRIEF HISTORY
FHIS.                                             RAW-LIS:   FULL HISTORY
LCNM.                                        SCHLUMBERGER:   LOGGING CONTRACTOR
TOOL.                             LDT/CNL/GR (COMPOSITED):   TOOL STRING
~Curve Information Block
#MNEM.UNIT                                        API CODE    No Description
#=========                                        ========    == ===========
DEPT.M                                       00 001 00 00:     1  DEPTH
CALI.IN                                                  :     2  Caliper
CS.                                                      :     3  Cable Speed
DRHO.G/CC                                                :     4  Bulk density correction
GR.GAPI                                                  :     5  Gamma Ray
NPHI.%                                                   :     6  Neutron porosity
PEF.B/E                                                  :     7  Photo-electric factor
RHOB.G/CC                                                :     8  Bulk density
TENS.LB                                                  :     9  Cable Tension
~ASCII
# ...
 1504.9988    13.4297  1916.0000      .0415    90.5000    51.8066     2.2266     1.9209  2010.0000
 1505.1512    12.9766  1916.0000      .0513    91.8750    52.6855     2.2637     1.9297  2040.0000
 1505.3036    12.6406  1916.0000      .0635    89.8750    52.4414     2.2461     1.9473  2010.0000
 1505.4560    12.5313  1917.0000      .0713    86.6250    52.8809     2.1270     1.9717  2010.0000
 1505.6084    12.5313  1917.0000      .0571    84.0000    53.9062     2.0566     1.9736  2040.0000
 1505.7608    12.5703  1919.0000      .0430    83.3750    53.2227     2.0625     1.9629  1990.0000
 1505.9132    12.6797  1920.0000      .0215    80.5625    50.2930     2.2246     1.9199  2000.0000
 1506.0656    12.7109  1921.0000      .0513    81.1250    47.3145     2.2988     1.9121  1995.0000
 1506.2180    13.5156  1920.0000      .0542    79.8750    47.9980     2.3516     1.8984  1985.0000
 1506.3704    14.9062  1920.0000      .0513    81.8125    50.3418     2.3145     1.9014  2020.0000
 1506.5228    15.6172  1920.0000      .0278    80.1875    51.3672     2.3828     1.9033  1990.0000
 1506.6752    14.3594  1919.0000      .0142    81.2500    47.8516     2.3965     1.9043  1980.0000
 1506.8276    15.7031  1919.0000      .0312    78.8750    46.3379     2.4473     1.9365  1995.0000
 1506.9800    15.8750  1919.0000      .0488    78.9375    47.9004     2.3535     1.9834  1990.0000
 1507.1324    15.4609  1920.0000      .0625    78.3125    52.0996     2.2598     2.0137  1985.0000
 1507.2848    12.9453  1920.0000      .0713    80.3750    52.4414     2.1582     2.0254  2000.0000
 1507.4372    13.2969  1920.0000      .0601    83.9375    51.6113     2.1562     1.9990  1980.0000
 1507.5896    13.4062  1919.0000      .0566    87.5625    53.1250     2.1855     1.9893  1925.0000
 1507.7420    13.4844  1918.0000      .0322    92.5625    52.4414     2.2148     1.9521  2104.0000
 1507.8944    14.1016  1919.0000      .0259    91.5625    54.0527     2.2227     1.9346  2100.0000
 1508.0468    13.5703  1919.0000      .0137    88.8125    49.4141     2.2168     1.9170  1990.0000
 1508.1992    13.2578  1920.0000      .0166    87.0625    48.7793     2.2754     1.9287  2010.0000
 1508.3516    13.2734  1920.0000      .0142    86.4375    46.6309     2.6484     1.9453  2000.0000
 1508.5040    13.2734  1919.0000      .0195    82.6875    45.2148     3.2715     2.0137  2000.0000
 1508.6564    13.4844  1919.0000      .0103    75.3750    47.9004     3.2070     2.0742  1975.0000
 1508.8088    14.5078  1918.0000      .0122    71.0000    47.4121     2.7969     2.0723  2070.0000
 1508.9612    15.4844  1919.0000      .0142    72.3125    50.9766     2.3457     1.9971  2035.0000
 1509.1136    15.2969  1921.0000      .0308    75.4375    49.7559     2.2051     1.9473  2005.0000
 1509.2660    15.8203  1920.0000      .0361    78.5000    49.5117     2.1738     1.9473  2030.0000
 1509.4184    13.1875  1920.0000      .0298    77.3750    49.3164     2.3164     1.9375  2000.0000
 1509.5708    14.8984  1920.0000      .0327    77.9375    50.2441     2.3730     1.9277  2005.0000
 1509.7232    16.2813  1920.0000      .0283    76.0000    49.3652     2.3906     1.8994  1985.0000
 1509.8756    17.4688  1920.0000      .0400    76.2500    47.6074     2.3945     1.8945  2005.0000
 1510.0280    14.4766  1920.0000      .0356    77.4375    47.7539     2.4707     1.8721  1950.0000
 1510.1804    13.9453  1920.0000      .0308    75.0000    47.9980     2.5195     1.8467  2040.0000
 1510.3328    15.0547  1920.0000      .0156    77.3750    50.7812     2.4668     1.8232  2025.0000
 1510.4852    16.6719  1920.0000      .0122    74.8125    48.9258     2.3379     1.8350  2000.0000
 1510.6376    16.6563  1919.0000      .0088    76.1250    51.4648     2.3457     1.8545  2010.0000
 1510.7900    14.5469  1920.0000      .0020    71.8750    49.0234     2.3262     1.8516  2005.0000
 1510.9424    13.2344  1918.0000      .0015    72.1250    50.0977     2.3301     1.8438  2050.0000
 1511.0948    13.1406  1917.0000      .0039    74.5625    46.3379     2.3301     1.8379  2080.0000
 1511.2472    13.0547  1916.0000      .0112    77.3125    50.8301     2.4043     1.8311  2030.0000
 1511.3996    12.8047  1915.0000      .0288    78.9375    55.6641     2.4434     1.8350  2010.0000
 1511.5520    12.9219  1915.0000      .0293    79.9375    57.1777     2.3086     1.8301  1970.0000
 1511.7044    12.9062  1916.0000      .0244    83.0625    57.5684     2.2461     1.8447  2050.0000
 1511.8568    12.4375  1916.0000      .0137    81.1250    53.3691     2.2520     1.8516  2090.0000
 1512.0092    12.6797  1917.0000      .0176    80.2500    53.2715     2.3105     1.8633  2040.0000
 1512.1616    13.5156  1918.0000      .0171    78.5625    51.3672     2.3535     1.8594  1980.0000
 1512.3140    13.1094  1919.0000      .0210    80.3750    52.2949     2.4609     1.8633  2020.0000
 1512.4664    13.1094  1920.0000      .0166    76.8125    51.7090     2.9277     1.9102  2020.0000
 1512.6188    13.4062  1920.0000      .0117    74.8750    52.2949     3.0215     1.9941  1995.0000
 1512.7712    13.6094  1920.0000      .0156    72.4375    50.2441     2.7090     2.0898  2010.0000
 1512.9236    13.7031  1918.0000      .0205    73.6875    48.7793     2.3652     2.0605  2000.0000
 1513.0760    13.6641  1916.0000      .0288    74.3125    45.1172     2.1836     1.9941  1990.0000
 1513.2284    13.2813  1916.0000      .0137    77.0000    46.5332     2.2891     1.9219  1975.0000
 1513.3808    13.2578  1916.0000      .0093    79.1875    48.9258     2.4336     1.9053  2000.0000
 1513.5332    13.1406  1916.0000      .0098    80.1875    55.6641     2.5098     1.8389  2030.0000
 1513.6856    13.5547  1915.0000      .0137    78.8125    54.5898     2.4805     1.7988  1985.0000
 1513.8380    15.1484  1915.0000      .0215    78.8750    53.9062     2.3652     1.7939  2020.0000
 1513.9904    16.1094  1915.0000      .0249    79.4375    48.4863     2.3555     1.8438  2020.0000
 1514.1428    13.2031  1915.0000      .0166    79.2500    52.6855     2.3066     1.8584  2015.0000
 1514.2952    13.0547  1914.0000      .0142    80.6875    54.6387     2.3145     1.8594  2000.0000
 1514.4476    13.0547  1914.0000      .0088    81.3125    53.8574     2.2852     1.8535  2015.0000
 1514.6000    13.0312  1913.0000      .0049    80.6250    50.5371     2.2441     1.8574  2020.0000
 1514.7524    12.8984  1911.0000      .0000    79.0625    48.3887     2.2148     1.8633  2030.0000
 1514.9048    12.9219  1911.0000      .0034    77.3750    51.6113     2.2383     1.8750  1940.0000
 1515.0572    12.9219  1911.0000      .0044    77.4375    54.5410     2.3418     1.8896  1985.0000
 1515.2096    12.9219  1911.0000      .0034    76.7500    55.6152     2.2773     1.8955  2180.0000
 1515.3620    12.9219  1913.0000      .0044    75.7500    49.5117     2.2754     1.8984  2140.0000
 1515.5144    12.8516  1915.0000      .0078    76.5625    46.7773     2.2246     1.9033  2010.0000
 1515.6668    13.0312  1915.0000      .0186    75.5000    45.9961     2.2109     1.9248  2000.0000
 1515.8192    13.0312  1914.0000      .0293    78.8750    49.5605     2.1484     1.9531  2020.0000
 1515.9716    12.7344  1915.0000      .0312    78.6875    53.1738     2.1562     1.9697  2025.0000
 1516.1240    13.0156  1914.0000      .0278    83.9375    54.1504     2.2246     1.9658  2025.0000
 1516.2764    12.6016  1915.0000      .0151    81.4375    54.6387     2.2617     1.9512  2000.0000
 1516.4288    12.8984  1915.0000      .0210    82.5000    53.8574     2.2285     1.9541  1980.0000
 1516.5812    12.7500  1915.0000      .0117    78.2500    51.2207     2.2090     1.9443  1995.0000
 1516.7336    12.4219  1915.0000      .0146    81.3750    51.0254     2.2617     1.9492  2010.0000
 1516.8860    12.5078  1915.0000      .0269    82.5625    50.2930     2.3809     1.9658  1990.0000
 1517.0384    12.5625  1916.0000      .0488    87.0625    50.3906     2.4336     1.9883  2000.0000
 1517.1908    12.5625  1915.0000      .0620    86.1875    47.7051     2.3730     2.0059  2030.0000
