~VERSION INFORMATION
VERS.                                                 2.0:   CWLS Log ASCII Standard-VERSION 2.0
WRAP.                                                  NO:   One line per depth step
~Well Information Block
STRT.M                                           480.4136:   Top Depth
STOP.M                                          3575.6576:   Bottom Depth
STEP.M                                             .15240:   Depth Increment
NULL.                                            -999.250:   Null Value
FLD .                                                   -:   Field Name
WELL.                                             15/9-14:   NAME
WBN .                                             15/9-14:   WELLBORE
NATI.                                                 NOR:   COUNTRY
CTRY.                                                 NOR:   COUNTRY
COMP.                                             STATOIL:   OPERATOR
PROV.                                           NORTH SEA:   PROVINCE
COUN.                                        DEEPSEA SAGA:   RIG NAME
SPUD.                                          1982/05/01:   SPUD DATE
LATI.                                       58 17 23.19 N:   SURF. LATITUDE
LONG.                                        1 41 28.06 E:   SURF. LONGITUDE
PBWE.                                             15/9-14:   PB WELL ID
APIN.                                             15/9-14:   PB WELLBORE ID
PBWS.                                                 all:   PB WELL NAME SET
~PARAMETER INFORMATION (log)
LNAM.                              LDT/CNL/GR  COMPOSITED:   NAME
LTYP.                                         DEPTH MATCH:   LOG TYPE
LSRV.                                           LATEROLOG:   LOG SERVICE
LSOU.                                             SPT/NPD:   LOG SOURCE
LVSN.                                                   1:   LOG VERSION
BHIS.                                                   R:   BRIEF HISTORY
FHIS.                                             RAW-LIS:   FULL HISTORY
LCNM.                                        SCHLUMBERGER:   LOGGING CONTRACTOR
TOOL.                             LDT/CNL/GR (COMPOSITED):   TOOL STRING
~Curve Information Block
#MNEM.UNIT                                        API CODE    No Description
#=========                                        ========    == ===========
DEPT.M                                       00 001 00 00:     1  DEPTH
CALI.IN                                                  :     2  Caliper
CS.                                                      :     3  Cable Speed
DRHO.G/CC                                                :     4  Bulk density correction
GR.GAPI                                                  :     5  Gamma Ray
NPHI.%                                                   :     6  Neutron porosity
PEF.B/E                                                  :     7  Photo-electric factor
RHOB.G/CC                                                :     8  Bulk density
TENS.LB                                                  :     9  Cable Tension
~ASCII
# ...
 2332.0736    13.8047  1845.0000     -.0166    44.3125    39.7461     3.5723     2.0977  2780.0000
 2332.2260    14.1016  1845.0000      .0020    43.9688    41.6504     4.0156     1.9209  2764.0000
 2332.3784    14.1328  1845.0000      .0098    46.5312    48.0469     4.5000     1.8320  2774.0000
 2332.5308    13.9453  1845.0000      .0249    46.9063    52.0508     4.4375     1.8408  2780.0000
 2332.6832    14.0391  1844.0000      .0312    47.2500    50.9766     4.0234     1.8945  2800.0000
 2332.8356    13.4688  1843.0000      .0293    48.7187    49.8535     4.1602     1.9248  2730.0000
 2332.9880    13.3281  1843.0000      .0337    49.3125    47.1680     4.2187     1.9365  2730.0000
 2333.1404    13.5156  1842.0000      .0171    51.3125    44.7754     4.2891     1.9053  2760.0000
 2333.2928    13.4297  1841.0000      .0278    47.7812    42.8711     4.0742     1.8926  2764.0000
 2333.4452    13.2578  1841.0000      .0273    49.5000    44.8730     3.9687     1.8770  2800.0000
 2333.5976    13.2969  1842.0000      .0469    48.6250    50.1953     3.7461     1.9014  2790.0000
 2333.7500    13.3359  1843.0000      .0273    49.7188    49.0234     3.9512     1.8770  2790.0000
 2333.9024    13.3672  1844.0000      .0273    45.8438    49.8047     3.9434     1.8779  2750.0000
 2334.0548    13.3672  1845.0000      .0220    46.9063    46.3379     4.3437     1.8643  2750.0000
 2334.2072    13.3359  1843.0000      .0347    45.4063    48.1445     4.0078     1.8877  2780.0000
 2334.3596    13.1406  1842.0000      .0342    50.2188    50.2930     3.7910     1.8936  2790.0000
 2334.5120    13.2734  1842.0000      .0273    48.2188    54.9805     3.7637     1.8857  2764.0000
 2334.6644    13.4062  1843.0000      .0205    47.0312    53.4180     3.7344     1.8721  2770.0000
 2334.8168    13.4688  1844.0000      .0288    42.0625    52.3437     3.7559     1.8916  2770.0000
 2334.9692    13.4609  1845.0000      .0186    41.1563    47.3633     3.7480     1.9053  2760.0000
 2335.1216    13.9453  1845.0000      .0312    41.3438    49.0723     4.0586     1.9238  2770.0000
 2335.2740    14.2500  1846.0000      .0132    43.3750    49.6582     4.6914     1.8779  2764.0000
 2335.4264    14.1875  1847.0000      .0186    43.0313    49.9512     4.6914     1.8730  2784.0000
 2335.5788    13.8906  1846.0000      .0098    45.8750    48.8770     4.4023     1.8867  2760.0000
 2335.7312    13.2813  1845.0000      .0112    46.1250    47.7051     4.1328     1.9189  2744.0000
 2335.8836    13.2734  1845.0000      .0122    49.6875    49.5117     4.2930     1.9258  2750.0000
 2336.0360    13.5234  1845.0000      .0103    50.8750    49.5605     4.1680     1.9189  2750.0000
 2336.1884    13.1094  1844.0000      .0005    50.4375    51.4648     4.0820     1.9150  2760.0000
 2336.3408    13.2969  1844.0000     -.0010    49.4688    52.0508     4.0859     1.9160  2770.0000
 2336.4932    13.4844  1842.0000      .0039    48.0000    55.6152     4.5391     1.9326  2780.0000
 2336.6456    13.6875  1842.0000     -.0020    47.3437    54.4922     4.9648     1.9248  2750.0000
 2336.7980    13.7578  1842.0000     -.0024    44.7813    54.1016     5.5156     1.9346  2750.0000
 2336.9504    13.8359  1843.0000     -.0015    45.4687    51.4648     5.5195     1.9365  2730.0000
 2337.1028    13.7969  1844.0000      .0186    47.4687    53.2715     5.3945     1.9629  2710.0000
 2337.2552    13.7656  1843.0000      .0459    48.3438    49.8535     5.0898     1.9609  2760.0000
 2337.4076    13.6484  1842.0000      .0508    46.7187    49.0234     4.9062     1.9482  2790.0000
 2337.5600    13.5391  1843.0000      .0557    45.4375    45.4590     4.4805     1.9658  2754.0000
 2337.7124    13.2344  1843.0000      .0386    46.1875    46.7285     4.3281     1.9844  2770.0000
 2337.8648    13.2344  1844.0000      .0396    48.0937    47.5586     4.1211     2.0430  2790.0000
 2338.0172    13.2344  1845.0000      .0396    49.3125    49.4141     4.1055     2.0645  2810.0000
 2338.1696    13.1797  1844.0000      .0352    51.3438    51.9531     4.0273     2.0605  2770.0000
 2338.3220    13.3281  1846.0000      .0366    52.7188    50.6348     4.2383     2.0391  2790.0000
 2338.4744    13.3359  1847.0000      .0166    50.7500    48.6816     4.5781     2.0156  2760.0000
 2338.6268    13.4609  1846.0000      .0127    49.2187    45.8008     4.4727     2.0410  2740.0000
 2338.7792    13.4688  1846.0000      .0024    50.2812    50.0977     4.5078     2.0371  2724.0000
 2338.9316    13.4844  1846.0000      .0000    49.1250    50.1953     4.6133     2.0176  2734.0000
 2339.0840    13.4062  1845.0000      .0044    48.4062    49.5605     4.8516     1.9873  2754.0000
 2339.2364    13.3750  1845.0000      .0083    46.4062    46.3379     5.1289     1.9844  2740.0000
 2339.3888    13.4688  1845.0000      .0127    48.5937    47.1680     4.7617     1.9932  2760.0000
 2339.5412    13.3125  1844.0000      .0386    47.6875    48.2910     4.8125     2.0293  2760.0000
 2339.6936    13.1250  1844.0000      .0410    46.7813    47.3633     4.5234     2.0469  2794.0000
 2339.8460    13.1875  1844.0000      .0229    48.1875    48.9746     4.3945     2.0625  2774.0000
 2339.9984    13.2422  1845.0000      .0000    49.7813    50.7812     4.2500     2.0742  2800.0000
 2340.1508    13.3281  1845.0000     -.0010    47.7188    50.6348     4.2227     2.1094  2780.0000
 2340.3032    13.3516  1844.0000      .0127    46.1250    47.2168     4.2148     2.1582  2720.0000
 2340.4556    13.3516  1844.0000      .0166    46.2187    43.2129     4.3281     2.1914  2740.0000
 2340.6080    13.3672  1843.0000      .0142    47.8438    41.8945     4.3867     2.1484  2760.0000
 2340.7604    13.5938  1843.0000      .0098    49.4688    42.0898     4.7891     2.0664  2760.0000
 2340.9128    13.6328  1842.0000      .0127    49.7188    44.5312     5.0312     2.0078  2760.0000
 2341.0652    13.5781  1843.0000      .0142    51.6563    47.3633     5.0430     1.9795  2760.0000
 2341.2176    13.5391  1842.0000      .0068    54.3750    48.8281     4.8320     1.9912  2790.0000
 2341.3700    13.3125  1843.0000     -.0020    55.9062    49.5605     4.4727     2.0215  2780.0000
 2341.5224    13.3516  1844.0000     -.0132    56.9375    51.0254     4.4023     2.0391  2780.0000
 2341.6748    13.3906  1843.0000     -.0059    52.0625    48.8281     4.7773     2.0488  2760.0000
 2341.8272    13.5781  1842.0000      .0229    48.6875    47.8027     4.9102     2.0801  2760.0000
 2341.9796    13.7578  1842.0000      .0566    45.2188    46.2402     4.8984     2.0898  2764.0000
 2342.1320    13.7656  1841.0000      .0645    45.9062    49.4141     4.7695     2.0684  2750.0000
 2342.2844    13.6641  1840.0000      .0322    46.7500    51.9043     4.6953     2.0293  2750.0000
 2342.4368    13.4844  1839.0000      .0132    49.2187    51.9531     4.4141     2.0762  2744.0000
 2342.5892    13.3672  1839.0000      .0039    49.3125    52.3437     4.4062     2.1074  2750.0000
 2342.7416    12.8984  1840.0000      .0068    51.0000    51.3184     4.7383     2.0937  2744.0000
 2342.8940    13.5547  1841.0000      .0347    49.9375    50.1465     5.2422     2.0684  2800.0000
 2343.0464    13.5938  1842.0000      .0518    52.0000    45.7031     4.9219     2.0430  2790.0000
 2343.1988    13.6875  1841.0000      .0591    50.6250    46.5332     4.5469     2.0312  2784.0000
 2343.3512    13.7656  1840.0000      .0117    51.6563    48.6328     3.9434     1.9795  2790.0000
 2343.5036    13.7969  1840.0000      .0020    49.3437    50.8789     3.8437     1.9980  2774.0000
 2343.6560    13.7969  1841.0000     -.0078    48.3750    49.7070     3.8066     2.0020  2784.0000
 2343.8084    13.8047  1842.0000      .0063    49.3437    47.5586     4.0195     2.0059  2730.0000
 2343.9608    13.7031  1842.0000      .0254    48.5625    47.8516     3.9824     2.0137  2750.0000
 2344.1132    13.5938  1842.0000      .0312    48.3750    48.7305     4.1484     2.0176  2790.0000
 2344.2656    13.7422  1842.0000      .0332    43.8438    49.4629     4.2578     2.0312  2780.0000
