~VERSION INFORMATION
VERS.                                                 2.0:   CWLS Log ASCII Standard-VERSION 2.0
WRAP.                                                  NO:   One line per depth step
~Well Information Block
STRT.M                                           480.4136:   Top Depth
STOP.M                                          3575.6576:   Bottom Depth
STEP.M                                             .15240:   Depth Increment
NULL.                                            -999.250:   Null Value
FLD .                                                   -:   Field Name
WELL.                                             15/9-14:   NAME
WBN .                                             15/9-14:   WELLBORE
NATI.                                                 NOR:   COUNTRY
CTRY.                                                 NOR:   COUNTRY
COMP.                                             STATOIL:   OPERATOR
PROV.                                           NORTH SEA:   PROVINCE
COUN.                                        DEEPSEA SAGA:   RIG NAME
SPUD.                                          1982/05/01:   SPUD DATE
LATI.                                       58 17 23.19 N:   SURF. LATITUDE
LONG.                                        1 41 28.06 E:   SURF. LONGITUDE
PBWE.                                             15/9-14:   PB WELL ID
APIN.                                             15/9-14:   PB WELLBORE ID
PBWS.                                                 all:   PB WELL NAME SET
~PARAMETER INFORMATION (log)
LNAM.                              LDT/CNL/GR  COMPOSITED:   NAME
LTYP.                                         DEPTH MATCH:   LOG TYPE
LSRV.                                           LATEROLOG:   LOG SERVICE
LSOU.                                             SPT/NPD:   LOG SOURCE
LVSN.                                                   1:   LOG VERSION
BHIS.                                                   R:   BRIEF HISTORY
FHIS.                                             RAW-LIS:   FULL HISTORY
LCNM.                                        SCHLUMBERGER:   LOGGING CONTRACTOR
TOOL.                             LDT/CNL/GR (COMPOSITED):   TOOL STRING
~Curve Information Block
#MNEM.UNIT                                        API CODE    No Description
#=========                                        ========    == ===========
DEPT.M                                       00 001 00 00:     1  DEPTH
CALI.IN                                                  :     2  Caliper
CS.                                                      :     3  Cable Speed
DRHO.G/CC                                                :     4  Bulk density correction
GR.GAPI                                                  :     5  Gamma Ray
NPHI.%                                                   :     6  Neutron porosity
PEF.B/E                                                  :     7  Photo-electric factor
RHOB.G/CC                                                :     8  Bulk density
TENS.LB                                                  :     9  Cable Tension
~ASCII
# ...
 2949.2936    13.0312  1977.0000     -.0020    22.0781    16.1621     4.0312     2.5039  3394.0000
 2949.4460    13.0000  1976.0000     -.0054    22.7969    18.3594     4.1719     2.5176  3400.0000
 2949.5984    12.9609  1977.0000     -.0049    24.8281    18.3105     4.1367     2.5430  3380.0000
 2949.7508    12.9453  1976.0000     -.0093    22.8594    16.1133     4.3477     2.5586  3354.0000
 2949.9032    12.9453  1977.0000     -.0200    20.6094    13.9648     4.6445     2.5332  3330.0000
 2950.0556    13.0547  1978.0000     -.0122    20.9219    13.5742     4.4922     2.5312  3310.0000
 2950.2080    12.9453  1977.0000     -.0083    22.9531    15.1855     4.2070     2.5254  3360.0000
 2950.3604    12.9219  1975.0000     -.0083    27.2813    16.1621     3.8125     2.5391  3410.0000
 2950.5128    12.9219  1975.0000     -.0127    28.0156    17.3340     3.8184     2.5488  3444.0000
 2950.6652    12.8125  1974.0000     -.0151    26.2031    16.2109     3.9512     2.5488  3390.0000
 2950.8176    12.8281  1974.0000     -.0112    19.5781    15.1367     4.1367     2.5527  3384.0000
 2950.9700    12.8281  1974.0000     -.0205    17.0000    13.8672     4.4102     2.5176  3364.0000
 2951.1224    12.8438  1975.0000     -.0146    15.2422    13.3789     4.3437     2.5195  3370.0000
 2951.2748    12.8125  1976.0000     -.0117    20.3594    15.0879     4.4687     2.5195  3400.0000
 2951.4272    12.8125  1977.0000     -.0059    25.5156    16.8945     4.3789     2.5391  3400.0000
 2951.5796    12.8125  1978.0000     -.0137    27.0469    17.7734     4.4687     2.5234  3390.0000
 2951.7320    12.8125  1977.0000     -.0171    22.8750    17.5293     4.2578     2.5117  3370.0000
 2951.8844    12.7578  1977.0000     -.0171    18.9219    16.2109     4.1445     2.4961  3390.0000
 2952.0368    12.7578  1976.0000     -.0132    17.8906    17.1875     4.1680     2.4961  3354.0000
 2952.1892    12.7578  1975.0000     -.0156    19.4219    16.8457     4.2539     2.4902  3354.0000
 2952.3416    12.7734  1974.0000     -.0186    19.2813    17.3828     4.1094     2.4883  3354.0000
 2952.4940    12.7734  1974.0000     -.0220    19.3281    16.9922     4.1953     2.4844  3374.0000
 2952.6464    12.7734  1973.0000     -.0166    21.9688    15.8691     4.3281     2.4961  3374.0000
 2952.7988    12.7578  1973.0000     -.0146    23.2656    16.0645     4.7109     2.5156  3380.0000
 2952.9512    12.7578  1973.0000     -.0171    23.7969    16.4551     4.6602     2.5273  3370.0000
 2953.1036    12.7578  1973.0000     -.0234    21.2344    17.8223     4.5859     2.5195  3380.0000
 2953.2560    12.7578  1972.0000     -.0278    18.6406    17.3340     4.3398     2.5059  3380.0000
 2953.4084    12.7578  1971.0000     -.0195    19.8438    16.2109     4.3242     2.5098  3370.0000
 2953.5608    12.7734  1972.0000     -.0107    21.5469    15.3320     4.1328     2.5215  3360.0000
 2953.7132    12.7578  1972.0000     -.0068    21.8125    16.7480     4.2969     2.5254  3360.0000
 2953.8656    12.7578  1973.0000     -.0073    21.0938    18.1641     4.0312     2.5254  3364.0000
 2954.0180    12.7500  1973.0000     -.0190    19.1406    18.7988     4.1562     2.5078  3380.0000
 2954.1704    12.7500  1974.0000     -.0215    21.6563    19.1406     3.9785     2.5000  3380.0000
 2954.3228    12.7734  1974.0000     -.0142    23.2031    19.7266     4.1367     2.4980  3380.0000
 2954.4752    12.7500  1973.0000     -.0098    25.7500    20.7520     4.0664     2.4961  3374.0000
 2954.6276    12.7500  1973.0000     -.0083    23.0156    19.9219     4.1133     2.4902  3370.0000
 2954.7800    12.7500  1973.0000     -.0176    18.8906    19.8730     4.2148     2.4746  3410.0000
 2954.9324    12.7500  1973.0000     -.0205    16.5781    19.0918     4.1328     2.4727  3414.0000
 2955.0848    12.7500  1972.0000     -.0166    17.5313    19.8242     4.4336     2.4805  3390.0000
 2955.2372    12.7344  1973.0000     -.0166    17.8125    18.8477     4.3516     2.4863  3384.0000
 2955.3896    12.7344  1973.0000     -.0107    17.5781    19.2383     4.3203     2.4922  3350.0000
 2955.5420    12.7344  1974.0000     -.0151    15.0391    19.0430     4.2656     2.4805  3364.0000
 2955.6944    12.7344  1975.0000     -.0181    16.2656    19.8730     4.3594     2.4766  3364.0000
 2955.8468    12.7344  1975.0000     -.0249    16.2500    18.3105     4.5391     2.4687  3364.0000
 2955.9992    12.7187  1974.0000     -.0278    20.0781    18.3105     4.3008     2.4707  3370.0000
 2956.1516    12.7500  1974.0000     -.0239    20.3750    16.6504     4.4258     2.4766  3370.0000
 2956.3040    12.7187  1974.0000     -.0181    21.6563    17.2852     4.7031     2.4922  3370.0000
 2956.4564    12.6953  1973.0000     -.0205    19.8750    18.0176     5.1133     2.4941  3370.0000
 2956.6088    12.6953  1972.0000     -.0205    19.3594    18.4082     4.6211     2.4980  3364.0000
 2956.7612    12.6953  1972.0000     -.0293    17.8281    18.5547     4.3086     2.4844  3364.0000
 2956.9136    12.6406  1972.0000     -.0215    18.3594    16.7480     3.9902     2.4922  3360.0000
 2957.0660    12.6563  1973.0000     -.0190    20.4063    16.4063     4.3086     2.5020  3360.0000
 2957.2184    12.6563  1973.0000     -.0093    21.6719    17.6270     4.4258     2.5137  3370.0000
 2957.3708    12.6406  1972.0000     -.0122    21.3750    17.7734     4.3906     2.5137  3370.0000
 2957.5232    12.6563  1972.0000     -.0181    20.5781    18.1641     4.1602     2.4980  3374.0000
 2957.6756    12.6406  1972.0000     -.0176    20.8438    17.4805     4.0078     2.5039  3380.0000
 2957.8280    12.6406  1973.0000     -.0186    22.9063    17.9199     3.9336     2.4980  3390.0000
 2957.9804    12.6406  1974.0000     -.0137    24.2031    19.0918     4.1953     2.5195  3380.0000
 2958.1328    12.6250  1974.0000     -.0151    23.6719    19.4336     4.2773     2.5195  3380.0000
 2958.2852    12.6172  1975.0000     -.0176    20.6250    19.6777     4.2227     2.5117  3384.0000
 2958.4376    12.6172  1977.0000     -.0234    19.3594    18.9453     4.0742     2.4883  3400.0000
 2958.5900    12.6016  1978.0000     -.0259    17.8438    18.1641     4.0391     2.4785  3424.0000
 2958.7424    12.6172  1978.0000     -.0142    20.3438    17.8223     4.1758     2.5039  3350.0000
 2958.8948    12.6172  1977.0000     -.0151    22.5625    17.1875     3.8926     2.5020  3340.0000
 2959.0472    12.6172  1975.0000      .0034    26.5938    17.3828     4.0078     2.5312  3390.0000
 2959.1996    12.5469  1975.0000     -.0059    26.5938    17.0898     4.0391     2.5254  3400.0000
 2959.3520    12.5313  1973.0000      .0034    23.0937    17.1387     4.3516     2.5508  3400.0000
 2959.5044    12.5313  1974.0000     -.0132    19.8125    16.1621     4.1992     2.5352  3370.0000
 2959.6568    12.5469  1973.0000     -.0132    21.1563    14.4531     4.2773     2.5215  3390.0000
 2959.8092    12.5625  1974.0000     -.0103    23.4375    13.4766     4.2148     2.5293  3390.0000
 2959.9616    12.5313  1975.0000     -.0098    25.5469    14.4043     4.1016     2.5254  3380.0000
 2960.1140    12.5313  1976.0000     -.0088    21.4531    15.5273     3.9023     2.5273  3370.0000
 2960.2664    12.5313  1977.0000     -.0166    18.1406    16.8457     4.1406     2.5117  3374.0000
 2960.4188    12.5313  1976.0000     -.0200    15.0078    16.4551     4.3594     2.5020  3400.0000
 2960.5712    12.5313  1976.0000     -.0161    15.7422    15.7227     4.4766     2.5039  3390.0000
 2960.7236    12.5313  1975.0000     -.0161    17.2344    16.3086     4.2148     2.5059  3360.0000
 2960.8760    12.5313  1974.0000     -.0073    19.5156    16.9922     4.0586     2.5156  3360.0000
 2961.0284    12.5313  1973.0000     -.0020    20.7969    18.0176     4.2578     2.5293  3350.0000
 2961.1808    12.5313  1973.0000      .0005    20.0469    16.8457     4.3711     2.5332  3404.0000
 2961.3332    12.5313  1973.0000     -.0068    19.5625    16.1621     4.4297     2.5293  3340.0000
 2961.4856    12.5313  1973.0000     -.0103    20.8750    15.3320     4.2148     2.5273  3350.0000
