~VERSION INFORMATION
VERS.                                                 2.0:   CWLS Log ASCII Standard-VERSION 2.0
WRAP.                                                  NO:   One line per depth step
~Well Information Block
STRT.M                                           480.4136:   Top Depth
STOP.M                                          3575.6576:   Bottom Depth
STEP.M                                             .15240:   Depth Increment
NULL.                                            -999.250:   Null Value
FLD .                                                   -:   Field Name
WELL.                                             15/9-14:   NAME
WBN .                                             15/9-14:   WELLBORE
NATI.                                                 NOR:   COUNTRY
CTRY.                                                 NOR:   COUNTRY
COMP.                                             STATOIL:   OPERATOR
PROV.                                           NORTH SEA:   PROVINCE
COUN.                                        DEEPSEA SAGA:   RIG NAME
SPUD.                                          1982/05/01:   SPUD DATE
LATI.                                       58 17 23.19 N:   SURF. LATITUDE
LONG.                                        1 41 28.06 E:   SURF. LONGITUDE
PBWE.                                             15/9-14:   PB WELL ID
APIN.                                             15/9-14:   PB WELLBORE ID
PBWS.                                                 all:   PB WELL NAME SET
~PARAMETER INFORMATION (log)
LNAM.                              LDT/CNL/GR  COMPOSITED:   NAME
LTYP.                                         DEPTH MATCH:   LOG TYPE
LSRV.                                           LATEROLOG:   LOG SERVICE
LSOU.                                             SPT/NPD:   LOG SOURCE
LVSN.                                                   1:   LOG VERSION
BHIS.                                                   R:   BRIEF HISTORY
FHIS.                                             RAW-LIS:   FULL HISTORY
LCNM.                                        SCHLUMBERGER:   LOGGING CONTRACTOR
TOOL.                             LDT/CNL/GR (COMPOSITED):   TOOL STRING
~Curve Information Block
#MNEM.UNIT                                        API CODE    No Description
#=========                                        ========    == ===========
DEPT.M                                       00 001 00 00:     1  DEPTH
CALI.IN                                                  :     2  Caliper
CS.                                                      :     3  Cable Speed
DRHO.G/CC                                                :     4  Bulk density correction
GR.GAPI                                                  :     5  Gamma Ray
NPHI.%                                                   :     6  Neutron porosity
PEF.B/E                                                  :     7  Photo-electric factor
RHOB.G/CC                                                :     8  Bulk density
TENS.LB                                                  :     9  Cable Tension
~ASCII
# ...
 1924.7084    12.3750  1900.0000      .0620    72.8125    47.4609     2.8223     1.8770  2374.0000
 1924.8608    12.1875  1900.0000      .0391    73.3125    45.7520     3.0352     1.8770  2350.0000
 1925.0132    12.2266  1900.0000      .0137    69.5000    46.1426     3.0254     1.9150  2350.0000
 1925.1656    12.3281  1900.0000      .0078    65.1250    47.9492     4.2812     2.0566  2380.0000
 1925.3180    12.3281  1900.0000     -.0054    54.4375    45.0195     3.2988     2.2383  2364.0000
 1925.4704    12.5625  1900.0000     -.0254    48.3750    45.8984     3.0410     2.2930  2370.0000
 1925.6228    12.7500  1901.0000     -.0400    49.2187    41.8945     2.8145     1.8936  2380.0000
 1925.7752    13.2813  1902.0000     -.0195    56.5312    45.9961     2.8984     1.6836  2354.0000
 1925.9276    13.2813  1903.0000      .0190    64.7500    47.2168     3.0234     1.6191  2350.0000
 1926.0800    13.2422  1903.0000      .0361    64.8125    49.5117     3.0703     1.6904  2360.0000
 1926.2324    13.1484  1903.0000      .0659    67.3125    49.5605     3.1094     1.7754  2350.0000
 1926.3848    13.2344  1903.0000      .0566    66.8750    49.9023     2.9414     1.8145  2350.0000
 1926.5372    13.5234  1903.0000      .0508    70.7500    50.3418     2.8437     1.8760  2374.0000
 1926.6896    13.2734  1903.0000      .0454    71.1250    54.4922     2.7988     1.9268  2380.0000
 1926.8420    12.8281  1902.0000      .0679    70.6250    51.9531     2.8613     1.9346  2370.0000
 1926.9944    12.7734  1902.0000      .0669    71.7500    50.5371     2.9102     1.9023  2380.0000
 1927.1468    12.4922  1901.0000      .0591    70.4375    49.0723     2.9648     1.8877  2480.0000
 1927.2992    12.5078  1902.0000      .0542    72.8125    52.1973     3.1582     1.9102  2434.0000
 1927.4516    12.5703  1903.0000      .0645    74.8750    50.5859     3.3242     1.9307  2384.0000
 1927.6040    13.0156  1902.0000      .0908    74.5000    45.3613     3.2676     1.9814  2364.0000
 1927.7564    12.4766  1902.0000      .0947    75.5000    50.0488     3.1660     2.0176  2424.0000
 1927.9088    13.0000  1902.0000      .0923    68.5000    51.0742     2.9980     2.0684  2410.0000
 1928.0612    12.5313  1902.0000      .0518    69.9375    53.9551     2.9629     2.0469  2390.0000
 1928.2136    12.8438  1903.0000      .0146    65.8750    49.7070     2.8574     2.0273  2364.0000
 1928.3660    13.5156  1904.0000      .0088    67.1875    53.5645     2.8223     2.0098  2360.0000
 1928.5184    12.9766  1904.0000      .0117    65.5000    55.8105     2.7656     2.0078  2340.0000
 1928.6708    14.3437  1905.0000      .0283    64.7500    54.6387     2.6543     2.0195  2350.0000
 1928.8232    15.7109  1905.0000      .0171    63.9375    51.5137     2.6270     2.0234  2394.0000
 1928.9756    15.9531  1905.0000      .0146    68.0625    51.9531     2.6191     2.0430  2390.0000
 1929.1280    15.5703  1904.0000      .0054    68.9375    48.9258     2.7578     2.0488  2374.0000
 1929.2804    14.3203  1903.0000      .0020    73.1875    50.2930     2.6914     2.0410  2394.0000
 1929.4328    12.6016  1904.0000     -.0020    72.5625    46.3379     2.9180     2.0059  2350.0000
 1929.5852    12.8125  1902.0000      .0088    75.0625    50.0000     3.0859     1.9600  2400.0000
 1929.7376    13.7969  1902.0000      .0396    69.7500    47.2168     3.4141     1.9395  2420.0000
 1929.8900    15.5000  1902.0000      .0796    67.1250    47.4609     3.3496     1.9707  2400.0000
 1930.0424    16.5000  1902.0000      .0830    65.8750    46.4355     3.1133     2.0039  2380.0000
 1930.1948    16.9219  1902.0000      .0640    67.6250    47.1680     3.0625     2.0312  2410.0000
 1930.3472    17.7813  1903.0000      .0513    66.3750    44.0918     3.1875     2.0195  2364.0000
 1930.4996    18.0938  1904.0000      .0752    67.9375    48.6816     3.2910     2.0273  2330.0000
 1930.6520    18.1875  1902.0000      .0962    68.0000    50.4883     3.3711     2.0254  2360.0000
 1930.8044    17.8750  1901.0000      .1030    66.2500    55.5176     3.2324     2.0254  2370.0000
 1930.9568    15.8359  1901.0000      .0732    64.4375    49.3164     3.2832     1.9922  2390.0000
 1931.1092    17.4219  1901.0000      .0708    64.1875    49.4141     3.3066     2.0078  2414.0000
 1931.2616    16.5156  1901.0000      .0713    66.0625    49.0723     3.2871     2.0117  2444.0000
 1931.4140    16.8750  1901.0000      .0859    63.2500    50.5859     3.2637     2.0352  2450.0000
 1931.5664    16.9531  1901.0000      .1001    63.1875    49.0723     3.1523     2.0391  2364.0000
 1931.7188    13.9687  1902.0000      .1035    65.9375    49.9023     3.0156     2.0469  2370.0000
 1931.8712    15.2344  1902.0000      .0840    67.7500    52.9785     2.9570     2.0176  2394.0000
 1932.0236    14.2891  1903.0000      .0542    68.4375    53.3691     2.9805     1.9951  2370.0000
 1932.1760    15.4453  1902.0000      .0269    69.5000    49.3652     3.0762     1.9756  2340.0000
 1932.3284    16.4688  1902.0000      .0327    71.6250    49.5605     3.1113     1.9990  2370.0000
 1932.4808    16.5156  1903.0000      .0483    69.1875    50.2441     3.1953     1.9512  2400.0000
 1932.6332    17.0156  1902.0000      .0723    66.8125    56.8848     3.2266     1.9170  2384.0000
 1932.7856    16.9688  1902.0000      .0937    64.5625    54.0039     3.4570     1.9189  2390.0000
 1932.9380    14.8516  1902.0000      .0859    66.2500    54.8828     3.5801     1.9502  2380.0000
 1933.0904    15.4062  1902.0000      .0786    63.4688    52.4414     3.6660     1.9521  2360.0000
 1933.2428    16.9219  1901.0000      .0469    62.9063    51.1230     3.5566     1.9268  2390.0000
 1933.3952    17.3281  1901.0000      .0386    61.6875    50.2441     3.2539     1.9102  2380.0000
 1933.5476    17.0469  1901.0000      .0410    61.6875    47.4121     3.1934     1.9229  2430.0000
 1933.7000    16.4375  1900.0000      .0508    58.8750    46.0449     3.1035     1.8848  2404.0000
 1933.8524    16.4844  1899.0000      .0439    60.1250    47.9004     3.0664     1.8652  2360.0000
 1934.0048    17.2344  1898.0000      .0376    57.5625    48.5840     3.0586     1.8818  2390.0000
 1934.1572    17.2188  1897.0000      .0381    61.4062    51.6113     3.0254     1.9297  2350.0000
 1934.3096    16.2188  1897.0000      .0620    56.0313    49.5605     3.1035     1.9727  2260.0000
 1934.4620    14.6406  1898.0000      .0508    55.5625    50.9277     3.2832     1.9932  2410.0000
 1934.6144    12.8516  1897.0000      .0298    50.7812    50.0488     3.9941     2.1074  2604.0000
 1934.7668    13.3359  1897.0000     -.0073    50.7812    46.5332     3.6543     2.2422  2524.0000
 1934.9192    13.6328  1897.0000     -.0103    48.5625    44.0430     3.4004     2.1582  2410.0000
 1935.0716    14.2656  1897.0000      .0093    50.2500    47.5098     2.8887     1.9766  2360.0000
 1935.2240    15.6328  1896.0000      .0806    50.4375    50.5371     2.6660     1.9385  2400.0000
 1935.3764    16.2188  1896.0000      .1172    53.9062    53.8574     2.6992     1.9355  2420.0000
 1935.5288    15.5391  1896.0000      .0869    54.9063    52.0508     2.8516     1.8213  2410.0000
 1935.6812    15.1797  1897.0000      .0771    56.4062    54.0039     3.1660     1.7607  2364.0000
 1935.8336    16.1875  1896.0000      .0396    57.9375    53.2227     3.0762     1.7393  2320.0000
 1935.9860    16.7500  1897.0000      .0718    56.6250    49.6094     3.0234     1.8418  2404.0000
 1936.1384    15.5937  1897.0000      .0859    57.0625    49.6582     3.0820     1.8379  2440.0000
 1936.2908    14.8516  1898.0000      .1089    57.0938    53.7109     3.2773     1.8564  2360.0000
 1936.4432    13.8984  1898.0000      .0864    58.3438    54.8828     3.2910     1.8818  2404.0000
 1936.5956    12.7500  1899.0000      .0591    63.1250    54.4434     2.9746     1.9746  2490.0000
 1936.7480    12.1953  1900.0000      .0269    67.3750    48.6816     2.7734     2.0254  2420.0000
 1936.9004    12.8047  1901.0000      .0078    72.8750    46.7285     2.6328     2.0449  2370.0000
