~VERSION INFORMATION
VERS.                                                 2.0:   CWLS Log ASCII Standard-VERSION 2.0
WRAP.                                                  NO:   One line per depth step
~Well Information Block
STRT.M                                           175.7660:   Top Depth
STOP.M                                          4145.7860:   Bottom Depth
STEP.M                                             .15240:   Depth Increment
NULL.                                            -999.250:   Null Value
FLD .                                             WILDCAT:   Field Name
WELL.                                              15/3-5:   NAME
WBN .                                              15/3-5:   WELLBORE
NATI.                                                 NOR:   COUNTRY
CTRY.                                                 NOR:   COUNTRY
COMP.                             ELF AQUITAINE NORGE A/S:   OPERATOR
PROV.                                            OFFSHORE:   PROVINCE
COUN.                                      BYFORD DOLPHIN:   RIG NAME
SPUD.                                          1983/12/20:   SPUD DATE
LATI.                                       58 47 13.04 N:   SURF. LATITUDE
LONG.                                        1 50 34.11 E:   SURF. LONGITUDE
PBWE.                                              15/3-5:   PB WELL ID
APIN.                                              15/3-5:   PB WELLBORE ID
PBWS.                                                 all:   PB WELL NAME SET
~PARAMETER INFORMATION (log)
LNAM.                             LDT/CNL/NGT  COMPOSITED:   NAME
LTYP.                                         DEPTH MATCH:   LOG TYPE
LSRV.                                           LATEROLOG:   LOG SERVICE
LSOU.                                             SPT/NPD:   LOG SOURCE
LVSN.                                                   1:   LOG VERSION
BHIS.                                                   R:   BRIEF HISTORY
FHIS.                                             RAW-LIS:   FULL HISTORY
LCNM.                                              TELECO:   LOGGING CONTRACTOR
TOOL.                            LDT/CNL/NGT (COMPOSITED):   TOOL STRING
~Curve Information Block
#MNEM.UNIT                                        API CODE    No Description
#=========                                        ========    == ===========
DEPT.M                                       00 001 00 00:     1  DEPTH
CALI.IN                                                  :     2  Caliper
CGR.GAPI                                                 :     3  Gamma Ray
CS.                                                      :     4  Cable Speed
DRHO.G/CC                                                :     5  Bulk density correction
GR.GAPI                                                  :     6  Gamma Ray
NPHI.%                                                   :     7  Neutron porosity
PEF.B/E                                                  :     8  Photo-electric factor
POTA.                                                    :     9  Potassium
RHOB.G/CC                                                :    10  Bulk density
TENS.LB                                                  :    11  Cable Tension
THOR.PPM                                                 :    12  Thorium
URAN.PPM                                                 :    13  Uranium
~ASCII
# ...
 4135.7276     6.4686     3.6113  -999.2500      .0950    32.9688     9.0593  -999.2500      .0049     2.5123  3848.3921    -1.0781     3.6895
 4135.8800     6.4609     3.6113  -999.2500      .0937    32.9688     9.2143  -999.2500      .0049     2.5089  3818.2959    -1.0781     3.6895
 4136.0324     6.4609     3.6113  -999.2500      .0858    32.9688     9.2191  -999.2500      .0049     2.5021  3762.0386    -1.0781     3.6895
 4136.1848     6.4609     3.6113  -999.2500      .0812    32.9688     9.1309  -999.2500      .0049     2.4986  3700.0127    -1.0781     3.6895
 4136.3372     6.4609     3.6113  -999.2500      .0784    32.9688     9.1309  -999.2500      .0049     2.4952  3661.8384    -1.0781     3.6895
 4136.4896     6.4029     3.6113  -999.2500      .0802    32.9688     9.3276  -999.2500      .0049     2.4927  3628.7461    -1.0781     3.6895
 4136.6420     6.3741     3.6113  -999.2500      .0883    32.9688     9.5294  -999.2500      .0049     2.5009  3582.7007    -1.0781     3.6895
 4136.7944     6.3711     3.6113  -999.2500      .0941    32.9688     9.6276  -999.2500      .0049     2.5068  3528.0449    -1.0781     3.6895
 4136.9468     6.3711     3.6113  -999.2500      .0978    32.9688     9.6098  -999.2500      .0049     2.5122  3468.7095    -1.0781     3.6895
 4137.0992     6.3711     3.6113  -999.2500      .0938    32.9688     9.5116  -999.2500      .0049     2.5077  3431.2344    -1.0781     3.6895
 4137.2516     6.3711     3.6113  -999.2500      .0889    32.9688     9.3542  -999.2500      .0049     2.5014  3398.1729    -1.0781     3.6895
 4137.4040     6.3711     3.6113  -999.2500      .0879    32.9688     9.2170  -999.2500      .0049     2.4940  3362.3613    -1.0781     3.6895
 4137.5564     6.3711     3.6113  -999.2500      .0890    32.9688     9.2714  -999.2500      .0049     2.4922  3320.0449    -1.0781     3.6895
 4137.7088     6.3711     3.6113  -999.2500      .0935    32.9688     9.2954  -999.2500      .0049     2.4952  3266.6045    -1.0781     3.6895
 4137.8612     6.3711     3.6113  -999.2500      .0898    32.9688     9.3704  -999.2500      .0049     2.4946  3215.0933    -1.0781     3.6895
 4138.0136     6.3711     3.6113  -999.2500      .0899    32.9688     9.2671  -999.2500      .0049     2.4987  3172.6450    -1.0781     3.6895
 4138.1660     6.3711     3.6113  -999.2500      .0911    32.9688     9.3063  -999.2500      .0049     2.5031  3176.6045    -1.0781     3.6895
 4138.3184     6.3711     3.6113  -999.2500      .0936    32.9688     9.3431  -999.2500      .0049     2.5024  3175.2539    -1.0781     3.6895
 4138.4708     6.3711     3.6113  -999.2500      .0977    32.9688     9.4232  -999.2500      .0049     2.5082  3162.8809    -1.0781     3.6895
 4138.6232     6.3711     3.6113  -999.2500      .0963    32.9688     9.5054  -999.2500      .0049     2.5067  3152.0254    -1.0781     3.6895
 4138.7756     6.3711     3.6113  -999.2500      .0933    32.9688     9.5547  -999.2500      .0049     2.5074  3145.1768    -1.0781     3.6895
 4138.9280     6.3711     3.6113  -999.2500      .0880    32.9688     9.5703  -999.2500      .0049     2.4999  3144.0000    -1.0781     3.6895
 4139.0804     6.3711     3.6113  -999.2500      .0802    32.9688     9.5703  -999.2500      .0049     2.4869  3148.8809    -1.0781     3.6895
 4139.2328     6.3711     3.6113  -999.2500      .0742    32.9688     9.5703  -999.2500      .0049     2.4780  3150.0000    -1.0781     3.6895
 4139.3852     6.3711     3.6113  -999.2500      .0700    32.9688     9.5703  -999.2500      .0049     2.4702  3141.8003    -1.0781     3.6895
 4139.5376     6.3711     3.6113  -999.2500      .0830    32.9688     9.5703  -999.2500      .0049     2.4881  3126.7871    -1.0781     3.6895
 4139.6900     6.3711     3.6113  -999.2500      .0965    32.9688     9.5703  -999.2500      .0049     2.5068  3120.6816    -1.0781     3.6895
 4139.8424     6.3711     3.6113  -999.2500      .1039    32.9688     9.5703  -999.2500      .0049     2.5195  3120.0000    -1.0781     3.6895
 4139.9948     6.3711     3.6113  -999.2500      .0964    32.9688     9.5703  -999.2500      .0049     2.5101  3123.3418    -1.0781     3.6895
 4140.1472     6.3711     3.6113  -999.2500      .0910    32.9688     9.5703  -999.2500      .0049     2.5012  3120.6299    -1.0781     3.6895
 4140.2996     6.3711     3.6113  -999.2500      .0862    32.9688     9.5703  -999.2500      .0049     2.4967  3114.9258    -1.0781     3.6895
 4140.4520     6.3711     3.6113  -999.2500      .0900    32.9688     9.5703  -999.2500      .0049     2.5027  3110.6045    -1.0781     3.6895
 4140.6044     6.3711     3.6113  -999.2500      .0908    32.9688     9.5703  -999.2500      .0049     2.5022  3110.0000    -1.0781     3.6895
 4140.7568     6.3711     3.6113  -999.2500      .0904    32.9688     9.5703  -999.2500      .0049     2.5020  3110.0000    -1.0781     3.6895
 4140.9092     6.3711     3.6113  -999.2500      .0878    32.9688     9.5703  -999.2500      .0049     2.4969  3118.6172    -1.0781     3.6895
 4141.0616     6.3711     3.6113  -999.2500      .0853    32.9688     9.5703  -999.2500      .0049     2.4995  3128.6772    -1.0781     3.6895
 4141.2140     6.3711     3.6113  -999.2500      .0773    32.9688     9.5703  -999.2500      .0049     2.4898  3116.0576    -1.0781     3.6895
 4141.3664     6.3711     3.6113  -999.2500      .0715    32.9688     9.5703  -999.2500      .0049     2.4866  3114.0000    -1.0781     3.6895
 4141.5188     6.3711     3.6113  -999.2500      .0669    32.9688     9.5703  -999.2500      .0049     2.4778  3096.4438    -1.0781     3.6895
 4141.6712     6.3711     3.6113  -999.2500      .0750    32.9688     9.5703  -999.2500      .0049     2.4886  3102.8384    -1.0781     3.6895
 4141.8236     6.3711     3.6113  -999.2500      .0848    32.9688     9.5703  -999.2500      .0049     2.4937  3109.3247    -1.0781     3.6895
 4141.9760     6.3711     3.6113  -999.2500      .0885    32.9688     9.5703  -999.2500      .0049     2.4959  3104.6558    -1.0781     3.6895
 4142.1284     6.3711     3.6113  -999.2500      .0889    32.9688     9.5703  -999.2500      .0049     2.4943  3082.4775    -1.0781     3.6895
 4142.2808     6.3711     3.6113  -999.2500      .0845    32.9688     9.5703  -999.2500      .0049     2.4941  3070.9966    -1.0781     3.6895
 4142.4332     6.3711     3.6113  -999.2500      .0888    32.9688     9.5703  -999.2500      .0049     2.5012  3070.0000    -1.0781     3.6895
 4142.5856     6.3711     3.6113  -999.2500      .0951    32.9688     9.5703  -999.2500      .0049     2.5055  3070.0000    -1.0781     3.6895
 4142.7380     6.3711     3.6113  -999.2500      .1006    32.9688     9.5703  -999.2500      .0049     2.5059  3079.1343    -1.0781     3.6895
 4142.8904     6.3711     3.6113  -999.2500      .1073    32.9688     9.5703  -999.2500      .0049     2.5094  3056.1733    -1.0781     3.6895
 4143.0428     6.3711     3.6113  -999.2500      .1093    32.9688     9.5703  -999.2500      .0049     2.5098  3050.3213    -1.0781     3.6895
 4143.1952     6.3711     3.6113  -999.2500      .1085    32.9688     9.5703  -999.2500      .0049     2.5152  3059.2578    -1.0781     3.6895
 4143.3476     6.3711     3.6113  -999.2500      .1102    32.9688     9.5703  -999.2500      .0049     2.5211  3073.0098    -1.0781     3.6895
 4143.5000     6.3711     3.6113  -999.2500      .1104    32.9688     9.5703  -999.2500      .0049     2.5233  3074.0000    -1.0781     3.6895
 4143.6524     6.3711     3.6113  -999.2500      .1172    32.9688     9.5703  -999.2500      .0049     2.5271  3055.2256    -1.0781     3.6895
 4143.8048     6.3711     3.6113  -999.2500      .1140    32.9688     9.5703  -999.2500      .0049     2.5255  3050.2314    -1.0781     3.6895
 4143.9572     6.3711     3.6113  -999.2500      .1165    32.9688     9.5703  -999.2500      .0049     2.5272  3068.8462    -1.0781     3.6895
 4144.1096     6.3711     3.6113  -999.2500      .1223    32.9688     9.5703  -999.2500      .0049     2.5310  3073.7939    -1.0781     3.6895
