~VERSION INFORMATION
VERS.                                                 2.0:   CWLS Log ASCII Standard-VERSION 2.0
WRAP.                                                  NO:   One line per depth step
~Well Information Block
STRT.M                                           175.7660:   Top Depth
STOP.M                                          4145.7860:   Bottom Depth
STEP.M                                             .15240:   Depth Increment
NULL.                                            -999.250:   Null Value
FLD .                                             WILDCAT:   Field Name
WELL.                                              15/3-5:   NAME
WBN .                                              15/3-5:   WELLBORE
NATI.                                                 NOR:   COUNTRY
CTRY.                                                 NOR:   COUNTRY
COMP.                             ELF AQUITAINE NORGE A/S:   OPERATOR
PROV.                                            OFFSHORE:   PROVINCE
COUN.                                      BYFORD DOLPHIN:   RIG NAME
SPUD.                                          1983/12/20:   SPUD DATE
LATI.                                       58 47 13.04 N:   SURF. LATITUDE
LONG.                                        1 50 34.11 E:   SURF. LONGITUDE
PBWE.                                              15/3-5:   PB WELL ID
APIN.                                              15/3-5:   PB WELLBORE ID
PBWS.                                                 all:   PB WELL NAME SET
~PARAMETER INFORMATION (log)
LNAM.                             LDT/CNL/NGT  COMPOSITED:   NAME
LTYP.                                         DEPTH MATCH:   LOG TYPE
LSRV.                                           LATEROLOG:   LOG SERVICE
LSOU.                                             SPT/NPD:   LOG SOURCE
LVSN.                                                   1:   LOG VERSION
BHIS.                                                   R:   BRIEF HISTORY
FHIS.                                             RAW-LIS:   FULL HISTORY
LCNM.                                              TELECO:   LOGGING CONTRACTOR
TOOL.                            LDT/CNL/NGT (COMPOSITED):   TOOL STRING
~Curve Information Block
#MNEM.UNIT                                        API CODE    No Description
#=========                                        ========    == ===========
DEPT.M                                       00 001 00 00:     1  DEPTH
CALI.IN                                                  :     2  Caliper
CGR.GAPI                                                 :     3  Gamma Ray
CS.                                                      :     4  Cable Speed
DRHO.G/CC                                                :     5  Bulk density correction
GR.GAPI                                                  :     6  Gamma Ray
NPHI.%                                                   :     7  Neutron porosity
PEF.B/E                                                  :     8  Photo-electric factor
POTA.                                                    :     9  Potassium
RHOB.G/CC                                                :    10  Bulk density
TENS.LB                                                  :    11  Cable Tension
THOR.PPM                                                 :    12  Thorium
URAN.PPM                                                 :    13  Uranium
~ASCII
# ...
  448.8668    18.4408  -999.2500  -999.2500     -.0094    69.9306  -999.2500     2.3711  -999.2500     2.1933   802.0095  -999.2500  -999.2500
  449.0192    18.4180  -999.2500  -999.2500     -.0089    67.3969  -999.2500     2.3455  -999.2500     2.1946   805.3474  -999.2500  -999.2500
  449.1716    18.3658  -999.2500  -999.2500     -.0079    67.1161  -999.2500     2.3408  -999.2500     2.1970   808.4901  -999.2500  -999.2500
  449.3240    18.3174  -999.2500  -999.2500     -.0068    69.0818  -999.2500     2.3411  -999.2500     2.2005   811.1167  -999.2500  -999.2500
  449.4764    18.2704  -999.2500  -999.2500     -.0054    71.2440  -999.2500     2.3378  -999.2500     2.2037   813.7432  -999.2500  -999.2500
  449.6288    18.1759  -999.2500  -999.2500     -.0032    72.6271  -999.2500     2.2790  -999.2500     2.2056   816.3632  -999.2500  -999.2500
  449.7812    18.0976  -999.2500  -999.2500     -.0010    73.6031  -999.2500     2.1915  -999.2500     2.2048   818.7856  -999.2500  -999.2500
  449.9336    18.0889  -999.2500  -999.2500      .0009    74.4574  -999.2500     2.1395  -999.2500     2.2017   819.1021  -999.2500  -999.2500
  450.0860    18.0584  -999.2500  -999.2500      .0044    75.0159  -999.2500     2.1578  -999.2500     2.1960   819.4185  -999.2500  -999.2500
  450.2384    18.0585  -999.2500  -999.2500      .0042    74.3962  -999.2500     2.1765  -999.2500     2.1881   819.7349  -999.2500  -999.2500
  450.3908    18.0591  -999.2500  -999.2500      .0042    72.3532  -999.2500     2.1555  -999.2500     2.1766   816.3956  -999.2500  -999.2500
  450.5432    18.0596  -999.2500  -999.2500      .0048    69.7966  -999.2500     2.1580  -999.2500     2.1651   812.5912  -999.2500  -999.2500
  450.6956    18.0602  -999.2500  -999.2500      .0097    68.3619  -999.2500     2.1942  -999.2500     2.1554   804.6718  -999.2500  -999.2500
  450.8480    18.0608  -999.2500  -999.2500      .0171    68.2435  -999.2500     2.2244  -999.2500     2.1530   793.6664  -999.2500  -999.2500
  451.0004    18.0613  -999.2500  -999.2500      .0236    68.7879  -999.2500     2.2360  -999.2500     2.1544   807.9315  -999.2500  -999.2500
  451.1528    18.0737  -999.2500  -999.2500      .0228    68.8776  -999.2500     2.2214  -999.2500     2.1537   811.4543  -999.2500  -999.2500
  451.3052    18.0766  -999.2500  -999.2500      .0177    67.9001  -999.2500     2.1889  -999.2500     2.1487   811.8813  -999.2500  -999.2500
  451.4576    18.0680  -999.2500  -999.2500      .0127    66.5562  -999.2500     2.1771  -999.2500     2.1402   809.6238  -999.2500  -999.2500
  451.6100    18.0715  -999.2500  -999.2500      .0095    65.1895  -999.2500     2.2101  -999.2500     2.1297   806.1854  -999.2500  -999.2500
  451.7624    18.0864  -999.2500  -999.2500      .0090    63.8283  -999.2500     2.2910  -999.2500     2.1194   804.2057  -999.2500  -999.2500
  451.9148    18.1372  -999.2500  -999.2500      .0124    62.9161  -999.2500     2.3600  -999.2500     2.1188   806.2657  -999.2500  -999.2500
  452.0672    18.1984  -999.2500  -999.2500      .0168    62.3068  -999.2500     2.3560  -999.2500     2.1262   809.4156  -999.2500  -999.2500
  452.2196    18.2595  -999.2500  -999.2500      .0211    62.6033  -999.2500     2.2922  -999.2500     2.1349   812.5664  -999.2500  -999.2500
  452.3720    18.3059  -999.2500  -999.2500      .0253    63.4550  -999.2500     2.1950  -999.2500     2.1371   813.6810  -999.2500  -999.2500
  452.5244    18.3272  -999.2500  -999.2500      .0286    63.9408  -999.2500     2.0898  -999.2500     2.1347   813.9457  -999.2500  -999.2500
  452.6768    18.3165  -999.2500  -999.2500      .0269    63.5008  -999.2500     1.9940  -999.2500     2.1288   810.1433  -999.2500  -999.2500
  452.8292    18.2874  -999.2500  -999.2500      .0204    62.8667  -999.2500     1.9024  -999.2500     2.1144   803.5848  -999.2500  -999.2500
  452.9816    18.2011  -999.2500  -999.2500      .0143    63.2771  -999.2500     1.8188  -999.2500     2.0918   797.4746  -999.2500  -999.2500
  453.1340    18.0891  -999.2500  -999.2500      .0133    64.5488  -999.2500     1.7636  -999.2500     2.0694   795.4478  -999.2500  -999.2500
  453.2864    17.9993  -999.2500  -999.2500      .0172    65.6688  -999.2500     1.7482  -999.2500     2.0556   796.6979  -999.2500  -999.2500
  453.4388    17.9355  -999.2500  -999.2500      .0226    66.3302  -999.2500     1.7594  -999.2500     2.0497   799.0520  -999.2500  -999.2500
  453.5912    17.8949  -999.2500  -999.2500      .0282    66.3907  -999.2500     1.7865  -999.2500     2.0491   801.7197  -999.2500  -999.2500
  453.7436    17.8678  -999.2500  -999.2500      .0343    65.0439  -999.2500     1.8237  -999.2500     2.0550   804.3875  -999.2500  -999.2500
  453.8960    17.8456  -999.2500  -999.2500      .0361    62.1084  -999.2500     1.8675  -999.2500     2.0626   806.1635  -999.2500  -999.2500
  454.0484    17.8426  -999.2500  -999.2500      .0297    59.6331  -999.2500     1.9150  -999.2500     2.0632   806.7604  -999.2500  -999.2500
  454.2008    17.8713  -999.2500  -999.2500      .0195    59.3761  -999.2500     1.9691  -999.2500     2.0569   807.0182  -999.2500  -999.2500
  454.3532    17.9130  -999.2500  -999.2500      .0111    62.3362  -999.2500     2.0277  -999.2500     2.0551   807.2760  -999.2500  -999.2500
  454.5056    17.9453  -999.2500  -999.2500      .0054    67.2675  -999.2500     2.0727  -999.2500     2.0660   806.3296  -999.2500  -999.2500
  454.6580    17.9639  -999.2500  -999.2500      .0002    70.1501  -999.2500     2.0999  -999.2500     2.0823   803.6998  -999.2500  -999.2500
  454.8104    17.9653  -999.2500  -999.2500     -.0047    69.7779  -999.2500     2.1180  -999.2500     2.0882   800.9163  -999.2500  -999.2500
  454.9628    17.9563  -999.2500  -999.2500     -.0078    67.8813  -999.2500     2.1194  -999.2500     2.0875   801.5558  -999.2500  -999.2500
  455.1152    17.9539  -999.2500  -999.2500     -.0074    67.4568  -999.2500     2.0950  -999.2500     2.0827   808.9110  -999.2500  -999.2500
  455.2676    17.9580  -999.2500  -999.2500     -.0065    69.2995  -999.2500     2.0651  -999.2500     2.0785   816.2385  -999.2500  -999.2500
  455.4200    17.9657  -999.2500  -999.2500     -.0067    71.9798  -999.2500     2.0464  -999.2500     2.0793   818.8458  -999.2500  -999.2500
  455.5724    17.9726  -999.2500  -999.2500     -.0076    74.1112  -999.2500     2.0546  -999.2500     2.0856   819.1038  -999.2500  -999.2500
  455.7248    17.9762  -999.2500  -999.2500     -.0085    74.6002  -999.2500     2.0871  -999.2500     2.0958   819.3616  -999.2500  -999.2500
  455.8772    17.9767  -999.2500  -999.2500     -.0094    74.0606  -999.2500     2.1154  -999.2500     2.1032   819.6193  -999.2500  -999.2500
  456.0296    17.9773  -999.2500  -999.2500     -.0097    72.9757  -999.2500     2.1350  -999.2500     2.1073   817.4520  -999.2500  -999.2500
  456.1820    17.9785  -999.2500  -999.2500     -.0080    72.0861  -999.2500     2.1550  -999.2500     2.1116   807.7443  -999.2500  -999.2500
  456.3344    17.9873  -999.2500  -999.2500     -.0031    71.8361  -999.2500     2.1784  -999.2500     2.1227   801.6167  -999.2500  -999.2500
  456.4868    18.0171  -999.2500  -999.2500      .0014    71.8338  -999.2500     2.1993  -999.2500     2.1336   805.6914  -999.2500  -999.2500
  456.6392    18.0468  -999.2500  -999.2500      .0034    71.0816  -999.2500     2.1773  -999.2500     2.1415   809.4985  -999.2500  -999.2500
  456.7916    18.0765  -999.2500  -999.2500      .0046    70.4494  -999.2500     2.1553  -999.2500     2.1466   811.4478  -999.2500  -999.2500
  456.9440    18.1036  -999.2500  -999.2500      .0053    70.5831  -999.2500     2.1396  -999.2500     2.1506   814.0941  -999.2500  -999.2500
  457.0964    18.1111  -999.2500  -999.2500      .0057    71.5089  -999.2500     2.1334  -999.2500     2.1530   829.8475  -999.2500  -999.2500
  457.2488    18.1178  -999.2500  -999.2500      .0057    72.6535  -999.2500     2.1494  -999.2500     2.1530   824.6046  -999.2500  -999.2500
