~VERSION INFORMATION
VERS.                                                 2.0:   CWLS Log ASCII Standard-VERSION 2.0
WRAP.                                                  NO:   One line per depth step
~Well Information Block
STRT.M                                           175.7660:   Top Depth
STOP.M                                          4145.7860:   Bottom Depth
STEP.M                                             .15240:   Depth Increment
NULL.                                            -999.250:   Null Value
FLD .                                             WILDCAT:   Field Name
WELL.                                              15/3-5:   NAME
WBN .                                              15/3-5:   WELLBORE
NATI.                                                 NOR:   COUNTRY
CTRY.                                                 NOR:   COUNTRY
COMP.                             ELF AQUITAINE NORGE A/S:   OPERATOR
PROV.                                            OFFSHORE:   PROVINCE
COUN.                                      BYFORD DOLPHIN:   RIG NAME
SPUD.                                          1983/12/20:   SPUD DATE
LATI.                                       58 47 13.04 N:   SURF. LATITUDE
LONG.                                        1 50 34.11 E:   SURF. LONGITUDE
PBWE.                                              15/3-5:   PB WELL ID
APIN.                                              15/3-5:   PB WELLBORE ID
PBWS.                                                 all:   PB WELL NAME SET
~PARAMETER INFORMATION (log)
LNAM.                             LDT/CNL/NGT  COMPOSITED:   NAME
LTYP.                                         DEPTH MATCH:   LOG TYPE
LSRV.                                           LATEROLOG:   LOG SERVICE
LSOU.                                             SPT/NPD:   LOG SOURCE
LVSN.                                                   1:   LOG VERSION
BHIS.                                                   R:   BRIEF HISTORY
FHIS.                                             RAW-LIS:   FULL HISTORY
LCNM.                                              TELECO:   LOGGING CONTRACTOR
TOOL.                            LDT/CNL/NGT (COMPOSITED):   TOOL STRING
~Curve Information Block
#MNEM.UNIT                                        API CODE    No Description
#=========                                        ========    == ===========
DEPT.M                                       00 001 00 00:     1  DEPTH
CALI.IN                                                  :     2  Caliper
CGR.GAPI                                                 :     3  Gamma Ray
CS.                                                      :     4  Cable Speed
DRHO.G/CC                                                :     5  Bulk density correction
GR.GAPI                                                  :     6  Gamma Ray
NPHI.%                                                   :     7  Neutron porosity
PEF.B/E                                                  :     8  Photo-electric factor
POTA.                                                    :     9  Potassium
RHOB.G/CC                                                :    10  Bulk density
TENS.LB                                                  :    11  Cable Tension
THOR.PPM                                                 :    12  Thorium
URAN.PPM                                                 :    13  Uranium
~ASCII
# ...
 2821.4300    13.8125    31.2813   926.5000     -.0238    38.6563  -999.2500     4.6992      .0073     2.5269  2560.0000     4.8984      .8931
 2821.5824    13.8125    31.5781   927.0000     -.0246    38.3125  -999.2500     4.6484      .0078     2.5462  2574.0000     4.8437      .8154
 2821.7348    13.8125    31.9531   927.0000     -.0233    39.2500  -999.2500     4.4375      .0083     2.6134  2554.0000     4.6367      .8804
 2821.8872    13.8125    33.1563   927.0000     -.0211    39.5000  -999.2500     4.5586      .0088     2.6081  2544.0000     4.6445      .7661
 2822.0396    13.8125    34.3437   926.5000     -.0156    40.5313  -999.2500     4.5820      .0088     2.6056  2610.0000     4.7344      .7456
 2822.1920    13.8125    33.6250   925.5000     -.0141    39.9063  -999.2500     4.9805      .0093     2.6124  2794.0000     4.6523      .7578
 2822.3444    13.8125    38.2500   925.5000     -.0121    40.2188  -999.2500     4.9141      .0107     2.6218  2740.0000     5.0508      .2358
 2822.4968    13.8125    36.4375   925.5000     -.0132    39.6562  -999.2500     5.2969      .0103     2.6164  2680.0000     4.9961      .3896
 2822.6492    13.8125    40.7812   926.0000     -.0132    40.7812  -999.2500     6.7266      .0107     2.6103  2644.0000     5.6992     -.0015
 2822.8016    14.2969    38.5000   925.0000     -.0174    40.4375  -999.2500     7.6797      .0098     2.6046  2630.0000     5.6094      .2349
 2822.9540    14.1172    41.8125   925.5000     -.0201    39.0312  -999.2500     7.1055      .0103     2.6051  2664.0000     6.6523     -.3350
 2823.1064    13.5391    39.7813   925.5000     -.0130    37.2188  -999.2500     5.5117      .0107     2.5810  2670.0000     6.4961     -.3101
 2823.2588    13.5312    39.3437   925.0000     -.0040    38.0313  -999.2500     4.9961      .0103     2.5608  2680.0000     6.4883     -.1572
 2823.4112    13.3984    38.0937   925.0000     -.0033    39.2188  -999.2500     5.4687      .0103     2.5537  2690.0000     6.0898      .1372
 2823.5636    13.3594    38.6250   925.0000     -.0094    40.6563  -999.2500     5.6133      .0098     2.5756  2654.0000     6.0234      .2461
 2823.7160    13.3594    42.2500   924.0000     -.0165    42.5000  -999.2500     6.2109      .0107     2.5951  2600.0000     6.2852      .0269
 2823.8684    13.3594    37.4687   923.0000     -.0165    42.4375  -999.2500     5.7187      .0098     2.6077  2710.0000     5.5977      .6001
 2824.0208    13.4453    42.4687   924.0000     -.0177    42.2500  -999.2500     5.4375      .0112     2.6140  2730.0000     6.2812     -.0269
 2824.1732    13.5938    43.6250   924.5000     -.0180    41.2187  -999.2500     4.6875      .0117     2.6049  2704.0000     6.6445     -.2896
 2824.3256    13.5391    42.5938   924.5000     -.0193    42.5625  -999.2500     4.7969      .0122     2.5671  2720.0000     5.9961     -.0005
 2824.4780    13.5391    42.6875   924.5000     -.0200    45.5000  -999.2500     4.7344      .0122     2.5537  2670.0000     5.3437      .3364
 2824.6304    13.5391    46.4062   924.5000     -.0213    47.1875  -999.2500     5.0039      .0112     2.5661  2634.0000     6.2031      .0952
 2824.7828    13.5781    49.0625   924.5000     -.0206    47.2500  -999.2500     4.8320      .0117     2.6020  2670.0000     6.5156     -.2207
 2824.9352    13.6016    44.5312   924.5000     -.0214    45.7812  -999.2500     4.8477      .0107     2.6153  2634.0000     5.9492      .1499
 2825.0876    13.6094    44.7188   924.0000     -.0242    42.9687  -999.2500     4.8555      .0112     2.6115  2604.0000     6.5430     -.2114
 2825.2400    13.6094    33.2813   923.5000     -.0271    40.9375  -999.2500     4.8945      .0103     2.6143  2730.0000     4.4180      .9263
 2825.3924    13.5703    34.5000   922.0000     -.0278    39.8438  -999.2500     4.9961      .0112     2.6152  2674.0000     4.9062      .6445
 2825.5448    13.5625    31.7188   921.0000     -.0243    42.2500  -999.2500     4.9297      .0098     2.6133  2624.0000     4.4844     1.2725
 2825.6972    13.6484    41.5625   921.0000     -.0226    45.8125  -999.2500     4.7852      .0107     2.6104  2584.0000     5.8437      .5137
 2825.8496    13.7187    43.6250   920.5000     -.0215    46.2187  -999.2500     4.5391      .0112     2.6094  2850.0000     6.1758      .3135
 2826.0020    13.7187    42.5938   921.0000     -.0207    47.7500  -999.2500     4.4609      .0078     2.6085  2870.0000     6.5742      .6245
 2826.1544    13.7187    49.1563   922.0000     -.0177    48.0000  -999.2500     4.3203      .0103     2.6066  2794.0000     7.3125     -.1396
 2826.3068    13.7187    52.1562   922.0000     -.0145    49.1875  -999.2500     4.2266      .0103     2.6047  2730.0000     7.5742     -.3584
 2826.4592    13.7187    47.2500   922.5000     -.0147    48.5937  -999.2500     4.1367      .0093     2.6035  2664.0000     6.5039      .1631
 2826.6116    13.7187    43.6250   922.0000     -.0171    45.5937  -999.2500     4.1680      .0093     2.6021  2590.0000     6.1914      .2358
 2826.7640    13.7187    44.6875   921.5000     -.0208    42.6250  -999.2500     4.3125      .0093     2.6024  2660.0000     6.6875     -.2466
 2826.9164    13.7500    42.0312   921.5000     -.0235    41.0625  -999.2500     4.2578      .0088     2.6074  2934.0000     6.5898     -.1177
 2827.0688    13.8125    36.8750   922.0000     -.0252    39.5625  -999.2500     4.1680      .0088     2.6093  2854.0000     5.8672      .3218
 2827.2212    13.8125    33.0313   923.0000     -.0267    40.9688  -999.2500     4.3516      .0073     2.6133  2784.0000     4.7852      .9570
 2827.3736    13.8125    26.1094   923.5000     -.0229    40.0938  -999.2500     4.4922      .0054     2.6133  2710.0000     4.3086     1.6895
 2827.5260    13.8125    27.7969   923.5000     -.0197    42.0938  -999.2500     4.6758      .0059     2.6148  2664.0000     3.9453     1.7275
 2827.6784    13.7969    31.8281   923.5000     -.0198    41.8437  -999.2500     4.4062      .0068     2.6191  2644.0000     4.6367     1.2070
 2827.8308    13.6328    32.8125   923.0000     -.0235    42.2813  -999.2500     4.2930      .0078     2.6196  2620.0000     4.0469     1.1426
 2827.9832    13.6328    32.4375   922.0000     -.0254    39.3750  -999.2500     4.2109      .0088     2.6191  2630.0000     4.1680      .8374
 2828.1356    13.6016    37.8438   922.5000     -.0245    38.7813  -999.2500     4.2930      .0093     2.6098  2880.0000     5.0117      .1128
 2828.2880    13.5859    33.0937   923.5000     -.0228    36.0938  -999.2500     4.4805      .0088     2.6035  2810.0000     4.8984      .3613
 2828.4404    13.6016    32.0000   923.0000     -.0207    35.8125  -999.2500     4.4609      .0088     2.6029  2754.0000     4.5195      .4629
 2828.5928    13.6016    24.6250   922.0000     -.0186    34.5000  -999.2500     4.6875      .0068     2.6004  2684.0000     3.9844     1.1914
 2828.7452    13.5859    26.6250   922.0000     -.0174    35.3438  -999.2500     4.6562      .0068     2.6064  2640.0000     4.6289     1.0508
 2828.8976    13.5859    26.7344   922.5000     -.0168    36.9063  -999.2500     4.8750      .0068     2.6143  2720.0000     4.4297     1.2305
 2829.0500    13.6094    29.2344   923.0000     -.0164    36.8750  -999.2500     4.6484      .0098     2.6226  2690.0000     4.1836      .9224
 2829.2024    13.6328    37.5938   923.5000     -.0147    39.8438  -999.2500     4.4375      .0112     2.6168  2670.0000     5.1328      .2715
 2829.3548    13.6328    45.7812   924.0000     -.0134    42.0938  -999.2500     4.2930      .0117     2.6113  2650.0000     7.2891     -.4448
 2829.5072    13.6328    51.3125   923.5000     -.0121    45.5625  -999.2500     4.4766      .0122     2.6114  2770.0000     7.5820     -.6938
 2829.6596    13.6328    52.5000   923.0000     -.0117    45.5313  -999.2500     4.6953      .0122     2.6134  2710.0000     8.0391     -.8438
 2829.8120    13.7578    46.8125   922.5000     -.0141    45.8750  -999.2500     4.6719      .0112     2.6249  2630.0000     6.9180     -.1138
