~VERSION INFORMATION
VERS.                                                 2.0:   CWLS Log ASCII Standard-VERSION 2.0
WRAP.                                                  NO:   One line per depth step
~Well Information Block
STRT.M                                           175.7660:   Top Depth
STOP.M                                          4145.7860:   Bottom Depth
STEP.M                                             .15240:   Depth Increment
NULL.                                            -999.250:   Null Value
FLD .                                             WILDCAT:   Field Name
WELL.                                              15/3-5:   NAME
WBN .                                              15/3-5:   WELLBORE
NATI.                                                 NOR:   COUNTRY
CTRY.                                                 NOR:   COUNTRY
COMP.                             ELF AQUITAINE NORGE A/S:   OPERATOR
PROV.                                            OFFSHORE:   PROVINCE
COUN.                                      BYFORD DOLPHIN:   RIG NAME
SPUD.                                          1983/12/20:   SPUD DATE
LATI.                                       58 47 13.04 N:   SURF. LATITUDE
LONG.                                        1 50 34.11 E:   SURF. LONGITUDE
PBWE.                                              15/3-5:   PB WELL ID
APIN.                                              15/3-5:   PB WELLBORE ID
PBWS.                                                 all:   PB WELL NAME SET
~PARAMETER INFORMATION (log)
LNAM.                             LDT/CNL/NGT  COMPOSITED:   NAME
LTYP.                                         DEPTH MATCH:   LOG TYPE
LSRV.                                           LATEROLOG:   LOG SERVICE
LSOU.                                             SPT/NPD:   LOG SOURCE
LVSN.                                                   1:   LOG VERSION
BHIS.                                                   R:   BRIEF HISTORY
FHIS.                                             RAW-LIS:   FULL HISTORY
LCNM.                                              TELECO:   LOGGING CONTRACTOR
TOOL.                            LDT/CNL/NGT (COMPOSITED):   TOOL STRING
~Curve Information Block
#MNEM.UNIT                                        API CODE    No Description
#=========                                        ========    == ===========
DEPT.M                                       00 001 00 00:     1  DEPTH
CALI.IN                                                  :     2  Caliper
CGR.GAPI                                                 :     3  Gamma Ray
CS.                                                      :     4  Cable Speed
DRHO.G/CC                                                :     5  Bulk density correction
GR.GAPI                                                  :     6  Gamma Ray
NPHI.%                                                   :     7  Neutron porosity
PEF.B/E                                                  :     8  Photo-electric factor
POTA.                                                    :     9  Potassium
RHOB.G/CC                                                :    10  Bulk density
TENS.LB                                                  :    11  Cable Tension
THOR.PPM                                                 :    12  Thorium
URAN.PPM                                                 :    13  Uranium
~ASCII
# ...
 3606.5948    13.2187    52.6562   873.5000      .0506    52.2500  -999.2500    19.4498      .0151     2.4249  3360.0000     6.8086     -.0483
 3606.7472    13.1719    52.7500   873.0000      .0332    52.5000  -999.2500    19.0350      .0142     2.4654  3410.0000     7.0312     -.0317
 3606.8996    12.9062    54.0625   873.0000      .0046    52.6250  -999.2500    21.3143      .0142     2.5025  3374.0000     7.3516     -.1758
 3607.0520    12.9297    54.9375   873.5000     -.0138    54.0625  -999.2500    24.0885      .0146     2.5137  3344.0000     7.0898     -.1045
 3607.2044    13.2031    51.6563   873.0000     -.0146    53.1563  -999.2500    20.1852      .0142     2.4944  3324.0000     6.6094      .1807
 3607.3568    13.0469    50.7500   873.0000     -.0033    53.5000  -999.2500    15.7724      .0137     2.4805  3360.0000     6.4844      .3296
 3607.5092    13.1250    47.0625   874.0000     -.0012    51.9375  -999.2500    13.4393      .0127     2.4699  3430.0000     6.1797      .5884
 3607.6616    13.3594    44.7500   875.0000     -.0084    52.6250  -999.2500     9.9211      .0122     2.4581  3420.0000     5.6250      .9487
 3607.8140    13.0234    44.5000   875.5000     -.0086    52.8125  -999.2500     7.1917      .0117     2.4381  3350.0000     5.6641     1.0020
 3607.9664    13.1016    43.7813   875.5000      .0060    51.7187  -999.2500     5.0253      .0117     2.4290  3360.0000     5.7070      .9600
 3608.1188    12.8125    46.4375   874.5000      .0302    51.3438  -999.2500     4.6680      .0107     2.4560  3390.0000     6.4805      .5923
 3608.2712    12.9375    52.4687   874.0000      .0212    51.0625  -999.2500     5.1724      .0127     2.4796  3344.0000     7.4375     -.1689
 3608.4236    13.0000    52.6875   874.0000      .0018    51.1563  -999.2500     6.3312      .0127     2.4921  3350.0000     7.3867     -.1846
 3608.5760    12.9062    55.8438   874.5000     -.0138    50.2188  -999.2500     6.6869      .0137     2.4935  3394.0000     7.7344     -.6797
 3608.7284    12.9062    52.5938   874.0000     -.0206    49.3125  -999.2500     5.8705      .0132     2.4709  3350.0000     7.4375     -.3965
 3608.8808    12.9062    50.0625   873.5000     -.0067    48.9062  -999.2500     4.8775      .0132     2.4744  3340.0000     6.8750     -.1396
 3609.0332    12.9453    48.2812   873.0000      .0000    47.2188  -999.2500     4.5758      .0132     2.4682  3330.0000     6.8047     -.1294
 3609.1856    12.8750    47.0938   872.5000      .0144    46.3125  -999.2500     5.2848      .0127     2.5044  3350.0000     7.0273     -.0942
 3609.3380    12.8125    44.2813   871.5000      .0048    46.8750  -999.2500     5.3508      .0122     2.5046  3424.0000     6.5547      .3135
 3609.4904    12.8125    48.4062   870.5000      .0067    49.9375  -999.2500     5.0570      .0132     2.5337  3364.0000     6.4375      .1831
 3609.6428    12.8125    49.0938   870.0000      .0016    51.2500  -999.2500     4.2714      .0127     2.5252  3334.0000     6.6406      .2607
 3609.7952    12.8281    47.9063   870.0000     -.0028    52.5313  -999.2500     4.0512      .0122     2.5205  3340.0000     6.0937      .5576
 3609.9476    12.8359    47.4375   870.5000     -.0104    52.5313  -999.2500     3.7171      .0117     2.4903  3320.0000     6.2305      .6152
 3610.1000    13.0469    49.2500   871.0000     -.0076    51.8125  -999.2500     4.0771      .0117     2.4850  3344.0000     6.7539      .3076
 3610.2524    12.9062    48.0000   871.5000     -.0022    50.2812  -999.2500     4.0145      .0112     2.4894  3364.0000     6.8008      .2764
 3610.4048    12.9062    44.7188   872.0000     -.0020    48.9062  -999.2500     4.8407      .0112     2.4964  3350.0000     6.2812      .5044
 3610.5572    12.8828    45.3438   872.0000     -.0113    48.4062  -999.2500     5.5353      .0112     2.4949  3330.0000     6.6641      .3701
 3610.7096    12.8125    46.9688   873.0000     -.0151    49.6250  -999.2500     6.8259      .0112     2.4926  3320.0000     6.8594      .3218
 3610.8620    12.8594    49.7188   872.5000     -.0158    50.2188  -999.2500     6.1796      .0112     2.4714  3354.0000     7.3828      .0605
 3611.0144    12.8438    50.6875   872.5000     -.0062    49.8437  -999.2500     4.4519      .0112     2.4684  3370.0000     7.5273     -.0996
 3611.1668    12.7187    49.1250   873.5000     -.0030    48.8750  -999.2500     3.9826      .0122     2.4573  3390.0000     7.0703     -.0308
 3611.3192    12.7187    49.4375   874.0000     -.0041    48.5313  -999.2500     3.7097      .0112     2.4700  3370.0000     7.5547     -.1094
 3611.4716    12.7187    49.5000   875.0000     -.0071    48.7500  -999.2500     3.8514      .0117     2.4777  3370.0000     7.3320     -.0879
 3611.6240    12.8125    49.9063   875.5000     -.0042    49.1875  -999.2500     3.7560      .0112     2.4938  3344.0000     7.4219     -.0879
 3611.7764    12.8125    50.1875   875.5000      .0013    47.6250  -999.2500     3.6662      .0112     2.5167  3344.0000     7.9219     -.3101
 3611.9288    12.8125    50.2188   875.5000     -.0040    47.2188  -999.2500     3.9021      .0112     2.5161  3350.0000     8.1406     -.3608
 3612.0812    12.8672    51.5625   875.0000     -.0020    47.9687  -999.2500     3.6562      .0112     2.5227  3324.0000     8.2969     -.4341
 3612.2336    12.8125    55.2812   874.0000      .0010    48.5937  -999.2500     4.0077      .0117     2.5128  3320.0000     8.8906     -.8047
 3612.3860    12.8125    57.0312   874.0000      .0004    48.9688  -999.2500     3.8151      .0122     2.5171  3320.0000     9.0547     -.9712
 3612.5384    12.8125    55.7500   873.5000     -.0062    48.7187  -999.2500     3.9628      .0117     2.5267  3334.0000     8.9531     -.8491
 3612.6908    12.8125    55.1875   873.5000     -.0119    49.6562  -999.2500     4.2129      .0112     2.5402  3354.0000     8.8672     -.6670
 3612.8432    12.8594    56.6563   873.5000     -.0076    51.9375  -999.2500     4.2268      .0112     2.5521  3364.0000     8.6562     -.5684
 3612.9956    12.8125    57.1875   874.0000     -.0043    51.8750  -999.2500     4.3684      .0112     2.5509  3340.0000     8.8516     -.6450
 3613.1480    12.8125    53.4062   874.0000     -.0060    50.1250  -999.2500     3.7479      .0117     2.5413  3350.0000     7.6953     -.3984
 3613.3004    12.8125    55.0938   875.0000     -.0107    48.9062  -999.2500     4.1577      .0127     2.5659  3390.0000     7.8984     -.7476
 3613.4528    12.8125    53.8125   875.0000     -.0220    48.7500  -999.2500     3.9004      .0127     2.6225  3364.0000     7.7461     -.6099
 3613.6052    12.8125    54.4063   875.0000     -.0241    49.4688  -999.2500     3.7534      .0127     2.6680  3384.0000     7.7383     -.5947
 3613.7576    12.8359    55.4687   875.0000     -.0255    48.9688  -999.2500     3.1167      .0127     2.6165  3374.0000     7.9531     -.7852
 3613.9100    12.7344    52.7500   874.0000     -.0222    47.5313  -999.2500     3.1596      .0122     2.5370  3380.0000     7.8047     -.6309
 3614.0624    12.7500    51.3125   874.5000     -.0233    45.7500  -999.2500     3.3170      .0117     2.5000  3380.0000     7.9414     -.6729
 3614.2148    12.7578    49.4375   875.5000     -.0279    42.9063  -999.2500     3.6264      .0117     2.4969  3360.0000     8.2266     -.7886
 3614.3672    12.7578    51.4375   876.0000     -.0321    42.5938  -999.2500     3.5430      .0117     2.4938  3370.0000     9.0000    -1.0693
 3614.5196    12.7578    55.2121   876.0000     -.0318    44.8394  -999.2500     3.4732      .0130     2.4992  3406.3848     9.1277    -1.2547
 3614.6720    12.7642    53.5486   876.4089     -.0203    47.3888  -999.2500     3.7761      .0120     2.5039  3377.2778     8.6293     -.7454
 3614.8244    12.7600    53.8428   876.8632     -.0135    48.8369  -999.2500     3.8188      .0117     2.5176  3355.4731     8.5326     -.6056
 3614.9768    12.7628    55.1960   876.6826     -.0108    49.7428  -999.2500     3.4348      .0117     2.5221  3346.1919     8.6382     -.6595
