~VERSION INFORMATION
VERS.                                                 2.0:   CWLS Log ASCII Standard-VERSION 2.0
WRAP.                                                  NO:   One line per depth step
~Well Information Block
STRT.M                                           175.7660:   Top Depth
STOP.M                                          4145.7860:   Bottom Depth
STEP.M                                             .15240:   Depth Increment
NULL.                                            -999.250:   Null Value
FLD .                                             WILDCAT:   Field Name
WELL.                                              15/3-5:   NAME
WBN .                                              15/3-5:   WELLBORE
NATI.                                                 NOR:   COUNTRY
CTRY.                                                 NOR:   COUNTRY
COMP.                             ELF AQUITAINE NORGE A/S:   OPERATOR
PROV.                                            OFFSHORE:   PROVINCE
COUN.                                      BYFORD DOLPHIN:   RIG NAME
SPUD.                                          1983/12/20:   SPUD DATE
LATI.                                       58 47 13.04 N:   SURF. LATITUDE
LONG.                                        1 50 34.11 E:   SURF. LONGITUDE
PBWE.                                              15/3-5:   PB WELL ID
APIN.                                              15/3-5:   PB WELLBORE ID
PBWS.                                                 all:   PB WELL NAME SET
~PARAMETER INFORMATION (log)
LNAM.                             LDT/CNL/NGT  COMPOSITED:   NAME
LTYP.                                         DEPTH MATCH:   LOG TYPE
LSRV.                                           LATEROLOG:   LOG SERVICE
LSOU.                                             SPT/NPD:   LOG SOURCE
LVSN.                                                   1:   LOG VERSION
BHIS.                                                   R:   BRIEF HISTORY
FHIS.                                             RAW-LIS:   FULL HISTORY
LCNM.                                              TELECO:   LOGGING CONTRACTOR
TOOL.                            LDT/CNL/NGT (COMPOSITED):   TOOL STRING
~Curve Information Block
#MNEM.UNIT                                        API CODE    No Description
#=========                                        ========    == ===========
DEPT.M                                       00 001 00 00:     1  DEPTH
CALI.IN                                                  :     2  Caliper
CGR.GAPI                                                 :     3  Gamma Ray
CS.                                                      :     4  Cable Speed
DRHO.G/CC                                                :     5  Bulk density correction
GR.GAPI                                                  :     6  Gamma Ray
NPHI.%                                                   :     7  Neutron porosity
PEF.B/E                                                  :     8  Photo-electric factor
POTA.                                                    :     9  Potassium
RHOB.G/CC                                                :    10  Bulk density
TENS.LB                                                  :    11  Cable Tension
THOR.PPM                                                 :    12  Thorium
URAN.PPM                                                 :    13  Uranium
~ASCII
# ...
 3871.1612     8.7344    86.1875  1900.0000     -.0183    97.5570    31.0479  -999.2500      .0244     2.4528  3393.4331    13.5938     2.0391
 3871.3136     8.7344    88.4375  1900.0000     -.0195    95.4084    30.9634  -999.2500      .0254     2.4696  3419.2681    13.1328     2.1055
 3871.4660     8.7923    86.3125  1897.5283     -.0219    95.4814    31.0483  -999.2500      .0249     2.4662  3387.7485    12.7031     2.5430
 3871.6184     8.8299    92.1875  1897.0000     -.0110    97.3731    31.2775  -999.2500      .0254     2.4696  3388.0630    13.0859     2.2168
 3871.7708     8.8359    89.0625  1897.7900     -.0079   100.8206    31.3855  -999.2500      .0259     2.4584  3390.0000    12.6484     2.3242
 3871.9232     8.8359    88.5625  1898.7747     -.0018   103.7691    31.9701  -999.2500      .0264     2.4475  3393.0991    12.5859     2.3281
 3872.0756     8.8359    88.1875  1899.7563      .0048   104.6488    32.0726  -999.2500      .0264     2.4468  3406.1006    12.8125     2.2402
 3872.2280     8.8359    86.3125  1900.0000      .0056   100.7706    31.7575  -999.2500      .0259     2.4502  3420.3564    12.3594     2.5547
 3872.3804     8.8359    85.1875  1900.7227      .0033    98.0110    31.6073  -999.2500      .0259     2.4596  3421.1084    12.3281     2.5605
 3872.5328     8.8359    81.3125  1901.7058     -.0058    97.5178    31.2660  -999.2500      .0254     2.4601  3412.9399    11.3984     3.1230
 3872.6852     8.8359    82.5000  1902.0000     -.0086    97.4131    32.3103  -999.2500      .0264     2.4590  3412.7568    11.5391     2.9277
 3872.8376     8.8359    81.0000  1902.0000     -.0070    95.3649    33.2676  -999.2500      .0264     2.4564  3411.3101    11.5391     2.9785
 3872.9900     8.8359    86.3750  1901.3459     -.0063    93.4586    33.8377  -999.2500      .0278     2.4474  3410.0000    12.8125     2.1758
 3873.1424     8.8359    88.8125  1899.7224     -.0014    90.7866    33.9355  -999.2500      .0278     2.4384  3406.1670    13.8047     1.8799
 3873.2948     8.8359    88.5625  1899.6221      .0021    92.6318    32.9844  -999.2500      .0269     2.4307  3395.2910    13.0391     2.5820
 3873.4472     8.8359    88.5000  1900.6047      .0178    94.4143    32.2626  -999.2500      .0264     2.4502  3396.0474    13.1953     2.7480
 3873.5996     8.9048    89.4375  1901.0000      .0166    99.5490    33.2749  -999.2500      .0259     2.4511  3400.0000    12.7031     3.0605
 3873.7520     8.8863    84.9375  1901.5701      .0121   103.8545    35.7863  -999.2500      .0249     2.4481  3396.5796    12.5937     3.3652
 3873.9044     8.8359    88.9375  1902.0000      .0065   109.4760    37.0559  -999.2500      .0254     2.4401  3391.7827    13.1250     2.9668
 3874.0568     8.8359    87.4375  1902.0000      .0032   108.4410    35.5978  -999.2500      .0264     2.4370  3392.1514    13.0156     2.8594
 3874.2092     8.8359    90.2500  1902.0000      .0003   108.2052    33.8067  -999.2500      .0269     2.4322  3397.1274    13.3672     2.6738
 3874.3616     8.8359    93.1875  1900.4880      .0008   100.8052    33.7318  -999.2500      .0273     2.4258  3402.0156    13.9219     2.3437
 3874.5140     8.8893    94.2500  1899.4880      .0087   106.9375    34.8860  -999.2500      .0269     2.4230  3408.8818    13.7344     2.5586
 3874.6664     8.8938    93.8750  1900.0000      .0218   102.8354    36.1990  -999.2500      .0278     2.4261  3402.6992    13.0078     2.8066
 3874.8188     8.8962    95.5625  1900.0000      .0344   106.3469    35.8322  -999.2500      .0269     2.4472  3391.8140    12.6406     3.1426
 3874.9712     8.9551    98.8750  1900.4368      .0262   104.4432    34.5498  -999.2500      .0278     2.4615  3383.5142    12.7812     2.8477
 3875.1236     8.9243    99.1250  1900.5786      .0109   111.5808    34.2562  -999.2500      .0278     2.4690  3374.2139    12.9453     2.6582
 3875.2760     8.9157    94.2500  1900.4031     -.0000   114.6096    34.5950  -999.2500      .0273     2.4675  3388.0630    12.4766     2.9102
 3875.4284     8.9297    96.2500  1901.0000     -.0103   115.8107    37.1075  -999.2500      .0273     2.4555  3405.4102    13.0000     2.5840
 3875.5808     8.9297   102.5000  1900.6299     -.0107   114.9143    37.6472  -999.2500      .0278     2.4589  3417.7007    13.7891     2.1094
 3875.7332     8.9297   103.0000  1900.0000     -.0059   115.6981    37.4665  -999.2500      .0273     2.4632  3422.5889    13.5859     2.2441
 3875.8856     8.9297   102.5000  1898.9873      .0007   111.2905    37.0770  -999.2500      .0269     2.4571  3428.1006    13.6250     2.1328
 3876.0380     8.9297   103.7500  1897.0000      .0064   107.6458    36.1935  -999.2500      .0269     2.4617  3436.3018    14.4063     1.6309
 3876.1904     8.9297    99.5625  1896.6975     -.0005   104.9428    35.7929  -999.2500      .0273     2.4521  3416.9761    14.0391     1.6299
 3876.3428     8.9297    98.0625  1895.7144     -.0050   105.9963    34.0678  -999.2500      .0273     2.4475  3408.2871    14.0391     1.5410
 3876.4952     8.9297    93.3750  1895.0000     -.0058   103.6541    34.8575  -999.2500      .0278     2.4531  3400.2075    14.0391     1.4229
 3876.6476     8.9297    85.0000  1895.0000     -.0054   102.0969    36.0628  -999.2500      .0273     2.4620  3385.9497    12.5156     2.3711
 3876.8000     8.9297    81.4375  1894.7649     -.0027   101.6987    37.3346  -999.2500      .0259     2.4874  3369.2998    11.5859     3.3613
 3876.9524     8.9297    86.3750  1893.5623     -.0083   104.7527    36.7613  -999.2500      .0249     2.4852  3350.9355    12.6328     3.2773
 3877.1048     8.9297    91.4375  1891.1887     -.0082   107.1898    36.3499  -999.2500      .0254     2.4863  3344.8677    13.1172     2.8398
 3877.2572     8.9297    90.1875  1887.6309     -.0066   109.7509    35.6049  -999.2500      .0249     2.4785  3372.4888    13.5078     2.7129
 3877.4096     8.9297    84.0625  1885.8315     -.0008   107.9735    36.5355  -999.2500      .0234     2.4749  3442.0156    12.6563     3.5391
 3877.5620     8.9297    95.4375  1884.8489      .0038   105.6045    36.4768  -999.2500      .0269     2.4582  3598.4902    12.9844     2.6895
 3877.7144     8.9297    95.6250  1883.7349      .0119   105.5905    37.1501  -999.2500      .0259     2.4641  3583.3755    12.3359     3.1738
 3877.8668     8.9315   101.5000  1881.7637      .0188   107.2607    35.8801  -999.2500      .0269     2.4624  3534.0942    11.6250     3.0000
 3878.0192     8.9437   101.2500  1879.7983      .0343   109.1367    36.8708  -999.2500      .0254     2.4863  3483.3481    11.5156     2.8105
 3878.1716     8.9297    89.1875  1877.8330      .0262   110.4077    34.8707  -999.2500      .0205     2.4674  3421.9966    10.3828     3.4980
 3878.3240     8.9297    78.2500  1875.6692      .0255   109.1891    32.3873  -999.2500      .0190     2.4548  3400.2646     9.4219     3.3301
 3878.4764     8.9297    71.5000  1870.7480      .0416   101.4694    28.3100  -999.2500      .0176     2.4821  3405.3101    10.1250     2.6445
 3878.6288     8.9297    54.5000  1865.7681      .0421    91.3090    27.2753  -999.2500      .0146     2.5513  3429.6685     8.7891     3.7539
 3878.7812     8.9297    56.9375  1858.9480      .0301    88.9682    25.4036  -999.2500      .0176     2.6236  3419.7227     9.2734     3.1641
 3878.9336     8.9297    69.6250  1856.0000      .0229    97.9671    24.8878  -999.2500      .0205     2.6543  3404.0000     9.8906     2.7363
 3879.0860     8.9297    84.9509  1856.0000      .0132   108.1113    27.1488  -999.2500      .0249     2.5929  3394.4727    11.3080     2.0900
 3879.2384     8.9297    93.2595  1856.9038      .0211   110.7420    31.3994  -999.2500      .0264     2.5439  3390.3838    11.3435     1.0555
 3879.3908     8.9297    84.8456  1855.2896      .0094   110.0325    34.9107  -999.2500      .0206     2.5023  3401.9727    10.5789     1.1512
 3879.5432     8.9297    75.2634  1854.1936      .0132   107.2770    35.5855  -999.2500      .0200     2.5118  3404.0000    10.7628     1.1187
