~VERSION INFORMATION
VERS.                                                 2.0:   CWLS Log ASCII Standard-VERSION 2.0
WRAP.                                                  NO:   One line per depth step
~Well Information Block
STRT.M                                           175.7660:   Top Depth
STOP.M                                          4145.7860:   Bottom Depth
STEP.M                                             .15240:   Depth Increment
NULL.                                            -999.250:   Null Value
FLD .                                             WILDCAT:   Field Name
WELL.                                              15/3-5:   NAME
WBN .                                              15/3-5:   WELLBORE
NATI.                                                 NOR:   COUNTRY
CTRY.                                                 NOR:   COUNTRY
COMP.                             ELF AQUITAINE NORGE A/S:   OPERATOR
PROV.                                            OFFSHORE:   PROVINCE
COUN.                                      BYFORD DOLPHIN:   RIG NAME
SPUD.                                          1983/12/20:   SPUD DATE
LATI.                                       58 47 13.04 N:   SURF. LATITUDE
LONG.                                        1 50 34.11 E:   SURF. LONGITUDE
PBWE.                                              15/3-5:   PB WELL ID
APIN.                                              15/3-5:   PB WELLBORE ID
PBWS.                                                 all:   PB WELL NAME SET
~PARAMETER INFORMATION (log)
LNAM.                             LDT/CNL/NGT  COMPOSITED:   NAME
LTYP.                                         DEPTH MATCH:   LOG TYPE
LSRV.                                           LATEROLOG:   LOG SERVICE
LSOU.                                             SPT/NPD:   LOG SOURCE
LVSN.                                                   1:   LOG VERSION
BHIS.                                                   R:   BRIEF HISTORY
FHIS.                                             RAW-LIS:   FULL HISTORY
LCNM.                                              TELECO:   LOGGING CONTRACTOR
TOOL.                            LDT/CNL/NGT (COMPOSITED):   TOOL STRING
~Curve Information Block
#MNEM.UNIT                                        API CODE    No Description
#=========                                        ========    == ===========
DEPT.M                                       00 001 00 00:     1  DEPTH
CALI.IN                                                  :     2  Caliper
CGR.GAPI                                                 :     3  Gamma Ray
CS.                                                      :     4  Cable Speed
DRHO.G/CC                                                :     5  Bulk density correction
GR.GAPI                                                  :     6  Gamma Ray
NPHI.%                                                   :     7  Neutron porosity
PEF.B/E                                                  :     8  Photo-electric factor
POTA.                                                    :     9  Potassium
RHOB.G/CC                                                :    10  Bulk density
TENS.LB                                                  :    11  Cable Tension
THOR.PPM                                                 :    12  Thorium
URAN.PPM                                                 :    13  Uranium
~ASCII
# ...
 1498.5980    21.8750  -999.2500  3592.0000     -.0010    40.4063  -999.2500     2.6042  -999.2500     2.0430  1865.0000  -999.2500  -999.2500
 1498.7504    21.2656  -999.2500  3590.0000      .0029    36.1563  -999.2500     2.5866  -999.2500     2.0488  1865.0000  -999.2500  -999.2500
 1498.9028    20.9219  -999.2500  3592.0000      .0044    39.7813  -999.2500     2.5438  -999.2500     2.0527  1860.0000  -999.2500  -999.2500
 1499.0552    20.6875  -999.2500  3596.0000      .0083    38.8438  -999.2500     2.4809  -999.2500     2.0586  1860.0000  -999.2500  -999.2500
 1499.2076    20.5625  -999.2500  3590.0000      .0088    42.6250  -999.2500     2.4251  -999.2500     2.0586  1860.0000  -999.2500  -999.2500
 1499.3600    20.8906  -999.2500  3586.0000      .0044    46.4688  -999.2500     2.3814  -999.2500     2.0527  1860.0000  -999.2500  -999.2500
 1499.5124    22.0313  -999.2500  3580.0000      .0034    43.7187  -999.2500     2.4410  -999.2500     2.0508  1855.0000  -999.2500  -999.2500
 1499.6648    22.2031  -999.2500  3586.0000     -.0019    43.7500  -999.2500     2.6368  -999.2500     2.0469  1860.0000  -999.2500  -999.2500
 1499.8172    22.2969  -999.2500  3590.0000      .0044    40.5313  -999.2500     2.8299  -999.2500     2.0586  1885.0000  -999.2500  -999.2500
 1499.9696    21.9531  -999.2500  3588.0000      .0029    44.6875  -999.2500     2.8914  -999.2500     2.0605  1885.0000  -999.2500  -999.2500
 1500.1220    21.8906  -999.2500  3594.0000      .0015    40.3750  -999.2500     2.7641  -999.2500     2.0566  1880.0000  -999.2500  -999.2500
 1500.2744    22.0156  -999.2500  3592.0000     -.0010    41.1875  -999.2500     2.6629  -999.2500     2.0527  1865.0000  -999.2500  -999.2500
 1500.4268    21.6406  -999.2500  3592.0000      .0029    39.2813  -999.2500     2.6782  -999.2500     2.0645  1870.0000  -999.2500  -999.2500
 1500.5792    21.6875  -999.2500  3594.0000      .0073    39.4375  -999.2500     2.7947  -999.2500     2.0820  1880.0000  -999.2500  -999.2500
 1500.7316    21.5625  -999.2500  3598.0000      .0015    42.2188  -999.2500     2.8894  -999.2500     2.0781  1870.0000  -999.2500  -999.2500
 1500.8840    22.1094  -999.2500  3592.0000     -.0020    41.7500  -999.2500     2.8947  -999.2500     2.0703  1870.0000  -999.2500  -999.2500
 1501.0364    22.2656  -999.2500  3592.0000     -.0132    45.0313  -999.2500     2.8081  -999.2500     2.0527  1870.0000  -999.2500  -999.2500
 1501.1888    21.7500  -999.2500  3588.0000     -.0073    43.9375  -999.2500     2.7610  -999.2500     2.0508  1875.0000  -999.2500  -999.2500
 1501.3412    21.9219  -999.2500  3596.0000     -.0117    47.2500  -999.2500     2.7663  -999.2500     2.0410  1870.0000  -999.2500  -999.2500
 1501.4936    21.4688  -999.2500  3598.0000     -.0064    46.2500  -999.2500     2.7819  -999.2500     2.0410  1865.0000  -999.2500  -999.2500
 1501.6460    20.1719  -999.2500  3600.0000     -.0103    44.5625  -999.2500     2.7693  -999.2500     2.0352  1860.0000  -999.2500  -999.2500
 1501.7984    20.2188  -999.2500  3600.0000     -.0103    43.2188  -999.2500     2.7209  -999.2500     2.0332  1860.0000  -999.2500  -999.2500
 1501.9508    20.5625  -999.2500  3592.0000     -.0068    46.4062  -999.2500     2.6920  -999.2500     2.0352  1855.0000  -999.2500  -999.2500
 1502.1032    20.3750  -999.2500  3592.0000     -.0073    48.7500  -999.2500     2.7081  -999.2500     2.0391  1865.0000  -999.2500  -999.2500
 1502.2556    20.2031  -999.2500  3590.0000      .0005    47.6562  -999.2500     2.7224  -999.2500     2.0527  1860.0000  -999.2500  -999.2500
 1502.4080    20.8125  -999.2500  3592.0000      .0005    44.4375  -999.2500     2.6958  -999.2500     2.0527  1870.0000  -999.2500  -999.2500
 1502.5604    21.2813  -999.2500  3590.0000      .0015    45.3438  -999.2500     2.6600  -999.2500     2.0586  1870.0000  -999.2500  -999.2500
 1502.7128    20.5313  -999.2500  3582.0000     -.0054    42.6250  -999.2500     2.6367  -999.2500     2.0566  1870.0000  -999.2500  -999.2500
 1502.8652    19.9375  -999.2500  3578.0000     -.0073    42.6250  -999.2500     2.6173  -999.2500     2.0508  1870.0000  -999.2500  -999.2500
 1503.0176    19.9375  -999.2500  3578.0000     -.0049    39.0000  -999.2500     2.6064  -999.2500     2.0469  1860.0000  -999.2500  -999.2500
 1503.1700    20.2500  -999.2500  3570.0000     -.0054    39.0625  -999.2500     2.6319  -999.2500     2.0430  1850.0000  -999.2500  -999.2500
 1503.3224    20.2500  -999.2500  3566.0000      .0015    40.4375  -999.2500     2.6972  -999.2500     2.0605  1855.0000  -999.2500  -999.2500
 1503.4748    20.3906  -999.2500  3564.0000      .0024    41.7500  -999.2500     2.7090  -999.2500     2.0742  1850.0000  -999.2500  -999.2500
 1503.6272    20.7813  -999.2500  3570.0000      .0024    44.8750  -999.2500     2.6820  -999.2500     2.0820  1870.0000  -999.2500  -999.2500
 1503.7796    21.3594  -999.2500  3564.0000     -.0034    39.7500  -999.2500     2.7012  -999.2500     2.0703  1860.0000  -999.2500  -999.2500
 1503.9320    21.8437  -999.2500  3554.0000     -.0059    37.8750  -999.2500     2.7684  -999.2500     2.0605  1865.0000  -999.2500  -999.2500
 1504.0844    21.3750  -999.2500  3544.0000      .0000    37.5313  -999.2500     2.9012  -999.2500     2.0605  1870.0000  -999.2500  -999.2500
 1504.2368    20.5156  -999.2500  3528.0000      .0015    39.4375  -999.2500     3.3509  -999.2500     2.0996  1860.0000  -999.2500  -999.2500
 1504.3892    21.1094  -999.2500  3522.0000     -.0029    36.2187  -999.2500     3.8704  -999.2500     2.1582  1855.0000  -999.2500  -999.2500
 1504.5416    21.0625  -999.2500  3524.0000     -.0093    31.5781  -999.2500     3.8687  -999.2500     2.1914  1860.0000  -999.2500  -999.2500
 1504.6940    21.5938  -999.2500  3528.0000     -.0088    28.3125  -999.2500     3.5248  -999.2500     2.1289  1855.0000  -999.2500  -999.2500
 1504.8464    21.9375  -999.2500  3528.0000     -.0024    29.7344  -999.2500     3.0983  -999.2500     2.0625  1865.0000  -999.2500  -999.2500
 1504.9988    21.7969  -999.2500  3528.0000      .0034    29.2500  -999.2500     2.8979  -999.2500     2.0273  1845.0000  -999.2500  -999.2500
 1505.1512    22.0313  -999.2500  3530.0000      .0000    32.9688  -999.2500     2.7013  -999.2500     2.0371  1835.0000  -999.2500  -999.2500
 1505.3036    22.0625  -999.2500  3528.0000      .0000    34.7500  -999.2500     2.6226  -999.2500     2.0312  1845.0000  -999.2500  -999.2500
 1505.4560    22.0469  -999.2500  3528.0000     -.0073    38.0000  -999.2500     2.7039  -999.2500     2.0137  1840.0000  -999.2500  -999.2500
 1505.6084    21.4219  -999.2500  3524.0000     -.0044    41.2187  -999.2500     2.9282  -999.2500     2.0098  1850.0000  -999.2500  -999.2500
 1505.7608    21.7813  -999.2500  3522.0000     -.0034    40.3125  -999.2500     3.0746  -999.2500     2.0098  1850.0000  -999.2500  -999.2500
 1505.9132    20.3281  -999.2500  3520.0000      .0000    43.0625  -999.2500     3.0292  -999.2500     2.0117  1875.0000  -999.2500  -999.2500
 1506.0656    21.0469  -999.2500  3520.0000     -.0049    41.6875  -999.2500     2.9750  -999.2500     1.9990  1865.0000  -999.2500  -999.2500
 1506.2180    21.1719  -999.2500  3518.0000     -.0098    43.1250  -999.2500     2.9171  -999.2500     1.9971  1870.0000  -999.2500  -999.2500
 1506.3704    22.0625  -999.2500  3520.0000     -.0137    40.8438  -999.2500     2.9662  -999.2500     2.0078  1865.0000  -999.2500  -999.2500
 1506.5228    21.5938  -999.2500  3522.0000     -.0132    39.9687  -999.2500     2.8641  -999.2500     2.0234  1860.0000  -999.2500  -999.2500
 1506.6752    21.6875  -999.2500  3522.0000     -.0088    38.8750  -999.2500     2.7855  -999.2500     2.0273  1845.0000  -999.2500  -999.2500
 1506.8276    20.6406  -999.2500  3522.0000     -.0039    37.4375  -999.2500     2.6667  -999.2500     2.0254  1865.0000  -999.2500  -999.2500
 1506.9800    20.5469  -999.2500  3518.0000     -.0083    36.3750  -999.2500     2.6626  -999.2500     2.0156  1855.0000  -999.2500  -999.2500
