~VERSION INFORMATION
VERS.                                                 2.0:   CWLS Log ASCII Standard-VERSION 2.0
WRAP.                                                  NO:   One line per depth step
~Well Information Block
STRT.M                                           175.7660:   Top Depth
STOP.M                                          4145.7860:   Bottom Depth
STEP.M                                             .15240:   Depth Increment
NULL.                                            -999.250:   Null Value
FLD .                                             WILDCAT:   Field Name
WELL.                                              15/3-5:   NAME
WBN .                                              15/3-5:   WELLBORE
NATI.                                                 NOR:   COUNTRY
CTRY.                                                 NOR:   COUNTRY
COMP.                             ELF AQUITAINE NORGE A/S:   OPERATOR
PROV.                                            OFFSHORE:   PROVINCE
COUN.                                      BYFORD DOLPHIN:   RIG NAME
SPUD.                                          1983/12/20:   SPUD DATE
LATI.                                       58 47 13.04 N:   SURF. LATITUDE
LONG.                                        1 50 34.11 E:   SURF. LONGITUDE
PBWE.                                              15/3-5:   PB WELL ID
APIN.                                              15/3-5:   PB WELLBORE ID
PBWS.                                                 all:   PB WELL NAME SET
~PARAMETER INFORMATION (log)
LNAM.                             LDT/CNL/NGT  COMPOSITED:   NAME
LTYP.                                         DEPTH MATCH:   LOG TYPE
LSRV.                                           LATEROLOG:   LOG SERVICE
LSOU.                                             SPT/NPD:   LOG SOURCE
LVSN.                                                   1:   LOG VERSION
BHIS.                                                   R:   BRIEF HISTORY
FHIS.                                             RAW-LIS:   FULL HISTORY
LCNM.                                              TELECO:   LOGGING CONTRACTOR
TOOL.                            LDT/CNL/NGT (COMPOSITED):   TOOL STRING
~Curve Information Block
#MNEM.UNIT                                        API CODE    No Description
#=========                                        ========    == ===========
DEPT.M                                       00 001 00 00:     1  DEPTH
CALI.IN                                                  :     2  Caliper
CGR.GAPI                                                 :     3  Gamma Ray
CS.                                                      :     4  Cable Speed
DRHO.G/CC                                                :     5  Bulk density correction
GR.GAPI                                                  :     6  Gamma Ray
NPHI.%                                                   :     7  Neutron porosity
PEF.B/E                                                  :     8  Photo-electric factor
POTA.                                                    :     9  Potassium
RHOB.G/CC                                                :    10  Bulk density
TENS.LB                                                  :    11  Cable Tension
THOR.PPM                                                 :    12  Thorium
URAN.PPM                                                 :    13  Uranium
~ASCII
# ...
 1763.1644    17.2188  -999.2500  2988.0000      .0005    35.9375  -999.2500     3.0280  -999.2500     1.9986  2070.0000  -999.2500  -999.2500
 1763.3168    17.2188  -999.2500  2994.0000      .0044    32.0000  -999.2500     3.4062  -999.2500     2.0414  2080.0000  -999.2500  -999.2500
 1763.4692    17.2188  -999.2500  2992.0000      .0063    31.3125  -999.2500     3.7112  -999.2500     2.0623  2090.0000  -999.2500  -999.2500
 1763.6216    17.2188  -999.2500  2996.0000     -.0010    31.1719  -999.2500     3.5614  -999.2500     2.0536  2084.0000  -999.2500  -999.2500
 1763.7740    17.2188  -999.2500  2996.0000     -.0044    37.0938  -999.2500     3.4541  -999.2500     2.0145  2084.0000  -999.2500  -999.2500
 1763.9264    17.2188  -999.2500  2994.0000     -.0063    40.1562  -999.2500     3.2671  -999.2500     1.9827  2070.0000  -999.2500  -999.2500
 1764.0788    17.2188  -999.2500  2994.0000      .0005    42.6562  -999.2500     3.1131  -999.2500     1.9675  2064.0000  -999.2500  -999.2500
 1764.2312    17.2188  -999.2500  2990.0000     -.0029    39.8750  -999.2500     2.9539  -999.2500     1.9821  2064.0000  -999.2500  -999.2500
 1764.3836    17.2188  -999.2500  2992.0000     -.0054    36.2813  -999.2500     2.9538  -999.2500     1.9958  2074.0000  -999.2500  -999.2500
 1764.5360    17.2188  -999.2500  2992.0000     -.0078    37.5000  -999.2500     3.2887  -999.2500     2.0221  2070.0000  -999.2500  -999.2500
 1764.6884    17.2188  -999.2500  2994.0000      .0034    36.6875  -999.2500     3.5856  -999.2500     2.0312  2054.0000  -999.2500  -999.2500
 1764.8408    17.2188  -999.2500  2992.0000      .0093    39.9063  -999.2500     3.5337  -999.2500     2.0293  2070.0000  -999.2500  -999.2500
 1764.9932    17.2188  -999.2500  2996.0000      .0093    40.2812  -999.2500     3.2420  -999.2500     2.0037  2070.0000  -999.2500  -999.2500
 1765.1456    17.2188  -999.2500  2994.0000      .0034    40.7500  -999.2500     2.9968  -999.2500     1.9786  2084.0000  -999.2500  -999.2500
 1765.2980    17.2188  -999.2500  2994.0000      .0024    42.0312  -999.2500     2.8672  -999.2500     1.9602  2080.0000  -999.2500  -999.2500
 1765.4504    17.2188  -999.2500  2992.0000      .0000    42.8438  -999.2500     2.8811  -999.2500     1.9637  2074.0000  -999.2500  -999.2500
 1765.6028    17.2188  -999.2500  2994.0000      .0063    43.9688  -999.2500     3.0147  -999.2500     1.9727  2064.0000  -999.2500  -999.2500
 1765.7552    17.2188  -999.2500  2994.0000      .0034    43.0937  -999.2500     3.1362  -999.2500     1.9903  2070.0000  -999.2500  -999.2500
 1765.9076    17.2188  -999.2500  2996.0000      .0054    41.0313  -999.2500     3.2518  -999.2500     1.9995  2084.0000  -999.2500  -999.2500
 1766.0600    17.2188  -999.2500  2996.0000      .0000    42.7812  -999.2500     3.1213  -999.2500     2.0098  2084.0000  -999.2500  -999.2500
 1766.2124    17.2188  -999.2500  2988.0000      .0015    41.1250  -999.2500     3.0094  -999.2500     2.0095  2084.0000  -999.2500  -999.2500
 1766.3648    17.2188  -999.2500  2990.0000     -.0034    40.0313  -999.2500     2.9807  -999.2500     2.0081  2090.0000  -999.2500  -999.2500
 1766.5172    17.2188  -999.2500  2992.0000     -.0034    39.5000  -999.2500     3.0938  -999.2500     2.0095  2090.0000  -999.2500  -999.2500
 1766.6696    17.2188  -999.2500  2992.0000     -.0005    38.4062  -999.2500     3.2988  -999.2500     2.0069  2084.0000  -999.2500  -999.2500
 1766.8220    17.2188  -999.2500  2994.0000      .0029    38.0000  -999.2500     3.1550  -999.2500     2.0001  2080.0000  -999.2500  -999.2500
 1766.9744    17.2188  -999.2500  2998.0000      .0073    35.2500  -999.2500     3.1309  -999.2500     1.9899  2084.0000  -999.2500  -999.2500
 1767.1268    17.2188  -999.2500  2994.0000      .0073    38.6563  -999.2500     3.0675  -999.2500     1.9901  2080.0000  -999.2500  -999.2500
 1767.2792    17.2188  -999.2500  2998.0000      .0063    40.2188  -999.2500     3.2168  -999.2500     2.0036  2080.0000  -999.2500  -999.2500
 1767.4316    17.2188  -999.2500  3004.0000      .0034    39.0000  -999.2500     3.3529  -999.2500     2.0279  2070.0000  -999.2500  -999.2500
 1767.5840    17.2188  -999.2500  2998.0000      .0015    37.5625  -999.2500     3.5356  -999.2500     2.0380  2070.0000  -999.2500  -999.2500
 1767.7364    17.2188  -999.2500  2996.0000     -.0039    37.4375  -999.2500     3.4473  -999.2500     2.0309  2064.0000  -999.2500  -999.2500
 1767.8888    17.2188  -999.2500  2996.0000     -.0112    40.0313  -999.2500     3.3696  -999.2500     2.0242  2084.0000  -999.2500  -999.2500
 1768.0412    17.2188  -999.2500  2998.0000     -.0122    39.0625  -999.2500     3.2992  -999.2500     2.0388  2074.0000  -999.2500  -999.2500
 1768.1936    17.2188  -999.2500  3000.0000     -.0034    38.0313  -999.2500     3.3296  -999.2500     2.0536  2084.0000  -999.2500  -999.2500
 1768.3460    17.2188  -999.2500  3004.0000      .0049    36.6250  -999.2500     3.2441  -999.2500     2.0532  2084.0000  -999.2500  -999.2500
 1768.4984    17.2188  -999.2500  2996.0000      .0024    39.1250  -999.2500     3.2495  -999.2500     2.0384  2080.0000  -999.2500  -999.2500
 1768.6508    17.2188  -999.2500  3000.0000     -.0044    37.5625  -999.2500     3.2225  -999.2500     2.0270  2084.0000  -999.2500  -999.2500
 1768.8032    17.2188  -999.2500  2998.0000     -.0098    36.4063  -999.2500     3.1953  -999.2500     2.0182  2080.0000  -999.2500  -999.2500
 1768.9556    17.2188  -999.2500  2998.0000     -.0054    32.4375  -999.2500     3.1149  -999.2500     2.0127  2090.0000  -999.2500  -999.2500
 1769.1080    17.2188  -999.2500  2998.0000     -.0059    31.8437  -999.2500     3.1929  -999.2500     2.0098  2090.0000  -999.2500  -999.2500
 1769.2604    17.2188  -999.2500  3000.0000     -.0122    31.4375  -999.2500     3.1321  -999.2500     2.0118  2110.0000  -999.2500  -999.2500
 1769.4128    17.2188  -999.2500  2996.0000     -.0195    27.3750  -999.2500     2.9259  -999.2500     2.0191  2090.0000  -999.2500  -999.2500
 1769.5652    17.2188  -999.2500  2992.0000     -.0190    28.3281  -999.2500     2.6880  -999.2500     2.0245  2080.0000  -999.2500  -999.2500
 1769.7176    17.2188  -999.2500  2988.0000     -.0117    32.7188  -999.2500     2.7086  -999.2500     2.0258  2084.0000  -999.2500  -999.2500
 1769.8700    17.2188  -999.2500  2990.0000     -.0122    43.5625  -999.2500     2.7858  -999.2500     2.0177  2084.0000  -999.2500  -999.2500
 1770.0224    17.2188  -999.2500  2994.0000     -.0146    45.6250  -999.2500     2.8607  -999.2500     2.0045  2094.0000  -999.2500  -999.2500
 1770.1748    17.2188  -999.2500  2992.0000     -.0132    46.9375  -999.2500     2.8766  -999.2500     1.9978  2090.0000  -999.2500  -999.2500
 1770.3272    17.2188  -999.2500  2996.0000     -.0112    44.0312  -999.2500     2.9140  -999.2500     2.0060  2090.0000  -999.2500  -999.2500
 1770.4796    17.2188  -999.2500  2994.0000     -.0103    40.3438  -999.2500     3.0280  -999.2500     2.0186  2074.0000  -999.2500  -999.2500
 1770.6320    17.2188  -999.2500  2992.0000     -.0103    33.8125  -999.2500     3.1585  -999.2500     2.0260  2064.0000  -999.2500  -999.2500
 1770.7844    17.2188  -999.2500  2998.0000     -.0107    31.1250  -999.2500     3.4113  -999.2500     2.0249  2070.0000  -999.2500  -999.2500
 1770.9368    17.2188  -999.2500  2992.0000     -.0142    31.5156  -999.2500     3.5087  -999.2500     2.0170  2070.0000  -999.2500  -999.2500
 1771.0892    17.2188  -999.2500  2994.0000     -.0215    33.1250  -999.2500     3.5302  -999.2500     2.0104  2074.0000  -999.2500  -999.2500
 1771.2416    17.2188  -999.2500  2994.0000     -.0210    35.1563  -999.2500     3.3640  -999.2500     2.0111  2074.0000  -999.2500  -999.2500
 1771.3940    17.2188  -999.2500  2998.0000     -.0176    34.7813  -999.2500     3.2951  -999.2500     2.0196  2074.0000  -999.2500  -999.2500
 1771.5464    17.2188  -999.2500  2990.0000     -.0181    35.9688  -999.2500     3.2465  -999.2500     2.0248  2074.0000  -999.2500  -999.2500
