~VERSION INFORMATION
VERS.                                                 2.0:   CWLS Log ASCII Standard-VERSION 2.0
WRAP.                                                  NO:   One line per depth step
~Well Information Block
STRT.M                                           175.7660:   Top Depth
STOP.M                                          4145.7860:   Bottom Depth
STEP.M                                             .15240:   Depth Increment
NULL.                                            -999.250:   Null Value
FLD .                                             WILDCAT:   Field Name
WELL.                                              15/3-5:   NAME
WBN .                                              15/3-5:   WELLBORE
NATI.                                                 NOR:   COUNTRY
CTRY.                                                 NOR:   COUNTRY
COMP.                             ELF AQUITAINE NORGE A/S:   OPERATOR
PROV.                                            OFFSHORE:   PROVINCE
COUN.                                      BYFORD DOLPHIN:   RIG NAME
SPUD.                                          1983/12/20:   SPUD DATE
LATI.                                       58 47 13.04 N:   SURF. LATITUDE
LONG.                                        1 50 34.11 E:   SURF. LONGITUDE
PBWE.                                              15/3-5:   PB WELL ID
APIN.                                              15/3-5:   PB WELLBORE ID
PBWS.                                                 all:   PB WELL NAME SET
~PARAMETER INFORMATION (log)
LNAM.                             LDT/CNL/NGT  COMPOSITED:   NAME
LTYP.                                         DEPTH MATCH:   LOG TYPE
LSRV.                                           LATEROLOG:   LOG SERVICE
LSOU.                                             SPT/NPD:   LOG SOURCE
LVSN.                                                   1:   LOG VERSION
BHIS.                                                   R:   BRIEF HISTORY
FHIS.                                             RAW-LIS:   FULL HISTORY
LCNM.                                              TELECO:   LOGGING CONTRACTOR
TOOL.                            LDT/CNL/NGT (COMPOSITED):   TOOL STRING
~Curve Information Block
#MNEM.UNIT                                        API CODE    No Description
#=========                                        ========    == ===========
DEPT.M                                       00 001 00 00:     1  DEPTH
CALI.IN                                                  :     2  Caliper
CGR.GAPI                                                 :     3  Gamma Ray
CS.                                                      :     4  Cable Speed
DRHO.G/CC                                                :     5  Bulk density correction
GR.GAPI                                                  :     6  Gamma Ray
NPHI.%                                                   :     7  Neutron porosity
PEF.B/E                                                  :     8  Photo-electric factor
POTA.                                                    :     9  Potassium
RHOB.G/CC                                                :    10  Bulk density
TENS.LB                                                  :    11  Cable Tension
THOR.PPM                                                 :    12  Thorium
URAN.PPM                                                 :    13  Uranium
~ASCII
# ...
 1234.0316    17.2188  -999.2500  3528.0000     -.0083    24.4063  -999.2500     2.9300  -999.2500     2.1016  1620.0000  -999.2500  -999.2500
 1234.1840    17.2188  -999.2500  3524.0000     -.0073    24.3750  -999.2500     2.9105  -999.2500     2.1055  1625.0000  -999.2500  -999.2500
 1234.3364    17.2188  -999.2500  3524.0000     -.0044    23.4844  -999.2500     2.9401  -999.2500     2.0996  1630.0000  -999.2500  -999.2500
 1234.4888    17.2188  -999.2500  3518.0000     -.0049    24.8750  -999.2500     3.0477  -999.2500     2.0996  1635.0000  -999.2500  -999.2500
 1234.6412    17.2188  -999.2500  3520.0000     -.0078    22.9688  -999.2500     3.1130  -999.2500     2.0957  1625.0000  -999.2500  -999.2500
 1234.7936    17.2188  -999.2500  3522.0000     -.0083    23.9531  -999.2500     3.1362  -999.2500     2.0937  1620.0000  -999.2500  -999.2500
 1234.9460    17.2188  -999.2500  3522.0000     -.0068    22.5625  -999.2500     2.9888  -999.2500     2.0937  1615.0000  -999.2500  -999.2500
 1235.0984    17.2188  -999.2500  3522.0000     -.0093    23.9531  -999.2500     2.8808  -999.2500     2.0957  1620.0000  -999.2500  -999.2500
 1235.2508    17.2188  -999.2500  3522.0000     -.0083    23.9063  -999.2500     2.9196  -999.2500     2.0898  1615.0000  -999.2500  -999.2500
 1235.4032    17.2188  -999.2500  3518.0000     -.0176    22.0313  -999.2500     2.9767  -999.2500     2.0898  1620.0000  -999.2500  -999.2500
 1235.5556    17.2188  -999.2500  3522.0000     -.0171    21.5156  -999.2500     3.0180  -999.2500     2.0820  1635.0000  -999.2500  -999.2500
 1235.7080    17.2188  -999.2500  3524.0000     -.0161    21.0781  -999.2500     2.9874  -999.2500     2.0879  1620.0000  -999.2500  -999.2500
 1235.8604    17.2188  -999.2500  3516.0000     -.0151    21.5625  -999.2500     3.0479  -999.2500     2.0898  1630.0000  -999.2500  -999.2500
 1236.0128    17.2188  -999.2500  3514.0000     -.0146    22.5625  -999.2500     3.0839  -999.2500     2.0918  1625.0000  -999.2500  -999.2500
 1236.1652    17.2188  -999.2500  3522.0000     -.0195    21.1094  -999.2500     3.0099  -999.2500     2.0937  1630.0000  -999.2500  -999.2500
 1236.3176    17.2188  -999.2500  3522.0000     -.0220    21.1094  -999.2500     3.0321  -999.2500     2.0879  1615.0000  -999.2500  -999.2500
 1236.4700    17.2188  -999.2500  3520.0000     -.0249    17.3906  -999.2500     2.9575  -999.2500     2.0801  1625.0000  -999.2500  -999.2500
 1236.6224    17.2188  -999.2500  3524.0000     -.0205    16.9688  -999.2500     2.9226  -999.2500     2.0762  1650.0000  -999.2500  -999.2500
 1236.7748    17.2188  -999.2500  3526.0000     -.0186    18.3750  -999.2500     2.7926  -999.2500     2.0801  1655.0000  -999.2500  -999.2500
 1236.9272    17.2188  -999.2500  3526.0000     -.0191    18.3594  -999.2500     2.8884  -999.2500     2.0859  1625.0000  -999.2500  -999.2500
 1237.0796    17.2188  -999.2500  3528.0000     -.0239    20.2188  -999.2500     2.9675  -999.2500     2.0859  1610.0000  -999.2500  -999.2500
 1237.2320    17.2188  -999.2500  3524.0000     -.0176    18.4063  -999.2500     3.0822  -999.2500     2.0781  1625.0000  -999.2500  -999.2500
 1237.3844    17.2188  -999.2500  3524.0000     -.0098    20.7500  -999.2500     3.0917  -999.2500     2.0859  1635.0000  -999.2500  -999.2500
 1237.5368    17.2188  -999.2500  3522.0000     -.0098    17.9063  -999.2500     3.1638  -999.2500     2.0977  1625.0000  -999.2500  -999.2500
 1237.6892    17.2188  -999.2500  3530.0000     -.0122    19.6875  -999.2500     3.2051  -999.2500     2.1074  1620.0000  -999.2500  -999.2500
 1237.8416    17.2188  -999.2500  3516.0000     -.0137    17.7969  -999.2500     3.1199  -999.2500     2.1035  1625.0000  -999.2500  -999.2500
 1237.9940    17.2188  -999.2500  3524.0000     -.0176    19.7188  -999.2500     3.0468  -999.2500     2.0977  1630.0000  -999.2500  -999.2500
 1238.1464    17.2188  -999.2500  3524.0000     -.0190    20.2500  -999.2500     2.7625  -999.2500     2.0820  1640.0000  -999.2500  -999.2500
 1238.2988    17.2188  -999.2500  3520.0000     -.0200    23.0625  -999.2500     2.7459  -999.2500     2.0801  1620.0000  -999.2500  -999.2500
 1238.4512    17.2188  -999.2500  3528.0000     -.0142    23.0313  -999.2500     2.7346  -999.2500     2.0781  1610.0000  -999.2500  -999.2500
 1238.6036    17.2188  -999.2500  3526.0000     -.0107    22.5625  -999.2500     2.8575  -999.2500     2.0898  1630.0000  -999.2500  -999.2500
 1238.7560    17.2188  -999.2500  3526.0000     -.0117    22.0938  -999.2500     2.9214  -999.2500     2.0996  1640.0000  -999.2500  -999.2500
 1238.9084    17.2188  -999.2500  3526.0000     -.0078    22.5625  -999.2500     2.8867  -999.2500     2.1016  1625.0000  -999.2500  -999.2500
 1239.0608    17.2188  -999.2500  3520.0000     -.0093    21.5469  -999.2500     2.8813  -999.2500     2.1035  1630.0000  -999.2500  -999.2500
 1239.2132    17.2188  -999.2500  3526.0000     -.0107    20.5469  -999.2500     2.8523  -999.2500     2.0996  1630.0000  -999.2500  -999.2500
 1239.3656    17.2188  -999.2500  3520.0000     -.0156    23.4219  -999.2500     2.9011  -999.2500     2.0996  1640.0000  -999.2500  -999.2500
 1239.5180    17.2188  -999.2500  3524.0000     -.0186    22.0469  -999.2500     2.9473  -999.2500     2.0957  1640.0000  -999.2500  -999.2500
 1239.6704    17.2188  -999.2500  3524.0000     -.0146    22.5625  -999.2500     2.9455  -999.2500     2.0918  1630.0000  -999.2500  -999.2500
 1239.8228    17.2188  -999.2500  3522.0000     -.0137    20.1719  -999.2500     2.9876  -999.2500     2.0918  1620.0000  -999.2500  -999.2500
 1239.9752    17.2188  -999.2500  3522.0000     -.0093    24.4688  -999.2500     3.0135  -999.2500     2.0859  1610.0000  -999.2500  -999.2500
 1240.1276    17.2188  -999.2500  3522.0000     -.0112    26.3594  -999.2500     3.0367  -999.2500     2.0937  1610.0000  -999.2500  -999.2500
 1240.2800    17.2188  -999.2500  3522.0000     -.0117    26.4063  -999.2500     2.9279  -999.2500     2.0918  1625.0000  -999.2500  -999.2500
 1240.4324    17.2188  -999.2500  3522.0000     -.0127    24.4688  -999.2500     2.9166  -999.2500     2.1016  1630.0000  -999.2500  -999.2500
 1240.5848    17.2188  -999.2500  3516.0000     -.0127    19.7500  -999.2500     2.9728  -999.2500     2.0977  1635.0000  -999.2500  -999.2500
 1240.7372    17.2188  -999.2500  3522.0000     -.0098    18.7344  -999.2500     3.0233  -999.2500     2.1016  1625.0000  -999.2500  -999.2500
 1240.8896    17.2188  -999.2500  3518.0000     -.0137    18.2969  -999.2500     2.9548  -999.2500     2.1016  1620.0000  -999.2500  -999.2500
 1241.0420    17.2188  -999.2500  3522.0000     -.0142    22.0000  -999.2500     2.9155  -999.2500     2.0937  1630.0000  -999.2500  -999.2500
 1241.1944    17.2188  -999.2500  3518.0000     -.0190    22.9844  -999.2500     2.9725  -999.2500     2.0918  1635.0000  -999.2500  -999.2500
 1241.3468    17.2188  -999.2500  3520.0000     -.0166    21.1250  -999.2500     3.0308  -999.2500     2.0840  1640.0000  -999.2500  -999.2500
 1241.4992    17.2188  -999.2500  3522.0000     -.0166    20.1719  -999.2500     3.0747  -999.2500     2.0918  1630.0000  -999.2500  -999.2500
 1241.6516    17.2188  -999.2500  3524.0000     -.0103    22.9844  -999.2500     3.0804  -999.2500     2.0898  1620.0000  -999.2500  -999.2500
 1241.8040    17.2188  -999.2500  3524.0000     -.0107    25.3750  -999.2500     3.1578  -999.2500     2.0937  1620.0000  -999.2500  -999.2500
 1241.9564    17.2188  -999.2500  3526.0000     -.0073    27.2813  -999.2500     3.1246  -999.2500     2.0918  1635.0000  -999.2500  -999.2500
 1242.1088    17.2188  -999.2500  3526.0000     -.0103    24.9531  -999.2500     3.0232  -999.2500     2.0996  1635.0000  -999.2500  -999.2500
 1242.2612    17.2188  -999.2500  3526.0000     -.0127    26.2969  -999.2500     2.9238  -999.2500     2.0977  1635.0000  -999.2500  -999.2500
 1242.4136    17.2188  -999.2500  3526.0000     -.0151    26.7344  -999.2500     2.8871  -999.2500     2.0937  1625.0000  -999.2500  -999.2500
