~VERSION INFORMATION
VERS.                                                 2.0:   CWLS Log ASCII Standard-VERSION 2.0
WRAP.                                                  NO:   One line per depth step
~Well Information Block
STRT.M                                           175.7660:   Top Depth
STOP.M                                          4145.7860:   Bottom Depth
STEP.M                                             .15240:   Depth Increment
NULL.                                            -999.250:   Null Value
FLD .                                             WILDCAT:   Field Name
WELL.                                              15/3-5:   NAME
WBN .                                              15/3-5:   WELLBORE
NATI.                                                 NOR:   COUNTRY
CTRY.                                                 NOR:   COUNTRY
COMP.                             ELF AQUITAINE NORGE A/S:   OPERATOR
PROV.                                            OFFSHORE:   PROVINCE
COUN.                                      BYFORD DOLPHIN:   RIG NAME
SPUD.                                          1983/12/20:   SPUD DATE
LATI.                                       58 47 13.04 N:   SURF. LATITUDE
LONG.                                        1 50 34.11 E:   SURF. LONGITUDE
PBWE.                                              15/3-5:   PB WELL ID
APIN.                                              15/3-5:   PB WELLBORE ID
PBWS.                                                 all:   PB WELL NAME SET
~PARAMETER INFORMATION (log)
LNAM.                             LDT/CNL/NGT  COMPOSITED:   NAME
LTYP.                                         DEPTH MATCH:   LOG TYPE
LSRV.                                           LATEROLOG:   LOG SERVICE
LSOU.                                             SPT/NPD:   LOG SOURCE
LVSN.                                                   1:   LOG VERSION
BHIS.                                                   R:   BRIEF HISTORY
FHIS.                                             RAW-LIS:   FULL HISTORY
LCNM.                                              TELECO:   LOGGING CONTRACTOR
TOOL.                            LDT/CNL/NGT (COMPOSITED):   TOOL STRING
~Curve Information Block
#MNEM.UNIT                                        API CODE    No Description
#=========                                        ========    == ===========
DEPT.M                                       00 001 00 00:     1  DEPTH
CALI.IN                                                  :     2  Caliper
CGR.GAPI                                                 :     3  Gamma Ray
CS.                                                      :     4  Cable Speed
DRHO.G/CC                                                :     5  Bulk density correction
GR.GAPI                                                  :     6  Gamma Ray
NPHI.%                                                   :     7  Neutron porosity
PEF.B/E                                                  :     8  Photo-electric factor
POTA.                                                    :     9  Potassium
RHOB.G/CC                                                :    10  Bulk density
TENS.LB                                                  :    11  Cable Tension
THOR.PPM                                                 :    12  Thorium
URAN.PPM                                                 :    13  Uranium
~ASCII
# ...
  713.4332    17.3747  -999.2500  -999.2500      .0003    34.5947  -999.2500     1.5979  -999.2500     1.9290  1031.8293  -999.2500  -999.2500
  713.5856    17.3928  -999.2500  -999.2500     -.0019    30.9209  -999.2500     1.5436  -999.2500     1.9465  1033.5854  -999.2500  -999.2500
  713.7380    17.4191  -999.2500  -999.2500     -.0036    27.6461  -999.2500     1.4943  -999.2500     1.9569  1030.7168  -999.2500  -999.2500
  713.8904    17.4404  -999.2500  -999.2500     -.0046    25.8077  -999.2500     1.4565  -999.2500     1.9694  1026.9678  -999.2500  -999.2500
  714.0428    17.4599  -999.2500  -999.2500     -.0048    25.4240  -999.2500     1.4325  -999.2500     1.9744  1026.2949  -999.2500  -999.2500
  714.1952    17.4725  -999.2500  -999.2500     -.0033    26.0226  -999.2500     1.4194  -999.2500     1.9743  1026.4141  -999.2500  -999.2500
  714.3476    17.4821  -999.2500  -999.2500     -.0014    26.0658  -999.2500     1.4172  -999.2500     1.9725  1026.5327  -999.2500  -999.2500
  714.5000    17.4790  -999.2500  -999.2500     -.0001    25.7947  -999.2500     1.4236  -999.2500     1.9699  1026.6519  -999.2500  -999.2500
  714.6524    17.4615  -999.2500  -999.2500      .0004    25.2470  -999.2500     1.4332  -999.2500     1.9660  1026.7708  -999.2500  -999.2500
  714.8048    17.4346  -999.2500  -999.2500      .0016    23.9387  -999.2500     1.4464  -999.2500     1.9643  1026.8896  -999.2500  -999.2500
  714.9572    17.4007  -999.2500  -999.2500      .0049    22.2743  -999.2500     1.4525  -999.2500     1.9653  1027.0088  -999.2500  -999.2500
  715.1096    17.3711  -999.2500  -999.2500      .0083    21.5277  -999.2500     1.4482  -999.2500     1.9695  1027.1274  -999.2500  -999.2500
  715.2620    17.3614  -999.2500  -999.2500      .0090    22.2350  -999.2500     1.4314  -999.2500     1.9755  1027.2466  -999.2500  -999.2500
  715.4144    17.3566  -999.2500  -999.2500      .0071    23.6893  -999.2500     1.4140  -999.2500     1.9835  1027.3655  -999.2500  -999.2500
  715.5668    17.3518  -999.2500  -999.2500      .0045    23.9388  -999.2500     1.3989  -999.2500     1.9930  1027.4844  -999.2500  -999.2500
  715.7192    17.3480  -999.2500  -999.2500      .0019    23.1918  -999.2500     1.3966  -999.2500     2.0006  1027.6035  -999.2500  -999.2500
  715.8716    17.3476  -999.2500  -999.2500     -.0007    22.7684  -999.2500     1.4099  -999.2500     2.0083  1027.7224  -999.2500  -999.2500
  716.0240    17.3480  -999.2500  -999.2500     -.0031    23.2012  -999.2500     1.4280  -999.2500     2.0143  1027.8416  -999.2500  -999.2500
  716.1764    17.3483  -999.2500  -999.2500     -.0055    24.0727  -999.2500     1.4297  -999.2500     2.0165  1027.9602  -999.2500  -999.2500
  716.3288    17.3487  -999.2500  -999.2500     -.0083    24.4996  -999.2500     1.4107  -999.2500     2.0159  1028.0793  -999.2500  -999.2500
  716.4812    17.3491  -999.2500  -999.2500     -.0115    24.0840  -999.2500     1.4007  -999.2500     2.0120  1028.1982  -999.2500  -999.2500
  716.6336    17.3495  -999.2500  -999.2500     -.0132    23.9535  -999.2500     1.3965  -999.2500     2.0101  1028.3174  -999.2500  -999.2500
  716.7860    17.3498  -999.2500  -999.2500     -.0137    24.8328  -999.2500     1.3906  -999.2500     2.0123  1028.4365  -999.2500  -999.2500
  716.9384    17.3502  -999.2500  -999.2500     -.0123    25.9732  -999.2500     1.3827  -999.2500     2.0168  1028.5554  -999.2500  -999.2500
  717.0908    17.3506  -999.2500  -999.2500     -.0106    27.5411  -999.2500     1.4014  -999.2500     2.0205  1028.6743  -999.2500  -999.2500
  717.2432    17.3510  -999.2500  -999.2500     -.0101    28.7001  -999.2500     1.4441  -999.2500     2.0201  1028.7932  -999.2500  -999.2500
  717.3956    17.3514  -999.2500  -999.2500     -.0112    28.9302  -999.2500     1.4729  -999.2500     2.0162  1028.9124  -999.2500  -999.2500
  717.5480    17.3517  -999.2500  -999.2500     -.0122    28.2897  -999.2500     1.4782  -999.2500     2.0129  1029.0315  -999.2500  -999.2500
  717.7004    17.3521  -999.2500  -999.2500     -.0130    27.9152  -999.2500     1.4757  -999.2500     2.0150  1029.1504  -999.2500  -999.2500
  717.8528    17.3525  -999.2500  -999.2500     -.0158    28.3681  -999.2500     1.4721  -999.2500     2.0186  1029.2693  -999.2500  -999.2500
  718.0052    17.3529  -999.2500  -999.2500     -.0201    30.0743  -999.2500     1.4694  -999.2500     2.0158  1029.3882  -999.2500  -999.2500
  718.1576    17.3549  -999.2500  -999.2500     -.0243    32.7048  -999.2500     1.4872  -999.2500     2.0025  1029.3494  -999.2500  -999.2500
  718.3100    17.3580  -999.2500  -999.2500     -.0262    35.6276  -999.2500     1.5159  -999.2500     1.9867  1029.0085  -999.2500  -999.2500
  718.4624    17.3614  -999.2500  -999.2500     -.0259    36.7308  -999.2500     1.5482  -999.2500     1.9768  1028.5913  -999.2500  -999.2500
  718.6148    17.3647  -999.2500  -999.2500     -.0242    36.0094  -999.2500     1.5757  -999.2500     1.9712  1028.1746  -999.2500  -999.2500
  718.7672    17.3681  -999.2500  -999.2500     -.0161    35.2719  -999.2500     1.5794  -999.2500     1.9624  1027.7573  -999.2500  -999.2500
  718.9196    17.3714  -999.2500  -999.2500     -.0039    35.4776  -999.2500     1.5585  -999.2500     1.9490  1027.3403  -999.2500  -999.2500
  719.0720    17.3747  -999.2500  -999.2500      .0070    36.2932  -999.2500     1.5326  -999.2500     1.9381  1026.9233  -999.2500  -999.2500
  719.2244    17.3671  -999.2500  -999.2500      .0075    36.2324  -999.2500     1.5229  -999.2500     1.9321  1026.5061  -999.2500  -999.2500
  719.3768    17.3529  -999.2500  -999.2500      .0024    35.3304  -999.2500     1.5341  -999.2500     1.9311  1026.0891  -999.2500  -999.2500
  719.5292    17.3409  -999.2500  -999.2500     -.0034    34.3654  -999.2500     1.5267  -999.2500     1.9343  1025.6721  -999.2500  -999.2500
  719.6816    17.3512  -999.2500  -999.2500     -.0093    33.4326  -999.2500     1.5122  -999.2500     1.9406  1025.2551  -999.2500  -999.2500
  719.8340    17.3681  -999.2500  -999.2500     -.0139    32.9674  -999.2500     1.5046  -999.2500     1.9491  1024.8381  -999.2500  -999.2500
  719.9864    17.4030  -999.2500  -999.2500     -.0180    32.7755  -999.2500     1.5108  -999.2500     1.9585  1024.4209  -999.2500  -999.2500
  720.1388    17.4510  -999.2500  -999.2500     -.0207    33.2160  -999.2500     1.5229  -999.2500     1.9631  1024.0039  -999.2500  -999.2500
  720.2912    17.4933  -999.2500  -999.2500     -.0217    34.4938  -999.2500     1.5393  -999.2500     1.9618  1023.5872  -999.2500  -999.2500
  720.4436    17.5032  -999.2500  -999.2500     -.0213    36.2402  -999.2500     1.5611  -999.2500     1.9571  1023.1700  -999.2500  -999.2500
  720.5960    17.5036  -999.2500  -999.2500     -.0187    36.5554  -999.2500     1.5911  -999.2500     1.9548  1022.7529  -999.2500  -999.2500
  720.7484    17.5040  -999.2500  -999.2500     -.0186    35.5701  -999.2500     1.6089  -999.2500     1.9599  1022.3359  -999.2500  -999.2500
  720.9008    17.5044  -999.2500  -999.2500     -.0201    35.1347  -999.2500     1.6074  -999.2500     1.9659  1022.4537  -999.2500  -999.2500
  721.0532    17.5047  -999.2500  -999.2500     -.0212    35.4444  -999.2500     1.6000  -999.2500     1.9693  1025.2339  -999.2500  -999.2500
  721.2056    17.5051  -999.2500  -999.2500     -.0202    35.8472  -999.2500     1.5922  -999.2500     1.9704  1028.8230  -999.2500  -999.2500
  721.3580    17.5055  -999.2500  -999.2500     -.0173    35.8133  -999.2500     1.5719  -999.2500     1.9678  1030.8604  -999.2500  -999.2500
  721.5104    17.5059  -999.2500  -999.2500     -.0144    35.4799  -999.2500     1.5373  -999.2500     1.9653  1029.6848  -999.2500  -999.2500
  721.6628    17.5062  -999.2500  -999.2500     -.0124    34.8756  -999.2500     1.5021  -999.2500     1.9636  1027.6206  -999.2500  -999.2500
  721.8152    17.5146  -999.2500  -999.2500     -.0124    34.0936  -999.2500     1.4846  -999.2500     1.9635  1025.5559  -999.2500  -999.2500
