~VERSION INFORMATION
VERS.                                                 2.0:   CWLS Log ASCII Standard-VERSION 2.0
WRAP.                                                  NO:   One line per depth step
~Well Information Block
STRT.M                                           175.7660:   Top Depth
STOP.M                                          4145.7860:   Bottom Depth
STEP.M                                             .15240:   Depth Increment
NULL.                                            -999.250:   Null Value
FLD .                                             WILDCAT:   Field Name
WELL.                                              15/3-5:   NAME
WBN .                                              15/3-5:   WELLBORE
NATI.                                                 NOR:   COUNTRY
CTRY.                                                 NOR:   COUNTRY
COMP.                             ELF AQUITAINE NORGE A/S:   OPERATOR
PROV.                                            OFFSHORE:   PROVINCE
COUN.                                      BYFORD DOLPHIN:   RIG NAME
SPUD.                                          1983/12/20:   SPUD DATE
LATI.                                       58 47 13.04 N:   SURF. LATITUDE
LONG.                                        1 50 34.11 E:   SURF. LONGITUDE
PBWE.                                              15/3-5:   PB WELL ID
APIN.                                              15/3-5:   PB WELLBORE ID
PBWS.                                                 all:   PB WELL NAME SET
~PARAMETER INFORMATION (log)
LNAM.                             LDT/CNL/NGT  COMPOSITED:   NAME
LTYP.                                         DEPTH MATCH:   LOG TYPE
LSRV.                                           LATEROLOG:   LOG SERVICE
LSOU.                                             SPT/NPD:   LOG SOURCE
LVSN.                                                   1:   LOG VERSION
BHIS.                                                   R:   BRIEF HISTORY
FHIS.                                             RAW-LIS:   FULL HISTORY
LCNM.                                              TELECO:   LOGGING CONTRACTOR
TOOL.                            LDT/CNL/NGT (COMPOSITED):   TOOL STRING
~Curve Information Block
#MNEM.UNIT                                        API CODE    No Description
#=========                                        ========    == ===========
DEPT.M                                       00 001 00 00:     1  DEPTH
CALI.IN                                                  :     2  Caliper
CGR.GAPI                                                 :     3  Gamma Ray
CS.                                                      :     4  Cable Speed
DRHO.G/CC                                                :     5  Bulk density correction
GR.GAPI                                                  :     6  Gamma Ray
NPHI.%                                                   :     7  Neutron porosity
PEF.B/E                                                  :     8  Photo-electric factor
POTA.                                                    :     9  Potassium
RHOB.G/CC                                                :    10  Bulk density
TENS.LB                                                  :    11  Cable Tension
THOR.PPM                                                 :    12  Thorium
URAN.PPM                                                 :    13  Uranium
~ASCII
# ...
  977.9996    18.8438  -999.2500  3614.0000     -.0044    43.0625  -999.2500     3.0840  -999.2500     1.8978  1420.0000  -999.2500  -999.2500
  978.1520    18.9063  -999.2500  3618.0000     -.0068    44.0000  -999.2500     2.8984  -999.2500     1.8929  1400.0000  -999.2500  -999.2500
  978.3044    18.9375  -999.2500  3614.0000     -.0059    42.9687  -999.2500     3.0430  -999.2500     1.8810  1400.0000  -999.2500  -999.2500
  978.4568    18.9375  -999.2500  3610.0000     -.0127    43.7813  -999.2500     3.0977  -999.2500     1.8734  1405.0000  -999.2500  -999.2500
  978.6092    18.9375  -999.2500  3612.0000     -.0107    45.6875  -999.2500     3.5039  -999.2500     1.8649  1410.0000  -999.2500  -999.2500
  978.7616    18.9375  -999.2500  3614.0000     -.0083    45.7188  -999.2500     3.5586  -999.2500     1.8406  1420.0000  -999.2500  -999.2500
  978.9140    18.9375  -999.2500  3616.0000      .0005    43.9688  -999.2500     3.8398  -999.2500     1.8311  1425.0000  -999.2500  -999.2500
  979.0664    19.1719  -999.2500  3618.0000      .0029    45.4687  -999.2500     3.5742  -999.2500     1.8496  1420.0000  -999.2500  -999.2500
  979.2188    19.1719  -999.2500  3616.0000      .0024    46.4062  -999.2500     3.3770  -999.2500     1.8719  1415.0000  -999.2500  -999.2500
  979.3712    19.0000  -999.2500  3620.0000      .0054    47.8438  -999.2500     3.2656  -999.2500     1.8802  1415.0000  -999.2500  -999.2500
  979.5236    19.1406  -999.2500  3620.0000      .0083    45.8438  -999.2500     3.4570  -999.2500     1.8874  1420.0000  -999.2500  -999.2500
  979.6760    19.2188  -999.2500  3618.0000      .0098    43.9375  -999.2500     3.7754  -999.2500     1.8981  1420.0000  -999.2500  -999.2500
  979.8284    19.6875  -999.2500  3622.0000      .0073    44.8750  -999.2500     3.6270  -999.2500     1.8965  1405.0000  -999.2500  -999.2500
  979.9808    19.4688  -999.2500  3612.0000      .0064    41.5000  -999.2500     3.3945  -999.2500     1.8939  1400.0000  -999.2500  -999.2500
  980.1332    19.9375  -999.2500  3620.0000      .0093    38.5938  -999.2500     3.1582  -999.2500     1.8899  1415.0000  -999.2500  -999.2500
  980.2856    19.5469  -999.2500  3618.0000      .0088    38.0313  -999.2500     3.1016  -999.2500     1.8950  1430.0000  -999.2500  -999.2500
  980.4380    19.0156  -999.2500  3622.0000      .0073    38.1563  -999.2500     3.1660  -999.2500     1.9004  1420.0000  -999.2500  -999.2500
  980.5904    18.8750  -999.2500  3618.0000      .0107    42.0625  -999.2500     3.1465  -999.2500     1.9035  1415.0000  -999.2500  -999.2500
  980.7428    18.7813  -999.2500  3620.0000      .0049    41.7187  -999.2500     3.0898  -999.2500     1.9023  1415.0000  -999.2500  -999.2500
  980.8952    19.0469  -999.2500  3624.0000     -.0015    43.5625  -999.2500     3.2168  -999.2500     1.9083  1405.0000  -999.2500  -999.2500
  981.0476    18.9531  -999.2500  3622.0000     -.0044    42.5313  -999.2500     3.7109  -999.2500     1.9196  1405.0000  -999.2500  -999.2500
  981.2000    18.8125  -999.2500  3622.0000      .0029    44.9375  -999.2500     4.3359  -999.2500     1.9187  1400.0000  -999.2500  -999.2500
  981.3524    18.6406  -999.2500  3616.0000      .0098    45.5000  -999.2500     4.3008  -999.2500     1.9289  1410.0000  -999.2500  -999.2500
  981.5048    18.6875  -999.2500  3614.0000      .0054    50.2812  -999.2500     3.5391  -999.2500     1.9469  1405.0000  -999.2500  -999.2500
  981.6572    18.2500  -999.2500  3620.0000      .0059    48.1875  -999.2500     3.1543  -999.2500     1.9597  1405.0000  -999.2500  -999.2500
  981.8096    17.9219  -999.2500  3612.0000      .0063    50.4375  -999.2500     3.8887  -999.2500     1.9441  1405.0000  -999.2500  -999.2500
  981.9620    18.0156  -999.2500  3608.0000      .0073    45.1875  -999.2500     4.8906  -999.2500     1.8987  1410.0000  -999.2500  -999.2500
  982.1144    18.6406  -999.2500  3612.0000      .0034    48.5937  -999.2500     5.2617  -999.2500     1.8340  1420.0000  -999.2500  -999.2500
  982.2668    19.7969  -999.2500  3606.0000     -.0034    48.5937  -999.2500     3.7734  -999.2500     1.8348  1390.0000  -999.2500  -999.2500
  982.4192    19.5625  -999.2500  3608.0000      .0049    51.8750  -999.2500     3.1191  -999.2500     1.8504  1405.0000  -999.2500  -999.2500
  982.5716    20.0938  -999.2500  3616.0000      .0015    48.1875  -999.2500     2.9961  -999.2500     1.8819  1410.0000  -999.2500  -999.2500
  982.7240    19.8438  -999.2500  3620.0000      .0029    46.2813  -999.2500     3.0195  -999.2500     1.9092  1410.0000  -999.2500  -999.2500
  982.8764    19.5625  -999.2500  3620.0000     -.0107    44.9375  -999.2500     2.9004  -999.2500     1.9194  1425.0000  -999.2500  -999.2500
  983.0288    19.1875  -999.2500  3620.0000     -.0122    44.4375  -999.2500     2.8496  -999.2500     1.9211  1420.0000  -999.2500  -999.2500
  983.1812    20.0313  -999.2500  3614.0000     -.0078    44.4688  -999.2500     2.7598  -999.2500     1.9236  1405.0000  -999.2500  -999.2500
  983.3336    18.9531  -999.2500  3624.0000     -.0078    45.3750  -999.2500     2.8301  -999.2500     1.9231  1405.0000  -999.2500  -999.2500
  983.4860    19.4063  -999.2500  3614.0000     -.0083    48.1875  -999.2500     3.1660  -999.2500     1.9217  1410.0000  -999.2500  -999.2500
  983.6384    19.0938  -999.2500  3620.0000     -.0132    47.6875  -999.2500     3.9668  -999.2500     1.9231  1435.0000  -999.2500  -999.2500
  983.7908    18.5469  -999.2500  3620.0000     -.0127    50.1875  -999.2500     4.6602  -999.2500     1.9252  1405.0000  -999.2500  -999.2500
  983.9432    19.0625  -999.2500  3620.0000     -.0093    47.8438  -999.2500     4.3047  -999.2500     1.9227  1405.0000  -999.2500  -999.2500
  984.0956    18.6563  -999.2500  3626.0000     -.0019    47.5000  -999.2500     4.0898  -999.2500     1.9152  1410.0000  -999.2500  -999.2500
  984.2480    18.7188  -999.2500  3624.0000      .0073    45.5000  -999.2500     3.6016  -999.2500     1.9054  1430.0000  -999.2500  -999.2500
  984.4004    19.5469  -999.2500  3630.0000      .0112    46.9688  -999.2500     3.6289  -999.2500     1.9027  1420.0000  -999.2500  -999.2500
  984.5528    18.5625  -999.2500  3622.0000      .0083    48.4062  -999.2500     2.9883  -999.2500     1.9058  1405.0000  -999.2500  -999.2500
  984.7052    18.2813  -999.2500  3628.0000      .0103    45.9688  -999.2500     3.2070  -999.2500     1.9088  1405.0000  -999.2500  -999.2500
  984.8576    18.2969  -999.2500  3628.0000      .0073    42.1875  -999.2500     3.2402  -999.2500     1.9082  1410.0000  -999.2500  -999.2500
  985.0100    18.3281  -999.2500  3618.0000      .0098    39.2500  -999.2500     3.5391  -999.2500     1.9077  1410.0000  -999.2500  -999.2500
  985.1624    18.3125  -999.2500  3622.0000      .0024    40.2188  -999.2500     3.5664  -999.2500     1.8987  1405.0000  -999.2500  -999.2500
  985.3148    18.4375  -999.2500  3614.0000      .0024    41.8750  -999.2500     3.5703  -999.2500     1.8982  1400.0000  -999.2500  -999.2500
  985.4672    18.5625  -999.2500  3616.0000      .0029    45.2188  -999.2500     3.7285  -999.2500     1.9007  1415.0000  -999.2500  -999.2500
  985.6196    18.5625  -999.2500  3618.0000     -.0000    43.7187  -999.2500     3.7305  -999.2500     1.9052  1420.0000  -999.2500  -999.2500
  985.7720    18.1875  -999.2500  3614.0000     -.0010    42.3437  -999.2500     3.8594  -999.2500     1.9081  1420.0000  -999.2500  -999.2500
  985.9244    18.0938  -999.2500  3620.0000     -.0039    39.9375  -999.2500     3.8770  -999.2500     1.9039  1390.0000  -999.2500  -999.2500
  986.0768    17.9688  -999.2500  3620.0000     -.0054    41.9063  -999.2500     4.2070  -999.2500     1.8931  1390.0000  -999.2500  -999.2500
  986.2292    17.9688  -999.2500  3620.0000      .0005    43.2812  -999.2500     4.5352  -999.2500     1.8809  1420.0000  -999.2500  -999.2500
  986.3816    18.3906  -999.2500  3624.0000      .0000    44.8125  -999.2500     4.2305  -999.2500     1.8760  1415.0000  -999.2500  -999.2500
