~VERSION INFORMATION
VERS.                                                 2.0:   CWLS Log ASCII Standard-VERSION 2.0
WRAP.                                                  NO:   One line per depth step
~Well Information Block
STRT.M                                           175.7660:   Top Depth
STOP.M                                          4145.7860:   Bottom Depth
STEP.M                                             .15240:   Depth Increment
NULL.                                            -999.250:   Null Value
FLD .                                             WILDCAT:   Field Name
WELL.                                              15/3-5:   NAME
WBN .                                              15/3-5:   WELLBORE
NATI.                                                 NOR:   COUNTRY
CTRY.                                                 NOR:   COUNTRY
COMP.                             ELF AQUITAINE NORGE A/S:   OPERATOR
PROV.                                            OFFSHORE:   PROVINCE
COUN.                                      BYFORD DOLPHIN:   RIG NAME
SPUD.                                          1983/12/20:   SPUD DATE
LATI.                                       58 47 13.04 N:   SURF. LATITUDE
LONG.                                        1 50 34.11 E:   SURF. LONGITUDE
PBWE.                                              15/3-5:   PB WELL ID
APIN.                                              15/3-5:   PB WELLBORE ID
PBWS.                                                 all:   PB WELL NAME SET
~PARAMETER INFORMATION (log)
LNAM.                             LDT/CNL/NGT  COMPOSITED:   NAME
LTYP.                                         DEPTH MATCH:   LOG TYPE
LSRV.                                           LATEROLOG:   LOG SERVICE
LSOU.                                             SPT/NPD:   LOG SOURCE
LVSN.                                                   1:   LOG VERSION
BHIS.                                                   R:   BRIEF HISTORY
FHIS.                                             RAW-LIS:   FULL HISTORY
LCNM.                                              TELECO:   LOGGING CONTRACTOR
TOOL.                            LDT/CNL/NGT (COMPOSITED):   TOOL STRING
~Curve Information Block
#MNEM.UNIT                                        API CODE    No Description
#=========                                        ========    == ===========
DEPT.M                                       00 001 00 00:     1  DEPTH
CALI.IN                                                  :     2  Caliper
CGR.GAPI                                                 :     3  Gamma Ray
CS.                                                      :     4  Cable Speed
DRHO.G/CC                                                :     5  Bulk density correction
GR.GAPI                                                  :     6  Gamma Ray
NPHI.%                                                   :     7  Neutron porosity
PEF.B/E                                                  :     8  Photo-electric factor
POTA.                                                    :     9  Potassium
RHOB.G/CC                                                :    10  Bulk density
TENS.LB                                                  :    11  Cable Tension
THOR.PPM                                                 :    12  Thorium
URAN.PPM                                                 :    13  Uranium
~ASCII
# ...
 2556.8636    17.0938  -999.2500  3074.0000      .0007    36.9063  -999.2500     4.2370  -999.2500     2.3926  2784.0000  -999.2500  -999.2500
 2557.0160    17.0938  -999.2500  3072.0000     -.0024    43.9062  -999.2500     4.4252  -999.2500     2.4160  2810.0000  -999.2500  -999.2500
 2557.1684    17.0938  -999.2500  3072.0000     -.0082    45.0000  -999.2500     4.2165  -999.2500     2.4297  2804.0000  -999.2500  -999.2500
 2557.3208    17.1719  -999.2500  3070.0000     -.0035    42.4375  -999.2500     3.8733  -999.2500     2.3945  2814.0000  -999.2500  -999.2500
 2557.4732    17.1875  -999.2500  3066.0000      .0014    38.7500  -999.2500     3.6316  -999.2500     2.3379  2810.0000  -999.2500  -999.2500
 2557.6256    17.2188  -999.2500  3074.0000      .0087    40.0938  -999.2500     3.5370  -999.2500     2.3066  2820.0000  -999.2500  -999.2500
 2557.7780    17.2188  -999.2500  3072.0000      .0093    45.5625  -999.2500     3.5019  -999.2500     2.3301  2804.0000  -999.2500  -999.2500
 2557.9304    17.1563  -999.2500  3074.0000      .0001    47.1875  -999.2500     3.6216  -999.2500     2.3730  2810.0000  -999.2500  -999.2500
 2558.0828    17.1875  -999.2500  3074.0000     -.0053    46.8125  -999.2500     3.8446  -999.2500     2.4121  2804.0000  -999.2500  -999.2500
 2558.2352    17.0938  -999.2500  3066.0000     -.0107    42.6875  -999.2500     3.8352  -999.2500     2.4590  2810.0000  -999.2500  -999.2500
 2558.3876    17.0938  -999.2500  3068.0000     -.0132    37.8125  -999.2500     3.8028  -999.2500     2.5156  2810.0000  -999.2500  -999.2500
 2558.5400    17.0938  -999.2500  3068.0000     -.0049    35.0625  -999.2500     3.6326  -999.2500     2.5957  2820.0000  -999.2500  -999.2500
 2558.6924    17.0938  -999.2500  3070.0000     -.0004    30.4844  -999.2500     3.6372  -999.2500     2.6191  2800.0000  -999.2500  -999.2500
 2558.8448    17.0938  -999.2500  3068.0000      .0087    31.6719  -999.2500     3.4472  -999.2500     2.5807  2800.0000  -999.2500  -999.2500
 2558.9972    17.0938  -999.2500  3074.0000      .0029    28.6250  -999.2500     3.2442  -999.2500     2.4871  2800.0000  -999.2500  -999.2500
 2559.1496    17.0938  -999.2500  3076.0000     -.0030    28.6563  -999.2500     3.0859  -999.2500     2.3718  2804.0000  -999.2500  -999.2500
 2559.3020    17.0938  -999.2500  3076.0000     -.0102    26.2031  -999.2500     3.1156  -999.2500     2.2947  2804.0000  -999.2500  -999.2500
 2559.4544    17.0938  -999.2500  3076.0000     -.0063    25.8125  -999.2500     3.1561  -999.2500     2.2555  2814.0000  -999.2500  -999.2500
 2559.6068    17.0938  -999.2500  3074.0000     -.0058    25.7813  -999.2500     3.3174  -999.2500     2.2498  2804.0000  -999.2500  -999.2500
 2559.7592    17.0938  -999.2500  3074.0000     -.0016    26.6406  -999.2500     3.6838  -999.2500     2.2480  2824.0000  -999.2500  -999.2500
 2559.9116    17.0938  -999.2500  3076.0000     -.0050    26.6875  -999.2500     4.0807  -999.2500     2.2480  2804.0000  -999.2500  -999.2500
 2560.0640    17.0938  -999.2500  3070.0000     -.0084    23.8906  -999.2500     4.0427  -999.2500     2.2505  2814.0000  -999.2500  -999.2500
 2560.2164    17.0938  -999.2500  3070.0000     -.0113    27.0938  -999.2500     3.6187  -999.2500     2.2721  2794.0000  -999.2500  -999.2500
 2560.3688    17.0938  -999.2500  3070.0000     -.0128    31.1094  -999.2500     3.4110  -999.2500     2.2896  2814.0000  -999.2500  -999.2500
 2560.5212    17.0938  -999.2500  3072.0000     -.0031    36.2500  -999.2500     3.2683  -999.2500     2.2891  2820.0000  -999.2500  -999.2500
 2560.6736    17.0938  -999.2500  3074.0000     -.0063    31.3750  -999.2500     3.2303  -999.2500     2.2624  2810.0000  -999.2500  -999.2500
 2560.8260    17.0938  -999.2500  3080.0000     -.0060    30.1875  -999.2500     3.1969  -999.2500     2.2342  2810.0000  -999.2500  -999.2500
 2560.9784    17.0938  -999.2500  3070.0000     -.0081    26.1875  -999.2500     3.3289  -999.2500     2.2216  2794.0000  -999.2500  -999.2500
 2561.1308    17.0938  -999.2500  3078.0000     -.0034    28.2500  -999.2500     3.5305  -999.2500     2.2078  2800.0000  -999.2500  -999.2500
 2561.2832    17.0938  -999.2500  3078.0000     -.0026    26.2344  -999.2500     3.4936  -999.2500     2.2023  2794.0000  -999.2500  -999.2500
 2561.4356    17.0938  -999.2500  3074.0000     -.0053    27.9063  -999.2500     3.4016  -999.2500     2.2015  2804.0000  -999.2500  -999.2500
 2561.5880    17.0938  -999.2500  3070.0000     -.0042    27.1250  -999.2500     3.3028  -999.2500     2.2104  2800.0000  -999.2500  -999.2500
 2561.7404    17.0938  -999.2500  3070.0000     -.0014    24.2813  -999.2500     3.4082  -999.2500     2.2138  2804.0000  -999.2500  -999.2500
 2561.8928    17.0938  -999.2500  3074.0000     -.0008    25.0625  -999.2500     3.5951  -999.2500     2.2099  2814.0000  -999.2500  -999.2500
 2562.0452    17.0938  -999.2500  3076.0000     -.0048    26.2344  -999.2500     3.9826  -999.2500     2.2070  2800.0000  -999.2500  -999.2500
 2562.1976    17.0938  -999.2500  3078.0000     -.0031    29.4844  -999.2500     4.2885  -999.2500     2.2088  2830.0000  -999.2500  -999.2500
 2562.3500    17.0938  -999.2500  3078.0000      .0083    31.5312  -999.2500     4.1793  -999.2500     2.2153  2804.0000  -999.2500  -999.2500
 2562.5024    17.0938  -999.2500  3074.0000      .0211    38.0625  -999.2500     3.8344  -999.2500     2.2288  2810.0000  -999.2500  -999.2500
 2562.6548    17.0938  -999.2500  3074.0000      .0220    44.5312  -999.2500     3.7449  -999.2500     2.2597  2820.0000  -999.2500  -999.2500
 2562.8072    17.0938  -999.2500  3072.0000      .0109    49.5312  -999.2500     3.9022  -999.2500     2.2993  2820.0000  -999.2500  -999.2500
 2562.9596    17.0938  -999.2500  3074.0000      .0069    45.5625  -999.2500     3.9215  -999.2500     2.3216  2824.0000  -999.2500  -999.2500
 2563.1120    17.0938  -999.2500  3070.0000      .0071    41.5312  -999.2500     3.7794  -999.2500     2.3247  2810.0000  -999.2500  -999.2500
 2563.2644    17.0938  -999.2500  3068.0000      .0047    34.1563  -999.2500     3.8487  -999.2500     2.3433  2820.0000  -999.2500  -999.2500
 2563.4168    17.0938  -999.2500  3064.0000      .0029    31.5938  -999.2500     4.1851  -999.2500     2.3629  2824.0000  -999.2500  -999.2500
 2563.5692    17.0938  -999.2500  3066.0000      .0030    28.2969  -999.2500     4.4205  -999.2500     2.3373  2794.0000  -999.2500  -999.2500
 2563.7216    17.0938  -999.2500  3070.0000      .0033    29.5000  -999.2500     4.2651  -999.2500     2.2771  2804.0000  -999.2500  -999.2500
 2563.8740    17.1250  -999.2500  3074.0000      .0023    31.9844  -999.2500     4.0172  -999.2500     2.2526  2800.0000  -999.2500  -999.2500
 2564.0264    17.2188  -999.2500  3074.0000      .0020    38.5625  -999.2500     4.0550  -999.2500     2.2681  2784.0000  -999.2500  -999.2500
 2564.1788    17.2188  -999.2500  3072.0000      .0082    43.9062  -999.2500     4.3838  -999.2500     2.2805  2794.0000  -999.2500  -999.2500
 2564.3312    17.2344  -999.2500  3076.0000      .0233    47.3125  -999.2500     4.6442  -999.2500     2.2811  2800.0000  -999.2500  -999.2500
 2564.4836    17.1250  -999.2500  3078.0000      .0243    50.2188  -999.2500     4.7326  -999.2500     2.3014  2780.0000  -999.2500  -999.2500
 2564.6360    17.0938  -999.2500  3068.0000      .0119    47.8125  -999.2500     4.6820  -999.2500     2.3457  2814.0000  -999.2500  -999.2500
 2564.7884    17.0938  -999.2500  3072.0000      .0098    46.8437  -999.2500     4.6265  -999.2500     2.3790  2800.0000  -999.2500  -999.2500
 2564.9408    17.0938  -999.2500  3074.0000      .0095    44.3437  -999.2500     4.5306  -999.2500     2.3735  2830.0000  -999.2500  -999.2500
 2565.0932    17.0938  -999.2500  3076.0000      .0032    47.8438  -999.2500     4.2146  -999.2500     2.3675  2810.0000  -999.2500  -999.2500
 2565.2456    17.0938  -999.2500  3080.0000     -.0065    46.5938  -999.2500     3.8765  -999.2500     2.3786  2814.0000  -999.2500  -999.2500
