~VERSION INFORMATION
VERS.                                                 2.0:   CWLS Log ASCII Standard-VERSION 2.0
WRAP.                                                  NO:   One line per depth step
~Well Information Block
STRT.M                                           175.7660:   Top Depth
STOP.M                                          4145.7860:   Bottom Depth
STEP.M                                             .15240:   Depth Increment
NULL.                                            -999.250:   Null Value
FLD .                                             WILDCAT:   Field Name
WELL.                                              15/3-5:   NAME
WBN .                                              15/3-5:   WELLBORE
NATI.                                                 NOR:   COUNTRY
CTRY.                                                 NOR:   COUNTRY
COMP.                             ELF AQUITAINE NORGE A/S:   OPERATOR
PROV.                                            OFFSHORE:   PROVINCE
COUN.                                      BYFORD DOLPHIN:   RIG NAME
SPUD.                                          1983/12/20:   SPUD DATE
LATI.                                       58 47 13.04 N:   SURF. LATITUDE
LONG.                                        1 50 34.11 E:   SURF. LONGITUDE
PBWE.                                              15/3-5:   PB WELL ID
APIN.                                              15/3-5:   PB WELLBORE ID
PBWS.                                                 all:   PB WELL NAME SET
~PARAMETER INFORMATION (log)
LNAM.                             LDT/CNL/NGT  COMPOSITED:   NAME
LTYP.                                         DEPTH MATCH:   LOG TYPE
LSRV.                                           LATEROLOG:   LOG SERVICE
LSOU.                                             SPT/NPD:   LOG SOURCE
LVSN.                                                   1:   LOG VERSION
BHIS.                                                   R:   BRIEF HISTORY
FHIS.                                             RAW-LIS:   FULL HISTORY
LCNM.                                              TELECO:   LOGGING CONTRACTOR
TOOL.                            LDT/CNL/NGT (COMPOSITED):   TOOL STRING
~Curve Information Block
#MNEM.UNIT                                        API CODE    No Description
#=========                                        ========    == ===========
DEPT.M                                       00 001 00 00:     1  DEPTH
CALI.IN                                                  :     2  Caliper
CGR.GAPI                                                 :     3  Gamma Ray
CS.                                                      :     4  Cable Speed
DRHO.G/CC                                                :     5  Bulk density correction
GR.GAPI                                                  :     6  Gamma Ray
NPHI.%                                                   :     7  Neutron porosity
PEF.B/E                                                  :     8  Photo-electric factor
POTA.                                                    :     9  Potassium
RHOB.G/CC                                                :    10  Bulk density
TENS.LB                                                  :    11  Cable Tension
THOR.PPM                                                 :    12  Thorium
URAN.PPM                                                 :    13  Uranium
~ASCII
# ...
 2292.2972    18.9375  -999.2500  2862.0000      .0080    32.7500  -999.2500     3.4712  -999.2500     2.2866  2564.0000  -999.2500  -999.2500
 2292.4496    19.0156  -999.2500  2866.0000      .0072    35.0625  -999.2500     3.6309  -999.2500     2.3074  2564.0000  -999.2500  -999.2500
 2292.6020    19.2031  -999.2500  2864.0000      .0054    34.6562  -999.2500     3.3574  -999.2500     2.3369  2560.0000  -999.2500  -999.2500
 2292.7544    19.0625  -999.2500  2866.0000      .0022    36.2500  -999.2500     3.4316  -999.2500     2.3239  2564.0000  -999.2500  -999.2500
 2292.9068    19.0938  -999.2500  2866.0000     -.0011    35.5313  -999.2500     3.1660  -999.2500     2.2990  2570.0000  -999.2500  -999.2500
 2293.0592    19.1875  -999.2500  2868.0000      .0006    40.1250  -999.2500     3.2246  -999.2500     2.2836  2560.0000  -999.2500  -999.2500
 2293.2116    19.0625  -999.2500  2862.0000      .0043    40.1562  -999.2500     3.2070  -999.2500     2.3065  2564.0000  -999.2500  -999.2500
 2293.3640    19.1250  -999.2500  2860.0000      .0067    42.0938  -999.2500     3.1016  -999.2500     2.3235  2560.0000  -999.2500  -999.2500
 2293.5164    19.0625  -999.2500  2864.0000      .0038    41.2813  -999.2500     3.1797  -999.2500     2.3342  2564.0000  -999.2500  -999.2500
 2293.6688    19.0625  -999.2500  2858.0000      .0031    40.9062  -999.2500     3.0391  -999.2500     2.3357  2564.0000  -999.2500  -999.2500
 2293.8212    19.0625  -999.2500  2866.0000      .0027    42.5313  -999.2500     3.2832  -999.2500     2.3330  2570.0000  -999.2500  -999.2500
 2293.9736    19.0625  -999.2500  2866.0000     -.0014    41.4688  -999.2500     3.2676  -999.2500     2.3239  2544.0000  -999.2500  -999.2500
 2294.1260    18.9844  -999.2500  2864.0000     -.0090    41.4375  -999.2500     3.1055  -999.2500     2.3068  2540.0000  -999.2500  -999.2500
 2294.2784    19.0313  -999.2500  2862.0000     -.0151    46.2500  -999.2500     3.0293  -999.2500     2.2939  2564.0000  -999.2500  -999.2500
 2294.4308    19.0156  -999.2500  2864.0000     -.0150    49.6562  -999.2500     3.0996  -999.2500     2.2871  2580.0000  -999.2500  -999.2500
 2294.5832    18.9375  -999.2500  2868.0000     -.0101    57.1562  -999.2500     3.2207  -999.2500     2.2894  2574.0000  -999.2500  -999.2500
 2294.7356    19.0000  -999.2500  2866.0000     -.0064    56.0937  -999.2500     3.2012  -999.2500     2.3016  2574.0000  -999.2500  -999.2500
 2294.8880    19.0625  -999.2500  2870.0000     -.0012    59.9687  -999.2500     3.0645  -999.2500     2.2958  2564.0000  -999.2500  -999.2500
 2295.0404    19.1250  -999.2500  2866.0000     -.0061    57.8438  -999.2500     2.9766  -999.2500     2.2995  2554.0000  -999.2500  -999.2500
 2295.1928    19.1875  -999.2500  2860.0000     -.0109    59.3437  -999.2500     2.7793  -999.2500     2.2946  2554.0000  -999.2500  -999.2500
 2295.3452    19.1875  -999.2500  2862.0000     -.0158    58.9688  -999.2500     2.6309  -999.2500     2.3024  2564.0000  -999.2500  -999.2500
 2295.4976    19.2813  -999.2500  2866.0000     -.0161    62.2813  -999.2500     2.6914  -999.2500     2.2998  2590.0000  -999.2500  -999.2500
 2295.6500    19.2188  -999.2500  2866.0000     -.0165    65.2500  -999.2500     2.7324  -999.2500     2.2925  2584.0000  -999.2500  -999.2500
 2295.8024    19.6250  -999.2500  2866.0000     -.0162    63.6250  -999.2500     2.9570  -999.2500     2.2816  2580.0000  -999.2500  -999.2500
 2295.9548    19.5000  -999.2500  2862.0000     -.0098    63.2500  -999.2500     3.1719  -999.2500     2.2868  2544.0000  -999.2500  -999.2500
 2296.1072    19.5625  -999.2500  2864.0000     -.0016    57.5625  -999.2500     3.6953  -999.2500     2.3094  2560.0000  -999.2500  -999.2500
 2296.2596    19.8906  -999.2500  2868.0000     -.0000    52.2500  -999.2500     3.7949  -999.2500     2.3375  2554.0000  -999.2500  -999.2500
 2296.4120    19.5938  -999.2500  2866.0000     -.0002    48.0000  -999.2500     3.5723  -999.2500     2.3231  2564.0000  -999.2500  -999.2500
 2296.5644    19.6250  -999.2500  2864.0000     -.0051    49.1875  -999.2500     3.3437  -999.2500     2.2624  2574.0000  -999.2500  -999.2500
 2296.7168    19.7031  -999.2500  2862.0000     -.0005    53.3750  -999.2500     3.8887  -999.2500     2.2156  2570.0000  -999.2500  -999.2500
 2296.8692    19.6250  -999.2500  2866.0000      .0129    55.7500  -999.2500     3.9473  -999.2500     2.1817  2554.0000  -999.2500  -999.2500
 2297.0216    20.2188  -999.2500  2864.0000      .0170    56.6563  -999.2500     4.3672  -999.2500     2.2071  2560.0000  -999.2500  -999.2500
 2297.1740    20.3281  -999.2500  2870.0000      .0315    57.1250  -999.2500     3.8184  -999.2500     2.2102  2554.0000  -999.2500  -999.2500
 2297.3264    19.8750  -999.2500  2866.0000      .0152    55.5625  -999.2500     4.3203  -999.2500     2.2713  2564.0000  -999.2500  -999.2500
 2297.4788    19.2656  -999.2500  2864.0000      .0356    54.9687  -999.2500     4.0234  -999.2500     2.2809  2560.0000  -999.2500  -999.2500
 2297.6312    19.1875  -999.2500  2864.0000      .0152    55.2812  -999.2500     3.7598  -999.2500     2.2884  2554.0000  -999.2500  -999.2500
 2297.7836    19.2969  -999.2500  2862.0000      .0088    54.9063  -999.2500     3.5020  -999.2500     2.2734  2550.0000  -999.2500  -999.2500
 2297.9360    19.5313  -999.2500  2860.0000     -.0003    53.4062  -999.2500     3.3789  -999.2500     2.2758  2550.0000  -999.2500  -999.2500
 2298.0884    19.4375  -999.2500  2864.0000      .0038    56.1250  -999.2500     3.2051  -999.2500     2.2866  2560.0000  -999.2500  -999.2500
 2298.2408    19.5938  -999.2500  2860.0000      .0067    61.5000  -999.2500     3.1367  -999.2500     2.2909  2564.0000  -999.2500  -999.2500
 2298.3932    19.5625  -999.2500  2858.0000      .0110    66.9375  -999.2500     3.0879  -999.2500     2.2739  2580.0000  -999.2500  -999.2500
 2298.5456    19.4844  -999.2500  2860.0000      .0070    65.9375  -999.2500     3.3594  -999.2500     2.2733  2570.0000  -999.2500  -999.2500
 2298.6980    19.2813  -999.2500  2860.0000      .0107    62.4687  -999.2500     3.3555  -999.2500     2.2718  2564.0000  -999.2500  -999.2500
 2298.8504    19.8281  -999.2500  2864.0000      .0034    57.7188  -999.2500     3.2988  -999.2500     2.2816  2554.0000  -999.2500  -999.2500
 2299.0028    19.7031  -999.2500  2858.0000      .0032    51.8125  -999.2500     3.3755  -999.2500     2.2725  2560.0000  -999.2500  -999.2500
 2299.1552    20.2969  -999.2500  2866.0000      .0017    48.3438  -999.2500     3.5332  -999.2500     2.2565  2574.0000  -999.2500  -999.2500
 2299.3076    19.9688  -999.2500  2868.0000      .0039    46.5625  -999.2500     3.6602  -999.2500     2.2458  2560.0000  -999.2500  -999.2500
 2299.4600    20.2969  -999.2500  2860.0000      .0091    50.9062  -999.2500     3.5645  -999.2500     2.2334  2560.0000  -999.2500  -999.2500
 2299.6124    19.8906  -999.2500  2864.0000      .0072    56.3438  -999.2500     3.4971  -999.2500     2.2174  2554.0000  -999.2500  -999.2500
 2299.7648    20.3906  -999.2500  2862.0000      .0060    60.5313  -999.2500     3.8125  -999.2500     2.2176  2564.0000  -999.2500  -999.2500
 2299.9172    20.1406  -999.2500  2862.0000      .0074    61.5938  -999.2500     3.6289  -999.2500     2.2351  2550.0000  -999.2500  -999.2500
 2300.0696    20.3750  -999.2500  2868.0000      .0113    60.3750  -999.2500     3.9121  -999.2500     2.2722  2570.0000  -999.2500  -999.2500
 2300.2220    20.5469  -999.2500  2866.0000      .0523    58.5937  -999.2500     3.6807  -999.2500     2.2544  2574.0000  -999.2500  -999.2500
 2300.3744    20.2812  -999.2500  2862.0000      .0535    56.3750  -999.2500     4.0117  -999.2500     2.2448  2574.0000  -999.2500  -999.2500
 2300.5268    20.3750  -999.2500  2870.0000      .0771    62.2500  -999.2500     3.9375  -999.2500     2.2066  2570.0000  -999.2500  -999.2500
 2300.6792    20.1719  -999.2500  2868.0000      .0543    65.4375  -999.2500     3.9043  -999.2500     2.1818  2564.0000  -999.2500  -999.2500
