~VERSION INFORMATION
VERS.                                                 2.0:   CWLS Log ASCII Standard-VERSION 2.0
WRAP.                                                  NO:   One line per depth step
~Well Information Block
STRT.M                                           175.7660:   Top Depth
STOP.M                                          4145.7860:   Bottom Depth
STEP.M                                             .15240:   Depth Increment
NULL.                                            -999.250:   Null Value
FLD .                                             WILDCAT:   Field Name
WELL.                                              15/3-5:   NAME
WBN .                                              15/3-5:   WELLBORE
NATI.                                                 NOR:   COUNTRY
CTRY.                                                 NOR:   COUNTRY
COMP.                             ELF AQUITAINE NORGE A/S:   OPERATOR
PROV.                                            OFFSHORE:   PROVINCE
COUN.                                      BYFORD DOLPHIN:   RIG NAME
SPUD.                                          1983/12/20:   SPUD DATE
LATI.                                       58 47 13.04 N:   SURF. LATITUDE
LONG.                                        1 50 34.11 E:   SURF. LONGITUDE
PBWE.                                              15/3-5:   PB WELL ID
APIN.                                              15/3-5:   PB WELLBORE ID
PBWS.                                                 all:   PB WELL NAME SET
~PARAMETER INFORMATION (log)
LNAM.                             LDT/CNL/NGT  COMPOSITED:   NAME
LTYP.                                         DEPTH MATCH:   LOG TYPE
LSRV.                                           LATEROLOG:   LOG SERVICE
LSOU.                                             SPT/NPD:   LOG SOURCE
LVSN.                                                   1:   LOG VERSION
BHIS.                                                   R:   BRIEF HISTORY
FHIS.                                             RAW-LIS:   FULL HISTORY
LCNM.                                              TELECO:   LOGGING CONTRACTOR
TOOL.                            LDT/CNL/NGT (COMPOSITED):   TOOL STRING
~Curve Information Block
#MNEM.UNIT                                        API CODE    No Description
#=========                                        ========    == ===========
DEPT.M                                       00 001 00 00:     1  DEPTH
CALI.IN                                                  :     2  Caliper
CGR.GAPI                                                 :     3  Gamma Ray
CS.                                                      :     4  Cable Speed
DRHO.G/CC                                                :     5  Bulk density correction
GR.GAPI                                                  :     6  Gamma Ray
NPHI.%                                                   :     7  Neutron porosity
PEF.B/E                                                  :     8  Photo-electric factor
POTA.                                                    :     9  Potassium
RHOB.G/CC                                                :    10  Bulk density
TENS.LB                                                  :    11  Cable Tension
THOR.PPM                                                 :    12  Thorium
URAN.PPM                                                 :    13  Uranium
~ASCII
# ...
  184.3004    27.5046  -999.2500  -999.2500     -.1551    24.7214  -999.2500     3.1512  -999.2500     2.5054   612.2284  -999.2500  -999.2500
  184.4528    27.5084  -999.2500  -999.2500     -.1542    24.7080  -999.2500     3.0630  -999.2500     2.5069   618.6602  -999.2500  -999.2500
  184.6052    27.5147  -999.2500  -999.2500     -.1538    24.6946  -999.2500     3.0820  -999.2500     2.5128   612.5250  -999.2500  -999.2500
  184.7576    27.5210  -999.2500  -999.2500     -.1542    24.6812  -999.2500     3.2334  -999.2500     2.5175   603.8986  -999.2500  -999.2500
  184.9100    27.5274  -999.2500  -999.2500     -.1557    24.2574  -999.2500     3.3990  -999.2500     2.5185   595.9039  -999.2500  -999.2500
  185.0624    27.5337  -999.2500  -999.2500     -.1573    23.2491  -999.2500     3.4933  -999.2500     2.5166   593.0710  -999.2500  -999.2500
  185.2148    27.5299  -999.2500  -999.2500     -.1592    22.5975  -999.2500     3.4655  -999.2500     2.5142   592.6134  -999.2500  -999.2500
  185.3672    27.5149  -999.2500  -999.2500     -.1610    22.6874  -999.2500     3.3769  -999.2500     2.5118   592.1559  -999.2500  -999.2500
  185.5196    27.4962  -999.2500  -999.2500     -.1598    23.2129  -999.2500     3.2923  -999.2500     2.5106   591.6981  -999.2500  -999.2500
  185.6720    27.4705  -999.2500  -999.2500     -.1580    23.5966  -999.2500     3.2367  -999.2500     2.5117   588.0228  -999.2500  -999.2500
  185.8244    27.4424  -999.2500  -999.2500     -.1576    23.8969  -999.2500     3.1960  -999.2500     2.5136   582.3865  -999.2500  -999.2500
  185.9768    27.4115  -999.2500  -999.2500     -.1599    23.2361  -999.2500     3.2027  -999.2500     2.5121   582.7192  -999.2500  -999.2500
  186.1292    27.3791  -999.2500  -999.2500     -.1603    22.7723  -999.2500     3.3196  -999.2500     2.5058   585.0776  -999.2500  -999.2500
  186.2816    27.4031  -999.2500  -999.2500     -.1575    23.2946  -999.2500     3.4975  -999.2500     2.5044   587.4696  -999.2500  -999.2500
  186.4340    27.4521  -999.2500  -999.2500     -.1612    23.5300  -999.2500     3.6799  -999.2500     2.5166   590.3228  -999.2500  -999.2500
  186.5864    27.4888  -999.2500  -999.2500     -.1724    23.0654  -999.2500     3.7206  -999.2500     2.5390   593.7576  -999.2500  -999.2500
  186.7388    27.5199  -999.2500  -999.2500     -.1891    22.1955  -999.2500     3.6123  -999.2500     2.5572   597.2345  -999.2500  -999.2500
  186.8912    27.5529  -999.2500  -999.2500     -.1963    21.8935  -999.2500     3.5089  -999.2500     2.5634   593.8798  -999.2500  -999.2500
  187.0436    27.5975  -999.2500  -999.2500     -.1921    22.5236  -999.2500     3.5308  -999.2500     2.5610   589.4301  -999.2500  -999.2500
  187.1960    27.5837  -999.2500  -999.2500     -.1912    23.5962  -999.2500     3.6089  -999.2500     2.5604   586.8385  -999.2500  -999.2500
  187.3484    27.5522  -999.2500  -999.2500     -.1949    24.3987  -999.2500     3.6206  -999.2500     2.5601   586.2079  -999.2500  -999.2500
  187.5008    27.5367  -999.2500  -999.2500     -.1989    24.7308  -999.2500     3.5795  -999.2500     2.5597   583.7510  -999.2500  -999.2500
  187.6532    27.5251  -999.2500  -999.2500     -.2026    24.4403  -999.2500     3.6596  -999.2500     2.5598   572.9114  -999.2500  -999.2500
  187.8056    27.4214  -999.2500  -999.2500     -.2091    23.0299  -999.2500     3.8133  -999.2500     2.5629   569.0569  -999.2500  -999.2500
  187.9580    27.1250  -999.2500  -999.2500     -.2161    22.0479  -999.2500     3.9553  -999.2500     2.5741   589.2239  -999.2500  -999.2500
  188.1104    26.7994  -999.2500  -999.2500     -.2291    21.9224  -999.2500     4.1432  -999.2500     2.5974   616.4490  -999.2500  -999.2500
  188.2628    26.8176  -999.2500  -999.2500     -.2443    22.8158  -999.2500     4.4269  -999.2500     2.6305   618.6803  -999.2500  -999.2500
  188.4152    26.9171  -999.2500  -999.2500     -.2552    24.3243  -999.2500     4.7542  -999.2500     2.6584   601.9286  -999.2500  -999.2500
  188.5676    26.7696  -999.2500  -999.2500     -.2552    24.9146  -999.2500     4.8022  -999.2500     2.6677   586.6251  -999.2500  -999.2500
  188.7200    26.5445  -999.2500  -999.2500     -.2552    23.8912  -999.2500     4.5903  -999.2500     2.6619   573.5106  -999.2500  -999.2500
  188.8724    26.2785  -999.2500  -999.2500     -.2553    21.8036  -999.2500     4.2141  -999.2500     2.6479   565.5175  -999.2500  -999.2500
  189.0248    25.9934  -999.2500  -999.2500     -.2553    20.8631  -999.2500     4.0890  -999.2500     2.6366   586.3998  -999.2500  -999.2500
  189.1772    25.8680  -999.2500  -999.2500     -.2553    20.6225  -999.2500     4.2434  -999.2500     2.6401   605.0958  -999.2500  -999.2500
  189.3296    25.8930  -999.2500  -999.2500     -.2553    21.0209  -999.2500     4.3661  -999.2500     2.6594   606.5034  -999.2500  -999.2500
  189.4820    25.9358  -999.2500  -999.2500     -.2553    21.0256  -999.2500     4.3716  -999.2500     2.6777   602.5236  -999.2500  -999.2500
  189.6344    25.9050  -999.2500  -999.2500     -.2553    21.0658  -999.2500     4.5400  -999.2500     2.6797   597.4617  -999.2500  -999.2500
  189.7868    25.8461  -999.2500  -999.2500     -.2554    21.3916  -999.2500     4.8870  -999.2500     2.6708   586.8301  -999.2500  -999.2500
  189.9392    25.8017  -999.2500  -999.2500     -.2554    21.7448  -999.2500     5.0232  -999.2500     2.6633   576.5715  -999.2500  -999.2500
  190.0916    25.7775  -999.2500  -999.2500     -.2554    21.8980  -999.2500     4.9486  -999.2500     2.6582   575.9567  -999.2500  -999.2500
  190.2440    25.7683  -999.2500  -999.2500     -.2554    22.0127  -999.2500     4.9952  -999.2500     2.6506   597.8064  -999.2500  -999.2500
  190.3964    25.7794  -999.2500  -999.2500     -.2554    22.6316  -999.2500     5.2745  -999.2500     2.6409   612.2528  -999.2500  -999.2500
  190.5488    25.8435  -999.2500  -999.2500     -.2555    23.4944  -999.2500     5.4895  -999.2500     2.6339   619.7908  -999.2500  -999.2500
  190.7012    25.9789  -999.2500  -999.2500     -.2555    24.1593  -999.2500     5.3457  -999.2500     2.6332   621.7815  -999.2500  -999.2500
  190.8536    26.1075  -999.2500  -999.2500     -.2555    24.0369  -999.2500     4.9566  -999.2500     2.6419   613.3389  -999.2500  -999.2500
  191.0060    26.1207  -999.2500  -999.2500     -.2555    23.6270  -999.2500     4.5901  -999.2500     2.6604   606.4750  -999.2500  -999.2500
  191.1584    25.9855  -999.2500  -999.2500     -.2555    23.1630  -999.2500     4.3425  -999.2500     2.6824   604.0800  -999.2500  -999.2500
  191.3108    25.8726  -999.2500  -999.2500     -.2556    22.7556  -999.2500     4.1186  -999.2500     2.6952   603.6223  -999.2500  -999.2500
  191.4632    25.8345  -999.2500  -999.2500     -.2556    22.4997  -999.2500     3.8560  -999.2500     2.6976   603.1647  -999.2500  -999.2500
  191.6156    25.8337  -999.2500  -999.2500     -.2556    22.3814  -999.2500     3.6777  -999.2500     2.6902   602.7074  -999.2500  -999.2500
  191.7680    25.8379  -999.2500  -999.2500     -.2556    22.1747  -999.2500     3.7148  -999.2500     2.6767   602.2500  -999.2500  -999.2500
  191.9204    25.8239  -999.2500  -999.2500     -.2556    21.5844  -999.2500     3.7726  -999.2500     2.6628   593.7655  -999.2500  -999.2500
  192.0728    25.7686  -999.2500  -999.2500     -.2556    20.7775  -999.2500     3.7624  -999.2500     2.6507   581.7966  -999.2500  -999.2500
  192.2252    25.7132  -999.2500  -999.2500     -.2557    20.7103  -999.2500     3.8719  -999.2500     2.6440   581.3395  -999.2500  -999.2500
  192.3776    25.6852  -999.2500  -999.2500     -.2557    21.8966  -999.2500     4.2823  -999.2500     2.6442   582.7999  -999.2500  -999.2500
  192.5300    25.6843  -999.2500  -999.2500     -.2557    23.2299  -999.2500     4.6423  -999.2500     2.6485   586.9326  -999.2500  -999.2500
  192.6824    25.6834  -999.2500  -999.2500     -.2557    24.5674  -999.2500     4.5643  -999.2500     2.6478   591.4597  -999.2500  -999.2500
