~VERSION INFORMATION
VERS.                                                 2.0:   CWLS Log ASCII Standard-VERSION 2.0
WRAP.                                                  NO:   One line per depth step
~Well Information Block
STRT.M                                           175.7660:   Top Depth
STOP.M                                          4145.7860:   Bottom Depth
STEP.M                                             .15240:   Depth Increment
NULL.                                            -999.250:   Null Value
FLD .                                             WILDCAT:   Field Name
WELL.                                              15/3-5:   NAME
WBN .                                              15/3-5:   WELLBORE
NATI.                                                 NOR:   COUNTRY
CTRY.                                                 NOR:   COUNTRY
COMP.                             ELF AQUITAINE NORGE A/S:   OPERATOR
PROV.                                            OFFSHORE:   PROVINCE
COUN.                                      BYFORD DOLPHIN:   RIG NAME
SPUD.                                          1983/12/20:   SPUD DATE
LATI.                                       58 47 13.04 N:   SURF. LATITUDE
LONG.                                        1 50 34.11 E:   SURF. LONGITUDE
PBWE.                                              15/3-5:   PB WELL ID
APIN.                                              15/3-5:   PB WELLBORE ID
PBWS.                                                 all:   PB WELL NAME SET
~PARAMETER INFORMATION (log)
LNAM.                             LDT/CNL/NGT  COMPOSITED:   NAME
LTYP.                                         DEPTH MATCH:   LOG TYPE
LSRV.                                           LATEROLOG:   LOG SERVICE
LSOU.                                             SPT/NPD:   LOG SOURCE
LVSN.                                                   1:   LOG VERSION
BHIS.                                                   R:   BRIEF HISTORY
FHIS.                                             RAW-LIS:   FULL HISTORY
LCNM.                                              TELECO:   LOGGING CONTRACTOR
TOOL.                            LDT/CNL/NGT (COMPOSITED):   TOOL STRING
~Curve Information Block
#MNEM.UNIT                                        API CODE    No Description
#=========                                        ========    == ===========
DEPT.M                                       00 001 00 00:     1  DEPTH
CALI.IN                                                  :     2  Caliper
CGR.GAPI                                                 :     3  Gamma Ray
CS.                                                      :     4  Cable Speed
DRHO.G/CC                                                :     5  Bulk density correction
GR.GAPI                                                  :     6  Gamma Ray
NPHI.%                                                   :     7  Neutron porosity
PEF.B/E                                                  :     8  Photo-electric factor
POTA.                                                    :     9  Potassium
RHOB.G/CC                                                :    10  Bulk density
TENS.LB                                                  :    11  Cable Tension
THOR.PPM                                                 :    12  Thorium
URAN.PPM                                                 :    13  Uranium
~ASCII
# ...
 2027.7308    17.2188  -999.2500  2930.0000     -.0024    14.7578  -999.2500     3.0577  -999.2500     2.1552  2314.0000  -999.2500  -999.2500
 2027.8832    17.2188  -999.2500  2932.0000     -.0024    14.3828  -999.2500     3.1442  -999.2500     2.1597  2314.0000  -999.2500  -999.2500
 2028.0356    17.2188  -999.2500  2926.0000     -.0044    14.4531  -999.2500     3.2554  -999.2500     2.1647  2310.0000  -999.2500  -999.2500
 2028.1880    17.2188  -999.2500  2920.0000     -.0049    16.0313  -999.2500     3.3740  -999.2500     2.1654  2320.0000  -999.2500  -999.2500
 2028.3404    17.2188  -999.2500  2926.0000     -.0059    18.3594  -999.2500     3.3249  -999.2500     2.1608  2324.0000  -999.2500  -999.2500
 2028.4928    17.2188  -999.2500  2928.0000     -.0073    20.7344  -999.2500     3.4913  -999.2500     2.1562  2344.0000  -999.2500  -999.2500
 2028.6452    17.2188  -999.2500  2930.0000     -.0078    20.3594  -999.2500     3.5537  -999.2500     2.1499  2344.0000  -999.2500  -999.2500
 2028.7976    17.2188  -999.2500  2934.0000     -.0059    17.2500  -999.2500     3.7894  -999.2500     2.1458  2334.0000  -999.2500  -999.2500
 2028.9500    17.2188  -999.2500  2932.0000     -.0010    14.8281  -999.2500     3.9499  -999.2500     2.1504  2340.0000  -999.2500  -999.2500
 2029.1024    17.2188  -999.2500  2930.0000      .0044    14.7812  -999.2500     3.8006  -999.2500     2.1732  2330.0000  -999.2500  -999.2500
 2029.2548    17.2188  -999.2500  2934.0000      .0034    16.7344  -999.2500     3.6839  -999.2500     2.1960  2330.0000  -999.2500  -999.2500
 2029.4072    17.2188  -999.2500  2932.0000      .0073    17.1406  -999.2500     3.3353  -999.2500     2.2135  2304.0000  -999.2500  -999.2500
 2029.5596    17.2188  -999.2500  2932.0000      .0024    17.9531  -999.2500     3.5446  -999.2500     2.2285  2310.0000  -999.2500  -999.2500
 2029.7120    17.2188  -999.2500  2928.0000      .0029    16.4375  -999.2500     3.7355  -999.2500     2.2695  2290.0000  -999.2500  -999.2500
 2029.8644    17.2188  -999.2500  2930.0000      .0015    16.4688  -999.2500     4.0753  -999.2500     2.3418  2304.0000  -999.2500  -999.2500
 2030.0168    17.2188  -999.2500  2930.0000      .0054    15.2656  -999.2500     4.1996  -999.2500     2.4392  2310.0000  -999.2500  -999.2500
 2030.1692    17.2188  -999.2500  2936.0000     -.0039    17.1875  -999.2500     3.6620  -999.2500     2.5308  2290.0000  -999.2500  -999.2500
 2030.3216    17.2188  -999.2500  2932.0000     -.0034    16.7813  -999.2500     3.5498  -999.2500     2.5703  2284.0000  -999.2500  -999.2500
 2030.4740    17.2188  -999.2500  2938.0000     -.0083    19.1406  -999.2500     3.4621  -999.2500     2.5456  2304.0000  -999.2500  -999.2500
 2030.6264    17.2188  -999.2500  2932.0000     -.0000    15.2266  -999.2500     3.7012  -999.2500     2.4649  2324.0000  -999.2500  -999.2500
 2030.7788    17.2188  -999.2500  2932.0000     -.0059    15.9297  -999.2500     3.7835  -999.2500     2.3664  2350.0000  -999.2500  -999.2500
 2030.9312    17.2188  -999.2500  2930.0000     -.0059    13.9531  -999.2500     3.6322  -999.2500     2.2837  2350.0000  -999.2500  -999.2500
 2031.0836    17.2188  -999.2500  2932.0000     -.0122    16.6875  -999.2500     3.6587  -999.2500     2.2416  2344.0000  -999.2500  -999.2500
 2031.2360    17.2188  -999.2500  2928.0000     -.0171    14.0078  -999.2500     3.5189  -999.2500     2.2242  2330.0000  -999.2500  -999.2500
 2031.3884    17.2188  -999.2500  2924.0000     -.0127    14.4375  -999.2500     3.5874  -999.2500     2.2044  2314.0000  -999.2500  -999.2500
 2031.5408    17.2188  -999.2500  2922.0000     -.0103    14.8359  -999.2500     3.4607  -999.2500     2.2199  2320.0000  -999.2500  -999.2500
 2031.6932    17.2188  -999.2500  2920.0000     -.0088    17.9688  -999.2500     3.5753  -999.2500     2.2355  2310.0000  -999.2500  -999.2500
 2031.8456    17.2188  -999.2500  2922.0000     -.0117    17.5938  -999.2500     3.8503  -999.2500     2.2311  2320.0000  -999.2500  -999.2500
 2031.9980    17.2188  -999.2500  2924.0000     -.0137    13.6875  -999.2500     4.0093  -999.2500     2.2513  2294.0000  -999.2500  -999.2500
 2032.1504    17.1563  -999.2500  2926.0000     -.0059    13.2734  -999.2500     3.6619  -999.2500     2.3417  2304.0000  -999.2500  -999.2500
 2032.3028    17.0938  -999.2500  2928.0000     -.0054    11.6562  -999.2500     3.5262  -999.2500     2.4764  2290.0000  -999.2500  -999.2500
 2032.4552    17.0938  -999.2500  2924.0000     -.0010    15.5625  -999.2500     3.6384  -999.2500     2.5656  2320.0000  -999.2500  -999.2500
 2032.6076    17.0938  -999.2500  2926.0000      .0000    14.8047  -999.2500     3.9280  -999.2500     2.5840  2320.0000  -999.2500  -999.2500
 2032.7600    17.0938  -999.2500  2926.0000      .0015    17.2031  -999.2500     4.0182  -999.2500     2.5778  2324.0000  -999.2500  -999.2500
 2032.9124    17.0938  -999.2500  2924.0000      .0044    17.2031  -999.2500     3.8178  -999.2500     2.5431  2314.0000  -999.2500  -999.2500
 2033.0648    17.0938  -999.2500  2928.0000      .0034    18.0000  -999.2500     3.5758  -999.2500     2.4456  2310.0000  -999.2500  -999.2500
 2033.2172    17.0938  -999.2500  2930.0000      .0068    17.2188  -999.2500     3.3041  -999.2500     2.3171  2314.0000  -999.2500  -999.2500
 2033.3696    17.0938  -999.2500  2932.0000      .0093    16.0625  -999.2500     3.3732  -999.2500     2.2345  2324.0000  -999.2500  -999.2500
 2033.5220    17.0938  -999.2500  2928.0000      .0054    14.5312  -999.2500     3.4644  -999.2500     2.1972  2330.0000  -999.2500  -999.2500
 2033.6744    17.0938  -999.2500  2932.0000      .0015    16.0469  -999.2500     3.6530  -999.2500     2.1948  2310.0000  -999.2500  -999.2500
 2033.8268    17.0938  -999.2500  2928.0000     -.0020    17.5938  -999.2500     3.6778  -999.2500     2.1864  2300.0000  -999.2500  -999.2500
 2033.9792    17.0938  -999.2500  2932.0000     -.0039    19.0938  -999.2500     3.7789  -999.2500     2.1731  2284.0000  -999.2500  -999.2500
 2034.1316    17.0938  -999.2500  2930.0000     -.0024    15.9609  -999.2500     3.7760  -999.2500     2.1654  2300.0000  -999.2500  -999.2500
 2034.2840    17.0938  -999.2500  2930.0000     -.0044    14.7969  -999.2500     3.9106  -999.2500     2.1599  2304.0000  -999.2500  -999.2500
 2034.4364    17.0938  -999.2500  2932.0000     -.0010    15.1797  -999.2500     3.8520  -999.2500     2.1582  2330.0000  -999.2500  -999.2500
 2034.5888    17.0938  -999.2500  2920.0000     -.0020    19.0469  -999.2500     3.9496  -999.2500     2.1575  2324.0000  -999.2500  -999.2500
 2034.7412    17.0938  -999.2500  2926.0000     -.0024    18.6719  -999.2500     3.7383  -999.2500     2.1521  2330.0000  -999.2500  -999.2500
 2034.8936    17.0938  -999.2500  2924.0000     -.0063    18.2969  -999.2500     3.7707  -999.2500     2.1501  2314.0000  -999.2500  -999.2500
 2035.0460    17.0938  -999.2500  2928.0000     -.0078    16.4063  -999.2500     3.8282  -999.2500     2.1481  2314.0000  -999.2500  -999.2500
 2035.1984    17.0938  -999.2500  2926.0000     -.0059    16.4219  -999.2500     4.0194  -999.2500     2.1462  2324.0000  -999.2500  -999.2500
 2035.3508    17.0938  -999.2500  2926.0000     -.0015    15.6250  -999.2500     4.1611  -999.2500     2.1438  2314.0000  -999.2500  -999.2500
 2035.5032    17.0938  -999.2500  2926.0000      .0024    16.7656  -999.2500     4.1745  -999.2500     2.1410  2330.0000  -999.2500  -999.2500
 2035.6556    17.0938  -999.2500  2930.0000      .0044    17.1094  -999.2500     4.2024  -999.2500     2.1433  2310.0000  -999.2500  -999.2500
 2035.8080    17.0938  -999.2500  2930.0000      .0044    18.7031  -999.2500     4.2077  -999.2500     2.1481  2334.0000  -999.2500  -999.2500
 2035.9604    17.0938  -999.2500  2928.0000      .0005    19.8906  -999.2500     4.3470  -999.2500     2.1547  2310.0000  -999.2500  -999.2500
 2036.1128    17.0938  -999.2500  2924.0000      .0015    19.5156  -999.2500     4.5234  -999.2500     2.1567  2330.0000  -999.2500  -999.2500
