~VERSION INFORMATION
VERS.                                                 2.0:   CWLS Log ASCII Standard-VERSION 2.0
WRAP.                                                  NO:   One line per depth step
~Well Information Block
STRT.M                                           175.7660:   Top Depth
STOP.M                                          4145.7860:   Bottom Depth
STEP.M                                             .15240:   Depth Increment
NULL.                                            -999.250:   Null Value
FLD .                                             WILDCAT:   Field Name
WELL.                                              15/3-5:   NAME
WBN .                                              15/3-5:   WELLBORE
NATI.                                                 NOR:   COUNTRY
CTRY.                                                 NOR:   COUNTRY
COMP.                             ELF AQUITAINE NORGE A/S:   OPERATOR
PROV.                                            OFFSHORE:   PROVINCE
COUN.                                      BYFORD DOLPHIN:   RIG NAME
SPUD.                                          1983/12/20:   SPUD DATE
LATI.                                       58 47 13.04 N:   SURF. LATITUDE
LONG.                                        1 50 34.11 E:   SURF. LONGITUDE
PBWE.                                              15/3-5:   PB WELL ID
APIN.                                              15/3-5:   PB WELLBORE ID
PBWS.                                                 all:   PB WELL NAME SET
~PARAMETER INFORMATION (log)
LNAM.                             LDT/CNL/NGT  COMPOSITED:   NAME
LTYP.                                         DEPTH MATCH:   LOG TYPE
LSRV.                                           LATEROLOG:   LOG SERVICE
LSOU.                                             SPT/NPD:   LOG SOURCE
LVSN.                                                   1:   LOG VERSION
BHIS.                                                   R:   BRIEF HISTORY
FHIS.                                             RAW-LIS:   FULL HISTORY
LCNM.                                              TELECO:   LOGGING CONTRACTOR
TOOL.                            LDT/CNL/NGT (COMPOSITED):   TOOL STRING
~Curve Information Block
#MNEM.UNIT                                        API CODE    No Description
#=========                                        ========    == ===========
DEPT.M                                       00 001 00 00:     1  DEPTH
CALI.IN                                                  :     2  Caliper
CGR.GAPI                                                 :     3  Gamma Ray
CS.                                                      :     4  Cable Speed
DRHO.G/CC                                                :     5  Bulk density correction
GR.GAPI                                                  :     6  Gamma Ray
NPHI.%                                                   :     7  Neutron porosity
PEF.B/E                                                  :     8  Photo-electric factor
POTA.                                                    :     9  Potassium
RHOB.G/CC                                                :    10  Bulk density
TENS.LB                                                  :    11  Cable Tension
THOR.PPM                                                 :    12  Thorium
URAN.PPM                                                 :    13  Uranium
~ASCII
# ...
 3342.0284    12.2656    12.1164   901.5000     -.0199    19.4010  -999.2500     4.3570      .0024     2.6438  3122.1865     2.0427      .8795
 3342.1808    12.2656    10.1737   901.5000     -.0182    20.9858  -999.2500     4.0154      .0015     2.6385  3111.5703     1.6524     1.3049
 3342.3332    12.2656    10.7841   901.6967     -.0232    20.8971  -999.2500     4.1888      .0018     2.6323  3110.0674     1.4319     1.2204
 3342.4856    12.2656    13.2171   902.1978     -.0239    19.1567  -999.2500     4.5569      .0028     2.6321  3088.1802     1.7712      .7165
 3342.6380    12.2656    12.8835   902.6990     -.0267    17.9639  -999.2500     4.8550      .0034     2.6377  3074.3496     1.6852      .6132
 3342.7904    12.2656    13.2653   903.2009     -.0250    17.6757  -999.2500     4.8063      .0036     2.6419  3091.6074     1.9998      .5323
 3342.9428    12.2656    14.2746   903.2981     -.0268    18.6478  -999.2500     4.5338      .0037     2.6413  3084.3076     2.0220      .5284
 3343.0952    12.2656    15.7238   902.7974     -.0264    20.2151  -999.2500     4.5643      .0030     2.6369  3074.0513     2.5039      .5433
 3343.2476    12.2656    18.8140   902.2961     -.0273    21.0852  -999.2500     4.5254      .0030     2.6323  3088.1538     3.2034      .2745
 3343.4000    12.2656    19.7490   901.7946     -.0250    20.9925  -999.2500     4.5688      .0037     2.6296  3104.1089     2.9437      .1501
 3343.5524    12.2656    20.1270   901.2937     -.0193    20.1189  -999.2500     4.4990      .0042     2.6314  3101.7495     2.8895     -.0005
 3343.7048    12.2656    22.0466   901.0000     -.0144    19.3122  -999.2500     4.5525      .0050     2.6341  3094.1411     3.2727     -.3309
 3343.8572    12.2656    21.7238   901.2081     -.0114    18.4885  -999.2500     4.5320      .0044     2.6360  3097.5015     3.5675     -.3920
 3344.0096    12.2656    19.2925   902.1307     -.0136    18.1307  -999.2500     4.7624      .0044     2.6342  3096.5229     3.1356     -.1404
 3344.1620    12.2656    17.2174   903.0000     -.0188    18.6253  -999.2500     4.8132      .0044     2.6341  3112.6646     2.7409      .1704
 3344.3144    12.2656    18.9708   903.2118     -.0223    19.4018  -999.2500     4.8323      .0046     2.6348  3121.5249     3.0818      .0522
 3344.4668    12.2656    20.3941   903.5000     -.0178    20.4628  -999.2500     4.6282      .0049     2.6322  3114.2534     3.2567      .0085
 3344.6192    12.2656    26.8497   903.5000     -.0157    22.7207  -999.2500     4.5342      .0061     2.6321  3113.1572     4.2315     -.4989
 3344.7716    12.2656    32.5390   903.5000     -.0170    24.5891  -999.2500     4.5422      .0080     2.6303  3102.2729     4.7190     -.9612
 3344.9240    12.2656    30.8233   903.7163     -.0213    23.8173  -999.2500     4.3635      .0081     2.6302  3091.3462     4.1500     -.8474
 3345.0764    12.2656    22.5557   904.0000     -.0229    22.3960  -999.2500     4.3333      .0057     2.6309  3086.0771     2.8749     -.0203
 3345.2288    12.2656    19.5641   904.0000     -.0211    22.8800  -999.2500     4.1730      .0038     2.6309  3096.6196     3.0482      .3995
 3345.3812    12.2656    25.2147   904.0000     -.0219    23.5352  -999.2500     4.3134      .0051     2.6321  3092.9517     4.0399     -.2032
 3345.5336    12.2656    24.9153   904.2214     -.0191    22.7981  -999.2500     4.4382      .0054     2.6328  3091.0884     3.4048     -.2560
 3345.6860    12.2656    19.8972   904.9446     -.0190    20.5221  -999.2500     4.4787      .0052     2.6354  3101.7783     2.5057      .0755
 3345.8384    12.2656    19.3438   905.2769     -.0195    18.9856  -999.2500     4.3828      .0049     2.6354  3095.0752     2.8037     -.0437
 3345.9908    12.2656    20.4171   904.7753     -.0186    18.9459  -999.2500     4.2460      .0049     2.6270  3082.2021     3.0021     -.1782
 3346.1432    12.2656    21.7457   904.0482     -.0181    19.7023  -999.2500     4.3500      .0047     2.6205  3089.0352     3.4779     -.2459
 3346.2956    12.2656    20.3332   903.5000     -.0181    20.8400  -999.2500     4.6317      .0042     2.6204  3109.0703     3.1992      .0609
 3346.4480    12.2656    15.5691   903.2725     -.0228    20.7892  -999.2500     4.8264      .0039     2.6315  3124.5498     2.0075      .6294
 3346.6004    12.2656    12.1886   903.0000     -.0239    19.5460  -999.2500     4.7954      .0041     2.6380  3120.8506     1.3253      .8881
 3346.7528    12.2656    10.1172   902.7697     -.0272    19.0753  -999.2500     4.6570      .0039     2.6400  3105.3931     1.0792     1.0816
 3346.9052    12.2656     8.8511   902.2684     -.0264    19.7043  -999.2500     4.6042      .0030     2.6327  3104.6299     1.1716     1.3109
 3347.0576    12.2656    10.9132   902.4647     -.0226    20.3875  -999.2500     4.6144      .0029     2.6289  3107.2114     1.6658     1.1451
 3347.2100    12.2656    13.3236   903.2330     -.0201    21.0361  -999.2500     4.5915      .0032     2.6249  3102.1348     2.0065      .9325
 3347.3624    12.2656    15.0186   903.5000     -.0148    21.9528  -999.2500     4.5101      .0032     2.6164  3114.1089     2.2956      .8379
 3347.5148    12.2545    18.8384   903.2637     -.0189    22.7003  -999.2500     4.6256      .0039     2.6053  3134.7266     2.7242      .4660
 3347.6672    12.2237    21.4319   902.7628     -.0190    21.9427  -999.2500     4.7915      .0042     2.6056  3121.0254     3.0820      .0608
 3347.8196    12.1957    20.2722   902.2625     -.0224    19.5758  -999.2500     5.0677      .0032     2.6221  3100.0000     3.3243     -.0840
 3347.9720    12.1875    25.0202   902.2395     -.0191    18.6796  -999.2500     5.1594      .0041     2.6383  3101.9165     4.2251     -.7655
 3348.1244    12.1875    24.7062   902.7407     -.0210    19.2581  -999.2500     4.9361      .0049     2.6439  3104.0000     3.9826     -.6578
 3348.2768    12.1837    18.2169   903.0000     -.0234    19.9986  -999.2500     4.6406      .0032     2.6392  3097.2251     3.0109      .2157
 3348.4292    12.1835    20.3344   903.0000     -.0273    20.0230  -999.2500     4.3098      .0029     2.6327  3080.2886     3.4463     -.0376
 3348.5816    12.1875    17.4079   903.0000     -.0264    18.9219  -999.2500     4.2739      .0029     2.6268  3079.7271     2.8982      .1827
 3348.7340    12.1913    13.7215   902.7548     -.0235    17.9125  -999.2500     4.4077      .0022     2.6291  3096.8647     2.3866      .5060
 3348.8864    12.1876    12.1477   902.2535     -.0201    17.0179  -999.2500     4.7054      .0022     2.6349  3108.9277     2.2333      .5886
 3349.0388    12.1797    12.8898   901.7528     -.0238    17.4928  -999.2500     4.9104      .0024     2.6408  3109.0562     2.2294      .5563
 3349.1912    12.1874    15.0675   901.2520     -.0282    18.3189  -999.2500     4.7918      .0022     2.6344  3104.0000     2.6870      .3932
 3349.3436    12.1914    15.7729   900.5007     -.0307    18.6170  -999.2500     4.6490      .0022     2.6336  3102.0029     2.7336      .3443
 3349.4960    12.1875    16.0584   900.0000     -.0274    18.0055  -999.2500     4.5814      .0032     2.6348  3091.9741     2.4703      .2353
 3349.6484    12.1875    15.4094   900.7560     -.0245    17.1159  -999.2500     4.5967      .0042     2.6416  3087.0239     2.1394      .2062
 3349.8008    12.1835    14.9347   901.5000     -.0235    16.7240  -999.2500     4.7070      .0044     2.6432  3097.0786     2.0556      .2164
 3349.9532    12.1876    15.8476   901.2456     -.0215    17.0327  -999.2500     4.8691      .0046     2.6453  3104.0000     2.1768      .1428
 3350.1056    12.1873    15.3984   901.2556     -.0215    18.2179  -999.2500     4.8554      .0046     2.6465  3109.1123     1.8971      .3400
 3350.2580    12.1877    14.6403   901.5000     -.0229    18.9798  -999.2500     4.6102      .0039     2.6465  3103.7271     1.9038      .5239
 3350.4104    12.1913    16.6223   901.7572     -.0215    19.0857  -999.2500     4.4382      .0034     2.6451  3109.4326     2.4333      .2976
