~VERSION INFORMATION
VERS.                                                 2.0:   CWLS Log ASCII Standard-VERSION 2.0
WRAP.                                                  NO:   One line per depth step
~Well Information Block
STRT.M                                           175.7660:   Top Depth
STOP.M                                          4145.7860:   Bottom Depth
STEP.M                                             .15240:   Depth Increment
NULL.                                            -999.250:   Null Value
FLD .                                             WILDCAT:   Field Name
WELL.                                              15/3-5:   NAME
WBN .                                              15/3-5:   WELLBORE
NATI.                                                 NOR:   COUNTRY
CTRY.                                                 NOR:   COUNTRY
COMP.                             ELF AQUITAINE NORGE A/S:   OPERATOR
PROV.                                            OFFSHORE:   PROVINCE
COUN.                                      BYFORD DOLPHIN:   RIG NAME
SPUD.                                          1983/12/20:   SPUD DATE
LATI.                                       58 47 13.04 N:   SURF. LATITUDE
LONG.                                        1 50 34.11 E:   SURF. LONGITUDE
PBWE.                                              15/3-5:   PB WELL ID
APIN.                                              15/3-5:   PB WELLBORE ID
PBWS.                                                 all:   PB WELL NAME SET
~PARAMETER INFORMATION (log)
LNAM.                             LDT/CNL/NGT  COMPOSITED:   NAME
LTYP.                                         DEPTH MATCH:   LOG TYPE
LSRV.                                           LATEROLOG:   LOG SERVICE
LSOU.                                             SPT/NPD:   LOG SOURCE
LVSN.                                                   1:   LOG VERSION
BHIS.                                                   R:   BRIEF HISTORY
FHIS.                                             RAW-LIS:   FULL HISTORY
LCNM.                                              TELECO:   LOGGING CONTRACTOR
TOOL.                            LDT/CNL/NGT (COMPOSITED):   TOOL STRING
~Curve Information Block
#MNEM.UNIT                                        API CODE    No Description
#=========                                        ========    == ===========
DEPT.M                                       00 001 00 00:     1  DEPTH
CALI.IN                                                  :     2  Caliper
CGR.GAPI                                                 :     3  Gamma Ray
CS.                                                      :     4  Cable Speed
DRHO.G/CC                                                :     5  Bulk density correction
GR.GAPI                                                  :     6  Gamma Ray
NPHI.%                                                   :     7  Neutron porosity
PEF.B/E                                                  :     8  Photo-electric factor
POTA.                                                    :     9  Potassium
RHOB.G/CC                                                :    10  Bulk density
TENS.LB                                                  :    11  Cable Tension
THOR.PPM                                                 :    12  Thorium
URAN.PPM                                                 :    13  Uranium
~ASCII
# ...
 3085.9964    13.9922    27.8125   919.0000     -.0179    29.6562  -999.2500     4.8432      .0073     2.5684  3180.0000     3.7207      .2217
 3086.1488    13.9922    26.2500   919.5000     -.0183    30.0625  -999.2500     4.7951      .0068     2.5683  3120.0000     3.4062      .4590
 3086.3012    13.9922    27.5156   919.5000     -.0164    28.2031  -999.2500     4.8018      .0073     2.5647  3050.0000     4.0273      .0845
 3086.4536    13.9063    26.3281   920.5000     -.0183    26.9531  -999.2500     4.8844      .0068     2.5723  2990.0000     4.2070      .0757
 3086.6060    13.9063    21.6406   922.0000     -.0159    28.0313  -999.2500     4.7734      .0063     2.5724  2934.0000     3.2793      .7725
 3086.7584    13.9063    27.8438   922.0000     -.0177    30.1250  -999.2500     4.6424      .0073     2.5759  2894.0000     4.1562      .2739
 3086.9108    13.9063    29.6250   921.5000     -.0210    32.0313  -999.2500     4.8802      .0073     2.5703  2834.0000     4.2109      .2886
 3087.0632    13.9063    30.6094   921.0000     -.0248    31.1875  -999.2500     4.9297      .0078     2.5703  2750.0000     4.4180      .0688
 3087.2156    13.9063    30.5313   919.5000     -.0255    31.3125  -999.2500     4.9928      .0068     2.5706  2700.0000     4.7578      .0947
 3087.3680    13.9063    28.1094   919.0000     -.0223    31.2656  -999.2500     4.6895      .0073     2.5763  2714.0000     4.0391      .3809
 3087.5204    13.9063    27.8750   918.5000     -.0212    31.6719  -999.2500     4.6319      .0068     2.5783  3524.0000     4.0117      .4595
 3087.6728    13.9063    26.8750   919.5000     -.0207    30.7188  -999.2500     4.7109      .0068     2.5802  3450.0000     3.9199      .4634
 3087.8252    13.9063    27.3281   920.5000     -.0229    29.6250  -999.2500     4.7275      .0068     2.5819  3384.0000     4.3672      .2773
 3087.9776    13.9063    26.1250   922.0000     -.0214    29.8125  -999.2500     4.8700      .0068     2.5799  3334.0000     4.2500      .4448
 3088.1300    13.9063    28.3594   923.5000     -.0217    30.0938  -999.2500     4.9829      .0073     2.5780  3294.0000     4.6953      .2090
 3088.2824    13.9063    32.8125   924.5000     -.0171    32.1562  -999.2500     5.2104      .0073     2.5762  3230.0000     5.3398     -.0791
 3088.4348    13.9063    35.9062   924.5000     -.0166    32.4687  -999.2500     5.3032      .0078     2.5763  3164.0000     6.1836     -.4175
 3088.5872    13.9063    37.7500   924.5000     -.0149    33.1875  -999.2500     5.2281      .0078     2.5787  3094.0000     6.3672     -.5493
 3088.7396    13.9063    36.4688   923.5000     -.0162    32.0000  -999.2500     4.9435      .0083     2.5840  3030.0000     6.3516     -.5381
 3088.8920    13.9063    37.0313   923.5000     -.0165    32.4375  -999.2500     4.5450      .0078     2.5848  2984.0000     6.6797     -.5557
 3089.0444    13.9063    39.0000   924.0000     -.0164    32.5625  -999.2500     4.5505      .0083     2.5922  2914.0000     6.9023     -.7744
 3089.1968    13.9063    42.1562   924.0000     -.0172    33.6250  -999.2500     4.4053      .0083     2.5968  2850.0000     7.4453    -1.0313
 3089.3492    13.9218    41.8437   923.9968     -.0163    34.3171  -999.2500     4.6938      .0088     2.6048  2760.2686     7.2773     -.9067
 3089.5016    13.9063    41.7500   923.0000     -.0189    35.7500  -999.2500     4.6123      .0088     2.5989  2844.0000     6.9375     -.7271
 3089.6540    13.9063    46.2500   922.5000     -.0188    36.2813  -999.2500     4.9339      .0093     2.5933  2994.0000     7.5937    -1.2041
 3089.8064    13.9063    44.7813   922.5000     -.0212    35.5937  -999.2500     4.9980      .0093     2.5906  2920.0000     7.4648    -1.1123
 3089.9588    13.9063    42.7188   922.5000     -.0184    35.0938  -999.2500     5.1283      .0088     2.5967  2874.0000     7.1992     -.9204
 3090.1112    13.9063    41.8437   921.5000     -.0208    34.8750  -999.2500     5.0603      .0088     2.6027  2814.0000     7.1367     -.8433
 3090.2636    13.9063    38.3438   919.5000     -.0245    36.8750  -999.2500     5.0357      .0083     2.5977  2754.0000     6.1406     -.1782
 3090.4160    13.9063    40.0313   918.5000     -.0249    38.4062  -999.2500     5.1657      .0078     2.5965  2690.0000     6.4336     -.1968
 3090.5684    13.9063    43.4688   918.0000     -.0244    39.6562  -999.2500     5.0498      .0088     2.5904  3470.0000     6.5508     -.4585
 3090.7208    13.9063    44.6908   919.5032     -.0219    39.8754  -999.2500     4.8718      .0088     2.5931  3403.8271     6.6214     -.5824
 3090.8732    13.9063    45.7188   920.5000     -.0217    40.0000  -999.2500     4.5800      .0088     2.5889  3350.0000     6.7227     -.6914
 3091.0256    13.9297    44.8125   921.0000     -.0217    39.6250  -999.2500     4.4578      .0083     2.5837  3280.0000     6.6445     -.6255
 3091.1780    14.0859    48.3125   921.5000     -.0173    39.1563  -999.2500     4.5710      .0088     2.5814  3244.0000     7.2812    -1.1035
 3091.3304    14.0695    48.0937   922.5016     -.0130    36.6203  -999.2500     4.6016      .0093     2.5781  3169.8208     7.2656    -1.3887
 3091.4828    13.8125    43.6563   923.0000     -.0098    35.1563  -999.2500     4.9274      .0073     2.5799  3114.0000     6.8516    -1.0254
 3091.6352    13.8203    43.1250   924.0000     -.0120    32.9688  -999.2500     4.9759      .0078     2.5879  3040.0000     7.1406    -1.2275
 3091.7876    13.8125    45.5937   923.0000     -.0213    32.8750  -999.2500     4.9492      .0083     2.5875  2964.0000     7.5742    -1.5371
 3091.9400    13.8125    46.0000   923.0000     -.0252    32.5000  -999.2500     4.7779      .0083     2.5848  2910.0000     7.6836    -1.6318
 3092.0924    13.9931    38.4734   922.5032     -.0233    33.1887  -999.2500     4.8132      .0063     2.5808  2939.9487     6.3328     -.6376
 3092.2448    14.2734    39.9063   923.5000     -.0166    33.5625  -999.2500     5.0686      .0063     2.5851  2924.0000     6.5742     -.7661
 3092.3972    14.1797    38.7813   924.0000     -.0123    31.6563  -999.2500     4.9493      .0054     2.5879  2860.0000     6.6719     -.8608
 3092.5496    13.7266    28.7500   924.0000     -.0155    30.6094  -999.2500     4.9563      .0044     2.5789  2850.0000     4.4961      .2236
 3092.7020    13.5391    26.9679   923.9984     -.0181    28.8155  -999.2500     4.8412      .0054     2.5742  2870.3008     4.1794      .2221
 3092.8544    13.5391    26.7031   923.5000     -.0207    29.7500  -999.2500     5.1133      .0044     2.5751  2964.0000     4.0820      .3662
 3093.0068    13.5391    27.5781   923.5000     -.0187    28.4062  -999.2500     4.7867      .0044     2.5803  2934.0000     4.6523      .1001
 3093.1592    13.5391    24.4688   923.5000     -.0175    27.3438  -999.2500     4.8472      .0044     2.5870  2900.0000     3.8711      .3462
 3093.3116    13.5391    22.0781   923.0000     -.0193    25.2344  -999.2500     4.8631      .0044     2.5853  2900.0000     3.8359      .3813
 3093.4640    13.5391    21.0781   922.5000     -.0184    24.6094  -999.2500     4.6400      .0039     2.5894  2824.0000     4.0312      .4253
 3093.6164    13.5391    18.6094   922.0000     -.0200    25.1875  -999.2500     4.2414      .0034     2.5888  2770.0000     3.6504      .7949
 3093.7688    13.5391    21.7188   921.5000     -.0206    26.7188  -999.2500     4.0358      .0044     2.5932  3154.0000     3.8359      .6035
 3093.9212    13.5391    32.3750   921.5000     -.0236    28.7969  -999.2500     4.2137      .0068     2.5977  3184.0000     5.1484     -.4331
 3094.0736    13.5391    33.9688   922.0000     -.0204    30.3594  -999.2500     4.3781      .0059     2.5986  3124.0000     5.8125     -.4380
 3094.2260    13.5391    29.7344   922.0000     -.0139    28.4688  -999.2500     4.5492      .0059     2.5991  3080.0000     4.7969     -.1533
 3094.3784    13.5391    25.5625   921.5000     -.0123    27.6406  -999.2500     4.6488      .0063     2.5903  3030.0000     3.3848      .2500
