~VERSION INFORMATION
VERS.                                                 2.0:   CWLS Log ASCII Standard-VERSION 2.0
WRAP.                                                  NO:   One line per depth step
~Well Information Block
STRT.M                                           556.4612:   Top Depth
STOP.M                                          2953.5608:   Bottom Depth
STEP.M                                             .15240:   Depth Increment
NULL.                                            -999.250:   Null Value
FLD .                                     GAMMA STRUCTURE:   Field Name
WELL.                                             15/9-11:   NAME
WBN .                                             15/9-11:   WELLBORE
NATI.                                                 NOR:   COUNTRY
CTRY.                                                 NOR:   COUNTRY
COMP.                                             STATOIL:   OPERATOR
PROV.                                           NORTH SEA:   PROVINCE
COUN.                                            ROSS RIG:   RIG NAME
SPUD.                                          1981/09/17:   SPUD DATE
LATI.                                        58 24 2.53 N:   SURF. LATITUDE
LONG.                                        1 53 41.79 E:   SURF. LONGITUDE
PBWE.                                             15/9-11:   PB WELL ID
APIN.                                             15/9-11:   PB WELLBORE ID
PBWS.                                                 all:   PB WELL NAME SET
~PARAMETER INFORMATION (log)
LNAM.                              FDC/CNL/GR  COMPOSITED:   NAME
LTYP.                                         DEPTH MATCH:   LOG TYPE
LSRV.                                            DEN/NEUT:   LOG SERVICE
LSOU.                                             SPT/NPD:   LOG SOURCE
LVSN.                                                   1:   LOG VERSION
BHIS.                                                   R:   BRIEF HISTORY
FHIS.                                             RAW-LIS:   FULL HISTORY
LCNM.                                        SCHLUMBERGER:   LOGGING CONTRACTOR
TOOL.                             FDC/CNL/GR (COMPOSITED):   TOOL STRING
~Curve Information Block
#MNEM.UNIT                                        API CODE    No Description
#=========                                        ========    == ===========
DEPT.M                                       00 001 00 00:     1  DEPTH
CALI.IN                                                  :     2  Caliper
CS.                                                      :     3  Cable Speed
DRHO.G/CC                                                :     4  Bulk density correction
GR.GAPI                                                  :     5  Gamma Ray
NPHI.%                                                   :     6  Neutron porosity
RHOB.G/CC                                                :     7  Bulk density
TENS.LB                                                  :     8  Cable Tension
~ASCII
# ...
 2151.3272    12.4844  2644.0000      .0068    55.0938    53.0762     2.1836  2410.0000
 2151.4796    12.5234  2644.0000      .0273    59.4375    49.6582     2.1777  2390.0000
 2151.6320    12.5469  2642.0000      .0073    56.2813    50.1465     2.1348  2384.0000
 2151.7844    12.5703  2642.0000     -.0034    61.4688    47.3633     2.1133  2384.0000
 2151.9368    12.6250  2642.0000      .0171    63.8750    53.2715     2.1445  2374.0000
 2152.0892    12.6719  2644.0000      .0293    63.8125    52.6367     2.1660  2384.0000
 2152.2416    12.6719  2644.0000      .0171    62.0312    53.6133     2.1602  2384.0000
 2152.3940    12.6953  2644.0000     -.0059    55.6875    46.9727     2.1582  2364.0000
 2152.5464    12.7031  2642.0000      .0020    58.1563    45.3613     2.1895  2360.0000
 2152.6988    12.6797  2640.0000      .0557    54.7188    48.9258     2.2578  2344.0000
 2152.8512    12.6953  2642.0000      .0957    54.4063    47.8516     2.2871  2384.0000
 2153.0036    12.8203  2642.0000      .1099    53.7813    45.4102     2.3105  2380.0000
 2153.1560    12.9062  2642.0000      .0586    53.8125    39.0137     2.2480  2364.0000
 2153.3084    12.7187  2640.0000      .0269    55.5313    41.8457     2.2129  2340.0000
 2153.4608    12.7812  2640.0000      .0020    57.5313    43.1641     2.1621  2344.0000
 2153.6132    12.9219  2638.0000      .0044    57.8750    50.5371     2.1602  2374.0000
 2153.7656    12.9297  2638.0000      .0059    61.2813    50.8789     2.1426  2380.0000
 2153.9180    13.0156  2640.0000      .0063    58.1250    53.2715     2.1465  2354.0000
 2154.0704    13.3750  2638.0000      .0269    51.7813    47.5586     2.2129  2364.0000
 2154.2228    13.7422  2640.0000      .0742    48.0000    42.7246     2.3379  2420.0000
 2154.3752    13.5156  2640.0000      .1250    44.8437    38.4766     2.4219  2444.0000
 2154.5276    13.5156  2642.0000      .0820    47.8125    35.3027     2.3555  2410.0000
 2154.6800    13.5469  2642.0000      .0776    47.5313    39.4531     2.3047  2370.0000
 2154.8324    13.5938  2640.0000      .0498    54.5625    41.1133     2.2402  2354.0000
 2154.9848    13.6172  2640.0000      .0439    59.8125    45.8984     2.1875  2354.0000
 2155.1372    12.6328  2640.0000      .0137    63.2188    46.7285     2.1348  2404.0000
 2155.2896    12.6953  2640.0000      .0103    60.7812    47.3145     2.1191  2364.0000
 2155.4420    12.7344  2640.0000      .0435    57.1250    45.1172     2.1699  2364.0000
 2155.5944    12.7734  2640.0000      .0557    52.9375    47.2168     2.1797  2354.0000
 2155.7468    12.7734  2640.0000      .0347    49.7500    46.4355     2.1777  2344.0000
 2155.8992    12.6719  2640.0000      .0186    47.2500    49.0723     2.1719  2344.0000
 2156.0516    12.6719  2640.0000      .0083    49.0312    47.8027     2.2090  2374.0000
 2156.2040    12.9297  2640.0000      .0181    48.7813    47.7051     2.2695  2390.0000
 2156.3564    12.5234  2640.0000      .0264    49.8750    45.4590     2.3184  2410.0000
 2156.5088    12.5078  2638.0000      .0332    51.0313    43.7988     2.3145  2404.0000
 2156.6612    12.5234  2638.0000      .0337    52.3125    47.3145     2.2773  2394.0000
 2156.8136    12.4219  2640.0000      .0234    55.8125    48.3887     2.2402  2394.0000
 2156.9660    12.4062  2638.0000      .0190    52.6250    48.4863     2.2187  2394.0000
 2157.1184    12.4297  2638.0000      .0044    54.6875    47.7051     2.1914  2410.0000
 2157.2708    12.4219  2638.0000      .0254    56.7813    45.2637     2.1875  2414.0000
 2157.4232    12.4219  2636.0000      .0103    60.9062    45.4102     2.1426  2400.0000
 2157.5756    12.3828  2638.0000      .0132    62.9375    46.1914     2.1211  2374.0000
 2157.7280    12.4766  2640.0000      .0044    58.8750    48.4863     2.0840  2364.0000
 2157.8804    12.5781  2640.0000      .0068    54.3750    47.7539     2.1074  2344.0000
 2158.0328    12.6250  2638.0000      .0205    50.4063    47.9004     2.1543  2354.0000
 2158.1852    12.5703  2638.0000      .0439    51.6875    50.4395     2.2227  2360.0000
 2158.3376    12.5469  2636.0000      .0459    54.4375    48.7305     2.2051  2354.0000
 2158.4900    12.5547  2638.0000      .0366    59.6250    45.8496     2.1641  2360.0000
 2158.6424    12.5469  2638.0000      .0093    60.4063    41.9434     2.1113  2384.0000
 2158.7948    12.6484  2636.0000      .0063    61.8125    41.9434     2.1328  2394.0000
 2158.9472    12.7344  2638.0000      .0098    54.0625    43.1152     2.1875  2394.0000
 2159.0996    12.8672  2638.0000      .0195    48.7187    43.1152     2.2539  2394.0000
 2159.2520    12.5781  2638.0000      .0596    49.7500    50.1953     2.3184  2390.0000
 2159.4044    12.6250  2640.0000      .0815    55.8750    50.6836     2.3047  2380.0000
 2159.5568    12.8047  2640.0000      .0630    62.3125    50.0488     2.2344  2404.0000
 2159.7092    12.7266  2640.0000      .0254    60.8750    45.4590     2.1699  2414.0000
 2159.8616    12.4844  2638.0000      .0112    58.0313    42.6270     2.1523  2420.0000
 2160.0140    12.5000  2638.0000      .0015    55.7812    45.8008     2.1660  2370.0000
 2160.1664    12.4375  2638.0000      .0127    52.9687    47.0215     2.1973  2350.0000
 2160.3188    12.4297  2638.0000      .0234    51.4688    54.7363     2.2363  2380.0000
 2160.4712    12.5000  2638.0000      .0435    50.4375    54.4434     2.2852  2370.0000
 2160.6236    12.5781  2638.0000      .0620    48.7187    55.8594     2.3203  2364.0000
 2160.7760    12.4844  2638.0000      .0352    50.8750    47.8027     2.2812  2364.0000
 2160.9284    12.6563  2638.0000      .0234    53.6875    46.3867     2.2344  2354.0000
 2161.0808    12.4609  2640.0000      .0132    54.5312    45.3613     2.1836  2374.0000
 2161.2332    12.4609  2638.0000      .0078    55.5313    49.5117     2.1660  2410.0000
 2161.3856    12.4531  2638.0000      .0015    55.5313    52.0996     2.1523  2390.0000
 2161.5380    12.4219  2636.0000     -.0063    55.8125    52.8809     2.1484  2394.0000
 2161.6904    12.4219  2636.0000     -.0112    56.5312    50.6836     2.1484  2370.0000
 2161.8428    12.6016  2636.0000     -.0029    57.9063    47.8027     2.1719  2384.0000
 2161.9952    12.6328  2636.0000      .0083    59.2500    43.3105     2.2129  2414.0000
 2162.1476    12.7500  2638.0000      .0542    56.3750    43.9453     2.2793  2430.0000
 2162.3000    12.4297  2638.0000      .0591    57.0938    44.0918     2.2988  2424.0000
 2162.4524    12.3984  2640.0000      .0532    61.2500    43.3594     2.2676  2424.0000
 2162.6048    12.4297  2640.0000      .0356    63.8125    42.9687     2.2285  2410.0000
 2162.7572    12.5469  2642.0000      .0298    61.4375    44.7266     2.2031  2350.0000
 2162.9096    12.5313  2638.0000      .0122    59.0938    45.2637     2.1934  2360.0000
 2163.0620    12.5547  2638.0000      .0146    56.1563    47.3633     2.2090  2374.0000
 2163.2144    12.4844  2638.0000      .0132    58.5000    44.7266     2.2207  2380.0000
 2163.3668    12.4609  2636.0000      .0166    58.3438    51.0254     2.2148  2344.0000
 2163.5192    12.4531  2636.0000      .0117    58.3438    52.5391     2.2012  2350.0000
 2163.6716    12.4609  2636.0000      .0132    55.2812    51.7090     2.1992  2374.0000
 2163.8240    12.5313  2636.0000      .0361    55.3125    46.7285     2.2305  2390.0000
 2163.9764    12.5234  2636.0000      .0322    58.2188    46.0937     2.2246  2384.0000
 2164.1288    12.5469  2636.0000      .0244    60.3750    50.6836     2.2148  2410.0000
 2164.2812    12.5469  2638.0000      .0244    61.3125    52.4414     2.2148  2400.0000
 2164.4336    12.5547  2640.0000      .0244    59.8750    50.7324     2.2207  2404.0000
 2164.5860    12.5547  2638.0000      .0039    60.4687    46.6797     2.2070  2404.0000
 2164.7384    12.5469  2638.0000      .0151    68.8750    46.6797     2.2246  2420.0000
 2164.8908    12.4297  2638.0000      .0264    73.1250    45.3613     2.2285  2404.0000
 2165.0432    12.3750  2638.0000      .0376    74.8750    46.4844     2.2168  2380.0000
