~VERSION INFORMATION
VERS.                                                 2.0:   CWLS Log ASCII Standard-VERSION 2.0
WRAP.                                                  NO:   One line per depth step
~Well Information Block
STRT.M                                           556.4612:   Top Depth
STOP.M                                          2953.5608:   Bottom Depth
STEP.M                                             .15240:   Depth Increment
NULL.                                            -999.250:   Null Value
FLD .                                     GAMMA STRUCTURE:   Field Name
WELL.                                             15/9-11:   NAME
WBN .                                             15/9-11:   WELLBORE
NATI.                                                 NOR:   COUNTRY
CTRY.                                                 NOR:   COUNTRY
COMP.                                             STATOIL:   OPERATOR
PROV.                                           NORTH SEA:   PROVINCE
COUN.                                            ROSS RIG:   RIG NAME
SPUD.                                          1981/09/17:   SPUD DATE
LATI.                                        58 24 2.53 N:   SURF. LATITUDE
LONG.                                        1 53 41.79 E:   SURF. LONGITUDE
PBWE.                                             15/9-11:   PB WELL ID
APIN.                                             15/9-11:   PB WELLBORE ID
PBWS.                                                 all:   PB WELL NAME SET
~PARAMETER INFORMATION (log)
LNAM.                              FDC/CNL/GR  COMPOSITED:   NAME
LTYP.                                         DEPTH MATCH:   LOG TYPE
LSRV.                                            DEN/NEUT:   LOG SERVICE
LSOU.                                             SPT/NPD:   LOG SOURCE
LVSN.                                                   1:   LOG VERSION
BHIS.                                                   R:   BRIEF HISTORY
FHIS.                                             RAW-LIS:   FULL HISTORY
LCNM.                                        SCHLUMBERGER:   LOGGING CONTRACTOR
TOOL.                             FDC/CNL/GR (COMPOSITED):   TOOL STRING
~Curve Information Block
#MNEM.UNIT                                        API CODE    No Description
#=========                                        ========    == ===========
DEPT.M                                       00 001 00 00:     1  DEPTH
CALI.IN                                                  :     2  Caliper
CS.                                                      :     3  Cable Speed
DRHO.G/CC                                                :     4  Bulk density correction
GR.GAPI                                                  :     5  Gamma Ray
NPHI.%                                                   :     6  Neutron porosity
RHOB.G/CC                                                :     7  Bulk density
TENS.LB                                                  :     8  Cable Tension
~ASCII
# ...
 1513.3808    14.6094  2628.0000     -.0010    72.5000    47.0215     2.0410  1775.0000
 1513.5332    14.6016  2628.0000     -.0034    70.4375    47.1680     2.0391  1765.0000
 1513.6856    14.5859  2628.0000      .0049    72.3750    44.7266     2.0449  1790.0000
 1513.8380    14.5781  2628.0000      .0122    76.0000    45.0684     2.0625  1785.0000
 1513.9904    14.6094  2628.0000      .0122    75.6875    43.1152     2.0645  1790.0000
 1514.1428    14.8047  2628.0000      .0005    75.1250    46.9727     2.0527  1805.0000
 1514.2952    14.9141  2628.0000      .0020    73.2500    49.5605     2.0508  1795.0000
 1514.4476    14.9844  2628.0000      .0054    69.8125    50.3418     2.0547  1790.0000
 1514.6000    15.0000  2628.0000      .0142    71.1875    47.3633     2.0586  1780.0000
 1514.7524    15.2734  2628.0000      .0098    65.7500    47.4609     2.0664  1785.0000
 1514.9048    15.5781  2628.0000      .0156    66.9375    47.5098     2.0937  1785.0000
 1515.0572    15.7266  2628.0000      .0269    62.0312    49.9023     2.1387  1780.0000
 1515.2096    15.5234  2628.0000      .0342    65.6875    46.8750     2.1680  1760.0000
 1515.3620    15.2031  2630.0000      .0142    64.3750    46.2891     2.1445  1755.0000
 1515.5144    15.2969  2630.0000      .0024    68.2500    43.6035     2.1035  1780.0000
 1515.6668    15.0313  2630.0000     -.0020    67.6250    45.8008     2.0684  1810.0000
 1515.8192    14.9766  2630.0000     -.0024    70.1250    45.0684     2.0586  1790.0000
 1515.9716    15.0234  2628.0000     -.0054    74.2500    47.6562     2.0508  1790.0000
 1516.1240    15.1719  2628.0000     -.0059    74.8125    47.5586     2.0488  1805.0000
 1516.2764    15.3594  2628.0000     -.0015    76.1875    47.9004     2.0488  1790.0000
 1516.4288    15.2812  2628.0000     -.0049    73.1875    53.2227     2.0449  1785.0000
 1516.5812    15.1953  2628.0000     -.0083    73.2500    50.2930     2.0371  1795.0000
 1516.7336    15.1562  2628.0000     -.0034    73.4375    53.2715     2.0449  1760.0000
 1516.8860    15.1562  2628.0000      .0054    78.5000    46.9727     2.0508  1760.0000
 1517.0384    15.2812  2628.0000      .0146    76.7500    49.4141     2.0566  1785.0000
 1517.1908    15.4687  2626.0000      .0176    76.8125    43.6523     2.0605  1770.0000
 1517.3432    15.1797  2628.0000      .0156    73.5625    45.6543     2.0625  1755.0000
 1517.4956    15.1797  2628.0000      .0278    77.5000    43.5059     2.0820  1755.0000
 1517.6480    15.3203  2626.0000      .0181    76.5000    45.1660     2.0859  1775.0000
 1517.8004    15.3594  2626.0000      .0049    70.8750    44.5312     2.0937  1805.0000
 1517.9528    15.2578  2626.0000     -.0015    66.2500    44.7754     2.0918  1795.0000
 1518.1052    15.0547  2626.0000     -.0034    70.0625    46.0449     2.0664  1780.0000
 1518.2576    15.0859  2626.0000      .0088    75.3125    42.1387     2.0586  1780.0000
 1518.4100    15.0313  2626.0000      .0112    75.9375    44.3848     2.0586  1805.0000
 1518.5624    15.0234  2626.0000      .0059    74.0625    41.6992     2.0625  1785.0000
 1518.7148    15.0078  2628.0000      .0112    70.1250    44.3848     2.0664  1755.0000
 1518.8672    15.0313  2630.0000      .0117    72.0000    40.9668     2.0625  1755.0000
 1519.0196    15.0234  2628.0000      .0278    71.4375    40.9668     2.0664  1775.0000
 1519.1720    15.0781  2628.0000      .0132    71.5000    45.0684     2.0508  1770.0000
 1519.3244    15.3047  2626.0000      .0176    70.3750    48.1934     2.0625  1785.0000
 1519.4768    15.3047  2626.0000      .0234    71.1250    49.6094     2.0742  1785.0000
 1519.6292    15.1797  2626.0000      .0596    70.6250    46.4844     2.1172  1795.0000
 1519.7816    15.2812  2626.0000      .0439    65.8125    45.6543     2.0977  1775.0000
 1519.9340    15.2109  2626.0000      .0366    63.0313    43.8965     2.0879  1785.0000
 1520.0864    15.1719  2626.0000      .0083    60.9688    43.6035     2.0605  1795.0000
 1520.2388    15.1797  2626.0000      .0068    62.6562    47.2168     2.0566  1795.0000
 1520.3912    15.1250  2628.0000      .0269    63.6875    46.6797     2.0898  1790.0000
 1520.5436    15.1484  2626.0000      .0278    64.7500    45.0195     2.0859  1780.0000
 1520.6960    15.0234  2626.0000      .0249    66.5000    41.1133     2.0801  1760.0000
 1520.8484    15.1719  2626.0000      .0063    63.7500    47.0215     2.0410  1755.0000
 1521.0008    15.0547  2624.0000      .0146    68.6875    45.8984     2.0449  1755.0000
 1521.1532    14.8359  2624.0000      .0039    69.7500    49.3164     2.0273  1775.0000
 1521.3056    14.8125  2624.0000      .0054    76.3750    46.0937     2.0430  1785.0000
 1521.4580    14.8047  2626.0000      .0010    73.8125    48.3398     2.0527  1790.0000
 1521.6104    14.7891  2624.0000      .0181    75.8750    45.9473     2.0605  1795.0000
 1521.7628    14.6172  2624.0000      .0234    74.8125    45.8496     2.0527  1785.0000
 1521.9152    14.5625  2626.0000      .0063    71.4375    44.9707     2.0215  1795.0000
 1522.0676    14.3906  2626.0000      .0005    65.0625    46.5820     2.0234  1780.0000
 1522.2200    14.6094  2626.0000     -.0010    59.9063    47.0215     2.0273  1760.0000
 1522.3724    14.4844  2624.0000      .0176    60.2812    49.8047     2.0762  1765.0000
 1522.5248    15.2969  2624.0000      .0166    64.9375    48.0469     2.1094  1780.0000
 1522.6772    15.2500  2624.0000      .0186    68.0000    45.3125     2.1387  1780.0000
 1522.8296    14.7891  2624.0000      .0059    71.4375    43.7988     2.1113  1805.0000
 1522.9820    14.8047  2622.0000      .0181    74.1250    44.2383     2.1094  1795.0000
 1523.1344    14.6406  2620.0000      .0161    75.1250    44.6289     2.0781  1790.0000
 1523.2868    14.6094  2622.0000      .0215    73.3750    45.4102     2.0781  1805.0000
 1523.4392    14.6094  2622.0000      .0269    71.2500    44.8242     2.0918  1800.0000
 1523.5916    14.7109  2624.0000      .0244    72.6250    47.9004     2.1016  1800.0000
 1523.7440    14.6641  2624.0000      .0312    70.0625    47.3145     2.1055  1790.0000
 1523.8964    14.6797  2624.0000      .0117    67.6875    47.2656     2.0703  1785.0000
 1524.0488    14.7109  2622.0000      .0049    65.4375    45.0684     2.0508  1780.0000
 1524.2012    14.7266  2622.0000      .0010    66.2500    44.0430     2.0352  1795.0000
 1524.3536    14.7578  2622.0000      .0020    66.2500    46.1914     2.0352  1785.0000
 1524.5060    14.9297  2624.0000     -.0078    67.5625    45.5566     2.0234  1790.0000
 1524.6584    14.8594  2624.0000     -.0078    71.3750    47.4609     2.0352  1810.0000
 1524.8108    14.9844  2622.0000      .0015    75.5625    44.6289     2.0449  1795.0000
 1524.9632    15.1562  2622.0000      .0024    71.0625    47.2656     2.0527  1780.0000
 1525.1156    15.1719  2624.0000      .0078    74.1250    44.0430     2.0527  1765.0000
 1525.2680    15.2031  2624.0000     -.0005    75.3750    46.9727     2.0332  1780.0000
 1525.4204    15.2266  2624.0000      .0146    79.0625    48.8770     2.0410  1790.0000
 1525.5728    15.3281  2626.0000      .0083    76.9375    52.1973     2.0293  1810.0000
 1525.7252    15.3750  2624.0000      .0098    71.0000    46.3867     2.0449  1805.0000
 1525.8776    15.6016  2622.0000      .0088    72.7500    45.4590     2.0469  1805.0000
 1526.0300    15.5703  2622.0000      .0083    69.6250    43.6523     2.0586  1805.0000
 1526.1824    15.4844  2622.0000      .0049    71.5000    44.5801     2.0527  1805.0000
 1526.3348    15.6250  2622.0000      .0117    67.3750    42.0410     2.0664  1795.0000
 1526.4872    15.5000  2622.0000      .0098    67.3750    41.8457     2.0645  1775.0000
 1526.6396    15.3516  2622.0000      .0200    63.2812    47.5586     2.0723  1785.0000
 1526.7920    15.3594  2622.0000      .0176    64.6875    48.5840     2.0625  1785.0000
 1526.9444    15.3203  2622.0000      .0327    62.2813    50.6348     2.0762  1780.0000
 1527.0968    15.2969  2624.0000      .0215    65.9375    48.8770     2.0703  1790.0000
