~VERSION INFORMATION
VERS.                                                 2.0:   CWLS Log ASCII Standard-VERSION 2.0
WRAP.                                                  NO:   One line per depth step
~Well Information Block
STRT.M                                           556.4612:   Top Depth
STOP.M                                          2953.5608:   Bottom Depth
STEP.M                                             .15240:   Depth Increment
NULL.                                            -999.250:   Null Value
FLD .                                     GAMMA STRUCTURE:   Field Name
WELL.                                             15/9-11:   NAME
WBN .                                             15/9-11:   WELLBORE
NATI.                                                 NOR:   COUNTRY
CTRY.                                                 NOR:   COUNTRY
COMP.                                             STATOIL:   OPERATOR
PROV.                                           NORTH SEA:   PROVINCE
COUN.                                            ROSS RIG:   RIG NAME
SPUD.                                          1981/09/17:   SPUD DATE
LATI.                                        58 24 2.53 N:   SURF. LATITUDE
LONG.                                        1 53 41.79 E:   SURF. LONGITUDE
PBWE.                                             15/9-11:   PB WELL ID
APIN.                                             15/9-11:   PB WELLBORE ID
PBWS.                                                 all:   PB WELL NAME SET
~PARAMETER INFORMATION (log)
LNAM.                              FDC/CNL/GR  COMPOSITED:   NAME
LTYP.                                         DEPTH MATCH:   LOG TYPE
LSRV.                                            DEN/NEUT:   LOG SERVICE
LSOU.                                             SPT/NPD:   LOG SOURCE
LVSN.                                                   1:   LOG VERSION
BHIS.                                                   R:   BRIEF HISTORY
FHIS.                                             RAW-LIS:   FULL HISTORY
LCNM.                                        SCHLUMBERGER:   LOGGING CONTRACTOR
TOOL.                             FDC/CNL/GR (COMPOSITED):   TOOL STRING
~Curve Information Block
#MNEM.UNIT                                        API CODE    No Description
#=========                                        ========    == ===========
DEPT.M                                       00 001 00 00:     1  DEPTH
CALI.IN                                                  :     2  Caliper
CS.                                                      :     3  Cable Speed
DRHO.G/CC                                                :     4  Bulk density correction
GR.GAPI                                                  :     5  Gamma Ray
NPHI.%                                                   :     6  Neutron porosity
RHOB.G/CC                                                :     7  Bulk density
TENS.LB                                                  :     8  Cable Tension
~ASCII
# ...
  709.0136    17.8281  2016.0000      .0645   105.2500  -999.2500     2.0000  1045.0000
  709.1660    17.7969  2018.0000      .0571   105.5000  -999.2500     1.9912  1060.0000
  709.3184    18.0938  2019.0000      .0479   105.1875  -999.2500     2.0156  1060.0000
  709.4708    18.1875  2022.0000      .0532   104.9375  -999.2500     2.0547  1065.0000
  709.6232    18.2813  2022.0000      .0664   108.4375  -999.2500     2.0977  1060.0000
  709.7756    18.2344  2020.0000      .0503   104.7500  -999.2500     2.1016  1065.0000
  709.9280    18.3438  2020.0000      .0317   106.1875  -999.2500     2.0801  1065.0000
  710.0804    18.4531  2019.0000      .0176   103.1875  -999.2500     2.0664  1045.0000
  710.2328    18.2031  2019.0000      .0166   107.6250  -999.2500     2.0664  1065.0000
  710.3852    18.1406  2018.0000      .0254   103.1875  -999.2500     2.0859  1050.0000
  710.5376    18.1563  2018.0000      .0225    98.4375  -999.2500     2.0918  1085.0000
  710.6900    18.2969  2017.0000      .0259    95.7500  -999.2500     2.0918  1070.0000
  710.8424    18.3438  2018.0000      .0361    94.9375  -999.2500     2.0879  1070.0000
  710.9948    18.1875  2018.0000      .0542    97.0000  -999.2500     2.1035  1075.0000
  711.1472    18.1094  2017.0000      .0464   102.1875  -999.2500     2.0918  1065.0000
  711.2996    18.1406  2016.0000      .0225   104.1875  -999.2500     2.0703  1065.0000
  711.4520    18.2031  2016.0000      .0220   103.9375  -999.2500     2.0781  1065.0000
  711.6044    18.2031  2017.0000      .0391    97.5625  -999.2500     2.1094  1055.0000
  711.7568    18.2500  2017.0000      .0435    93.0000  -999.2500     2.1172  1050.0000
  711.9092    18.2344  2016.0000      .0386    93.5625  -999.2500     2.0996  1055.0000
  712.0616    18.2188  2015.0000      .0391    97.4375  -999.2500     2.0859  1070.0000
  712.2140    18.1563  2015.0000      .0386   100.0625  -999.2500     2.0820  1060.0000
  712.3664    18.2031  2015.0000      .0464   102.1875  -999.2500     2.0918  1060.0000
  712.5188    18.2500  2016.0000      .0400   104.3125  -999.2500     2.0801  1050.0000
  712.6712    18.2969  2017.0000      .0552   103.5625  -999.2500     2.0957  1055.0000
  712.8236    18.5156  2018.0000      .0449   103.2500  -999.2500     2.0762  1070.0000
  712.9760    18.4688  2020.0000      .0391    97.6875  -999.2500     2.0703  1045.0000
  713.1284    18.3906  2022.0000      .0347   100.3125  -999.2500     2.0703  1065.0000
  713.2808    18.3438  2021.0000      .0464   100.8125  -999.2500     2.0937  1065.0000
  713.4332    18.4688  2021.0000      .0498   104.0625  -999.2500     2.1016  1065.0000
  713.5856    18.7500  2020.0000      .0444   100.6250  -999.2500     2.0918  1070.0000
  713.7380    18.6563  2019.0000      .0483    96.1875  -999.2500     2.0918  1065.0000
  713.8904    18.5781  2019.0000      .0400    98.1875  -999.2500     2.0898  1060.0000
  714.0428    18.8438  2018.0000      .0415    99.0000  -999.2500     2.0937  1055.0000
  714.1952    18.7656  2019.0000      .0205   100.4375  -999.2500     2.0723  1070.0000
  714.3476    18.6563  2019.0000      .0254    95.6250  -999.2500     2.0840  1055.0000
  714.5000    18.4844  2019.0000      .0317    99.0625  -999.2500     2.1016  1060.0000
  714.6524    18.5000  2019.0000      .0356   101.1875  -999.2500     2.1152  1050.0000
  714.8048    18.4375  2018.0000      .0459    99.3750  -999.2500     2.1191  1060.0000
  714.9572    18.3438  2017.0000      .0278    95.4375  -999.2500     2.0937  1060.0000
  715.1096    18.3281  2018.0000      .0142    89.5625  -999.2500     2.0781  1085.0000
  715.2620    18.3906  2017.0000      .0054    88.9375  -999.2500     2.0781  1065.0000
  715.4144    18.4219  2016.0000      .0103    89.0000  -999.2500     2.0918  1070.0000
  715.5668    18.7813  2016.0000      .0278    92.8750  -999.2500     2.1270  1070.0000
  715.7192    18.5469  2016.0000      .0117    93.5625  -999.2500     2.1133  1085.0000
  715.8716    18.4219  2016.0000      .0205    94.1875  -999.2500     2.1172  1085.0000
  716.0240    18.3906  2016.0000      .0083    95.8750  -999.2500     2.0898  1065.0000
  716.1764    18.4844  2017.0000      .0234    92.8750  -999.2500     2.0996  1060.0000
  716.3288    18.5625  2018.0000      .0225    87.7500  -999.2500     2.1016  1060.0000
  716.4812    18.7500  2019.0000      .0444    82.7500  -999.2500     2.1270  1080.0000
  716.6336    18.4688  2021.0000      .0527    83.0000  -999.2500     2.1309  1060.0000
  716.7860    18.3906  2021.0000      .0469    83.8125  -999.2500     2.1172  1080.0000
  716.9384    18.4219  2021.0000      .0410    85.3125  -999.2500     2.1133  1090.0000
  717.0908    18.4219  2022.0000      .0220    86.0000  -999.2500     2.0937  1065.0000
  717.2432    18.4375  2021.0000      .0225    84.8750  -999.2500     2.0937  1080.0000
  717.3956    18.6250  2021.0000      .0283    82.1875  -999.2500     2.0937  1060.0000
  717.5480    18.6563  2019.0000      .0376    79.6250  -999.2500     2.1016  1080.0000
  717.7004    18.6875  2019.0000      .0591    82.3125  -999.2500     2.1250  1060.0000
  717.8528    18.8125  2018.0000      .0498    80.8125  -999.2500     2.1113  1070.0000
  718.0052    18.8750  2019.0000      .0654    82.5000  -999.2500     2.1250  1065.0000
  718.1576    18.9219  2019.0000      .0791    76.5625  -999.2500     2.1348  1075.0000
  718.3100    18.9688  2018.0000      .0835    77.7500  -999.2500     2.1387  1075.0000
  718.4624    18.9688  2017.0000      .0786    77.3750  -999.2500     2.1387  1055.0000
  718.6148    18.9219  2017.0000      .0571    80.9375  -999.2500     2.1172  1075.0000
  718.7672    18.9219  2016.0000      .0659    78.0000  -999.2500     2.1250  1075.0000
  718.9196    18.9688  2015.0000      .0483    75.7500  -999.2500     2.0937  1065.0000
  719.0720    18.9688  2014.0000      .0288    75.1875  -999.2500     2.0684  1090.0000
  719.2244    18.9063  2013.0000      .0391    79.3125  -999.2500     2.0645  1075.0000
  719.3768    18.7344  2014.0000      .0386    77.8750  -999.2500     2.0566  1065.0000
  719.5292    18.8438  2014.0000      .0483    74.4375  -999.2500     2.0625  1065.0000
  719.6816    18.9844  2013.0000      .0376    69.3750  -999.2500     2.0586  1070.0000
  719.8340    18.5156  2013.0000      .0547    69.3750  -999.2500     2.0781  1065.0000
  719.9864    18.3438  2015.0000      .0376    70.8125  -999.2500     2.0586  1075.0000
  720.1388    18.3281  2017.0000      .0537    73.2500  -999.2500     2.0742  1075.0000
  720.2912    18.4375  2018.0000      .0459    73.8125  -999.2500     2.0664  1045.0000
  720.4436    18.4219  2016.0000      .0498    74.7500  -999.2500     2.0781  1085.0000
  720.5960    18.3594  2015.0000      .0298    76.0000  -999.2500     2.0566  1060.0000
  720.7484    18.3906  2014.0000      .0625    75.3125  -999.2500     2.0820  1075.0000
  720.9008    18.6563  2015.0000      .0859    80.2500  -999.2500     2.0801  1060.0000
  721.0532    18.1719  2014.0000      .0718    81.0625  -999.2500     2.0508  1080.0000
  721.2056    18.1563  2015.0000      .0547    85.5000  -999.2500     2.0352  1070.0000
  721.3580    18.1406  2016.0000      .0488    83.3750  -999.2500     2.0312  1065.0000
  721.5104    18.0469  2015.0000      .0645    84.8750  -999.2500     2.0605  1070.0000
  721.6628    18.2188  2015.0000      .0488    82.3750  -999.2500     2.0586  1095.0000
  721.8152    18.1406  2012.0000      .0488    84.8125  -999.2500     2.0723  1065.0000
  721.9676    18.0313  2010.0000      .0483    85.3750  -999.2500     2.0684  1085.0000
  722.1200    18.0781  2010.0000      .0659    90.2500  -999.2500     2.0801  1085.0000
  722.2724    18.1875  2007.0000      .0625    87.5625  -999.2500     2.0645  1070.0000
  722.4248    18.0781  2005.0000      .0703    83.3750  -999.2500     2.0703  1065.0000
  722.5772    18.3594  2002.0000      .0479    78.1250  -999.2500     2.0449  1075.0000
  722.7296    18.1094  1999.0000      .0371    80.8125  -999.2500     2.0371  1070.0000
