~VERSION INFORMATION
VERS.                                                 2.0:   CWLS Log ASCII Standard-VERSION 2.0
WRAP.                                                  NO:   One line per depth step
~Well Information Block
STRT.M                                           556.4612:   Top Depth
STOP.M                                          2953.5608:   Bottom Depth
STEP.M                                             .15240:   Depth Increment
NULL.                                            -999.250:   Null Value
FLD .                                     GAMMA STRUCTURE:   Field Name
WELL.                                             15/9-11:   NAME
WBN .                                             15/9-11:   WELLBORE
NATI.                                                 NOR:   COUNTRY
CTRY.                                                 NOR:   COUNTRY
COMP.                                             STATOIL:   OPERATOR
PROV.                                           NORTH SEA:   PROVINCE
COUN.                                            ROSS RIG:   RIG NAME
SPUD.                                          1981/09/17:   SPUD DATE
LATI.                                        58 24 2.53 N:   SURF. LATITUDE
LONG.                                        1 53 41.79 E:   SURF. LONGITUDE
PBWE.                                             15/9-11:   PB WELL ID
APIN.                                             15/9-11:   PB WELLBORE ID
PBWS.                                                 all:   PB WELL NAME SET
~PARAMETER INFORMATION (log)
LNAM.                              FDC/CNL/GR  COMPOSITED:   NAME
LTYP.                                         DEPTH MATCH:   LOG TYPE
LSRV.                                            DEN/NEUT:   LOG SERVICE
LSOU.                                             SPT/NPD:   LOG SOURCE
LVSN.                                                   1:   LOG VERSION
BHIS.                                                   R:   BRIEF HISTORY
FHIS.                                             RAW-LIS:   FULL HISTORY
LCNM.                                        SCHLUMBERGER:   LOGGING CONTRACTOR
TOOL.                             FDC/CNL/GR (COMPOSITED):   TOOL STRING
~Curve Information Block
#MNEM.UNIT                                        API CODE    No Description
#=========                                        ========    == ===========
DEPT.M                                       00 001 00 00:     1  DEPTH
CALI.IN                                                  :     2  Caliper
CS.                                                      :     3  Cable Speed
DRHO.G/CC                                                :     4  Bulk density correction
GR.GAPI                                                  :     5  Gamma Ray
NPHI.%                                                   :     6  Neutron porosity
RHOB.G/CC                                                :     7  Bulk density
TENS.LB                                                  :     8  Cable Tension
~ASCII
# ...
 1346.9600    12.7812  2642.0000      .0337    71.1875    52.4414     1.8896  1625.0000
 1347.1124    12.7500  2644.0000      .0146    73.1875    55.3711     1.8896  1645.0000
 1347.2648    13.3047  2644.0000      .0259    72.3125    52.4902     1.9277  1635.0000
 1347.4172    12.5313  2646.0000      .0342    75.6250    51.3184     1.9443  1625.0000
 1347.5696    12.6094  2650.0000      .0586    72.1250    48.8770     1.9766  1630.0000
 1347.7220    12.6250  2650.0000      .0601    72.6875    49.6094     1.9678  1645.0000
 1347.8744    12.7734  2648.0000      .0469    74.0625    55.4687     1.9590  1650.0000
 1348.0268    13.2734  2648.0000      .0454    72.4375    56.2988     1.9492  1615.0000
 1348.1792    13.1016  2644.0000      .0356    78.0625    54.6875     1.9404  1635.0000
 1348.3316    13.5234  2642.0000      .0454    76.0000    51.8066     1.9277  1680.0000
 1348.4840    12.8281  2642.0000      .0664    84.9375    52.8320     1.9297  1645.0000
 1348.6364    12.8438  2642.0000      .0586    78.8750    56.0547     1.8965  1645.0000
 1348.7888    12.5078  2644.0000      .0488    80.5000    53.4180     1.8877  1675.0000
 1348.9412    13.1719  2644.0000      .0142    75.8125    54.3457     1.8721  1675.0000
 1349.0936    12.7500  2646.0000     -.0010    80.3750    49.7559     1.8779  1635.0000
 1349.2460    12.3516  2646.0000     -.0049    77.1250    51.9531     1.8945  1665.0000
 1349.3984    12.4844  2644.0000     -.0059    77.1250    50.9277     1.9004  1685.0000
 1349.5508    12.4766  2644.0000      .0020    78.6250    56.2988     1.9258  1660.0000
 1349.7032    12.5469  2644.0000      .0054    85.1250    54.2969     1.9297  1635.0000
 1349.8556    12.5078  2642.0000      .0146    80.2500    52.4902     1.9502  1635.0000
 1350.0080    12.4297  2640.0000      .0254    74.3750    46.1914     1.9688  1660.0000
 1350.1604    12.7344  2640.0000      .0176    70.9375    46.8750     1.9648  1630.0000
 1350.3128    12.8438  2640.0000      .0234    74.3750    49.2187     1.9707  1630.0000
 1350.4652    12.6953  2642.0000      .0098    76.5625    52.2949     1.9609  1655.0000
 1350.6176    12.6484  2644.0000      .0103    78.0625    51.7090     1.9814  1635.0000
 1350.7700    12.4844  2646.0000     -.0015    83.1875    50.6348     1.9814  1625.0000
 1350.9224    12.1875  2648.0000      .0068    80.1875    49.5605     1.9971  1635.0000
 1351.0748    11.9297  2648.0000      .0078    78.5625    51.3184     2.0078  1680.0000
 1351.2272    11.8359  2646.0000      .0127    74.6250    51.8066     2.0273  1665.0000
 1351.3796    12.0156  2646.0000     -.0044    80.6250    52.0020     2.0254  1670.0000
 1351.5320    12.1641  2644.0000     -.0059    82.5000    49.3652     2.0391  1665.0000
 1351.6844    12.1562  2642.0000      .0010    80.8125    50.4883     2.0586  1665.0000
 1351.8368    12.4297  2640.0000      .0225    80.0625    47.9004     2.0723  1665.0000
 1351.9892    12.1094  2640.0000      .0303    79.8750    47.9004     2.0547  1675.0000
 1352.1416    11.8594  2640.0000      .0176    81.5000    49.8535     2.0117  1695.0000
 1352.2940    12.0078  2644.0000      .0176    85.5000    49.5605     1.9873  1685.0000
 1352.4464    12.2031  2644.0000      .0093    83.3125    54.6875     1.9629  1695.0000
 1352.5988    12.2812  2644.0000      .0083    80.5625    53.2715     1.9531  1675.0000
 1352.7512    12.4531  2644.0000     -.0068    75.2500    55.1758     1.9424  1665.0000
 1352.9036    12.2578  2642.0000     -.0093    80.5000    54.3945     1.9414  1665.0000
 1353.0560    12.2266  2642.0000     -.0073    89.5000    53.9062     1.9346  1645.0000
 1353.2084    12.2266  2642.0000     -.0029    90.5625    58.5449     1.9287  1615.0000
 1353.3608    12.4062  2640.0000     -.0005    91.6875    55.2246     1.9199  1670.0000
 1353.5132    12.2344  2640.0000     -.0024    88.0625    57.7637     1.9229  1660.0000
 1353.6656    12.1875  2640.0000      .0122    88.3125    54.7363     1.9346  1670.0000
 1353.8180    12.1875  2642.0000      .0181    83.9375    52.9785     1.9521  1660.0000
 1353.9704    12.3359  2644.0000      .0200    79.9375    50.6836     1.9580  1645.0000
 1354.1228    12.4297  2646.0000      .0137    77.0625    50.5371     1.9551  1665.0000
 1354.2752    12.5000  2650.0000      .0117    74.6875    54.9805     1.9404  1685.0000
 1354.4276    12.5781  2648.0000      .0239    81.0625    55.2246     1.9453  1660.0000
 1354.5800    12.5859  2646.0000      .0225    84.0000    55.9082     1.9482  1655.0000
 1354.7324    12.3125  2644.0000      .0312    86.8125    56.2988     1.9619  1655.0000
 1354.8848    12.2344  2642.0000      .0078    84.0625    53.5156     1.9453  1660.0000
 1355.0372    12.2344  2640.0000     -.0034    83.5000    52.4414     1.9414  1660.0000
 1355.1896    12.2500  2640.0000     -.0054    83.6875    47.5098     1.9443  1645.0000
 1355.3420    12.2500  2640.0000     -.0034    82.2500    50.2441     1.9395  1635.0000
 1355.4944    12.2344  2642.0000      .0093    86.4375    49.5117     1.9404  1655.0000
 1355.6468    12.2891  2644.0000      .0103    80.5000    57.4707     1.9346  1665.0000
 1355.7992    12.3594  2644.0000      .0059    78.0000    58.4473     1.9180  1670.0000
 1355.9516    12.3594  2644.0000     -.0073    73.8125    59.7656     1.8887  1680.0000
 1356.1040    12.3047  2644.0000     -.0063    79.1875    55.4687     1.8857  1685.0000
 1356.2564    12.2734  2644.0000     -.0059    81.1875    50.9277     1.9004  1650.0000
 1356.4088    12.3047  2642.0000     -.0010    81.0000    51.4160     1.9248  1645.0000
 1356.5612    12.2109  2642.0000     -.0088    77.1875    51.7090     1.9160  1655.0000
 1356.7136    12.2266  2640.0000     -.0132    75.4375    56.2500     1.8984  1645.0000
 1356.8660    12.2266  2640.0000     -.0088    73.3125    53.2227     1.8975  1625.0000
 1357.0184    12.2578  2642.0000     -.0073    76.3125    55.0781     1.9102  1650.0000
 1357.1708    12.2734  2642.0000     -.0034    76.4375    51.2695     1.9268  1660.0000
 1357.3232    12.3125  2644.0000     -.0049    79.0625    51.9043     1.9355  1615.0000
 1357.4756    12.3125  2646.0000     -.0024    78.0625    47.5586     1.9326  1635.0000
 1357.6280    12.2109  2648.0000      .0063    77.0625    48.4375     1.9453  1665.0000
 1357.7804    12.1875  2646.0000      .0005    76.1250    49.7070     1.9248  1680.0000
 1357.9328    12.6563  2646.0000      .0039    78.5625    53.3203     1.9199  1680.0000
 1358.0852    12.9766  2646.0000     -.0039    81.3750    56.1523     1.9004  1660.0000
 1358.2376    12.3359  2644.0000     -.0044    84.2500    57.2754     1.8936  1680.0000
 1358.3900    12.3125  2642.0000     -.0088    81.8125    56.7383     1.8994  1670.0000
 1358.5424    12.2734  2640.0000     -.0044    81.0625    59.3262     1.9063  1640.0000
 1358.6948    12.2109  2640.0000      .0107    77.8750    56.5918     1.9336  1655.0000
 1358.8472    12.1797  2640.0000      .0181    82.0625    59.1797     1.9346  1660.0000
 1358.9996    12.3281  2642.0000      .0181    85.5000    53.1738     1.9297  1630.0000
 1359.1520    12.3984  2642.0000     -.0024    84.9375    54.2969     1.9014  1630.0000
 1359.3044    12.3828  2642.0000     -.0010    83.3750    51.4648     1.9033  1670.0000
 1359.4568    12.4531  2642.0000     -.0063    80.0625    52.7344     1.8994  1680.0000
 1359.6092    12.5000  2642.0000     -.0034    83.6250    55.0781     1.9082  1665.0000
 1359.7616    12.6563  2642.0000     -.0078    86.0000    55.6152     1.9004  1675.0000
 1359.9140    12.5234  2640.0000     -.0005    83.2500    56.6406     1.9063  1715.0000
 1360.0664    12.4297  2640.0000      .0005    77.5625    57.6660     1.8936  1670.0000
 1360.2188    12.3359  2640.0000      .0029    73.6250    56.1523     1.8965  1650.0000
 1360.3712    12.3516  2642.0000     -.0059    75.6250    53.4668     1.8809  1685.0000
 1360.5236    12.3516  2644.0000     -.0039    75.6250    51.2207     1.8926  1670.0000
 1360.6760    12.3281  2646.0000      .0005    74.0000    54.2480     1.8984  1645.0000
