~VERSION INFORMATION
VERS.                                                 2.0:   CWLS Log ASCII Standard-VERSION 2.0
WRAP.                                                  NO:   One line per depth step
~Well Information Block
STRT.M                                           556.4612:   Top Depth
STOP.M                                          2953.5608:   Bottom Depth
STEP.M                                             .15240:   Depth Increment
NULL.                                            -999.250:   Null Value
FLD .                                     GAMMA STRUCTURE:   Field Name
WELL.                                             15/9-11:   NAME
WBN .                                             15/9-11:   WELLBORE
NATI.                                                 NOR:   COUNTRY
CTRY.                                                 NOR:   COUNTRY
COMP.                                             STATOIL:   OPERATOR
PROV.                                           NORTH SEA:   PROVINCE
COUN.                                            ROSS RIG:   RIG NAME
SPUD.                                          1981/09/17:   SPUD DATE
LATI.                                        58 24 2.53 N:   SURF. LATITUDE
LONG.                                        1 53 41.79 E:   SURF. LONGITUDE
PBWE.                                             15/9-11:   PB WELL ID
APIN.                                             15/9-11:   PB WELLBORE ID
PBWS.                                                 all:   PB WELL NAME SET
~PARAMETER INFORMATION (log)
LNAM.                              FDC/CNL/GR  COMPOSITED:   NAME
LTYP.                                         DEPTH MATCH:   LOG TYPE
LSRV.                                            DEN/NEUT:   LOG SERVICE
LSOU.                                             SPT/NPD:   LOG SOURCE
LVSN.                                                   1:   LOG VERSION
BHIS.                                                   R:   BRIEF HISTORY
FHIS.                                             RAW-LIS:   FULL HISTORY
LCNM.                                        SCHLUMBERGER:   LOGGING CONTRACTOR
TOOL.                             FDC/CNL/GR (COMPOSITED):   TOOL STRING
~Curve Information Block
#MNEM.UNIT                                        API CODE    No Description
#=========                                        ========    == ===========
DEPT.M                                       00 001 00 00:     1  DEPTH
CALI.IN                                                  :     2  Caliper
CS.                                                      :     3  Cable Speed
DRHO.G/CC                                                :     4  Bulk density correction
GR.GAPI                                                  :     5  Gamma Ray
NPHI.%                                                   :     6  Neutron porosity
RHOB.G/CC                                                :     7  Bulk density
TENS.LB                                                  :     8  Cable Tension
~ASCII
# ...
 1832.3540    12.2500  2698.0000      .0303    73.3125    52.1484     2.0820  2074.0000
 1832.5064    12.2500  2700.0000      .0220    75.8125    52.0508     2.0625  2060.0000
 1832.6588    12.2500  2700.0000      .0010    78.0000    51.8066     2.0273  2064.0000
 1832.8112    12.2344  2700.0000      .0029    81.4375    51.2207     2.0312  2064.0000
 1832.9636    12.2266  2700.0000      .0200    77.5625    52.2461     2.0586  2054.0000
 1833.1160    12.2031  2700.0000      .0195    74.8750    59.9609     2.0586  2045.0000
 1833.2684    12.2031  2700.0000      .0303    75.6250    56.3477     2.0664  2064.0000
 1833.4208    12.1797  2698.0000      .0283    81.0625    57.4707     2.0625  2070.0000
 1833.5732    12.0547  2700.0000      .0630    79.1875    47.7051     2.0957  2090.0000
 1833.7256    12.1016  2700.0000      .0469    77.6875    50.6348     2.0781  2080.0000
 1833.8780    12.2578  2700.0000      .0337    69.6875    48.0469     2.0840  2090.0000
 1834.0304    12.3594  2702.0000     -.0049    69.5625    47.3145     2.0957  2090.0000
 1834.1828    12.3984  2704.0000     -.0005    69.8750    47.7539     2.1504  2080.0000
 1834.3352    12.3359  2706.0000      .0098    69.6250    46.0937     2.1973  2080.0000
 1834.4876    12.3359  2704.0000      .0356    71.1250    49.6094     2.1953  2054.0000
 1834.6400    12.3359  2704.0000      .0142    69.7500    47.7051     2.1387  2070.0000
 1834.7924    12.3359  2700.0000     -.0029    71.8750    50.0977     2.0918  2084.0000
 1834.9448    12.3359  2700.0000     -.0020    70.8750    53.4668     2.0879  2074.0000
 1835.0972    12.3281  2700.0000      .0088    70.1875    55.8594     2.0898  2094.0000
 1835.2496    12.2734  2698.0000      .0034    69.8750    55.5176     2.0723  2104.0000
 1835.4020    12.2734  2698.0000      .0059    71.0625    51.3672     2.0703  2084.0000
 1835.5544    12.2578  2698.0000      .0146    67.6875    49.3652     2.0781  2094.0000
 1835.7068    12.2500  2700.0000      .0332    69.1875    53.5645     2.1074  2064.0000
 1835.8592    12.2344  2702.0000      .0352    72.4375    59.0332     2.1055  2080.0000
 1836.0116    12.2344  2702.0000      .0220    78.6875    61.1816     2.0996  2084.0000
 1836.1640    12.2344  2700.0000     -.0010    80.5000    56.1523     2.0684  2070.0000
 1836.3164    12.2578  2700.0000     -.0034    75.3125    47.0703     2.0840  2074.0000
 1836.4688    12.2500  2700.0000      .0005    69.2500    46.9727     2.0859  2064.0000
 1836.6212    12.1875  2698.0000      .0234    64.5625    50.8301     2.1172  2074.0000
 1836.7736    12.1328  2700.0000      .0327    65.2500    52.1484     2.1172  2070.0000
 1836.9260    12.1797  2698.0000      .0386    69.8125    50.8301     2.1172  2080.0000
 1837.0784    12.2344  2698.0000      .0391    76.5000    49.3164     2.1074  2080.0000
 1837.2308    12.2578  2700.0000      .0200    81.0000    50.7812     2.0898  2094.0000
 1837.3832    12.2500  2702.0000      .0029    82.3750    49.3652     2.0840  2120.0000
 1837.5356    12.2344  2704.0000     -.0020    78.5000    46.2402     2.0977  2110.0000
 1837.6880    12.2344  2706.0000      .0034    73.8125    48.0957     2.1035  2100.0000
 1837.8404    12.2344  2704.0000      .0146    72.0625    50.5371     2.1211  2094.0000
 1837.9928    12.2344  2706.0000      .0137    73.8125    52.9785     2.1152  2064.0000
 1838.1452    12.2344  2704.0000      .0161    76.7500    50.8301     2.1191  2074.0000
 1838.2976    12.2344  2704.0000      .0054    77.0625    47.1680     2.0898  2070.0000
 1838.4500    12.2578  2700.0000      .0210    77.4375    51.6602     2.1074  2084.0000
 1838.6024    12.2734  2698.0000      .0161    80.5000    52.4414     2.1035  2094.0000
 1838.7548    12.2812  2698.0000      .0176    79.5000    56.1035     2.1172  2070.0000
 1838.9072    12.2344  2698.0000      .0181    81.1250    47.1191     2.1250  2064.0000
 1839.0596    12.2344  2696.0000      .0200    74.8125    50.0488     2.1211  2090.0000
 1839.2120    12.2266  2696.0000      .0137    77.8750    50.2930     2.1094  2100.0000
 1839.3644    12.2266  2694.0000     -.0020    76.0625    56.1523     2.0859  2094.0000
 1839.5168    12.2266  2692.0000     -.0093    81.6250    56.9336     2.0801  2084.0000
 1839.6692    12.2344  2690.0000     -.0049    84.6875    56.0059     2.0840  2074.0000
 1839.8216    12.2344  2688.0000     -.0039    85.0625    53.4668     2.0898  2094.0000
 1839.9740    12.2500  2688.0000     -.0049    79.9375    47.3145     2.1621  2104.0000
 1840.1264    12.2344  2688.0000      .0425    72.8750    45.8496     2.3301  2094.0000
 1840.2788    12.2344  2688.0000      .0786    74.4375    45.4102     2.4141  2084.0000
 1840.4312    12.2500  2690.0000      .1089    80.8125    45.4102     2.3437  2090.0000
 1840.5836    12.2500  2692.0000      .0371    82.6250    47.1191     2.1699  2090.0000
 1840.7360    12.2500  2694.0000      .0151    86.2500    43.5059     2.0996  2064.0000
 1840.8884    12.2344  2694.0000      .0137    80.3125    47.7539     2.1016  2074.0000
 1841.0408    12.2344  2696.0000      .0186    87.6875    45.4102     2.1074  2080.0000
 1841.1932    12.2344  2694.0000      .0308    85.1250    50.6836     2.1289  2090.0000
 1841.3456    12.2266  2694.0000      .0303    88.1875    50.4883     2.1191  2074.0000
 1841.4980    12.2812  2694.0000      .0244    83.7500    52.2461     2.0996  2050.0000
 1841.6504    12.2812  2692.0000      .0449    79.1875    53.3203     2.1172  2064.0000
 1841.8028    12.2812  2692.0000      .0137    80.6875    51.8555     2.0840  2074.0000
 1841.9552    12.2891  2690.0000      .0093    75.6875    52.8809     2.0762  2104.0000
 1842.1076    12.3281  2690.0000      .0029    80.1875    51.7578     2.0801  2114.0000
 1842.2600    12.3828  2692.0000      .0190    72.9375    53.4180     2.1172  2124.0000
 1842.4124    13.0156  2692.0000      .0283    70.7500    51.4648     2.1660  2144.0000
 1842.5648    12.4375  2692.0000      .0225    65.5625    50.1953     2.1797  2134.0000
 1842.7172    12.5078  2692.0000      .0210    67.8750    45.0684     2.1562  2104.0000
 1842.8696    12.5078  2692.0000      .0249    68.7500    47.4121     2.1406  2110.0000
 1843.0220    12.5234  2690.0000      .0088    66.8750    47.9980     2.1094  2114.0000
 1843.1744    12.5469  2690.0000      .0122    65.8750    51.5137     2.1133  2084.0000
 1843.3268    12.5313  2690.0000      .0039    68.0625    50.5859     2.0937  2064.0000
 1843.4792    12.5078  2688.0000      .0063    68.8750    49.9023     2.0703  2114.0000
 1843.6316    12.5781  2688.0000      .0210    70.1875    49.0234     2.0430  2150.0000
 1843.7840    12.8438  2690.0000      .0562    72.9375    54.6875     2.0156  2104.0000
 1843.9364    13.5000  2690.0000      .0903    70.6875    55.3711     1.9824  2090.0000
 1844.0888    13.6719  2694.0000      .0542    73.8750    56.3477     1.9307  2094.0000
 1844.2412    12.3594  2696.0000      .0181    72.1875    54.4434     1.9258  2080.0000
 1844.3936    12.3516  2694.0000     -.0059    79.6250    55.9570     1.9766  2074.0000
 1844.5460    12.3594  2694.0000      .0010    78.1875    59.0332     2.0449  2100.0000
 1844.6984    12.3828  2692.0000      .0107    77.1875    54.4922     2.0762  2144.0000
 1844.8508    12.4375  2692.0000      .0327    73.9375    58.1055     2.0977  2094.0000
 1845.0032    12.4844  2690.0000      .0483    75.0000    53.4180     2.0996  2070.0000
 1845.1556    12.5000  2690.0000      .0361    77.0000    56.0059     2.0859  2084.0000
 1845.3080    12.3828  2688.0000      .0269    76.1875    49.4141     2.0801  2080.0000
 1845.4604    12.3281  2688.0000      .0127    74.0000    47.3145     2.0703  2080.0000
 1845.6128    12.3125  2690.0000      .0225    74.3125    44.2871     2.0742  2074.0000
 1845.7652    12.3594  2690.0000      .0239    76.0000    45.4590     2.0859  2110.0000
 1845.9176    12.3750  2688.0000      .0254    81.8125    51.9043     2.0879  2110.0000
 1846.0700    12.4062  2690.0000      .0244    80.1875    57.9102     2.0859  2110.0000
