~VERSION INFORMATION
VERS.                                                 2.0:   CWLS Log ASCII Standard-VERSION 2.0
WRAP.                                                  NO:   One line per depth step
~Well Information Block
STRT.M                                           556.4612:   Top Depth
STOP.M                                          2953.5608:   Bottom Depth
STEP.M                                             .15240:   Depth Increment
NULL.                                            -999.250:   Null Value
FLD .                                     GAMMA STRUCTURE:   Field Name
WELL.                                             15/9-11:   NAME
WBN .                                             15/9-11:   WELLBORE
NATI.                                                 NOR:   COUNTRY
CTRY.                                                 NOR:   COUNTRY
COMP.                                             STATOIL:   OPERATOR
PROV.                                           NORTH SEA:   PROVINCE
COUN.                                            ROSS RIG:   RIG NAME
SPUD.                                          1981/09/17:   SPUD DATE
LATI.                                        58 24 2.53 N:   SURF. LATITUDE
LONG.                                        1 53 41.79 E:   SURF. LONGITUDE
PBWE.                                             15/9-11:   PB WELL ID
APIN.                                             15/9-11:   PB WELLBORE ID
PBWS.                                                 all:   PB WELL NAME SET
~PARAMETER INFORMATION (log)
LNAM.                              FDC/CNL/GR  COMPOSITED:   NAME
LTYP.                                         DEPTH MATCH:   LOG TYPE
LSRV.                                            DEN/NEUT:   LOG SERVICE
LSOU.                                             SPT/NPD:   LOG SOURCE
LVSN.                                                   1:   LOG VERSION
BHIS.                                                   R:   BRIEF HISTORY
FHIS.                                             RAW-LIS:   FULL HISTORY
LCNM.                                        SCHLUMBERGER:   LOGGING CONTRACTOR
TOOL.                             FDC/CNL/GR (COMPOSITED):   TOOL STRING
~Curve Information Block
#MNEM.UNIT                                        API CODE    No Description
#=========                                        ========    == ===========
DEPT.M                                       00 001 00 00:     1  DEPTH
CALI.IN                                                  :     2  Caliper
CS.                                                      :     3  Cable Speed
DRHO.G/CC                                                :     4  Bulk density correction
GR.GAPI                                                  :     5  Gamma Ray
NPHI.%                                                   :     6  Neutron porosity
RHOB.G/CC                                                :     7  Bulk density
TENS.LB                                                  :     8  Cable Tension
~ASCII
# ...
 2941.8260     8.7969  1991.0000      .0894    89.5625    31.7871     2.2285  3130.0000
 2941.9784     8.7969  1990.0000     -.0015    87.0000    29.7363     2.1523  3084.0000
 2942.1308     9.0156  1990.0000      .0239    89.6875    27.7832     2.2383  3084.0000
 2942.2832     8.7734  1989.0000      .0698    90.8750    25.9277     2.2969  3104.0000
 2942.4356     9.2266  1990.0000      .0991    95.0000    23.5840     2.3750  3090.0000
 2942.5880     8.3984  1989.0000      .0366   103.0625    25.4883     2.3711  3124.0000
 2942.7404     8.3906  1990.0000      .0332   102.5000    25.1465     2.4492  3120.0000
 2942.8928     8.3906  1991.0000      .0527   102.1250    26.3184     2.4805  3114.0000
 2943.0452     8.3594  1992.0000      .0718    95.6875    26.4648     2.5098  3044.0000
 2943.1976     8.3594  1992.0000      .0718    97.5625    26.6113     2.4883  3050.0000
 2943.3500     8.7266  1993.0000      .0498   100.4375    26.7090     2.4219  3090.0000
 2943.5024     8.3672  1991.0000      .0361   103.2500    25.7813     2.3691  3244.0000
 2943.6548     8.3750  1990.0000      .0068   100.9375    24.6582     2.3223  3194.0000
 2943.8072     8.4922  1990.0000     -.0029    96.5000    22.5098     2.3223  3160.0000
 2943.9596     8.5000  1989.0000     -.0015    94.6250    21.6797     2.3359  3100.0000
 2944.1120     8.4844  1989.0000      .0840    94.9375    22.3145     2.3965  3054.0000
 2944.2644     8.6094  1989.0000      .1050    92.8750    23.0957     2.3477  3054.0000
 2944.4168     8.4844  1989.0000      .0918    90.1875    23.1934     2.2695  3190.0000
 2944.5692     8.7109  1990.0000      .0317    86.2500    24.3652     2.2207  3154.0000
 2944.7216     8.4453  1991.0000     -.0024    89.1250    24.6582     2.2402  3120.0000
 2944.8740     8.5469  1991.0000     -.0024    90.9375    24.5117     2.3184  3074.0000
 2945.0264     8.3359  1992.0000     -.0059    95.6250    23.0469     2.3555  3054.0000
 2945.1788     8.4844  1990.0000      .0205    94.7500    23.4375     2.4160  3060.0000
 2945.3312     8.4297  1989.0000      .0132    98.5000    23.8281     2.4297  3050.0000
 2945.4836     8.4766  1988.0000      .0269    45.5313    23.8770     2.4336  3074.0000
 2945.6360     8.4531  1989.0000      .0220    -5.8242    23.5352     2.4297  3084.0000
 2945.7884     8.4844  1990.0000      .0273   -61.4375    22.9004     2.4199  3080.0000
 2945.9408     8.5234  1990.0000      .0317   -61.4375    24.2188     2.4316  3050.0000
 2946.0932     8.9687  1991.0000      .0391   -61.4375    23.9746     2.4453  3074.0000
 2946.2456     8.5234  1991.0000      .0464   -61.4375    24.4629     2.4473  3080.0000
 2946.3980     8.1719  1992.0000      .0356   -61.4375    23.7305     2.3398  3094.0000
 2946.5504     6.9023  1990.0000      .0181   -61.4375    24.3652     2.2383  3080.0000
 2946.7028     5.5508  1988.0000      .0112   -61.4375    25.4883     2.1875  3070.0000
 2946.8552     5.2422  1986.0000      .0137   -61.4375    26.8555     2.1914  3110.0000
 2947.0076     5.2578  1984.0000      .0322   -61.4375    27.3438     2.2090  3230.0000
 2947.1600     5.3281  1983.0000      .0601   -61.4375    29.3945     2.2344  3134.0000
 2947.3124     5.5273  1983.0000      .0439   -61.4375    28.5156     2.2422  3144.0000
 2947.4648     5.6641  1983.0000      .0278   -61.4375    28.1738     2.2676  3224.0000
 2947.6172     5.8477  1985.0000      .0190   -61.4375    25.7813     2.2754  3240.0000
 2947.7696     6.0195  1985.0000      .0327   -61.4375    26.7578     2.2891  3310.0000
 2947.9220     6.1211  1984.0000      .0410   -61.4375    26.6602     2.2832  3304.0000
 2948.0744     6.1836  1983.0000      .0347   -61.4375    27.4414     2.2852  3324.0000
 2948.2268     6.2187  1983.0000      .0308   -61.4375    26.7090     2.2832  3370.0000
 2948.3792     6.2305  1983.0000      .0332   -61.4375    26.7090     2.3047  3374.0000
 2948.5316     6.2344  1983.0000      .0356   -61.4375    26.7090     2.3145  3364.0000
 2948.6840     6.1836  1984.0000      .0459   -61.4375    26.7090     2.3359  3364.0000
 2948.8364     6.1445  1985.0000      .0488   -61.4375    26.7578     2.3418  3314.0000
 2948.9888     6.1133  1986.0000      .0400   -61.4375    26.8066     2.3301  3280.0000
 2949.1412     6.1133  1988.0000      .0264   -61.4375    26.8066     2.3223  3224.0000
 2949.2936     6.1094  1988.0000      .0356   -61.4375    26.8066     2.3301  3184.0000
 2949.4460     6.1133  1989.0000      .0396   -61.4375    26.8066     2.3359  3140.0000
 2949.5984     6.1094  1988.0000      .0405   -61.4375    26.8066     2.3223  3084.0000
 2949.7508     6.1094  1986.0000      .0454   -61.4375    26.8066     2.3223  3030.0000
 2949.9032     6.0859  1985.0000      .0522   -61.4375    26.8066     2.3418  2970.0000
 2950.0556     6.0859  1983.0000      .0469   -61.4375    26.8066     2.3437  2914.0000
 2950.2080     6.0820  1982.0000      .0327   -61.4375    26.8066     2.3340  2894.0000
 2950.3604     6.0820  1982.0000      .0488   -61.4375    26.8066     2.3379  2830.0000
 2950.5128     6.0742  1982.0000      .0581   -61.4375    26.8066     2.3457  2774.0000
 2950.6652     6.0742  1982.0000      .0576   -61.4375    26.8066     2.3437  2724.0000
 2950.8176     6.0742  1982.0000      .0449   -61.4375    26.8066     2.3379  2674.0000
 2950.9700     6.0391  1981.0000      .0430   -61.4375    26.8555     2.3359  2630.0000
 2951.1224     6.0391  1979.0000      .0464   -61.4375    26.8555     2.3301  2594.0000
 2951.2748     6.0391  1978.0000      .0391   -61.4375    26.8555     2.3145  2514.0000
 2951.4272     6.0078  1975.0000      .0474   -61.4375    26.9043     2.3184  2504.0000
 2951.5796     6.0078  1974.0000      .0430   -61.4375    26.9043     2.3242  2504.0000
 2951.7320     5.9766  1974.0000      .0444   -61.4375    26.9043     2.3262  2514.0000
 2951.8844     5.9766  1975.0000      .0303   -61.4375    26.9043     2.3105  2504.0000
 2952.0368     5.9375  1976.0000      .0288   -61.4375    26.9531     2.3047  2504.0000
 2952.1892     5.9453  1975.0000      .0254   -61.4375    26.9531     2.2949  2504.0000
 2952.3416     5.9102  1969.0000      .0396   -61.4375    26.9531     2.3047  2494.0000
 2952.4940     5.8750  1962.0000      .0430   -61.4375    27.0020     2.3027  2500.0000
 2952.6464     5.8711  1950.0000     -.2197   -61.4375    27.0020     2.4277  2504.0000
 2952.7988     5.8164  1936.0000  -999.2500   -61.4375    27.0508  -999.2500  2500.0000
 2952.9512     5.8164  1924.0000  -999.2500   -61.4375    27.0508  -999.2500  2510.0000
 2953.1036     5.8164  1410.0000  -999.2500   -61.4375    27.0508  -999.2500  2490.0000
 2953.2560     5.8164  1358.0000  -999.2500   -61.4375    27.0508  -999.2500  2480.0000
 2953.4084     5.8164  1320.0000  -999.2500   -61.4375    27.0508  -999.2500  2494.0000
 2953.5608     5.8164  1296.0000  -999.2500   -61.4375    27.0508  -999.2500  2494.0000
