~VERSION INFORMATION
VERS.                                                 2.0:   CWLS Log ASCII Standard-VERSION 2.0
WRAP.                                                  NO:   One line per depth step
~Well Information Block
STRT.M                                           556.4612:   Top Depth
STOP.M                                          2953.5608:   Bottom Depth
STEP.M                                             .15240:   Depth Increment
NULL.                                            -999.250:   Null Value
FLD .                                     GAMMA STRUCTURE:   Field Name
WELL.                                             15/9-11:   NAME
WBN .                                             15/9-11:   WELLBORE
NATI.                                                 NOR:   COUNTRY
CTRY.                                                 NOR:   COUNTRY
COMP.                                             STATOIL:   OPERATOR
PROV.                                           NORTH SEA:   PROVINCE
COUN.                                            ROSS RIG:   RIG NAME
SPUD.                                          1981/09/17:   SPUD DATE
LATI.                                        58 24 2.53 N:   SURF. LATITUDE
LONG.                                        1 53 41.79 E:   SURF. LONGITUDE
PBWE.                                             15/9-11:   PB WELL ID
APIN.                                             15/9-11:   PB WELLBORE ID
PBWS.                                                 all:   PB WELL NAME SET
~PARAMETER INFORMATION (log)
LNAM.                              FDC/CNL/GR  COMPOSITED:   NAME
LTYP.                                         DEPTH MATCH:   LOG TYPE
LSRV.                                            DEN/NEUT:   LOG SERVICE
LSOU.                                             SPT/NPD:   LOG SOURCE
LVSN.                                                   1:   LOG VERSION
BHIS.                                                   R:   BRIEF HISTORY
FHIS.                                             RAW-LIS:   FULL HISTORY
LCNM.                                        SCHLUMBERGER:   LOGGING CONTRACTOR
TOOL.                             FDC/CNL/GR (COMPOSITED):   TOOL STRING
~Curve Information Block
#MNEM.UNIT                                        API CODE    No Description
#=========                                        ========    == ===========
DEPT.M                                       00 001 00 00:     1  DEPTH
CALI.IN                                                  :     2  Caliper
CS.                                                      :     3  Cable Speed
DRHO.G/CC                                                :     4  Bulk density correction
GR.GAPI                                                  :     5  Gamma Ray
NPHI.%                                                   :     6  Neutron porosity
RHOB.G/CC                                                :     7  Bulk density
TENS.LB                                                  :     8  Cable Tension
~ASCII
# ...
 1984.9064    12.2578  2648.0000      .0220    60.9062    50.6348     2.1270  2244.0000
 1985.0588    12.2031  2648.0000      .0322    61.9688    50.6836     2.1367  2244.0000
 1985.2112    12.1875  2648.0000      .0332    61.2813    50.6836     2.1406  2234.0000
 1985.3636    12.1797  2644.0000      .0361    63.3125    47.4121     2.1406  2234.0000
 1985.5160    12.1641  2644.0000      .0098    61.5000    48.8770     2.1094  2214.0000
 1985.6684    12.2031  2644.0000      .0112    59.7188    48.5352     2.1152  2204.0000
 1985.8208    12.2031  2642.0000      .0024    57.9375    46.9727     2.0977  2214.0000
 1985.9732    12.2344  2644.0000      .0029    58.2812    46.4844     2.0918  2220.0000
 1986.1256    12.2344  2644.0000      .0176    62.0312    51.3184     2.0937  2210.0000
 1986.2780    12.2578  2644.0000      .0127    62.3437    59.6680     2.0801  2220.0000
 1986.4304    12.2500  2644.0000      .0024    62.4687    59.2285     2.0664  2224.0000
 1986.5828    12.2266  2644.0000      .0034    55.2812    54.0527     2.0918  2220.0000
 1986.7352    12.0625  2644.0000     -.0039    54.3750    49.3652     2.0820  2204.0000
 1986.8876    12.0781  2644.0000      .0039    55.5313    47.5098     2.0898  2200.0000
 1987.0400    12.1797  2642.0000      .0059    55.8750    49.3652     2.0684  2220.0000
 1987.1924    12.2266  2642.0000      .0146    57.1875    48.3887     2.0781  2214.0000
 1987.3448    12.2578  2642.0000      .0225    52.1250    51.1719     2.0898  2194.0000
 1987.4972    12.2578  2642.0000      .0142    58.9688    49.0723     2.0879  2204.0000
 1987.6496    12.2734  2644.0000      .0205    55.4375    51.0254     2.0957  2224.0000
 1987.8020    12.3125  2646.0000      .0142    58.5937    54.3457     2.0996  2224.0000
 1987.9544    12.3125  2646.0000     -.0122    55.1875    54.7363     2.1094  2224.0000
 1988.1068    12.2578  2648.0000     -.0078    54.5938    52.3437     2.1621  2260.0000
 1988.2592    12.1797  2648.0000      .0044    57.3750    46.0937     2.2148  2254.0000
 1988.4116    12.2031  2648.0000      .0337    56.2813    45.7520     2.1934  2244.0000
 1988.5640    12.2578  2648.0000      .0303    57.6875    45.9473     2.1406  2254.0000
 1988.7164    12.3281  2644.0000      .0063    56.3125    47.6562     2.0723  2240.0000
 1988.8688    12.3281  2644.0000      .0088    54.9063    43.8965     2.0703  2220.0000
 1989.0212    12.3047  2642.0000     -.0049    57.2500    44.6289     2.0508  2204.0000
 1989.1736    12.2578  2642.0000     -.0020    53.3125    40.9668     2.0547  2220.0000
 1989.3260    12.2578  2644.0000     -.0063    55.7812    47.1191     2.0488  2184.0000
 1989.4784    12.2500  2646.0000      .0005    54.0625    48.3398     2.0527  2154.0000
 1989.6308    12.1875  2646.0000      .0049    55.2812    51.4160     2.0605  2170.0000
 1989.7832    12.1797  2644.0000      .0205    56.7813    54.1504     2.0820  2210.0000
 1989.9356    12.1797  2644.0000      .0171    55.5000    52.5879     2.0977  2220.0000
 1990.0880    12.2109  2644.0000      .0063    57.5313    57.1289     2.0801  2210.0000
 1990.2404    12.2578  2644.0000     -.0054    56.1875    56.3477     2.0781  2220.0000
 1990.3928    12.2578  2644.0000      .0044    61.0000    56.2500     2.0879  2210.0000
 1990.5452    12.2734  2644.0000      .0166    62.7188    49.7070     2.1152  2224.0000
 1990.6976    12.2734  2644.0000      .0269    65.6250    45.1172     2.1250  2224.0000
 1990.8500    12.2578  2644.0000      .0020    66.8750    42.7246     2.1035  2214.0000
 1991.0024    12.2734  2646.0000      .0049    64.3750    45.2148     2.1016  2194.0000
 1991.1548    12.2578  2648.0000      .0283    62.1250    45.9473     2.1016  2214.0000
 1991.3072    12.3047  2648.0000      .0459    58.4688    50.0977     2.0957  2234.0000
 1991.4596    12.3047  2648.0000      .0190    58.2188    48.5840     2.0566  2244.0000
 1991.6120    12.3359  2648.0000     -.0068    56.7187    49.3652     2.0410  2230.0000
 1991.7644    12.3281  2646.0000     -.0107    59.7813    48.2910     2.0566  2194.0000
 1991.9168    12.3125  2646.0000     -.0063    65.0000    52.0996     2.0762  2210.0000
 1992.0692    12.3516  2644.0000      .0034    67.6875    53.6133     2.0918  2194.0000
 1992.2216    12.3828  2644.0000      .0044    65.5000    56.7871     2.0879  2194.0000
 1992.3740    12.3750  2644.0000      .0044    61.9688    51.7090     2.0801  2200.0000
 1992.5264    12.3281  2644.0000      .0015    56.7500    48.5352     2.0937  2194.0000
 1992.6788    12.3750  2644.0000      .0005    58.9375    43.8477     2.0937  2184.0000
 1992.8312    12.4766  2646.0000      .0098    57.6875    54.6875     2.1035  2194.0000
 1992.9836    12.4375  2646.0000      .0078    59.6250    54.1016     2.0840  2214.0000
 1993.1360    12.3750  2646.0000      .0190    55.2188    56.1035     2.0957  2234.0000
 1993.2884    12.3281  2646.0000      .0142    54.1563    49.4141     2.0898  2234.0000
 1993.4408    12.3594  2644.0000      .0181    54.7813    57.9102     2.0957  2230.0000
 1993.5932    12.3047  2644.0000      .0073    58.2500    53.7598     2.0918  2244.0000
 1993.7456    12.3281  2644.0000      .0122    58.8125    47.7539     2.1094  2234.0000
 1993.8980    12.3594  2644.0000      .0098    62.1875    42.9687     2.1094  2224.0000
 1994.0504    12.3594  2644.0000      .0122    62.8125    46.2402     2.0977  2210.0000
 1994.2028    12.3828  2646.0000      .0015    64.5625    49.9023     2.0840  2204.0000
 1994.3552    12.3750  2646.0000      .0122    61.8125    47.7539     2.0801  2224.0000
 1994.5076    12.3516  2648.0000      .0156    57.2500    49.4629     2.0781  2224.0000
 1994.6600    12.2578  2650.0000      .0186    59.3437    52.3926     2.0762  2224.0000
 1994.8124    12.2578  2650.0000     -.0024    56.5938    51.4648     2.0723  2234.0000
 1994.9648    12.2578  2648.0000     -.0088    57.9687    49.0723     2.0723  2210.0000
 1995.1172    12.2578  2648.0000     -.0034    53.8125    45.8984     2.0781  2190.0000
 1995.2696    12.2812  2646.0000     -.0010    55.8125    45.8496     2.0762  2204.0000
 1995.4220    12.2891  2644.0000      .0024    57.1562    50.8301     2.0742  2220.0000
 1995.5744    12.2891  2644.0000     -.0020    56.4062    50.0000     2.0762  2210.0000
 1995.7268    12.2891  2644.0000     -.0039    57.8125    49.8047     2.0859  2214.0000
 1995.8792    12.3047  2644.0000      .0063    57.4375    44.3359     2.1074  2210.0000
 1996.0316    12.3047  2646.0000      .0059    59.9375    47.4609     2.1035  2214.0000
 1996.1840    12.3359  2646.0000      .0010    61.0937    49.2676     2.0879  2214.0000
 1996.3364    12.3750  2646.0000     -.0063    58.1250    51.5625     2.0625  2224.0000
 1996.4888    12.3594  2646.0000     -.0039    55.0313    52.6855     2.0527  2230.0000
 1996.6412    12.2891  2644.0000      .0015    54.0000    52.2949     2.0527  2214.0000
 1996.7936    12.2109  2646.0000     -.0005    59.5312    51.1719     2.0605  2204.0000
 1996.9460    12.2031  2644.0000     -.0054    63.5937    47.3633     2.0605  2200.0000
 1997.0984    12.2500  2644.0000      .0356    63.1250    48.6328     2.0918  2190.0000
 1997.2508    12.2734  2646.0000      .0581    61.3125    48.9258     2.0879  2194.0000
 1997.4032    12.2578  2646.0000      .0693    63.4062    49.9512     2.0898  2214.0000
 1997.5556    12.2266  2648.0000      .0181    64.5625    51.3184     2.0547  2214.0000
 1997.7080    12.2344  2650.0000      .0151    64.3125    48.1445     2.0937  2200.0000
 1997.8604    12.2344  2650.0000      .0078    61.2813    50.6348     2.1133  2214.0000
 1998.0128    12.2266  2650.0000      .0088    61.2813    49.3164     2.1191  2214.0000
 1998.1652    12.2266  2648.0000     -.0020    61.2813    52.8320     2.1074  2224.0000
 1998.3176    12.2500  2646.0000      .0049    60.1875    51.7578     2.1074  2214.0000
 1998.4700    12.2344  2646.0000      .0024    57.6875    52.0508     2.1035  2200.0000
 1998.6224    12.2812  2644.0000     -.0015    54.1250    55.4687     2.0977  2194.0000
