~VERSION INFORMATION
VERS.                                                 2.0:   CWLS Log ASCII Standard-VERSION 2.0
WRAP.                                                  NO:   One line per depth step
~Well Information Block
STRT.M                                           556.4612:   Top Depth
STOP.M                                          2953.5608:   Bottom Depth
STEP.M                                             .15240:   Depth Increment
NULL.                                            -999.250:   Null Value
FLD .                                     GAMMA STRUCTURE:   Field Name
WELL.                                             15/9-11:   NAME
WBN .                                             15/9-11:   WELLBORE
NATI.                                                 NOR:   COUNTRY
CTRY.                                                 NOR:   COUNTRY
COMP.                                             STATOIL:   OPERATOR
PROV.                                           NORTH SEA:   PROVINCE
COUN.                                            ROSS RIG:   RIG NAME
SPUD.                                          1981/09/17:   SPUD DATE
LATI.                                        58 24 2.53 N:   SURF. LATITUDE
LONG.                                        1 53 41.79 E:   SURF. LONGITUDE
PBWE.                                             15/9-11:   PB WELL ID
APIN.                                             15/9-11:   PB WELLBORE ID
PBWS.                                                 all:   PB WELL NAME SET
~PARAMETER INFORMATION (log)
LNAM.                              FDC/CNL/GR  COMPOSITED:   NAME
LTYP.                                         DEPTH MATCH:   LOG TYPE
LSRV.                                            DEN/NEUT:   LOG SERVICE
LSOU.                                             SPT/NPD:   LOG SOURCE
LVSN.                                                   1:   LOG VERSION
BHIS.                                                   R:   BRIEF HISTORY
FHIS.                                             RAW-LIS:   FULL HISTORY
LCNM.                                        SCHLUMBERGER:   LOGGING CONTRACTOR
TOOL.                             FDC/CNL/GR (COMPOSITED):   TOOL STRING
~Curve Information Block
#MNEM.UNIT                                        API CODE    No Description
#=========                                        ========    == ===========
DEPT.M                                       00 001 00 00:     1  DEPTH
CALI.IN                                                  :     2  Caliper
CS.                                                      :     3  Cable Speed
DRHO.G/CC                                                :     4  Bulk density correction
GR.GAPI                                                  :     5  Gamma Ray
NPHI.%                                                   :     6  Neutron porosity
RHOB.G/CC                                                :     7  Bulk density
TENS.LB                                                  :     8  Cable Tension
~ASCII
# ...
 1027.9868    22.7188  1935.0000      .0449    25.7813  -999.2500     1.4893  1335.0000
 1028.1392    22.7188  1935.0000      .0503    26.9063  -999.2500     1.4902  1335.0000
 1028.2916    22.7188  1935.0000      .0493    29.5938  -999.2500     1.4863  1345.0000
 1028.4440    22.7188  1935.0000      .0571    30.4531  -999.2500     1.4980  1330.0000
 1028.5964    22.7188  1937.0000      .0576    27.9844  -999.2500     1.5049  1350.0000
 1028.7488    22.7188  1936.0000      .0620    26.3125  -999.2500     1.5156  1335.0000
 1028.9012    22.7188  1936.0000      .0508    23.8281  -999.2500     1.5010  1350.0000
 1029.0536    22.7188  1936.0000      .0596    26.2656  -999.2500     1.4971  1325.0000
 1029.2060    22.7188  1935.0000      .0498    28.6719  -999.2500     1.4639  1335.0000
 1029.3584    22.7188  1935.0000      .0439    30.0469  -999.2500     1.4277  1345.0000
 1029.5108    22.7188  1936.0000      .0127    28.1719  -999.2500     1.3711  1345.0000
 1029.6632    22.7188  1936.0000     -.0015    27.1094  -999.2500     1.3418  1355.0000
 1029.8156    22.7188  1935.0000     -.0078    28.0000  -999.2500     1.3271  1340.0000
 1029.9680    22.7188  1935.0000     -.0044    27.1406  -999.2500     1.3281  1355.0000
 1030.1204    22.7188  1937.0000     -.0024    27.9219  -999.2500     1.3232  1350.0000
 1030.2728    22.7188  1938.0000     -.0015    27.2656  -999.2500     1.3213  1355.0000
 1030.4252    22.7188  1938.0000     -.0039    28.3750  -999.2500     1.3174  1355.0000
 1030.5776    22.7188  1936.0000     -.0059    27.0469  -999.2500     1.3184  1355.0000
 1030.7300    22.7188  1936.0000     -.0088    27.3438  -999.2500     1.3184  1345.0000
 1030.8824    22.7188  1935.0000     -.0103    24.3594  -999.2500     1.3174  1340.0000
 1031.0348    22.7188  1937.0000     -.0083    24.3281  -999.2500     1.3184  1340.0000
 1031.1872    22.7188  1936.0000     -.0107    24.6406  -999.2500     1.3125  1335.0000
 1031.3396    22.7188  1936.0000     -.0146    26.8437  -999.2500     1.3037  1350.0000
 1031.4920    22.7188  1935.0000     -.0161    28.5469  -999.2500     1.3008  1345.0000
 1031.6444    22.7188  1935.0000     -.0117    28.5156  -999.2500     1.3037  1355.0000
 1031.7968    22.7188  1935.0000     -.0044    27.7188  -999.2500     1.3115  1350.0000
 1031.9492    22.7188  1936.0000     -.0054    26.6094  -999.2500     1.3096  1345.0000
 1032.1016    22.7188  1938.0000     -.0039    25.2500  -999.2500     1.3115  1350.0000
 1032.2540    22.7188  1936.0000     -.0054    26.8594  -999.2500     1.3115  1340.0000
 1032.4064    22.7188  1934.0000     -.0078    25.7656  -999.2500     1.3115  1340.0000
 1032.5588    22.7188  1934.0000     -.0098    25.1875  -999.2500     1.3115  1350.0000
 1032.7112    22.7188  1934.0000     -.0083    24.8750  -999.2500     1.3135  1345.0000
 1032.8636    22.7188  1935.0000     -.0049    25.4688  -999.2500     1.3164  1335.0000
 1033.0160    22.7188  1935.0000     -.0010    24.7344  -999.2500     1.3242  1350.0000
 1033.1684    22.7188  1936.0000     -.0034    23.7344  -999.2500     1.3281  1345.0000
 1033.3208    22.7188  1935.0000     -.0044    23.1406  -999.2500     1.3350  1355.0000
 1033.4732    22.7188  1936.0000     -.0044    25.7500  -999.2500     1.3428  1340.0000
 1033.6256    22.7188  1937.0000     -.0020    27.5938  -999.2500     1.3516  1350.0000
 1033.7780    22.7188  1938.0000      .0073    27.6094  -999.2500     1.3643  1350.0000
 1033.9304    22.7188  1936.0000      .0122    27.9375  -999.2500     1.3682  1345.0000
 1034.0828    22.7188  1936.0000      .0078    27.8906  -999.2500     1.3604  1350.0000
 1034.2352    22.7188  1936.0000     -.0029    28.1406  -999.2500     1.3457  1355.0000
 1034.3876    22.7188  1935.0000     -.0054    28.1094  -999.2500     1.3379  1345.0000
 1034.5400    22.7188  1934.0000     -.0020    26.2344  -999.2500     1.3330  1350.0000
 1034.6924    22.7188  1934.0000     -.0029    25.4688  -999.2500     1.3252  1355.0000
 1034.8448    22.7188  1934.0000     -.0059    25.0000  -999.2500     1.3164  1350.0000
 1034.9972    22.7188  1934.0000     -.0103    26.0938  -999.2500     1.3086  1360.0000
 1035.1496    22.7188  1934.0000     -.0122    27.2031  -999.2500     1.3037  1335.0000
 1035.3020    22.7188  1935.0000     -.0137    26.6250  -999.2500     1.2998  1350.0000
 1035.4544    22.7188  1935.0000     -.0190    29.6250  -999.2500     1.2939  1350.0000
 1035.6068    22.7188  1935.0000     -.0190    28.7187  -999.2500     1.2910  1360.0000
 1035.7592    22.7188  1935.0000     -.0137    30.1094  -999.2500     1.2939  1355.0000
 1035.9116    22.7188  1933.0000     -.0088    28.4375  -999.2500     1.2959  1355.0000
 1036.0640    22.7188  1933.0000     -.0054    28.9844  -999.2500     1.3008  1355.0000
 1036.2164    22.7188  1934.0000     -.0122    26.4844  -999.2500     1.2949  1340.0000
 1036.3688    22.7188  1935.0000     -.0132    24.1250  -999.2500     1.2920  1355.0000
 1036.5212    22.7188  1935.0000     -.0107    24.6719  -999.2500     1.2900  1335.0000
 1036.6736    22.7188  1936.0000     -.0078    24.7188  -999.2500     1.2939  1380.0000
 1036.8260    22.7188  1936.0000     -.0068    24.7500  -999.2500     1.2959  1350.0000
 1036.9784    22.7188  1937.0000     -.0103    23.6250  -999.2500     1.2969  1375.0000
 1037.1308    22.7188  1938.0000     -.0107    24.3906  -999.2500     1.2920  1355.0000
 1037.2832    22.7188  1938.0000     -.0117    25.4375  -999.2500     1.2930  1355.0000
 1037.4356    22.7188  1938.0000     -.0146    26.0000  -999.2500     1.2900  1355.0000
 1037.5880    22.7188  1937.0000     -.0176    26.3125  -999.2500     1.2910  1345.0000
 1037.7404    22.7188  1937.0000     -.0181    27.0781  -999.2500     1.2920  1355.0000
 1037.8928    22.7188  1937.0000     -.0142    26.7969  -999.2500     1.2930  1365.0000
 1038.0452    22.7188  1936.0000     -.0098    27.0625  -999.2500     1.2959  1360.0000
 1038.1976    22.7188  1937.0000     -.0083    24.6719  -999.2500     1.2959  1380.0000
 1038.3500    22.7188  1937.0000     -.0098    24.9687  -999.2500     1.2949  1360.0000
 1038.5024    22.7188  1937.0000     -.0166    25.5313  -999.2500     1.2861  1345.0000
 1038.6548    22.7188  1938.0000     -.0151    25.7813  -999.2500     1.2871  1365.0000
 1038.8072    22.7188  1939.0000     -.0151    26.3281  -999.2500     1.2871  1345.0000
 1038.9596    22.7188  1938.0000     -.0132    26.6094  -999.2500     1.2900  1345.0000
 1039.1120    22.7188  1936.0000     -.0142    26.3281  -999.2500     1.2891  1365.0000
 1039.2644    22.7188  1935.0000     -.0132    24.4219  -999.2500     1.2900  1375.0000
 1039.4168    22.7188  1934.0000     -.0107    24.0938  -999.2500     1.2959  1345.0000
 1039.5692    22.7188  1936.0000     -.0132    26.7969  -999.2500     1.2939  1360.0000
 1039.7216    22.7188  1936.0000     -.0107    26.7656  -999.2500     1.2969  1345.0000
 1039.8740    22.7188  1935.0000     -.0107    25.5313  -999.2500     1.2959  1355.0000
 1040.0264    22.7188  1935.0000     -.0093    23.6719  -999.2500     1.2959  1370.0000
 1040.1788    22.7188  1936.0000     -.0103    24.2344  -999.2500     1.2930  1350.0000
 1040.3312    22.7188  1937.0000     -.0103    24.4531  -999.2500     1.2920  1345.0000
 1040.4836    22.7188  1938.0000     -.0112    25.7969  -999.2500     1.2910  1345.0000
 1040.6360    22.7188  1939.0000     -.0068    25.2500  -999.2500     1.2979  1370.0000
 1040.7884    22.7188  1938.0000     -.0078    24.4219  -999.2500     1.2979  1360.0000
 1040.9408    22.7188  1937.0000     -.0093    26.5625  -999.2500     1.2949  1360.0000
 1041.0932    22.7188  1937.0000     -.0117    28.4219  -999.2500     1.2930  1365.0000
 1041.2456    22.7188  1935.0000     -.0142    29.4688  -999.2500     1.2891  1335.0000
 1041.3980    22.7188  1935.0000     -.0146    26.5156  -999.2500     1.2891  1350.0000
 1041.5504    22.7188  1935.0000     -.0186    26.5781  -999.2500     1.2832  1375.0000
 1041.7028    22.7188  1936.0000     -.0132    25.2969  -999.2500     1.2861  1360.0000
