~VERSION INFORMATION
VERS.                                                 2.0:   CWLS Log ASCII Standard-VERSION 2.0
WRAP.                                                  NO:   One line per depth step
~Well Information Block
STRT.M                                           556.4612:   Top Depth
STOP.M                                          2953.5608:   Bottom Depth
STEP.M                                             .15240:   Depth Increment
NULL.                                            -999.250:   Null Value
FLD .                                     GAMMA STRUCTURE:   Field Name
WELL.                                             15/9-11:   NAME
WBN .                                             15/9-11:   WELLBORE
NATI.                                                 NOR:   COUNTRY
CTRY.                                                 NOR:   COUNTRY
COMP.                                             STATOIL:   OPERATOR
PROV.                                           NORTH SEA:   PROVINCE
COUN.                                            ROSS RIG:   RIG NAME
SPUD.                                          1981/09/17:   SPUD DATE
LATI.                                        58 24 2.53 N:   SURF. LATITUDE
LONG.                                        1 53 41.79 E:   SURF. LONGITUDE
PBWE.                                             15/9-11:   PB WELL ID
APIN.                                             15/9-11:   PB WELLBORE ID
PBWS.                                                 all:   PB WELL NAME SET
~PARAMETER INFORMATION (log)
LNAM.                              FDC/CNL/GR  COMPOSITED:   NAME
LTYP.                                         DEPTH MATCH:   LOG TYPE
LSRV.                                            DEN/NEUT:   LOG SERVICE
LSOU.                                             SPT/NPD:   LOG SOURCE
LVSN.                                                   1:   LOG VERSION
BHIS.                                                   R:   BRIEF HISTORY
FHIS.                                             RAW-LIS:   FULL HISTORY
LCNM.                                        SCHLUMBERGER:   LOGGING CONTRACTOR
TOOL.                             FDC/CNL/GR (COMPOSITED):   TOOL STRING
~Curve Information Block
#MNEM.UNIT                                        API CODE    No Description
#=========                                        ========    == ===========
DEPT.M                                       00 001 00 00:     1  DEPTH
CALI.IN                                                  :     2  Caliper
CS.                                                      :     3  Cable Speed
DRHO.G/CC                                                :     4  Bulk density correction
GR.GAPI                                                  :     5  Gamma Ray
NPHI.%                                                   :     6  Neutron porosity
RHOB.G/CC                                                :     7  Bulk density
TENS.LB                                                  :     8  Cable Tension
~ASCII
# ...
 2303.8796    14.8047  2588.0000      .1533   101.5625    44.9219     2.3945  2494.0000
 2304.0320    14.8359  2588.0000      .0991   111.6875    44.3359     2.2559  2490.0000
 2304.1844    14.4922  2588.0000      .0776   105.8125    43.2617     2.2187  2500.0000
 2304.3368    14.4531  2588.0000      .0737   101.6250    46.3867     2.2168  2500.0000
 2304.4892    14.4141  2590.0000      .0684    83.1250    49.9512     2.2363  2510.0000
 2304.6416    14.5156  2590.0000      .0518    75.1875    48.1445     2.2305  2524.0000
 2304.7940    14.5625  2590.0000      .0269    68.6875    46.2402     2.2109  2530.0000
 2304.9464    14.5391  2588.0000      .0273    73.5000    44.5312     2.1914  2510.0000
 2305.0988    14.8047  2588.0000      .0439    75.1250    47.1680     2.1816  2504.0000
 2305.2512    15.0859  2588.0000      .0649    68.8750    45.6543     2.2051  2464.0000
 2305.4036    14.8516  2588.0000      .0576    67.3750    44.4336     2.1953  2480.0000
 2305.5560    14.2422  2588.0000      .0615    62.4687    40.6738     2.1973  2460.0000
 2305.7084    14.2656  2588.0000      .0576    68.5625    41.7480     2.1816  2470.0000
 2305.8608    14.3125  2590.0000      .0361    66.6250    41.5527     2.1582  2480.0000
 2306.0132    14.5078  2590.0000      .0493    68.2500    43.9453     2.1719  2484.0000
 2306.1656    14.3047  2592.0000      .0322    65.2500    47.5586     2.1504  2500.0000
 2306.3180    14.3594  2592.0000      .0923    60.1562    46.8262     2.1914  2500.0000
 2306.4704    14.4531  2592.0000      .0879    60.9062    45.8008     2.1855  2534.0000
 2306.6228    14.4687  2590.0000      .0894    64.6250    42.9687     2.1777  2540.0000
 2306.7752    14.6094  2590.0000      .0410    73.3750    43.6035     2.1562  2524.0000
 2306.9276    14.6016  2588.0000      .0059    76.3125    43.3594     2.1328  2504.0000
 2307.0800    14.4844  2588.0000     -.0034    72.5000    44.3848     2.1582  2500.0000
 2307.2324    14.4375  2588.0000     -.0229    63.6250    47.6562     2.1680  2504.0000
 2307.3848    14.8594  2588.0000      .0093    58.2188    44.6777     2.2832  2520.0000
 2307.5372    14.5547  2590.0000      .0688    53.9062    39.8438     2.3770  2534.0000
 2307.6896    15.2266  2592.0000      .1201    55.0625    35.7910     2.3574  2500.0000
 2307.8420    15.3281  2592.0000      .1113    56.2187    38.6230     2.2539  2464.0000
 2307.9944    15.5937  2590.0000      .0825    56.6250    43.1152     2.1777  2450.0000
 2308.1468    15.4531  2590.0000      .0757    60.3438    45.3125     2.1914  2464.0000
 2308.2992    14.8594  2588.0000      .0454    60.2500    45.3613     2.1758  2514.0000
 2308.4516    14.3047  2590.0000      .0503    65.5625    44.5801     2.1875  2540.0000
 2308.6040    14.2109  2588.0000      .0532    70.0000    44.9707     2.1738  2570.0000
 2308.7564    14.5078  2588.0000      .0415    68.6875    44.6289     2.1426  2510.0000
 2308.9088    14.1641  2590.0000      .0190    70.0625    44.4336     2.1016  2470.0000
 2309.0612    14.0703  2590.0000      .0259    70.0625    40.8203     2.1133  2460.0000
 2309.2136    13.7969  2590.0000      .0400    72.1250    40.7715     2.1426  2484.0000
 2309.3660    13.9141  2590.0000      .1104    69.3750    40.9180     2.2285  2500.0000
 2309.5184    14.0078  2590.0000      .1475    59.4688    43.6035     2.2383  2484.0000
 2309.6708    14.0859  2588.0000      .1572    56.8125    45.8984     2.1777  2484.0000
 2309.8232    14.0625  2588.0000      .0923    56.1250    52.3437     2.0762  2504.0000
 2309.9756    13.9609  2588.0000      .0430    64.3125    53.9551     2.0391  2524.0000
 2310.1280    14.1094  2586.0000     -.0024    66.9375    51.5137     2.0645  2540.0000
 2310.2804    14.6406  2586.0000     -.0078    68.6250    44.6777     2.1621  2540.0000
 2310.4328    14.3203  2586.0000      .0234    67.4375    44.4336     2.2539  2504.0000
 2310.5852    14.0391  2586.0000      .0596    65.4375    45.2148     2.2852  2480.0000
 2310.7376    13.9922  2588.0000      .0664    62.8125    42.7246     2.2402  2484.0000
 2310.8900    13.9687  2588.0000      .0835    62.3125    40.0391     2.2207  2494.0000
 2311.0424    14.2812  2586.0000      .1230    63.4688    37.1094     2.2422  2490.0000
 2311.1948    14.4687  2586.0000      .1284    61.1563    39.5020     2.2207  2494.0000
 2311.3472    14.2422  2584.0000      .0713    58.7187    41.6992     2.1543  2514.0000
 2311.4996    14.3906  2586.0000      .0537    57.6250    44.4824     2.1367  2530.0000
 2311.6520    14.4063  2586.0000      .0630    57.5625    44.1406     2.1758  2520.0000
 2311.8044    14.7812  2586.0000      .1133    56.0937    40.5273     2.2305  2514.0000
 2311.9568    14.7031  2586.0000      .1021    52.2500    38.2324     2.2246  2510.0000
 2312.1092    14.8125  2586.0000      .1421    53.8750    35.5957     2.2363  2520.0000
 2312.2616    14.7109  2588.0000      .1182    53.8750    36.7676     2.2070  2514.0000
 2312.4140    14.6406  2590.0000      .1250    54.6562    40.6738     2.2012  2500.0000
 2312.5664    14.7500  2592.0000      .0791    55.4375    42.5293     2.1562  2500.0000
 2312.7188    14.4531  2590.0000      .0083    52.0625    45.3613     2.1230  2494.0000
 2312.8712    14.5312  2590.0000      .0347    50.3125    40.9180     2.2305  2510.0000
 2313.0236    14.5625  2588.0000      .1211    47.8750    40.7227     2.3594  2504.0000
 2313.1760    14.9141  2588.0000      .2354    49.5312    37.7441     2.4121  2504.0000
 2313.3284    14.7031  2586.0000      .1631    53.2188    36.8652     2.2676  2500.0000
 2313.4808    14.8594  2584.0000      .1104    54.9063    33.6426     2.1699  2490.0000
 2313.6332    14.7812  2584.0000      .0767    52.1875    35.9375     2.1016  2464.0000
 2313.7856    14.4063  2584.0000      .1108    47.4375    37.0605     2.1094  2500.0000
 2313.9380    14.6875  2584.0000      .0869    49.6250    40.6738     2.0703  2520.0000
 2314.0904    14.4375  2586.0000      .0781    54.8750    42.7246     2.0820  2524.0000
 2314.2428    14.4922  2584.0000      .0532    62.8438    48.3887     2.0937  2510.0000
 2314.3952    14.8281  2586.0000      .0552    58.0000    48.8770     2.1465  2504.0000
 2314.5476    14.8125  2586.0000      .1025    56.1563    45.4102     2.2207  2530.0000
 2314.7000    14.6328  2584.0000      .1138    50.6563    40.1367     2.2422  2554.0000
 2314.8524    14.5859  2584.0000      .1245    49.8750    35.8398     2.2461  2550.0000
 2315.0048    14.4687  2584.0000      .1494    48.1563    36.6211     2.2715  2524.0000
 2315.1572    14.7266  2584.0000      .1133    48.4062    41.4062     2.1699  2504.0000
 2315.3096    14.3828  2586.0000      .1504    50.5313    46.3379     2.1875  2530.0000
 2315.4620    14.4063  2588.0000      .1055    51.9375    44.9707     2.1211  2550.0000
 2315.6144    14.5312  2588.0000      .1426    50.3125    44.0430     2.1855  2504.0000
 2315.7668    14.5859  2590.0000      .1426    46.9063    41.1133     2.1914  2504.0000
 2315.9192    14.5391  2590.0000      .1294    48.5625    39.2090     2.1934  2494.0000
 2316.0716    14.4531  2588.0000      .1162    50.8750    35.5469     2.2012  2514.0000
 2316.2240    14.3203  2588.0000      .0747    53.5625    36.7188     2.1855  2520.0000
 2316.3764    14.4922  2586.0000      .0806    48.7813    38.1348     2.2266  2540.0000
 2316.5288    14.2344  2586.0000      .1201    44.0312    36.3281     2.2852  2564.0000
 2316.6812    14.3437  2586.0000      .1099    39.2188    35.8398     2.2500  2504.0000
 2316.8336    14.8359  2588.0000      .1177    40.1875    35.1563     2.2266  2504.0000
 2316.9860    14.6562  2588.0000      .0796    43.3125    37.3535     2.1777  2484.0000
 2317.1384    14.6328  2588.0000      .1001    44.0625    34.5215     2.1953  2490.0000
 2317.2908    14.3594  2588.0000      .0806    44.5625    43.1641     2.1543  2510.0000
 2317.4432    14.9297  2586.0000      .0918    49.3750    45.0684     2.1133  2510.0000
 2317.5956    14.6797  2588.0000      .0957    57.5625    51.3184     2.1074  2500.0000
