~VERSION INFORMATION
VERS.                                                 2.0:   CWLS Log ASCII Standard-VERSION 2.0
WRAP.                                                  NO:   One line per depth step
~Well Information Block
STRT.M                                           556.4612:   Top Depth
STOP.M                                          2953.5608:   Bottom Depth
STEP.M                                             .15240:   Depth Increment
NULL.                                            -999.250:   Null Value
FLD .                                     GAMMA STRUCTURE:   Field Name
WELL.                                             15/9-11:   NAME
WBN .                                             15/9-11:   WELLBORE
NATI.                                                 NOR:   COUNTRY
CTRY.                                                 NOR:   COUNTRY
COMP.                                             STATOIL:   OPERATOR
PROV.                                           NORTH SEA:   PROVINCE
COUN.                                            ROSS RIG:   RIG NAME
SPUD.                                          1981/09/17:   SPUD DATE
LATI.                                        58 24 2.53 N:   SURF. LATITUDE
LONG.                                        1 53 41.79 E:   SURF. LONGITUDE
PBWE.                                             15/9-11:   PB WELL ID
APIN.                                             15/9-11:   PB WELLBORE ID
PBWS.                                                 all:   PB WELL NAME SET
~PARAMETER INFORMATION (log)
LNAM.                              FDC/CNL/GR  COMPOSITED:   NAME
LTYP.                                         DEPTH MATCH:   LOG TYPE
LSRV.                                            DEN/NEUT:   LOG SERVICE
LSOU.                                             SPT/NPD:   LOG SOURCE
LVSN.                                                   1:   LOG VERSION
BHIS.                                                   R:   BRIEF HISTORY
FHIS.                                             RAW-LIS:   FULL HISTORY
LCNM.                                        SCHLUMBERGER:   LOGGING CONTRACTOR
TOOL.                             FDC/CNL/GR (COMPOSITED):   TOOL STRING
~Curve Information Block
#MNEM.UNIT                                        API CODE    No Description
#=========                                        ========    == ===========
DEPT.M                                       00 001 00 00:     1  DEPTH
CALI.IN                                                  :     2  Caliper
CS.                                                      :     3  Cable Speed
DRHO.G/CC                                                :     4  Bulk density correction
GR.GAPI                                                  :     5  Gamma Ray
NPHI.%                                                   :     6  Neutron porosity
RHOB.G/CC                                                :     7  Bulk density
TENS.LB                                                  :     8  Cable Tension
~ASCII
# ...
 1194.4076    13.9844  2700.0000     -.0034    93.4375    54.4434     1.9160  1515.0000
 1194.5600    13.9453  2700.0000     -.0088    94.5625    53.9551     1.8975  1545.0000
 1194.7124    13.9687  2700.0000     -.0049    95.2500    49.1211     1.8896  1525.0000
 1194.8648    13.8594  2700.0000     -.0054    97.5625    47.7051     1.8916  1530.0000
 1195.0172    14.0078  2700.0000      .0015    97.3750    51.7090     1.9023  1530.0000
 1195.1696    13.9219  2700.0000      .0098   101.5000    53.0273     1.9111  1535.0000
 1195.3220    13.8594  2698.0000      .0278   100.3125    52.2949     1.9209  1535.0000
 1195.4744    13.7187  2698.0000      .0278   100.0625    49.9512     1.9160  1525.0000
 1195.6268    13.7734  2700.0000      .0210    94.5000    51.8555     1.9063  1520.0000
 1195.7792    13.6406  2700.0000      .0107    93.4375    54.6387     1.8848  1530.0000
 1195.9316    13.5703  2698.0000      .0190    88.5000    54.6387     1.8887  1535.0000
 1196.0840    13.5469  2698.0000      .0303    89.0000    52.2461     1.8965  1550.0000
 1196.2364    13.5859  2698.0000      .0298    85.7500    51.7578     1.9102  1535.0000
 1196.3888    13.3281  2698.0000      .0171    85.4375    52.0996     1.9063  1545.0000
 1196.5412    13.3047  2700.0000      .0083    82.1875    54.7852     1.9063  1545.0000
 1196.6936    13.5703  2702.0000      .0039    81.7500    51.0254     1.8926  1525.0000
 1196.8460    14.1172  2702.0000      .0083    88.3750    50.5371     1.8809  1520.0000
 1196.9984    13.3047  2702.0000      .0024    89.0625    47.6074     1.8643  1530.0000
 1197.1508    13.0312  2702.0000      .0317    90.5625    48.6816     1.8955  1525.0000
 1197.3032    13.4219  2702.0000      .0376    86.9375    50.7324     1.9150  1515.0000
 1197.4556    12.8984  2700.0000      .0361    88.1250    54.9805     1.9219  1545.0000
 1197.6080    12.8984  2700.0000      .0054    81.8125    59.5215     1.9033  1510.0000
 1197.7604    12.7578  2700.0000     -.0024    78.3125    56.1035     1.8955  1505.0000
 1197.9128    12.6797  2700.0000      .0015    74.1875    52.3926     1.8936  1515.0000
 1198.0652    12.7031  2700.0000      .0044    80.5000    51.8555     1.8750  1545.0000
 1198.2176    12.7031  2698.0000     -.0010    76.6250    54.7363     1.8564  1520.0000
 1198.3700    12.7500  2698.0000      .0049    74.5000    54.8340     1.8730  1540.0000
 1198.5224    12.7344  2698.0000      .0186    70.1875    50.4395     1.9004  1540.0000
 1198.6748    12.8438  2700.0000      .0317    67.5000    47.5586     1.9180  1555.0000
 1198.8272    12.7500  2700.0000      .0181    67.5000    48.4375     1.8838  1525.0000
 1198.9796    12.8516  2698.0000      .0146    62.6562    54.7852     1.8623  1515.0000
 1199.1320    12.8203  2698.0000      .0259    65.3750    54.5410     1.8506  1510.0000
 1199.2844    12.9453  2698.0000      .0259    61.9063    55.2246     1.8359  1495.0000
 1199.4368    13.0000  2698.0000      .0317    63.6250    53.7598     1.8301  1505.0000
 1199.5892    13.0469  2698.0000      .0122    62.8438    56.6895     1.8096  1505.0000
 1199.7416    13.1250  2698.0000      .0117    62.1875    52.3926     1.8184  1520.0000
 1199.8940    13.1250  2698.0000     -.0005    62.2188    52.6367     1.8232  1555.0000
 1200.0464    13.2792  2699.5786      .0034    66.1409    48.7053     1.8456  1558.9468
 1200.1988    13.2209  2701.1567      .0044    69.3564    49.0133     1.8612  1548.4324
 1200.3512    13.1686  2702.0000      .0060    70.5694    49.0653     1.8710  1543.6812
 1200.5036    13.2093  2702.0000      .0093    69.0325    48.2403     1.8749  1546.0649
 1200.6560    13.2401  2702.0000      .0116    64.4928    52.1307     1.8695  1526.3274
 1200.8084    13.3745  2702.0000      .0139    61.3806    54.3698     1.8749  1528.6812
 1200.9608    13.5616  2702.0000      .0136    63.9249    58.4207     1.8841  1537.8887
 1201.1132    13.6358  2702.0000      .0098    68.9176    60.8856     1.8965  1538.6960
 1201.2656    13.5333  2701.7891      .0035    73.1422    59.4383     1.9106  1526.0549
 1201.4180    13.6072  2700.2119      .0043    75.6059    57.3569     1.9214  1533.9387
 1201.5704    13.6653  2700.0000      .0031    71.0200    52.3001     1.9302  1535.0000
 1201.7228    13.6653  2700.0000      .0034    67.6255    51.3931     1.9322  1527.8982
 1201.8752    13.6735  2700.0000      .0059    65.7254    52.8063     1.9245  1523.9468
 1202.0276    13.7669  2700.0000      .0103    63.8439    52.7395     1.9045  1535.0000
 1202.1800    13.7853  2700.0000      .0111    62.9072    52.8167     1.8637  1535.0000
 1202.3324    13.8334  2700.0000      .0236    60.6277    50.7662     1.8394  1541.3125
 1202.4848    13.8922  2700.0000      .0211    58.3547    49.5194     1.8124  1549.2061
 1202.6372    13.9391  2699.5791      .0060    56.7681    49.3396     1.7873  1555.0000
 1202.7896    13.9453  2698.0000     -.0010    56.2500    48.8770     1.7842  1555.0000
 1202.9420    14.2891  2698.0000     -.0059    65.2500    53.0273     1.8457  1545.0000
 1203.0944    14.3828  2696.0000      .0137    67.5000    48.4375     1.8477  1525.0000
 1203.2468    14.5391  2698.0000      .0293    67.3750    54.0527     1.8535  1500.0000
 1203.3992    14.2578  2700.0000      .0146    68.0000    50.0977     1.8389  1555.0000
 1203.5516    14.3437  2702.0000      .0117    66.8750    52.0508     1.8389  1525.0000
 1203.7040    14.5312  2702.0000     -.0059    65.4375    46.7285     1.8408  1500.0000
 1203.8564    14.5625  2702.0000     -.0024    68.3125    50.2441     1.8613  1550.0000
 1204.0088    14.5859  2702.0000     -.0039    66.0625    46.9238     1.8701  1555.0000
 1204.1612    14.6094  2702.0000      .0020    71.8750    51.0254     1.8701  1500.0000
 1204.3136    14.6094  2702.0000     -.0015    73.5625    50.7812     1.8506  1545.0000
 1204.4660    14.6328  2700.0000     -.0024    75.7500    50.5371     1.8359  1585.0000
 1204.6184    14.6562  2700.0000     -.0029    77.7500    43.5059     1.8311  1510.0000
 1204.7708    14.6875  2700.0000     -.0039    77.3750    41.8945     1.8535  1495.0000
 1204.9232    14.7031  2698.0000      .0010    79.8125    42.9687     1.8828  1605.0000
 1205.0756    15.0313  2700.0000      .0015    79.2500    42.8223     1.8965  1580.0000
 1205.2280    15.0078  2700.0000      .0029    79.1875    40.1855     1.8867  1535.0000
 1205.3804    14.6094  2700.0000      .0044    79.4375    43.5059     1.8730  1565.0000
 1205.5328    14.6016  2700.0000     -.0010    76.7500    47.5098     1.8555  1555.0000
 1205.6852    14.5859  2702.0000     -.0059    75.7500    50.3418     1.8486  1515.0000
 1205.8376    14.4844  2700.0000     -.0044    77.8125    48.5352     1.8623  1555.0000
 1205.9900    14.5625  2698.0000      .0093    78.9375    42.9199     1.8887  1570.0000
 1206.1424    14.5391  2698.0000      .0229    81.8125    45.6055     1.9023  1530.0000
 1206.2948    14.4609  2698.0000      .0093    80.0625    47.5098     1.8779  1515.0000
 1206.4472    14.5156  2700.0000     -.0117    79.3750    50.9766     1.8594  1515.0000
 1206.5996    14.9609  2698.0000     -.0156    73.2500    46.4844     1.8740  1530.0000
 1206.7520    14.3437  2698.0000     -.0054    68.9375    43.4082     1.8955  1545.0000
 1206.9044    14.4375  2700.0000      .0234    68.5000    45.8496     1.9199  1555.0000
 1207.0568    14.6094  2702.0000      .0181    69.9375    47.9492     1.9033  1555.0000
 1207.2092    14.3906  2704.0000      .0078    71.3750    49.9512     1.8975  1565.0000
 1207.3616    14.3047  2704.0000     -.0029    70.8125    47.3633     1.8984  1575.0000
 1207.5140    14.3125  2702.0000     -.0005    75.0625    48.9746     1.9121  1555.0000
 1207.6664    14.8750  2702.0000      .0000    76.5000    47.5098     1.9131  1550.0000
 1207.8188    14.1172  2702.0000     -.0010    75.0000    48.5840     1.9023  1540.0000
 1207.9712    13.9844  2702.0000      .0034    70.3750    50.0977     1.8828  1545.0000
 1208.1236    13.9609  2700.0000     -.0029    71.0625    53.9551     1.8613  1535.0000
