~VERSION INFORMATION
VERS.                                                 2.0:   CWLS Log ASCII Standard-VERSION 2.0
WRAP.                                                  NO:   One line per depth step
~Well Information Block
STRT.M                                           556.4612:   Top Depth
STOP.M                                          2953.5608:   Bottom Depth
STEP.M                                             .15240:   Depth Increment
NULL.                                            -999.250:   Null Value
FLD .                                     GAMMA STRUCTURE:   Field Name
WELL.                                             15/9-11:   NAME
WBN .                                             15/9-11:   WELLBORE
NATI.                                                 NOR:   COUNTRY
CTRY.                                                 NOR:   COUNTRY
COMP.                                             STATOIL:   OPERATOR
PROV.                                           NORTH SEA:   PROVINCE
COUN.                                            ROSS RIG:   RIG NAME
SPUD.                                          1981/09/17:   SPUD DATE
LATI.                                        58 24 2.53 N:   SURF. LATITUDE
LONG.                                        1 53 41.79 E:   SURF. LONGITUDE
PBWE.                                             15/9-11:   PB WELL ID
APIN.                                             15/9-11:   PB WELLBORE ID
PBWS.                                                 all:   PB WELL NAME SET
~PARAMETER INFORMATION (log)
LNAM.                              FDC/CNL/GR  COMPOSITED:   NAME
LTYP.                                         DEPTH MATCH:   LOG TYPE
LSRV.                                            DEN/NEUT:   LOG SERVICE
LSOU.                                             SPT/NPD:   LOG SOURCE
LVSN.                                                   1:   LOG VERSION
BHIS.                                                   R:   BRIEF HISTORY
FHIS.                                             RAW-LIS:   FULL HISTORY
LCNM.                                        SCHLUMBERGER:   LOGGING CONTRACTOR
TOOL.                             FDC/CNL/GR (COMPOSITED):   TOOL STRING
~Curve Information Block
#MNEM.UNIT                                        API CODE    No Description
#=========                                        ========    == ===========
DEPT.M                                       00 001 00 00:     1  DEPTH
CALI.IN                                                  :     2  Caliper
CS.                                                      :     3  Cable Speed
DRHO.G/CC                                                :     4  Bulk density correction
GR.GAPI                                                  :     5  Gamma Ray
NPHI.%                                                   :     6  Neutron porosity
RHOB.G/CC                                                :     7  Bulk density
TENS.LB                                                  :     8  Cable Tension
~ASCII
# ...
  875.4344    22.3750  1982.0000      .0596    34.1875  -999.2500     1.9746  1225.0000
  875.5868    22.7188  1982.0000      .0908    33.0625  -999.2500     1.9736  1230.0000
  875.7392    22.7188  1983.0000      .0913    30.5469  -999.2500     1.9297  1220.0000
  875.8916    22.7031  1982.0000      .1025    30.2344  -999.2500     1.8066  1195.0000
  876.0440    22.7188  1981.0000      .1074    29.6562  -999.2500     1.6914  1225.0000
  876.1964    22.7188  1980.0000      .0947    29.9219  -999.2500     1.5889  1200.0000
  876.3488    22.7188  1980.0000      .0732    30.8438  -999.2500     1.5352  1250.0000
  876.5012    22.7188  1980.0000      .0552    32.2188  -999.2500     1.5078  1215.0000
  876.6536    22.7188  1981.0000      .0410    31.4219  -999.2500     1.4951  1210.0000
  876.8060    22.7188  1981.0000      .0508    32.4375  -999.2500     1.5137  1195.0000
  876.9584    22.7188  1982.0000      .0552    31.3281  -999.2500     1.5381  1210.0000
  877.1108    22.7188  1984.0000      .0781    31.3125  -999.2500     1.5918  1210.0000
  877.2632    22.7188  1983.0000      .0820    28.8594  -999.2500     1.6221  1210.0000
  877.4156    22.7188  1984.0000      .0928    29.7031  -999.2500     1.6426  1200.0000
  877.5680    22.7188  1983.0000      .0869    28.8906  -999.2500     1.6367  1205.0000
  877.7204    22.7188  1983.0000      .0942    29.6562  -999.2500     1.6416  1220.0000
  877.8728    22.7188  1982.0000      .0923    28.2344  -999.2500     1.6270  1200.0000
  878.0252    22.7188  1982.0000      .0923    28.2344  -999.2500     1.5957  1210.0000
  878.1776    22.7188  1981.0000      .0728    30.2500  -999.2500     1.5420  1205.0000
  878.3300    22.7188  1981.0000      .0605    30.8281  -999.2500     1.5049  1205.0000
  878.4824    22.7188  1981.0000      .0522    32.5313  -999.2500     1.4922  1200.0000
  878.6348    22.7188  1982.0000      .0557    32.2188  -999.2500     1.5098  1195.0000
  878.7872    22.7188  1983.0000      .0640    32.8125  -999.2500     1.5313  1210.0000
  878.9396    22.7188  1982.0000      .0693    33.0625  -999.2500     1.5439  1205.0000
  879.0920    22.7188  1981.0000      .0791    31.3906  -999.2500     1.5566  1220.0000
  879.2444    22.7188  1981.0000      .0688    29.7188  -999.2500     1.5508  1205.0000
  879.3968    22.7188  1980.0000      .0508    28.8594  -999.2500     1.5127  1195.0000
  879.5492    22.7188  1980.0000      .0332    28.8438  -999.2500     1.4590  1205.0000
  879.7016    22.7188  1979.0000      .0273    29.3906  -999.2500     1.4248  1210.0000
  879.8540    22.7188  1979.0000      .0269    28.2813  -999.2500     1.4150  1220.0000
  880.0064    22.7188  1980.0000      .0132    27.7500  -999.2500     1.3984  1210.0000
  880.1588    22.7188  1980.0000      .0044    27.7344  -999.2500     1.3789  1205.0000
  880.3112    22.7188  1981.0000     -.0005    27.4844  -999.2500     1.3623  1205.0000
  880.4636    22.7188  1982.0000      .0020    29.1719  -999.2500     1.3545  1205.0000
  880.6160    22.7188  1982.0000      .0034    28.8906  -999.2500     1.3496  1205.0000
  880.7684    22.7188  1982.0000      .0024    31.0625  -999.2500     1.3457  1220.0000
  880.9208    22.7188  1983.0000     -.0024    31.0156  -999.2500     1.3350  1205.0000
  881.0732    22.7188  1983.0000     -.0068    32.6875  -999.2500     1.3232  1215.0000
  881.2256    22.7031  1983.0000     -.0078    31.8594  -999.2500     1.3145  1205.0000
  881.3780    22.7188  1982.0000     -.0107    34.6562  -999.2500     1.3350  1210.0000
  881.5304    22.7188  1982.0000     -.0278    36.2813  -999.2500     1.4209  1200.0000
  881.6828    22.7188  1982.0000     -.0444    41.2813  -999.2500     1.5918  1205.0000
  881.8352    22.7188  1982.0000     -.0273    38.5313  -999.2500     1.8691  1205.0000
  881.9876    22.7188  1983.0000      .0215    38.2500  -999.2500     2.0469  1210.0000
  882.1400    22.7188  1983.0000      .0889    35.7813  -999.2500     2.1113  1215.0000
  882.2924    22.7188  1983.0000      .1465    36.3750  -999.2500     2.0840  1215.0000
  882.4448    22.7188  1982.0000      .1685    36.1250  -999.2500     1.9785  1215.0000
  882.5972    22.7188  1982.0000      .1714    31.6875  -999.2500     1.8643  1225.0000
  882.7496    22.7188  1982.0000      .1284    28.6094  -999.2500     1.7695  1225.0000
  882.9020    22.7188  1982.0000      .1055    27.4375  -999.2500     1.7393  1210.0000
  883.0544    22.7188  1982.0000      .0386    30.1719  -999.2500     1.7168  1220.0000
  883.2068    22.7188  1983.0000      .0210    32.3750  -999.2500     1.7549  1200.0000
  883.3592    22.7188  1982.0000      .0234    32.2188  -999.2500     1.8457  1210.0000
  883.5116    22.7188  1982.0000      .0918    31.7031  -999.2500     1.9561  1225.0000
  883.6640    22.7188  1982.0000      .1401    32.2188  -999.2500     1.9238  1215.0000
  883.8164    22.7188  1983.0000      .1055    32.1562  -999.2500     1.7666  1215.0000
  883.9688    22.7188  1984.0000      .0952    28.8125  -999.2500     1.6934  1215.0000
  884.1212    22.7188  1984.0000      .0937    27.1719  -999.2500     1.6592  1210.0000
  884.2736    22.7188  1983.0000      .1104    27.1719  -999.2500     1.6729  1200.0000
  884.4260    22.7188  1984.0000      .1201    29.3750  -999.2500     1.6787  1210.0000
  884.5784    22.7188  1983.0000      .0898    30.1719  -999.2500     1.6631  1210.0000
  884.7308    22.7188  1983.0000      .0693    29.8438  -999.2500     1.6787  1220.0000
  884.8832    22.7188  1982.0000      .0630    32.3438  -999.2500     1.7266  1220.0000
  885.0356    22.7188  1982.0000      .1016    32.4063  -999.2500     1.8301  1235.0000
  885.1880    22.7031  1982.0000      .1416    30.7813  -999.2500     1.9043  1210.0000
  885.3404    22.7188  1981.0000      .1523    28.0469  -999.2500     1.9053  1225.0000
  885.4928    22.7188  1982.0000      .1436    28.2813  -999.2500     1.8838  1220.0000
  885.6452    22.7188  1982.0000      .1611    28.9063  -999.2500     1.8896  1200.0000
  885.7976    22.7031  1982.0000      .1646    30.8438  -999.2500     1.8711  1225.0000
  885.9500    22.7188  1982.0000      .1523    31.1406  -999.2500     1.8320  1220.0000
  886.1024    22.7188  1982.0000      .1514    33.5938  -999.2500     1.8193  1215.0000
  886.2548    22.7031  1982.0000      .1250    34.3750  -999.2500     1.8193  1210.0000
  886.4072    22.5625  1981.0000      .0527    41.8750  -999.2500     1.8135  1210.0000
  886.5596    16.4375  1980.0000      .0142    50.1875  -999.2500     1.8574  1210.0000
  886.7120    16.3281  1980.0000      .0361    59.1563  -999.2500     1.9414  1210.0000
  886.8644    16.9375  1981.0000      .0840    51.9375  -999.2500     2.0254  1215.0000
  887.0168    20.2031  1981.0000      .1069    42.2500  -999.2500     2.0078  1220.0000
  887.1692    22.6094  1981.0000      .0332    28.3125  -999.2500     1.6934  1230.0000
  887.3216    22.7188  1982.0000      .0171    26.0781  -999.2500     1.4922  1210.0000
  887.4740    22.7188  1982.0000     -.0039    24.4063  -999.2500     1.3574  1265.0000
  887.6264    22.7188  1982.0000     -.0093    27.1875  -999.2500     1.3320  1220.0000
  887.7788    22.7188  1983.0000     -.0088    26.9063  -999.2500     1.3311  1300.0000
  887.9312    22.7188  1982.0000     -.0068    27.1406  -999.2500     1.3301  1300.0000
  888.0836    22.7031  1983.0000     -.0029    27.1719  -999.2500     1.3311  1255.0000
  888.2360    22.7188  1982.0000     -.0063    31.5938  -999.2500     1.3682  1230.0000
  888.3884    22.7031  1981.0000     -.0127    43.7500  -999.2500     1.4844  1245.0000
  888.5408    20.9688  1981.0000     -.0195    52.3125  -999.2500     1.6934  1225.0000
  888.6932    21.0625  1981.0000     -.0039    61.8125  -999.2500     1.9658  1210.0000
  888.8456    21.2500  1980.0000      .0176    60.2812  -999.2500     2.1074  1215.0000
  888.9980    21.3438  1981.0000      .0186    59.8125  -999.2500     2.1445  1220.0000
  889.1504    21.6406  1982.0000      .0249    57.5625  -999.2500     2.1680  1200.0000
