~VERSION INFORMATION
VERS.                                                 2.0:   CWLS Log ASCII Standard-VERSION 2.0
WRAP.                                                  NO:   One line per depth step
~Well Information Block
STRT.M                                           556.4612:   Top Depth
STOP.M                                          2953.5608:   Bottom Depth
STEP.M                                             .15240:   Depth Increment
NULL.                                            -999.250:   Null Value
FLD .                                     GAMMA STRUCTURE:   Field Name
WELL.                                             15/9-11:   NAME
WBN .                                             15/9-11:   WELLBORE
NATI.                                                 NOR:   COUNTRY
CTRY.                                                 NOR:   COUNTRY
COMP.                                             STATOIL:   OPERATOR
PROV.                                           NORTH SEA:   PROVINCE
COUN.                                            ROSS RIG:   RIG NAME
SPUD.                                          1981/09/17:   SPUD DATE
LATI.                                        58 24 2.53 N:   SURF. LATITUDE
LONG.                                        1 53 41.79 E:   SURF. LONGITUDE
PBWE.                                             15/9-11:   PB WELL ID
APIN.                                             15/9-11:   PB WELLBORE ID
PBWS.                                                 all:   PB WELL NAME SET
~PARAMETER INFORMATION (log)
LNAM.                              FDC/CNL/GR  COMPOSITED:   NAME
LTYP.                                         DEPTH MATCH:   LOG TYPE
LSRV.                                            DEN/NEUT:   LOG SERVICE
LSOU.                                             SPT/NPD:   LOG SOURCE
LVSN.                                                   1:   LOG VERSION
BHIS.                                                   R:   BRIEF HISTORY
FHIS.                                             RAW-LIS:   FULL HISTORY
LCNM.                                        SCHLUMBERGER:   LOGGING CONTRACTOR
TOOL.                             FDC/CNL/GR (COMPOSITED):   TOOL STRING
~Curve Information Block
#MNEM.UNIT                                        API CODE    No Description
#=========                                        ========    == ===========
DEPT.M                                       00 001 00 00:     1  DEPTH
CALI.IN                                                  :     2  Caliper
CS.                                                      :     3  Cable Speed
DRHO.G/CC                                                :     4  Bulk density correction
GR.GAPI                                                  :     5  Gamma Ray
NPHI.%                                                   :     6  Neutron porosity
RHOB.G/CC                                                :     7  Bulk density
TENS.LB                                                  :     8  Cable Tension
~ASCII
# ...
 2470.3004    13.1797  2528.0000      .0210    31.2031    30.6152     2.2090  2614.0000
 2470.4528    12.8984  2528.0000     -.0068    34.0625    33.5938     2.1875  2654.0000
 2470.6052    12.6250  2526.0000     -.0103    35.3438    30.8594     2.1797  2674.0000
 2470.7576    12.9453  2528.0000     -.0103    36.5938    26.9531     2.1680  2660.0000
 2470.9100    13.1172  2528.0000     -.0020    33.3438    23.5840     2.1543  2654.0000
 2471.0624    13.2422  2530.0000      .0186    30.0625    25.8789     2.1504  2624.0000
 2471.2148    13.0781  2532.0000      .0259    29.4844    30.0293     2.1387  2644.0000
 2471.3672    12.8281  2532.0000      .0298    31.4844    32.7637     2.1152  2654.0000
 2471.5196    12.9062  2536.0000      .0034    33.1875    33.8867     2.0937  2644.0000
 2471.6720    13.1406  2534.0000     -.0078    33.1563    32.1777     2.0957  2644.0000
 2471.8244    13.2734  2532.0000     -.0103    33.1250    29.5410     2.1289  2624.0000
 2471.9768    13.0156  2528.0000     -.0117    35.4063    28.1738     2.1387  2620.0000
 2472.1292    12.8672  2526.0000     -.0068    38.0313    27.0996     2.1504  2630.0000
 2472.2816    13.1406  2526.0000     -.0083    36.3438    27.5391     2.1504  2634.0000
 2472.4340    13.4375  2526.0000     -.0005    36.2500    28.3203     2.1602  2650.0000
 2472.5864    13.3984  2526.0000      .0098    35.0000    30.4199     2.1641  2634.0000
 2472.7388    13.3281  2526.0000      .0093    37.4687    31.8359     2.1562  2640.0000
 2472.8912    13.3203  2530.0000      .0103    34.2500    29.7852     2.1562  2640.0000
 2473.0436    13.2500  2530.0000      .0015    32.5938    29.9805     2.1641  2654.0000
 2473.1960    13.2734  2530.0000      .0010    30.5937    27.7832     2.1738  2650.0000
 2473.3484    13.3516  2528.0000     -.0015    30.5469    28.8086     2.1738  2644.0000
 2473.5008    13.4141  2526.0000      .0024    33.1875    30.4199     2.1797  2674.0000
 2473.6532    13.3906  2526.0000      .0063    31.4219    34.0332     2.1738  2624.0000
 2473.8056    13.3906  2526.0000      .0186    29.7188    32.1289     2.1777  2620.0000
 2473.9580    13.2891  2528.0000      .0479    29.3437    29.6875     2.1699  2594.0000
 2474.1104    12.8672  2528.0000      .0410    31.7500    27.6855     2.1543  2584.0000
 2474.2628    12.5703  2530.0000      .0146    33.5000    29.0527     2.1270  2624.0000
 2474.4152    12.5469  2532.0000     -.0029    34.9063    29.0527     2.1445  2664.0000
 2474.5676    12.5078  2534.0000     -.0044    38.2500    29.2480     2.1562  2670.0000
 2474.7200    12.5859  2536.0000      .0034    39.8750    30.0293     2.1797  2664.0000
 2474.8724    12.8047  2534.0000     -.0044    38.0937    28.2227     2.1523  2614.0000
 2475.0248    12.4375  2532.0000     -.0005    34.0000    28.3691     2.1523  2624.0000
 2475.1772    12.6016  2528.0000      .0054    34.9375    28.9551     2.1641  2604.0000
 2475.3296    13.0703  2528.0000     -.0005    36.5625    30.7617     2.1641  2620.0000
 2475.4820    12.9453  2528.0000     -.0039    36.5938    30.8105     2.1680  2620.0000
 2475.6344    13.1563  2528.0000     -.0142    33.6563    29.9805     2.1562  2610.0000
 2475.7868    13.1563  2528.0000     -.0044    31.8281    30.4199     2.1699  2630.0000
 2475.9392    12.8750  2530.0000     -.0034    32.2500    30.8105     2.1738  2660.0000
 2476.0916    12.4062  2530.0000      .0127    32.3438    31.1523     2.1934  2654.0000
 2476.2440    12.3594  2530.0000      .0063    32.2813    28.9551     2.1797  2654.0000
 2476.3964    12.4219  2530.0000      .0083    33.2813    25.9277     2.1699  2654.0000
 2476.5488    12.6953  2528.0000     -.0063    32.8750    26.0254     2.1523  2624.0000
 2476.7012    13.0234  2526.0000     -.0093    35.7500    29.0039     2.1562  2624.0000
 2476.8536    13.1797  2526.0000     -.0117    34.6562    30.2246     2.1641  2640.0000
 2477.0060    13.2266  2528.0000      .0039    35.6250    27.5879     2.1777  2624.0000
 2477.1584    13.3047  2530.0000      .0264    32.3125    25.9277     2.2012  2630.0000
 2477.3108    13.4141  2530.0000      .0610    32.7500    27.5391     2.1953  2640.0000
 2477.4632    13.2187  2532.0000      .0557    32.4375    31.8359     2.1309  2650.0000
 2477.6156    12.6484  2534.0000      .0112    33.7813    30.1270     2.0918  2640.0000
 2477.7680    12.5000  2536.0000     -.0073    34.7500    24.6582     2.1582  2634.0000
 2477.9204    12.5078  2536.0000     -.0132    36.4688    17.0410     2.2695  2650.0000
 2478.0728    12.6797  2532.0000      .0166    36.4375    14.5996     2.3145  2644.0000
 2478.2252    12.6953  2532.0000      .0205    37.4063    17.2363     2.2559  2650.0000
 2478.3776    12.3984  2530.0000      .0312    37.3438    21.4355     2.2344  2630.0000
 2478.5300    12.3828  2528.0000      .0176    39.0000    25.0977     2.2129  2634.0000
 2478.6824    12.4062  2528.0000      .0005    37.9688    25.2930     2.1992  2630.0000
 2478.8348    12.3750  2530.0000     -.0103    36.7188    26.3184     2.1855  2634.0000
 2478.9872    12.3750  2530.0000     -.0146    36.1563    26.3184     2.1719  2654.0000
 2479.1396    12.3750  2532.0000     -.0103    34.9375    27.0508     2.1738  2674.0000
 2479.2920    12.5313  2532.0000      .0049    33.9375    26.7090     2.1895  2690.0000
 2479.4444    12.8516  2532.0000      .0454    32.2500    28.7598     2.2383  2644.0000
 2479.5968    12.8516  2532.0000      .0737    31.8906    31.4453     2.2695  2654.0000
 2479.7492    12.7031  2530.0000      .0669    34.1563    30.6152     2.2676  2634.0000
 2479.9016    12.8203  2530.0000      .0215    35.4063    27.5879     2.2227  2654.0000
 2480.0540    12.9219  2530.0000      .0010    34.0000    24.2676     2.2012  2644.0000
 2480.2064    12.7734  2530.0000     -.0034    32.0625    23.9746     2.2129  2644.0000
 2480.3588    12.7344  2530.0000     -.0054    30.1094    22.4609     2.2012  2654.0000
 2480.5112    12.6797  2532.0000     -.0044    30.8594    23.8281     2.1992  2630.0000
 2480.6636    12.4844  2532.0000      .0024    33.8438    25.7324     2.1973  2624.0000
 2480.8160    12.4844  2536.0000      .0000    33.4688    27.8809     2.1953  2644.0000
 2480.9684    12.6719  2536.0000      .0068    36.0938    27.9785     2.2109  2640.0000
 2481.1208    12.9688  2534.0000      .0083    34.3750    26.9043     2.1836  2644.0000
 2481.2732    13.1953  2534.0000      .0332    35.0313    28.8086     2.1797  2634.0000
 2481.4256    12.8516  2532.0000      .0503    33.7187    30.7617     2.1777  2644.0000
 2481.5780    12.9062  2530.0000      .0693    35.0625    34.3262     2.1953  2654.0000
 2481.7304    12.9531  2530.0000      .0386    36.0313    33.1055     2.1973  2684.0000
 2481.8828    12.9688  2530.0000      .0068    37.0000    30.2734     2.1855  2664.0000
 2482.0352    12.9297  2530.0000     -.0107    34.4063    26.2695     2.1816  2640.0000
 2482.1876    12.8750  2532.0000     -.0034    34.1875    25.7813     2.1777  2650.0000
 2482.3400    12.4297  2532.0000      .0156    33.2813    27.6367     2.1934  2690.0000
 2482.4924    12.4297  2532.0000      .0190    33.2813    29.5898     2.1973  2634.0000
 2482.6448    12.4375  2530.0000      .0054    34.1875    28.7109     2.1816  2620.0000
 2482.7972    12.4766  2528.0000     -.0054    35.1250    29.0039     2.1738  2604.0000
 2482.9496    12.5313  2528.0000     -.0029    34.7188    27.5391     2.1895  2634.0000
 2483.1020    12.5234  2528.0000     -.0010    34.4063    28.0273     2.2109  2704.0000
 2483.2544    12.5078  2528.0000      .0059    33.0000    27.2461     2.2227  2724.0000
 2483.4068    12.4375  2530.0000      .0054    32.0313    27.3438     2.2227  2720.0000
 2483.5592    12.4609  2532.0000      .0244    33.0625    26.4160     2.2559  2674.0000
 2483.7116    12.5000  2534.0000      .0190    33.8125    26.0254     2.2480  2634.0000
 2483.8640    12.4219  2536.0000      .0229    37.5313    25.5371     2.2246  2630.0000
 2484.0164    12.4375  2536.0000      .0356    33.5000    26.5625     2.2012  2640.0000
