~VERSION INFORMATION
VERS.                                                 2.0:   CWLS Log ASCII Standard-VERSION 2.0
WRAP.                                                  NO:   One line per depth step
~Well Information Block
STRT.M                                           556.4612:   Top Depth
STOP.M                                          2953.5608:   Bottom Depth
STEP.M                                             .15240:   Depth Increment
NULL.                                            -999.250:   Null Value
FLD .                                     GAMMA STRUCTURE:   Field Name
WELL.                                             15/9-11:   NAME
WBN .                                             15/9-11:   WELLBORE
NATI.                                                 NOR:   COUNTRY
CTRY.                                                 NOR:   COUNTRY
COMP.                                             STATOIL:   OPERATOR
PROV.                                           NORTH SEA:   PROVINCE
COUN.                                            ROSS RIG:   RIG NAME
SPUD.                                          1981/09/17:   SPUD DATE
LATI.                                        58 24 2.53 N:   SURF. LATITUDE
LONG.                                        1 53 41.79 E:   SURF. LONGITUDE
PBWE.                                             15/9-11:   PB WELL ID
APIN.                                             15/9-11:   PB WELLBORE ID
PBWS.                                                 all:   PB WELL NAME SET
~PARAMETER INFORMATION (log)
LNAM.                              FDC/CNL/GR  COMPOSITED:   NAME
LTYP.                                         DEPTH MATCH:   LOG TYPE
LSRV.                                            DEN/NEUT:   LOG SERVICE
LSOU.                                             SPT/NPD:   LOG SOURCE
LVSN.                                                   1:   LOG VERSION
BHIS.                                                   R:   BRIEF HISTORY
FHIS.                                             RAW-LIS:   FULL HISTORY
LCNM.                                        SCHLUMBERGER:   LOGGING CONTRACTOR
TOOL.                             FDC/CNL/GR (COMPOSITED):   TOOL STRING
~Curve Information Block
#MNEM.UNIT                                        API CODE    No Description
#=========                                        ========    == ===========
DEPT.M                                       00 001 00 00:     1  DEPTH
CALI.IN                                                  :     2  Caliper
CS.                                                      :     3  Cable Speed
DRHO.G/CC                                                :     4  Bulk density correction
GR.GAPI                                                  :     5  Gamma Ray
NPHI.%                                                   :     6  Neutron porosity
RHOB.G/CC                                                :     7  Bulk density
TENS.LB                                                  :     8  Cable Tension
~ASCII
  556.4612    19.3594  2020.0000     -.5732    36.1875  -999.2500     1.7246   930.0000
  556.6136    19.3281  2020.0000     -.5586    34.1250  -999.2500     1.7207   950.0000
  556.7660    19.3438  2020.0000     -.5806    36.9063  -999.2500     1.7041   940.0000
  556.9184    19.3438  2019.0000     -.6465    38.5938  -999.2500     1.6377   945.0000
  557.0708    19.3438  2019.0000     -.6636    39.5000  -999.2500     1.6230   965.0000
  557.2232    19.3281  2019.0000     -.5767    41.8125  -999.2500     1.6982   955.0000
  557.3756    19.3594  2020.0000     -.5244    42.7188  -999.2500     1.7471   945.0000
  557.5280    19.3594  2019.0000     -.5093    44.0625  -999.2500     1.7607   945.0000
  557.6804    19.3438  2020.0000     -.5605    41.5312  -999.2500     1.7217   950.0000
  557.8328    19.3438  2019.0000     -.5664    39.2813  -999.2500     1.7207   955.0000
  557.9852    19.3594  2019.0000     -.5923    35.6875  -999.2500     1.7148   940.0000
  558.1376    19.3594  2018.0000     -.5630    37.9063  -999.2500     1.7344   940.0000
  558.2900    19.3594  2019.0000     -.5273    40.4375  -999.2500     1.7676   945.0000
  558.4424    19.3906  2018.0000     -.4946    43.8438  -999.2500     1.7803   955.0000
  558.5948    19.4063  2019.0000     -.4766    42.4063  -999.2500     1.7861   945.0000
  558.7472    19.3750  2019.0000     -.4697    40.9688  -999.2500     1.7705   945.0000
  558.8996    19.3125  2021.0000     -.4780    38.4375  -999.2500     1.7646   940.0000
  559.0520    19.2656  2021.0000     -.4956    36.7500  -999.2500     1.7656   955.0000
  559.2044    19.2813  2021.0000     -.5293    35.6250  -999.2500     1.7607   935.0000
  559.3568    19.2813  2021.0000     -.5166    36.2187  -999.2500     1.7803   930.0000
  559.5092    19.2813  2021.0000     -.5137    37.3438  -999.2500     1.7803   940.0000
  559.6616    19.2969  2023.0000     -.4819    39.5625  -999.2500     1.8008   920.0000
  559.8140    19.2813  2023.0000     -.4893    40.4063  -999.2500     1.8037   930.0000
  559.9664    19.2344  2022.0000     -.4854    41.5625  -999.2500     1.8164   945.0000
  560.1188    19.2344  2022.0000     -.5181    41.8750  -999.2500     1.8066   945.0000
  560.2712    19.2344  2022.0000     -.5400    42.4687  -999.2500     1.7871   935.0000
  560.4236    19.2344  2022.0000     -.5483    43.5000  -999.2500     1.7695   945.0000
  560.5760    19.2344  2022.0000     -.4873    42.5625  -999.2500     1.8301   945.0000
  560.7284    19.2344  2021.0000     -.4854    40.8438  -999.2500     1.8203   950.0000
  560.8808    19.2344  2020.0000     -.4629    39.8438  -999.2500     1.8506   935.0000
  561.0332    19.2344  2021.0000     -.5059    39.6562  -999.2500     1.7979   935.0000
  561.1856    19.2188  2021.0000     -.4932    38.7813  -999.2500     1.8320   950.0000
  561.3380    19.2031  2020.0000     -.5215    39.9063  -999.2500     1.8076   940.0000
  561.4904    19.2344  2020.0000     -.5103    39.6562  -999.2500     1.8252   940.0000
  561.6428    19.2500  2019.0000     -.5039    44.2500  -999.2500     1.8223   945.0000
  561.7952    19.2500  2018.0000     -.4790    43.3438  -999.2500     1.8477   925.0000
  561.9476    19.2500  2018.0000     -.4683    41.8750  -999.2500     1.8682   950.0000
  562.1000    19.2500  2018.0000     -.4756    35.9062  -999.2500     1.8672   955.0000
  562.2524    19.2188  2017.0000     -.4917    33.3750  -999.2500     1.8652   940.0000
  562.4048    19.2344  2017.0000     -.5029    33.3750  -999.2500     1.8438   945.0000
  562.5572    19.2500  2017.0000     -.4746    36.5312  -999.2500     1.8691   955.0000
  562.7096    19.2500  2018.0000     -.4380    38.4688  -999.2500     1.8877   935.0000
  562.8620    19.2344  2019.0000     -.4336    38.4375  -999.2500     1.8906   945.0000
  563.0144    19.2344  2020.0000     -.4424    38.9688  -999.2500     1.8809   945.0000
  563.1668    19.2188  2020.0000     -.4849    37.8750  -999.2500     1.8467   940.0000
  563.3192    19.2344  2020.0000     -.4751    35.3750  -999.2500     1.8516   945.0000
  563.4716    19.2344  2020.0000     -.5015    34.2188  -999.2500     1.8154   950.0000
  563.6240    19.2344  2021.0000     -.4956    34.1563  -999.2500     1.8115   955.0000
  563.7764    19.2344  2021.0000     -.5122    37.2813  -999.2500     1.8018   940.0000
  563.9288    19.2344  2021.0000     -.4966    36.4688  -999.2500     1.8145   955.0000
  564.0812    19.2031  2020.0000     -.4731    35.8750  -999.2500     1.8359   950.0000
  564.2336    19.2188  2020.0000     -.4873    33.3125  -999.2500     1.8105   955.0000
  564.3860    19.2031  2020.0000     -.5210    32.7500  -999.2500     1.7686   935.0000
  564.5384    19.2344  2020.0000     -.5708    33.9688  -999.2500     1.7207   935.0000
  564.6908    19.2031  2020.0000     -.5659    37.0625  -999.2500     1.7354   945.0000
  564.8432    19.2188  2021.0000     -.5234    42.7812  -999.2500     1.8086   940.0000
  564.9956    19.2031  2021.0000     -.4917    43.0625  -999.2500     1.8564   940.0000
  565.1480    19.2188  2020.0000     -.4897    41.4062  -999.2500     1.8760   940.0000
  565.3004    19.2188  2020.0000     -.5308    38.5625  -999.2500     1.8223   965.0000
  565.4528    19.2031  2020.0000     -.5283    37.1250  -999.2500     1.8311   950.0000
  565.6052    19.2031  2020.0000     -.5278    35.9375  -999.2500     1.8330   945.0000
  565.7576    19.1875  2020.0000     -.4985    32.7500  -999.2500     1.8701   950.0000
  565.9100    19.1406  2020.0000     -.5127    33.0625  -999.2500     1.8525   935.0000
  566.0624    19.1406  2020.0000     -.4932    37.0313  -999.2500     1.8604   940.0000
  566.2148    19.1094  2020.0000     -.4897    39.0938  -999.2500     1.8770   925.0000
  566.3672    19.1406  2019.0000     -.4819    42.9687  -999.2500     1.8750   945.0000
  566.5196    19.1406  2020.0000     -.5117    39.8750  -999.2500     1.8525   945.0000
  566.6720    19.1094  2022.0000     -.5571    41.7500  -999.2500     1.7861   945.0000
  566.8244    19.0469  2022.0000     -.5054    36.7500  -999.2500     1.8350   945.0000
  566.9768    19.0156  2021.0000     -.2734    35.5937  -999.2500     2.0195   940.0000
  567.1292    18.6250  2021.0000     -.1128    30.0156  -999.2500     2.1270   950.0000
  567.2816    18.2344  2022.0000     -.0547    30.7969  -999.2500     2.2070   940.0000
  567.4340    18.1719  2021.0000     -.0073    32.1562  -999.2500     2.2910   930.0000
  567.5864    18.2031  2021.0000      .0669    40.8750  -999.2500     2.3184   955.0000
  567.7388    19.1388  2020.9661      .0832    45.5271  -999.2500     2.0696   936.0190
  567.8912    19.4832  2020.0000      .0572    47.0742  -999.2500     1.8730   962.9486
  568.0436    18.8281  2020.0000      .0181    46.2339  -999.2500     1.7368   933.9685
  568.1960    18.8389  2020.0000      .0163    52.6962  -999.2500     1.7122   931.1888
  568.3484    18.9089  2020.0000      .0048    55.4972  -999.2500     1.6895   966.5616
  568.5008    18.9380  2019.7935      .0033    57.2409  -999.2500     1.6895   948.9680
  568.6532    18.9698  2019.2412      .0004    53.4146  -999.2500     1.6939   943.7939
  568.8056    18.8707  2020.0000      .0062    53.9256  -999.2500     1.7134   941.3794
  568.9580    18.8497  2020.0000      .0111    50.7093  -999.2500     1.7366   941.8972
  569.1104    18.8227  2020.0000      .0158    46.2396  -999.2500     1.7683   940.1658
  569.2628    18.8362  2019.6208      .0194    42.0693  -999.2500     1.7941   950.0000
  569.4152    18.9138  2019.4133      .0214    42.0231  -999.2500     1.7988   943.7986
  569.5676    18.8848  2020.4478      .0219    44.1648  -999.2500     1.7880   930.5220
  569.7200    18.7586  2021.0000      .0231    45.7283  -999.2500     1.7778   927.4119
  569.8724    18.6617  2021.0000      .0218    46.4879  -999.2500     1.7672   942.9246
  570.0248    18.4818  2021.5513      .0178    46.1008  -999.2500     1.7578   952.2432
  570.1772    18.4364  2022.0000      .0109    46.6434  -999.2500     1.7532   944.1425
