~VERSION INFORMATION
VERS.                                                 2.0:   CWLS Log ASCII Standard-VERSION 2.0
WRAP.                                                  NO:   One line per depth step
~Well Information Block
STRT.M                                           556.4612:   Top Depth
STOP.M                                          2953.5608:   Bottom Depth
STEP.M                                             .15240:   Depth Increment
NULL.                                            -999.250:   Null Value
FLD .                                     GAMMA STRUCTURE:   Field Name
WELL.                                             15/9-11:   NAME
WBN .                                             15/9-11:   WELLBORE
NATI.                                                 NOR:   COUNTRY
CTRY.                                                 NOR:   COUNTRY
COMP.                                             STATOIL:   OPERATOR
PROV.                                           NORTH SEA:   PROVINCE
COUN.                                            ROSS RIG:   RIG NAME
SPUD.                                          1981/09/17:   SPUD DATE
LATI.                                        58 24 2.53 N:   SURF. LATITUDE
LONG.                                        1 53 41.79 E:   SURF. LONGITUDE
PBWE.                                             15/9-11:   PB WELL ID
APIN.                                             15/9-11:   PB WELLBORE ID
PBWS.                                                 all:   PB WELL NAME SET
~PARAMETER INFORMATION (log)
LNAM.                              FDC/CNL/GR  COMPOSITED:   NAME
LTYP.                                         DEPTH MATCH:   LOG TYPE
LSRV.                                            DEN/NEUT:   LOG SERVICE
LSOU.                                             SPT/NPD:   LOG SOURCE
LVSN.                                                   1:   LOG VERSION
BHIS.                                                   R:   BRIEF HISTORY
FHIS.                                             RAW-LIS:   FULL HISTORY
LCNM.                                        SCHLUMBERGER:   LOGGING CONTRACTOR
TOOL.                             FDC/CNL/GR (COMPOSITED):   TOOL STRING
~Curve Information Block
#MNEM.UNIT                                        API CODE    No Description
#=========                                        ========    == ===========
DEPT.M                                       00 001 00 00:     1  DEPTH
CALI.IN                                                  :     2  Caliper
CS.                                                      :     3  Cable Speed
DRHO.G/CC                                                :     4  Bulk density correction
GR.GAPI                                                  :     5  Gamma Ray
NPHI.%                                                   :     6  Neutron porosity
RHOB.G/CC                                                :     7  Bulk density
TENS.LB                                                  :     8  Cable Tension
~ASCII
# ...
 1665.9332    14.1172  2686.0000      .0283    65.1250    45.6055     2.0430  1925.0000
 1666.0856    13.8672  2684.0000      .0264    65.2500    48.6328     2.0215  1935.0000
 1666.2380    13.9375  2684.0000      .0151    66.1250    48.3887     2.0176  1925.0000
 1666.3904    14.0312  2684.0000      .0205    65.5625    45.7031     2.0371  1925.0000
 1666.5428    13.9375  2682.0000      .0400    60.2812    41.1621     2.0625  1920.0000
 1666.6952    13.8437  2682.0000      .0601    56.3438    38.9160     2.0645  1915.0000
 1666.8476    13.8984  2682.0000      .0518    52.7500    41.0156     2.0312  1905.0000
 1667.0000    13.9922  2682.0000      .0459    54.0938    43.7988     2.0312  1910.0000
 1667.1524    13.7109  2682.0000      .0264    60.7812    48.6816     2.0293  1910.0000
 1667.3048    13.5391  2682.0000      .0352    62.8438    48.1934     2.0547  1910.0000
 1667.4572    13.8672  2682.0000      .0293    63.3438    48.2910     2.0469  1915.0000
 1667.6096    13.8125  2682.0000      .0288    61.6250    48.1934     2.0430  1915.0000
 1667.7620    13.4766  2680.0000      .0356    63.5000    47.7539     2.0605  1945.0000
 1667.9144    13.5391  2680.0000      .0425    67.2500    49.2187     2.0840  1930.0000
 1668.0668    13.5703  2682.0000      .0176    65.5625    44.2871     2.0703  1935.0000
 1668.2192    13.5156  2682.0000     -.0005    68.3750    42.9199     2.0488  1940.0000
 1668.3716    13.5703  2682.0000      .0044    66.6875    39.3066     2.0469  1910.0000
 1668.5240    13.5859  2682.0000      .0308    70.5625    43.2129     2.0625  1895.0000
 1668.6764    13.4453  2682.0000      .0361    68.7500    44.0430     2.0664  1900.0000
 1668.8288    13.3984  2682.0000      .0083    69.6875    45.8984     2.0430  1925.0000
 1668.9812    13.3750  2686.0000     -.0020    68.5625    45.2148     2.0371  1940.0000
 1669.1336    13.3750  2688.0000      .0156    70.3750    43.5547     2.0527  1945.0000
 1669.2860    13.4922  2686.0000      .0278    73.3125    41.2598     2.0625  1960.0000
 1669.4384    13.3203  2686.0000      .0244    71.5625    40.7227     2.0645  1935.0000
 1669.5908    13.2734  2686.0000      .0098    70.8125    43.3105     2.0625  1925.0000
 1669.7432    13.4219  2686.0000      .0034    65.6875    43.8477     2.0605  1915.0000
 1669.8956    13.1563  2686.0000      .0161    66.3750    43.2129     2.0684  1925.0000
 1670.0480    13.1563  2686.0000      .0137    66.1875    48.1934     2.0488  1905.0000
 1670.2004    13.3203  2686.0000      .0205    69.0625    48.3398     2.0547  1905.0000
 1670.3528    13.4141  2686.0000      .0132    66.9375    48.2910     2.0391  1925.0000
 1670.5052    13.4219  2686.0000      .0098    67.8125    43.2129     2.0410  1955.0000
 1670.6576    13.7109  2688.0000      .0098    67.4375    48.7793     2.0352  1945.0000
 1670.8100    13.4766  2688.0000      .0078    73.5625    52.2949     2.0410  1945.0000
 1670.9624    13.4219  2686.0000      .0244    69.1250    50.9277     2.0508  1940.0000
 1671.1148    13.7656  2686.0000      .0483    67.0625    47.2656     2.0762  1945.0000
 1671.2672    14.1328  2686.0000      .0464    58.8750    45.9961     2.0586  1945.0000
 1671.4196    14.4141  2686.0000      .0146    60.9062    49.8047     2.0234  1940.0000
 1671.5720    14.4063  2686.0000      .0098    61.3438    47.7539     2.0234  1915.0000
 1671.7244    13.9141  2686.0000      .0137    67.3125    47.3633     2.0430  1905.0000
 1671.8768    14.1797  2686.0000      .0303    64.1250    45.6543     2.0801  1925.0000
 1672.0292    13.9844  2686.0000      .0073    66.8750    40.9668     2.0547  1940.0000
 1672.1816    13.5156  2686.0000     -.0059    62.1250    39.5508     2.0410  1940.0000
 1672.3340    13.4531  2688.0000     -.0063    67.5000    39.2578     2.0371  1925.0000
 1672.4864    13.3203  2688.0000      .0000    68.3125    45.6543     2.0371  1955.0000
 1672.6388    13.2500  2688.0000      .0220    75.5000    51.4648     2.0547  1990.0000
 1672.7912    13.2266  2688.0000      .0161    74.0625    52.9297     2.0527  1965.0000
 1672.9436    13.3750  2688.0000      .0093    75.1250    52.7832     2.0410  1945.0000
 1673.0960    13.3906  2688.0000      .0088    70.1875    49.2187     2.0488  1945.0000
 1673.2484    13.3437  2688.0000      .0278    68.8125    49.5605     2.0664  1935.0000
 1673.4008    13.4141  2688.0000      .0513    65.5625    51.8555     2.1016  1910.0000
 1673.5532    13.5000  2688.0000      .0410    68.3125    53.9551     2.0918  1930.0000
 1673.7056    13.5938  2690.0000      .0317    68.5625    50.4395     2.0879  1930.0000
 1673.8580    13.5234  2690.0000      .0024    64.9375    49.1211     2.0508  1915.0000
 1674.0104    13.4141  2692.0000     -.0068    61.7813    46.2891     2.0332  1910.0000
 1674.1628    13.6953  2694.0000     -.0088    64.0000    48.5352     2.0156  1900.0000
 1674.3152    13.6172  2696.0000     -.0088    65.5000    45.4590     2.0137  1925.0000
 1674.4676    13.6016  2696.0000     -.0005    61.6250    49.1211     2.0273  1965.0000
 1674.6200    13.7109  2696.0000     -.0010    64.5000    48.8770     2.0391  1950.0000
 1674.7724    13.9375  2694.0000      .0264    63.5000    51.0742     2.0742  1955.0000
 1674.9248    13.9453  2694.0000      .0342    68.9375    47.0703     2.0762  1975.0000
 1675.0772    13.9922  2694.0000      .0664    64.6875    46.4844     2.0801  1955.0000
 1675.2296    14.1641  2694.0000      .0430    65.7500    45.1660     2.0391  1945.0000
 1675.3820    14.0391  2694.0000      .0278    63.5000    44.1406     2.0156  1925.0000
 1675.5344    14.0859  2696.0000     -.0005    66.5000    43.2129     2.0059  1925.0000
 1675.6868    13.5156  2696.0000     -.0024    69.5000    46.1914     2.0059  1915.0000
 1675.8392    14.1641  2696.0000      .0015    72.4375    51.2207     2.0117  1905.0000
 1675.9916    13.7891  2696.0000     -.0005    66.4375    47.8027     2.0039  1925.0000
 1676.1440    13.7891  2694.0000      .0020    66.2500    48.2910     2.0137  1940.0000
 1676.2964    14.0703  2696.0000     -.0034    61.5625    43.2617     2.0039  1925.0000
 1676.4488    13.4219  2694.0000      .0142    63.7500    49.9512     2.0215  1925.0000
 1676.6012    13.2969  2694.0000      .0024    62.3437    45.7520     2.0039  1925.0000
 1676.7536    13.3203  2692.0000      .0190    68.4375    51.1230     2.0176  1925.0000
 1676.9060    13.3672  2692.0000      .0068    68.3750    49.7070     2.0000  1910.0000
 1677.0584    13.2656  2692.0000      .0137    65.4375    51.1719     2.0176  1905.0000
 1677.2108    13.3750  2694.0000      .0161    61.4375    46.0937     2.0352  1920.0000
 1677.3632    13.3516  2694.0000      .0059    59.3750    47.9492     2.0449  1940.0000
 1677.5156    13.3984  2694.0000      .0107    61.9375    48.4863     2.0371  1940.0000
 1677.6680    13.3516  2692.0000      .0264    61.6563    50.0000     2.0332  1935.0000
 1677.8204    13.6641  2692.0000      .0532    63.8125    50.2930     1.9941  1960.0000
 1677.9728    13.8984  2692.0000      .0791    58.9062    48.9258     1.9580  1955.0000
 1678.1252    14.1094  2694.0000      .0601    56.0625    48.7793     1.9053  1950.0000
 1678.2776    13.7187  2694.0000      .0581    55.6875    46.8750     1.9219  1945.0000
 1678.4300    13.6875  2694.0000      .0415    56.3125    47.1191     1.9629  1945.0000
 1678.5824    13.3516  2694.0000      .0474    61.6563    46.1426     2.0273  1935.0000
 1678.7348    13.5859  2694.0000      .0352    61.8750    48.8770     2.0508  1915.0000
 1678.8872    13.5156  2696.0000      .0200    64.6875    52.9785     2.0391  1930.0000
 1679.0396    13.4531  2698.0000      .0234    65.7500    54.2480     2.0391  1945.0000
 1679.1920    13.2266  2696.0000      .0498    65.8750    50.2930     2.0586  1960.0000
 1679.3444    13.2891  2694.0000      .0796    66.6875    49.7559     2.0684  1935.0000
 1679.4968    13.3047  2696.0000      .0547    62.5000    48.4863     2.0254  1945.0000
 1679.6492    13.3516  2694.0000      .0254    63.5625    49.7070     1.9971  1935.0000
