~VERSION INFORMATION
VERS.                                                 2.0:   CWLS Log ASCII Standard-VERSION 2.0
WRAP.                                                  NO:   One line per depth step
~Well Information Block
STRT.M                                           556.4612:   Top Depth
STOP.M                                          2953.5608:   Bottom Depth
STEP.M                                             .15240:   Depth Increment
NULL.                                            -999.250:   Null Value
FLD .                                     GAMMA STRUCTURE:   Field Name
WELL.                                             15/9-11:   NAME
WBN .                                             15/9-11:   WELLBORE
NATI.                                                 NOR:   COUNTRY
CTRY.                                                 NOR:   COUNTRY
COMP.                                             STATOIL:   OPERATOR
PROV.                                           NORTH SEA:   PROVINCE
COUN.                                            ROSS RIG:   RIG NAME
SPUD.                                          1981/09/17:   SPUD DATE
LATI.                                        58 24 2.53 N:   SURF. LATITUDE
LONG.                                        1 53 41.79 E:   SURF. LONGITUDE
PBWE.                                             15/9-11:   PB WELL ID
APIN.                                             15/9-11:   PB WELLBORE ID
PBWS.                                                 all:   PB WELL NAME SET
~PARAMETER INFORMATION (log)
LNAM.                              FDC/CNL/GR  COMPOSITED:   NAME
LTYP.                                         DEPTH MATCH:   LOG TYPE
LSRV.                                            DEN/NEUT:   LOG SERVICE
LSOU.                                             SPT/NPD:   LOG SOURCE
LVSN.                                                   1:   LOG VERSION
BHIS.                                                   R:   BRIEF HISTORY
FHIS.                                             RAW-LIS:   FULL HISTORY
LCNM.                                        SCHLUMBERGER:   LOGGING CONTRACTOR
TOOL.                             FDC/CNL/GR (COMPOSITED):   TOOL STRING
~Curve Information Block
#MNEM.UNIT                                        API CODE    No Description
#=========                                        ========    == ===========
DEPT.M                                       00 001 00 00:     1  DEPTH
CALI.IN                                                  :     2  Caliper
CS.                                                      :     3  Cable Speed
DRHO.G/CC                                                :     4  Bulk density correction
GR.GAPI                                                  :     5  Gamma Ray
NPHI.%                                                   :     6  Neutron porosity
RHOB.G/CC                                                :     7  Bulk density
TENS.LB                                                  :     8  Cable Tension
~ASCII
# ...
 2789.2736     9.4844  2704.0000      .0234    74.3125    29.3457     2.5273  2884.0000
 2789.4260     9.3516  2704.0000      .0029    61.8750    26.7578     2.5293  2874.0000
 2789.5784     8.6797  2704.0000      .0269    47.9375    23.8770     2.5664  2910.0000
 2789.7308     8.5859  2704.0000      .0244    34.0625    16.7480     2.4668  2924.0000
 2789.8832     8.5859  2704.0000      .0249    26.5469    10.1563     2.3848  2920.0000
 2790.0356     8.5859  2706.0000      .0063    23.6875     6.6895     2.3398  2904.0000
 2790.1880     8.5859  2706.0000     -.0034    20.4531     5.5664     2.4043  2844.0000
 2790.3404     8.5781  2706.0000      .0112    17.5781     5.0781     2.4922  2844.0000
 2790.4928     8.5937  2706.0000      .0029    20.0469     4.7363     2.4590  2840.0000
 2790.6452     8.5859  2706.0000      .0029    20.7656     6.2500     2.3770  2864.0000
 2790.7976     8.6328  2704.0000     -.0024    24.3594     7.8613     2.3125  2884.0000
 2790.9500     8.6641  2704.0000     -.0098    30.4688     9.4727     2.2891  2874.0000
 2791.1024     8.9219  2704.0000      .0190    39.7813    10.6934     2.3359  2874.0000
 2791.2548     9.0937  2704.0000      .0244    50.5937    14.2578     2.3809  2844.0000
 2791.4072     9.4141  2704.0000      .0581    54.5938    17.7734     2.4746  2850.0000
 2791.5596     9.5156  2706.0000      .0171    62.1875    22.7539     2.5098  2844.0000
 2791.7120     9.6406  2706.0000      .0205    67.1250    26.5137     2.5332  2864.0000
 2791.8644     9.7109  2704.0000      .0664    74.5625    28.0762     2.5156  2860.0000
 2792.0168    10.0234  2704.0000      .0937    76.2500    29.0039     2.4707  2884.0000
 2792.1692     9.9531  2704.0000      .1489    74.8125    28.2227     2.4727  2874.0000
 2792.3216     9.8359  2702.0000      .0933    71.1875    31.5430     2.4219  2880.0000
 2792.4740     9.6875  2702.0000      .0732    67.6875    33.8867     2.4395  2874.0000
 2792.6264     9.6875  2702.0000      .0176    63.5313    36.7676     2.4453  2874.0000
 2792.7788     9.6875  2704.0000      .0146    58.1875    32.9590     2.5117  2904.0000
 2792.9312     9.9453  2706.0000      .0122    52.4063    29.9316     2.5605  2890.0000
 2793.0836     9.7109  2706.0000      .0210    53.0625    30.7617     2.6230  2914.0000
 2793.2360     9.4844  2706.0000      .0396    56.6875    34.2285     2.6328  2890.0000
 2793.3884     9.4297  2706.0000      .0518    62.0625    36.0840     2.5840  2874.0000
 2793.5408     9.4609  2708.0000      .0991    66.5625    34.5703     2.5586  2904.0000
 2793.6932     9.8594  2710.0000      .0977    72.1875    32.8613     2.5078  2884.0000
 2793.8456     9.9219  2710.0000      .0723    73.5625    32.2754     2.4668  2880.0000
 2793.9980    10.4766  2710.0000      .0698    69.4375    34.5703     2.5020  2854.0000
 2794.1504    10.0937  2712.0000      .1270    67.6875    37.5488     2.5762  2860.0000
 2794.3028    10.2734  2712.0000      .1748    76.0625    41.0645     2.5547  2870.0000
 2794.4552    10.5703  2712.0000      .1362    76.7500    45.2148     2.3984  2860.0000
 2794.6076     9.6172  2714.0000      .0615    69.1875    52.2949     2.2637  2934.0000
 2794.7600     8.9141  2714.0000      .0244    54.8437    51.3184     2.2285  2910.0000
 2794.9124     8.6172  2712.0000     -.0063    45.9375    40.4297     2.2637  3014.0000
 2795.0648     8.5703  2712.0000      .0146    38.7187    28.0762     2.3437  2890.0000
 2795.2172     8.5156  2710.0000      .0225    30.4688    18.8965     2.3730  2904.0000
 2795.3696     8.5156  2710.0000      .0571    26.1406    13.9160     2.3594  2864.0000
 2795.5220     8.5156  2710.0000      .0151    22.5625     9.9121     2.2637  2864.0000
 2795.6744     8.5000  2710.0000      .0103    21.8750     8.1055     2.2480  2854.0000
 2795.8268     8.5391  2710.0000     -.0015    23.7187     8.7402     2.2578  2860.0000
 2795.9792     8.5234  2710.0000     -.0020    25.5469    11.0840     2.3027  2860.0000
 2796.1316     8.5469  2712.0000      .0039    27.2969    14.3066     2.3281  2864.0000
 2796.2840     8.5469  2712.0000     -.0029    26.5625    16.2109     2.3398  2864.0000
 2796.4364     8.5703  2712.0000      .0044    27.9531    17.0410     2.3711  2860.0000
 2796.5888     8.5703  2710.0000      .0122    28.6250    17.0898     2.3770  2880.0000
 2796.7412     8.5469  2710.0000      .0371    28.9219    16.6504     2.3691  2874.0000
 2796.8936     8.5391  2710.0000      .0518    28.1875    14.2090     2.2949  2900.0000
 2797.0460     8.5391  2710.0000      .0195    26.0625    11.5723     2.2012  2854.0000
 2797.1984     8.5312  2710.0000     -.0049    23.9375     9.5703     2.1406  2874.0000
 2797.3508     8.5312  2712.0000     -.0117    21.8125     9.1797     2.1211  2884.0000
 2797.5032     8.5312  2712.0000     -.0059    18.6094     9.8145     2.1250  2884.0000
 2797.6556     8.5312  2714.0000      .0000    19.6875    10.7910     2.1211  2880.0000
 2797.8080     8.5312  2714.0000     -.0122    21.8750    12.4023     2.1230  2874.0000
 2797.9604     8.5391  2714.0000     -.0171    23.6563    12.0605     2.1250  2840.0000
 2798.1128     8.5234  2714.0000     -.0166    22.9063    10.9375     2.1426  2850.0000
 2798.2652     8.5312  2714.0000     -.0059    20.0313     9.6680     2.1562  2844.0000
 2798.4176     8.5234  2712.0000     -.0044    18.5938     9.2773     2.1602  2844.0000
 2798.5700     8.5234  2712.0000     -.0112    17.5469     9.2773     2.1484  2840.0000
 2798.7224     8.5312  2712.0000     -.0049    19.7188     9.0820     2.1543  2844.0000
 2798.8748     8.5312  2714.0000     -.0083    23.3438     8.4473     2.1445  2854.0000
 2799.0272     8.5312  2714.0000     -.0015    25.1719     8.3496     2.1523  2870.0000
 2799.1796     8.5312  2714.0000     -.0024    24.8125     8.4961     2.1367  2870.0000
 2799.3320     8.5234  2714.0000      .0029    24.0938     9.3262     2.1445  2870.0000
 2799.4844     8.5234  2714.0000      .0034    26.8906     9.4727     2.1465  2864.0000
 2799.6368     8.5234  2714.0000     -.0083    26.5000     9.6680     2.1562  2880.0000
 2799.7892     8.4922  2714.0000     -.0068    27.1875    10.7422     2.1777  2890.0000
 2799.9416     8.4844  2712.0000     -.0044    27.1719    11.9629     2.1875  2894.0000
 2800.0940     8.5234  2712.0000      .0005    27.5469    11.6699     2.1855  2874.0000
 2800.2464     8.5234  2712.0000      .0034    25.4063    10.2539     2.1797  2854.0000
 2800.3988     8.5234  2712.0000     -.0029    20.4219     8.9844     2.1758  2854.0000
 2800.5512     8.5234  2714.0000     -.0010    18.6094     8.6914     2.1719  2854.0000
 2800.7036     8.5234  2714.0000     -.0098    18.2500     9.2285     2.1660  2860.0000
 2800.8560     8.5156  2714.0000     -.0049    20.4219     9.7656     2.1719  2880.0000
 2801.0084     8.5234  2712.0000     -.0059    22.5781    10.6934     2.1758  2880.0000
 2801.1608     8.5078  2712.0000     -.0039    24.6875    11.3281     2.1797  2874.0000
 2801.3132     8.5234  2712.0000     -.0112    27.1406    10.9375     2.1680  2860.0000
 2801.4656     8.5312  2712.0000     -.0137    26.0469    10.0586     2.1719  2854.0000
 2801.6180     8.4844  2710.0000     -.0073    26.4688     9.3750     2.1855  2844.0000
 2801.7704     8.4844  2710.0000     -.0044    25.0938     9.9121     2.1953  2834.0000
 2801.9228     8.4844  2712.0000     -.0063    26.5781    10.4004     2.1914  2860.0000
 2802.0752     8.4844  2712.0000     -.0098    27.2656    10.2539     2.1816  2864.0000
 2802.2276     8.4844  2714.0000     -.0171    25.8281    10.4980     2.1699  2890.0000
 2802.3800     8.4766  2714.0000     -.0088    24.7500    10.8398     2.1719  2880.0000
 2802.5324     8.4844  2714.0000     -.0112    23.3125    10.8887     2.1660  2890.0000
 2802.6848     8.4844  2712.0000      .0059    26.1406    10.5957     2.1953  2890.0000
 2802.8372     8.4844  2714.0000     -.0005    27.1875    10.2051     2.1992  2864.0000
 2802.9896     8.4844  2712.0000      .0034    26.8125    10.9863     2.1953  2834.0000
