~VERSION INFORMATION
VERS.                                                 2.0:   CWLS Log ASCII Standard-VERSION 2.0
WRAP.                                                  NO:   One line per depth step
~Well Information Block
STRT.M                                           556.4612:   Top Depth
STOP.M                                          2953.5608:   Bottom Depth
STEP.M                                             .15240:   Depth Increment
NULL.                                            -999.250:   Null Value
FLD .                                     GAMMA STRUCTURE:   Field Name
WELL.                                             15/9-11:   NAME
WBN .                                             15/9-11:   WELLBORE
NATI.                                                 NOR:   COUNTRY
CTRY.                                                 NOR:   COUNTRY
COMP.                                             STATOIL:   OPERATOR
PROV.                                           NORTH SEA:   PROVINCE
COUN.                                            ROSS RIG:   RIG NAME
SPUD.                                          1981/09/17:   SPUD DATE
LATI.                                        58 24 2.53 N:   SURF. LATITUDE
LONG.                                        1 53 41.79 E:   SURF. LONGITUDE
PBWE.                                             15/9-11:   PB WELL ID
APIN.                                             15/9-11:   PB WELLBORE ID
PBWS.                                                 all:   PB WELL NAME SET
~PARAMETER INFORMATION (log)
LNAM.                              FDC/CNL/GR  COMPOSITED:   NAME
LTYP.                                         DEPTH MATCH:   LOG TYPE
LSRV.                                            DEN/NEUT:   LOG SERVICE
LSOU.                                             SPT/NPD:   LOG SOURCE
LVSN.                                                   1:   LOG VERSION
BHIS.                                                   R:   BRIEF HISTORY
FHIS.                                             RAW-LIS:   FULL HISTORY
LCNM.                                        SCHLUMBERGER:   LOGGING CONTRACTOR
TOOL.                             FDC/CNL/GR (COMPOSITED):   TOOL STRING
~Curve Information Block
#MNEM.UNIT                                        API CODE    No Description
#=========                                        ========    == ===========
DEPT.M                                       00 001 00 00:     1  DEPTH
CALI.IN                                                  :     2  Caliper
CS.                                                      :     3  Cable Speed
DRHO.G/CC                                                :     4  Bulk density correction
GR.GAPI                                                  :     5  Gamma Ray
NPHI.%                                                   :     6  Neutron porosity
RHOB.G/CC                                                :     7  Bulk density
TENS.LB                                                  :     8  Cable Tension
~ASCII
# ...
 2622.8528    11.8672  2398.0000      .0010     8.5781    11.6211     2.5078  2704.0000
 2623.0052    11.9375  2400.0000      .0020     9.8516    11.2793     2.4941  2704.0000
 2623.1576    11.9766  2400.0000      .0020     9.8437    11.2793     2.5059  2760.0000
 2623.3100    12.0078  2398.0000      .0068    10.1484    12.8906     2.5195  2774.0000
 2623.4624    12.0547  2398.0000      .0273     9.8437    14.4531     2.5352  2774.0000
 2623.6148    12.1016  2400.0000      .0127    12.6875    16.2109     2.4980  2750.0000
 2623.7672    12.1016  2400.0000      .0225    12.6953    15.7227     2.5020  2744.0000
 2623.9196    12.1406  2400.0000      .0200    14.2500    15.2344     2.5137  2754.0000
 2624.0720    12.2578  2400.0000      .0210    12.6641    15.4297     2.5156  2734.0000
 2624.2244    12.3047  2400.0000     -.0107    13.2813    16.1133     2.4727  2724.0000
 2624.3768    12.3750  2404.0000     -.0137    15.2344    16.7480     2.4844  2714.0000
 2624.5292    12.4219  2404.0000     -.0005    19.0469    16.9434     2.5098  2714.0000
 2624.6816    12.4531  2404.0000      .0337    20.0156    16.9922     2.5625  2744.0000
 2624.8340    12.4844  2402.0000      .0391    19.6875    17.8711     2.5488  2734.0000
 2624.9864    12.5313  2402.0000      .0112    16.8281    18.0664     2.5098  2734.0000
 2625.1388    12.5781  2400.0000      .0000    14.2969    17.8711     2.4766  2734.0000
 2625.2912    12.6328  2400.0000      .0054    12.0703    16.7969     2.4629  2720.0000
 2625.4436    12.6563  2398.0000      .0000    13.3047    16.6504     2.4629  2724.0000
 2625.5960    12.6953  2400.0000      .0063    16.4375    16.4551     2.4687  2714.0000
 2625.7484    12.7344  2400.0000      .0020    17.0938    16.8945     2.4902  2714.0000
 2625.9008    12.7578  2400.0000      .0132    15.5469    17.5293     2.4902  2704.0000
 2626.0532    12.8047  2400.0000      .0078    14.9609    18.3105     2.4922  2724.0000
 2626.2056    12.8281  2402.0000      .0049    13.6875    17.6270     2.4805  2734.0000
 2626.3580    12.8672  2400.0000      .0029    13.6719    15.8691     2.4922  2710.0000
 2626.5104    12.8750  2400.0000      .0054    13.3281    16.3086     2.4668  2704.0000
 2626.6628    12.8828  2400.0000     -.0015    13.9531    17.9688     2.4609  2694.0000
 2626.8152    12.9219  2400.0000     -.0034    14.2500    19.0918     2.4336  2704.0000
 2626.9676    12.8984  2400.0000     -.0107    12.6563    18.7988     2.4336  2720.0000
 2627.1200    12.9219  2400.0000     -.0117    14.5469    18.4082     2.4434  2724.0000
 2627.2724    12.9062  2400.0000     -.0225    15.5156    17.4805     2.4414  2714.0000
 2627.4248    12.9297  2402.0000     -.0122    16.7813    16.7969     2.4707  2724.0000
 2627.5772    12.9219  2402.0000     -.0049    14.5859    15.6250     2.4570  2724.0000
 2627.7296    12.8984  2402.0000      .0093    15.5234    17.6270     2.4805  2714.0000
 2627.8820    12.8750  2404.0000     -.0039    15.2344    18.3105     2.4434  2714.0000
 2628.0344    12.8750  2402.0000     -.0195    15.5469    19.9219     2.4375  2710.0000
 2628.1868    12.8672  2402.0000     -.0103    13.9609    18.8477     2.4375  2714.0000
 2628.3392    12.8672  2400.0000     -.0059    14.2578    18.7988     2.4512  2724.0000
 2628.4916    12.8438  2400.0000     -.0029    16.4531    17.8711     2.4570  2734.0000
 2628.6440    12.8203  2398.0000     -.0039    15.8203    17.9688     2.4590  2720.0000
 2628.7964    12.8047  2398.0000      .0015    15.5156    18.2617     2.4727  2714.0000
 2628.9488    12.7578  2398.0000      .0269    13.6562    17.6758     2.4961  2690.0000
 2629.1012    12.7344  2400.0000      .0366    14.6250    17.0410     2.4883  2704.0000
 2629.2536    12.7266  2400.0000      .0693    15.9062    16.8457     2.5195  2694.0000
 2629.4060    12.6250  2398.0000      .0508    17.7969    17.3340     2.4961  2694.0000
 2629.5584    12.5703  2398.0000      .0649    16.8438    18.9453     2.4922  2704.0000
 2629.7108    12.5469  2398.0000      .0229    15.5703    20.3125     2.4395  2714.0000
 2629.8632    12.4766  2398.0000      .0210    13.0156    21.6309     2.4062  2724.0000
 2630.0156    12.4375  2398.0000     -.0073    10.7813    21.3379     2.4141  2744.0000
 2630.1680    12.4062  2398.0000     -.0029     8.8594    20.8008     2.4238  2710.0000
 2630.3204    12.3281  2398.0000     -.0020     7.9062    19.8730     2.4453  2704.0000
 2630.4728    12.2891  2400.0000     -.0010     9.8359    18.4082     2.4336  2694.0000
 2630.6252    12.2344  2402.0000     -.0029    11.7500    17.2363     2.4219  2694.0000
 2630.7776    12.2109  2402.0000      .0005    12.7031    17.1387     2.4238  2694.0000
 2630.9300    12.1797  2402.0000      .0068    12.3594    17.2852     2.4219  2714.0000
 2631.0824    12.1562  2400.0000     -.0010    11.7344    18.5059     2.4199  2744.0000
 2631.2348    12.1094  2400.0000      .0044    10.7891    19.1406     2.4316  2754.0000
 2631.3872    12.1016  2400.0000      .0107    11.4219    19.4824     2.4453  2754.0000
 2631.5396    12.0625  2400.0000      .0469    11.3984    18.6035     2.4648  2734.0000
 2631.6920    12.2031  2400.0000      .0840    14.8594    18.1641     2.4551  2704.0000
 2631.8444    12.4844  2400.0000      .0508    13.9063    19.4336     2.4004  2704.0000
 2631.9968    11.9609  2400.0000      .0083    14.8750    20.7031     2.3535  2704.0000
 2632.1492    11.9297  2398.0000     -.0132    12.6953    20.0684     2.3730  2720.0000
 2632.3016    11.9297  2400.0000     -.0049    13.0312    18.9941     2.4062  2754.0000
 2632.4540    11.9844  2402.0000      .0298    12.3984    17.0410     2.4629  2734.0000
 2632.6064    11.8125  2402.0000      .0220    11.7500    18.3594     2.4590  2714.0000
 2632.7588    11.7578  2402.0000      .0347    12.0469    18.9941     2.4727  2694.0000
 2632.9112    11.7422  2400.0000      .0205    10.7734    19.1406     2.4687  2720.0000
 2633.0636    11.7109  2400.0000      .0317    10.4531    17.9688     2.4766  2714.0000
 2633.2160    11.7188  2400.0000      .0132    11.4141    16.7969     2.4551  2724.0000
 2633.3684    11.6875  2400.0000     -.0010    12.0234    16.6504     2.4434  2734.0000
 2633.5208    11.6875  2400.0000     -.0112    13.3203    17.3828     2.4238  2724.0000
 2633.6732    11.6875  2400.0000     -.0078    13.3359    17.8223     2.4316  2734.0000
 2633.8256    11.7812  2400.0000      .0010    13.0391    17.4316     2.4512  2730.0000
 2633.9780    11.7031  2402.0000      .0039    13.3281    16.5527     2.4805  2704.0000
 2634.1304    11.6641  2402.0000      .0015    12.6875    16.0156     2.4844  2694.0000
 2634.2828    11.6641  2400.0000     -.0015    13.3203    15.7227     2.4727  2734.0000
 2634.4352    11.6641  2400.0000      .0015    13.0234    16.0156     2.4629  2744.0000
 2634.5876    11.6797  2398.0000     -.0059    14.2734    16.2109     2.4395  2740.0000
 2634.7400    11.7109  2398.0000     -.0122    15.5156    16.9434     2.4492  2714.0000
 2634.8924    11.6641  2398.0000     -.0103    14.8750    16.7480     2.4727  2694.0000
 2635.0448    11.6641  2398.0000      .0034    13.6172    15.6738     2.5156  2714.0000
 2635.1972    11.6641  2398.0000      .0103    13.0312    15.7715     2.5137  2734.0000
 2635.3496    11.6797  2398.0000     -.0015    13.6641    15.9180     2.4902  2744.0000
 2635.5020    11.6562  2400.0000      .0005    14.3203    17.1387     2.4844  2730.0000
 2635.6544    11.6562  2400.0000      .0127    13.9687    18.3105     2.5039  2730.0000
 2635.8068    11.6562  2400.0000      .0234    13.9766    18.4570     2.5059  2714.0000
 2635.9592    11.6641  2400.0000      .0054    12.3516    18.8477     2.4707  2704.0000
 2636.1116    11.6641  2400.0000      .0073    12.9844    17.8711     2.4668  2714.0000
 2636.2640    11.6875  2400.0000      .0244    13.2891    18.1641     2.4766  2714.0000
 2636.4164    11.7344  2400.0000      .0410    13.6016    18.4082     2.4766  2714.0000
 2636.5688    11.7031  2400.0000      .0264    15.1875    20.8496     2.4434  2714.0000
