~VERSION INFORMATION
VERS.                                                 2.0:   CWLS Log ASCII Standard-VERSION 2.0
WRAP.                                                  NO:   One line per depth step
~Well Information Block
STRT.M                                          1185.7208:   Top Depth
STOP.M                                          3805.7816:   Bottom Depth
STEP.M                                             .15240:   Depth Increment
NULL.                                            -999.250:   Null Value
FLD .                                             WILDCAT:   Field Name
WELL.                                              15/6-3:   NAME
WBN .                                              15/6-3:   WELLBORE
NATI.                                                 NOR:   COUNTRY
BHT1.DEGF                                            97.0:   BH TEMP 1
BS1 .IN                                             17.50:   BIT SIZE 1
CTRY.                                                 NOR:   COUNTRY
CBD1.F                                             1265.0:   CSG 1 DRILL DEP
CBL1.F                                             1267.0:   CSG 1 LOG DEP
CS1 .IN                                              20.0:   CSG 1 SIZE
COMP.                        ESSO EXPLORATION NORWAY INC.:   OPERATOR
PDAT.                                                 MSL:   PERM DATUM
PROV.                                           NORTH SEA:   PROVINCE
COUN.                                         DRILLMASTER:   RIG NAME
SON .                                            DM 08/02:   SOURCE OPERATOR NAME
SPUD.                                                 N/A:   SPUD DATE
LATI.                                       58 30 15.90 N:   SURF. LATITUDE
LONG.                                        1 42 39.50 E:   SURF. LONGITUDE
BTD1.                                            3934.0 F:   TOTAL DEPTH 1
PBWE.                                              15/6-3:   PB WELL ID
APIN.                                              15/6-3:   PB WELLBORE ID
PBWS.                                                 all:   PB WELL NAME SET
~PARAMETER INFORMATION (log)
LNAM.                              FDC/CNL/GR  COMPOSITED:   NAME
LTYP.                                         DEPTH MATCH:   LOG TYPE
LSRV.                                            DEN/NEUT:   LOG SERVICE
LSOU.                                             SPT/NPD:   LOG SOURCE
LVSN.                                                   1:   LOG VERSION
BHIS.                                                   R:   BRIEF HISTORY
FHIS.                                             RAW-LIS:   FULL HISTORY
LCNM.                                        SCHLUMBERGER:   LOGGING CONTRACTOR
TOOL.                             FDC/CNL/GR (COMPOSITED):   TOOL STRING
~Curve Information Block
#MNEM.UNIT                                        API CODE    No Description
#=========                                        ========    == ===========
DEPT.M                                       00 001 00 00:     1  DEPTH
CALI.IN                                                  :     2  Caliper
DRHO.G/CC                                                :     3  Bulk density correction
GR.GAPI                                                  :     4  Gamma Ray
NPHI.%                                                   :     5  Neutron porosity
RHOB.G/CC                                                :     6  Bulk density
~ASCII
# ...
 3286.7072     9.3353      .0177    40.7774    18.1296     2.5457
 3286.8596     9.1857      .0095    42.4131    17.4552     2.5280
 3287.0120     9.1795      .0011    41.3691    17.0685     2.5193
 3287.1644     9.1959      .0020    37.4811    17.2566     2.5207
 3287.3168     9.2217      .0070    38.0646    18.0320     2.5360
 3287.4692     9.2329      .0052    39.0512    18.1486     2.5553
 3287.6216     9.1756      .0176    39.0883    17.6964     2.5818
 3287.7740     9.0986      .0062    38.4324    16.4286     2.5996
 3287.9264     9.0598     -.0007    36.4838    15.0818     2.5743
 3288.0788     9.0474     -.0013    34.8603    14.0567     2.5843
 3288.2312     9.0620      .0071    33.1215    14.2772     2.5985
 3288.3836     9.0781      .0162    28.5109    14.8625     2.6096
 3288.5360     9.0950      .0126    24.5602    14.8297     2.6117
 3288.6884     9.1409      .0010    23.4652    14.1537     2.5990
 3288.8408     9.1905     -.0027    23.4590    13.3946     2.5839
 3288.9932     9.3290     -.0042    24.0212    12.4258     2.5895
 3289.1456     9.1694     -.0052    24.9783    11.5070     2.5803
 3289.2980     9.0114      .0019    25.1843    10.9519     2.5931
 3289.4504     8.9867      .0092    24.9500    10.8673     2.6112
 3289.6028     8.9922      .0139    23.2184    10.8040     2.6136
 3289.7552     8.9804      .0105    22.3535    10.6420     2.6128
 3289.9076     8.9749     -.0003    22.6057    10.1610     2.5954
 3290.0600     8.9744     -.0040    22.9828     9.7301     2.5879
 3290.2124     8.9739      .0049    23.4093     9.6680     2.5973
 3290.3648     8.9853      .0102    23.9944     9.8963     2.6079
 3290.5172     9.0416      .0031    25.2517    10.2667     2.5864
 3290.6696     9.1554      .0147    28.5591    10.6363     2.5856
 3290.8220     9.2778      .0386    30.1910    10.8914     2.6083
 3290.9744     9.3209      .0348    31.3421    10.4590     2.6059
 3291.1268     9.3303      .0346    29.5170     9.9438     2.6092
 3291.2792     9.3038      .0646    26.6431     9.4088     2.6028
 3291.4316     9.2173      .0319    23.0538     9.0028     2.5810
 3291.5840     9.1831      .0104    23.0514     9.0152     2.5682
 3291.7364     9.1404      .0015    23.1398     9.1768     2.5758
 3291.8888     9.0752      .0025    23.5626     9.4059     2.6034
 3292.0412     9.0091      .0005    23.5047     9.9058     2.6085
 3292.1936     8.9690     -.0036    22.7497    10.4572     2.6104
 3292.3460     9.0659     -.0037    22.7121    10.7974     2.5938
 3292.4984     9.1160      .0103    23.2664    10.0916     2.6036
 3292.6508     9.1269      .0209    23.4563     9.2515     2.6219
 3292.8032     9.1378      .0196    23.3225     8.9889     2.6208
 3292.9556     9.1518      .0132    22.8186     8.9256     2.6159
 3293.1080     9.1767      .0058    22.0582     8.9069     2.6008
 3293.2604     9.1198     -.0027    22.3988     8.9580     2.5928
 3293.4128     9.0604      .0039    23.8672     9.2111     2.6032
 3293.5652     9.0234      .0106    25.7567    10.1408     2.6135
 3293.7176     9.0089      .0228    26.3453    10.9376     2.6229
 3293.8700     8.9860      .0268    26.5797    10.9402     2.6317
 3294.0224     8.9628      .0231    24.6580    10.6950     2.6297
 3294.1748     8.9397      .0189    23.6088    10.1883     2.6387
 3294.3272     8.9430      .0081    27.2609     9.6913     2.6225
 3294.4796     9.0643     -.0043    26.8858     9.6273     2.5994
 3294.6320     9.2064     -.0145    25.0702     9.9941     2.5775
 3294.7844     9.2784     -.0222    23.2019    10.2166     2.5758
 3294.9368     9.2612     -.0113    20.8728    10.5485     2.5907
 3295.0892     9.2273      .0055    19.1876    10.8930     2.6049
 3295.2416     9.2283      .0147    19.0494    11.2886     2.6080
 3295.3940     9.2418      .0209    19.8591    12.3527     2.6150
 3295.5464     9.1973      .0167    21.6111    13.6164     2.6148
 3295.6988     9.0351      .0131    24.0691    14.1839     2.5993
 3295.8512     9.2068      .0043    25.2297    14.1721     2.5948
 3296.0036     9.1581     -.0059    24.9097    12.9030     2.5767
 3296.1560     9.1378      .0004    23.4660    11.6238     2.5793
 3296.3084     9.1712     -.0003    20.3637    10.8276     2.5784
 3296.4608     9.1789     -.0078    17.8390    10.8056     2.5774
 3296.6132     9.1687     -.0108    18.0498    10.9107     2.5692
 3296.7656     9.1741     -.0079    19.0965    10.6302     2.5818
 3296.9180     9.1823      .0025    19.9884    10.4777     2.5990
 3297.0704     9.1626      .0121    20.2457    10.9783     2.6115
 3297.2228     9.0785      .0092    21.2885    11.4858     2.6053
 3297.3752     8.9764      .0011    22.5395    11.9668     2.5996
 3297.5276     8.9367      .0016    21.9797    12.2261     2.5995
 3297.6800     8.9367      .0076    22.6855    12.2237     2.6022
 3297.8324     8.9916      .0068    22.4325    11.2455     2.6057
 3297.9848     9.0294      .0045    20.9631    10.0728     2.6014
 3298.1372     9.0623      .0020    20.5474     8.9210     2.5878
 3298.2896     9.0765      .0028    20.9775     8.3505     2.5770
 3298.4420     9.0886      .0063    20.3716     8.5265     2.5815
 3298.5944     9.1006      .0154    18.4484     8.6012     2.5929
 3298.7468     9.1053      .0278    17.6920     8.4049     2.6119
 3298.8992     9.1052      .0377    18.4953     7.9105     2.6364
 3299.0516     9.0916      .0243    19.2743     7.5885     2.6067
 3299.2040     9.0850      .0255    20.5988     7.5574     2.5981
 3299.3564     9.0980      .0349    20.0995     7.3977     2.6140
 3299.5088     9.1235      .0278    18.9689     7.1759     2.6040
 3299.6612     9.1291      .0147    18.3789     7.4899     2.5853
 3299.8136     9.1331      .0052    19.6833     8.3028     2.5701
 3299.9660     9.1371      .0072    22.5053     9.5835     2.5693
 3300.1184     9.1412      .0128    23.2263    10.8953     2.5620
 3300.2708     9.1415      .0103    25.6250    11.8508     2.5561
 3300.4232     9.1301      .0089    28.7052    11.7416     2.5490
 3300.5756     9.1160      .0128    29.0228    11.2355     2.5436
 3300.7280     9.0994      .0060    26.2548    10.2550     2.5608
 3300.8804     9.0834     -.0040    23.8684     9.1803     2.5644
 3301.0328     9.0702     -.0016    21.9384     8.5933     2.5569
 3301.1852     9.0638     -.0047    20.0099     8.4601     2.5545
 3301.3376     9.0601      .0034    18.6255     8.6423     2.5773
 3301.4900     9.0449      .0296    17.8367     9.1109     2.6220
 3301.6424     9.0596      .0367    18.3171     9.5178     2.6322
 3301.7948     9.1341      .0336    20.0244     9.5864     2.6084
 3301.9472     9.2289      .0248    21.4076     9.8233     2.5993
 3302.0996     9.1983      .0299    22.7896    10.3175     2.6315
 3302.2520     9.1630      .0392    24.2107    10.8133     2.6346
 3302.4044     9.1630      .0427    25.6383    11.1046     2.6167
 3302.5568     9.1966      .0297    27.0117    10.2146     2.6011
 3302.7092     9.2536      .0163    27.1942     9.3494     2.5938
 3302.8616     9.1951      .0032    25.6905     8.7027     2.5830
 3303.0140     9.1302     -.0023    22.1742     8.0734     2.5732
 3303.1664     9.0986      .0024    19.9582     7.6349     2.5885
 3303.3188     9.0711      .0124    19.6221     7.7775     2.6105
 3303.4712     9.0492      .0222    21.5044     7.9102     2.6324
 3303.6236     9.1242      .0264    22.5900     8.1474     2.6163
 3303.7760     9.3522      .0249    22.4057     8.7441     2.6203
 3303.9284     9.2539      .0114    22.4033     9.4319     2.6024
 3304.0808     9.3219      .0039    22.3798     9.8158     2.5859
 3304.2332     9.3118      .0181    21.9231     9.7391     2.5955
 3304.3856     9.2321      .0207    20.6483     9.3152     2.6011
 3304.5380     9.1616      .0130    20.5286     8.8822     2.6052
 3304.6904     9.1682      .0098    20.8913     8.6083     2.6207
 3304.8428     9.2006      .0064    20.8887     8.2799     2.6001
 3304.9952     9.1663      .0109    21.8292     7.9733     2.6132
 3305.1476     9.0867      .0146    24.2220     8.7445     2.6317
