~VERSION INFORMATION
VERS.                                                 2.0:   CWLS Log ASCII Standard-VERSION 2.0
WRAP.                                                  NO:   One line per depth step
~Well Information Block
STRT.M                                          1185.7208:   Top Depth
STOP.M                                          3805.7816:   Bottom Depth
STEP.M                                             .15240:   Depth Increment
NULL.                                            -999.250:   Null Value
FLD .                                             WILDCAT:   Field Name
WELL.                                              15/6-3:   NAME
WBN .                                              15/6-3:   WELLBORE
NATI.                                                 NOR:   COUNTRY
BHT1.DEGF                                            97.0:   BH TEMP 1
BS1 .IN                                             17.50:   BIT SIZE 1
CTRY.                                                 NOR:   COUNTRY
CBD1.F                                             1265.0:   CSG 1 DRILL DEP
CBL1.F                                             1267.0:   CSG 1 LOG DEP
CS1 .IN                                              20.0:   CSG 1 SIZE
COMP.                        ESSO EXPLORATION NORWAY INC.:   OPERATOR
PDAT.                                                 MSL:   PERM DATUM
PROV.                                           NORTH SEA:   PROVINCE
COUN.                                         DRILLMASTER:   RIG NAME
SON .                                            DM 08/02:   SOURCE OPERATOR NAME
SPUD.                                                 N/A:   SPUD DATE
LATI.                                       58 30 15.90 N:   SURF. LATITUDE
LONG.                                        1 42 39.50 E:   SURF. LONGITUDE
BTD1.                                            3934.0 F:   TOTAL DEPTH 1
PBWE.                                              15/6-3:   PB WELL ID
APIN.                                              15/6-3:   PB WELLBORE ID
PBWS.                                                 all:   PB WELL NAME SET
~PARAMETER INFORMATION (log)
LNAM.                              FDC/CNL/GR  COMPOSITED:   NAME
LTYP.                                         DEPTH MATCH:   LOG TYPE
LSRV.                                            DEN/NEUT:   LOG SERVICE
LSOU.                                             SPT/NPD:   LOG SOURCE
LVSN.                                                   1:   LOG VERSION
BHIS.                                                   R:   BRIEF HISTORY
FHIS.                                             RAW-LIS:   FULL HISTORY
LCNM.                                        SCHLUMBERGER:   LOGGING CONTRACTOR
TOOL.                             FDC/CNL/GR (COMPOSITED):   TOOL STRING
~Curve Information Block
#MNEM.UNIT                                        API CODE    No Description
#=========                                        ========    == ===========
DEPT.M                                       00 001 00 00:     1  DEPTH
CALI.IN                                                  :     2  Caliper
DRHO.G/CC                                                :     3  Bulk density correction
GR.GAPI                                                  :     4  Gamma Ray
NPHI.%                                                   :     5  Neutron porosity
RHOB.G/CC                                                :     6  Bulk density
~ASCII
# ...
 1836.4688    12.1277      .0267    41.7442    49.3165     2.1145
 1836.6212    12.0804      .0284    40.4244    48.8611     2.1258
 1836.7736    12.0057      .0304    38.8886    48.0329     2.1255
 1836.9260    11.9838      .0317    39.2072    48.7885     2.1251
 1837.0784    11.9873      .0304    39.8035    49.9160     2.1265
 1837.2308    11.9969      .0424    40.1489    48.9032     2.1524
 1837.3832    12.0065      .0508    40.2199    47.4126     2.1690
 1837.5356    12.0161      .0299    39.5493    46.7615     2.1495
 1837.6880    12.0257      .0116    38.5008    46.9405     2.1407
 1837.8404    12.0353      .0075    36.2798    45.7438     2.1364
 1837.9928    12.0466      .0137    34.1493    45.0248     2.1137
 1838.1452    12.0698      .0120    30.9983    45.5579     2.0543
 1838.2976    12.1096      .0166    30.3328    47.5039     2.0332
 1838.4500    12.1351      .0210    30.8106    46.8563     2.0432
 1838.6024    12.1534      .0137    31.4738    46.8481     2.0432
 1838.7548    12.1627      .0050    29.8530    47.6333     2.0357
 1838.9072    12.1626     -.0055    28.3211    47.7812     2.0334
 1839.0596    12.1625     -.0156    27.5502    46.0604     2.0299
 1839.2120    12.1625     -.0108    26.6713    44.3432     2.0288
 1839.3644    12.1927     -.0034    27.2922    42.8983     2.0401
 1839.5168    12.2569      .0022    26.9238    43.5937     2.0389
 1839.6692    12.3021      .0028    27.3079    44.1960     2.0426
 1839.8216    12.3021     -.0015    26.7080    42.9339     2.0547
 1839.9740    12.3005     -.0018    26.4667    42.3845     2.0501
 1840.1264    12.2979      .0004    27.2668    42.6597     2.0477
 1840.2788    12.2953      .0142    27.8156    42.5907     2.0688
 1840.4312    12.2928      .0281    27.9204    42.1948     2.0866
 1840.5836    12.2902      .0288    27.3564    42.3755     2.0722
 1840.7360    12.2876      .0216    26.7564    42.3149     2.0640
 1840.8884    12.2851      .0143    26.7518    41.8340     2.0631
 1841.0408    12.2825      .0126    26.4327    42.4366     2.0659
 1841.1932    12.2698      .0147    25.6267    42.7112     2.0601
 1841.3456    12.2498      .0194    25.3360    42.4732     2.0638
 1841.4980    12.2068      .0242    24.5061    41.9690     2.0684
 1841.6504    12.1491      .0186    24.3916    40.6697     2.0590
 1841.8028    12.0969      .0099    24.8538    41.9571     2.0479
 1841.9552    12.0326      .0058    25.2349    43.0545     2.0424
 1842.1076    11.9682      .0091    24.8683    43.5023     2.0508
 1842.2600    11.9079      .0011    24.5441    43.7919     2.0414
 1842.4124    11.8481     -.0034    25.1035    41.9635     2.0319
 1842.5648    11.8408     -.0047    24.9250    40.1233     2.0309
 1842.7172    11.8569     -.0035    24.9225    38.9424     2.0286
 1842.8696    11.8916      .0009    24.9200    39.1960     2.0264
 1843.0220    11.9459      .0061    25.7597    38.0197     2.0394
 1843.1744    11.9853     -.0003    25.7215    35.3847     2.0407
 1843.3268    11.9985     -.0085    25.9624    34.9869     2.0333
 1843.4792    12.0117     -.0026    25.6404    33.3355     2.0413
 1843.6316    12.0184      .0024    24.2454    32.9743     2.0488
 1843.7840    12.0128      .0056    23.0461    31.7105     2.0517
 1843.9364    12.0073      .0090    22.2026    32.0157     2.0510
 1844.0888    12.0018      .0148    22.4360    33.2933     2.0532
 1844.2412    12.0001      .0521    23.1381    34.7073     2.0774
 1844.3936    11.9976      .0475    23.6461    36.0943     2.0907
 1844.5460    11.9841      .0245    23.8339    36.7038     2.0606
 1844.6984    11.9418      .0151    24.2333    36.2077     2.0450
 1844.8508    11.8947      .0182    24.6906    36.0686     2.0494
 1845.0032    11.8705      .0052    24.2353    38.4820     2.0359
 1845.1556    11.8657      .0068    24.0176    39.6517     2.0381
 1845.3080    11.8745      .0143    23.7911    40.8223     2.0491
 1845.4604    11.8778      .0190    23.9915    40.2693     2.0528
 1845.6128    11.8678      .0133    24.5131    39.1333     2.0528
 1845.7652    11.8609      .0357    25.3733    38.8395     2.0696
 1845.9176    11.8610      .0421    26.9939    39.7713     2.0726
 1846.0700    11.8587      .0307    29.6252    40.3207     2.0593
 1846.2224    11.8452      .0298    31.6019    40.8052     2.0545
 1846.3748    11.8412      .0357    34.2279    41.4221     2.0632
 1846.5272    11.8529      .0479    36.8050    42.5438     2.0686
 1846.6796    11.9048      .0669    42.1978    44.6642     2.1022
 1846.8320    11.9415      .0718    46.3856    46.1054     2.1106
 1846.9844    11.9415      .0554    48.5509    46.3563     2.1045
 1847.1368    11.9416      .0332    48.7941    45.4903     2.0854
 1847.2892    11.9124      .0100    47.2307    45.0243     2.0644
 1847.4416    11.8750      .0147    45.6685    43.6517     2.0633
 1847.5940    11.8619      .0299    44.2986    43.4419     2.0788
 1847.7464    11.8620      .0278    45.0763    43.5037     2.0827
 1847.8988    11.8663      .0248    47.0441    44.2322     2.0860
 1848.0512    11.8785      .0203    48.6914    45.1313     2.1009
 1848.2036    11.8783      .0230    49.1719    45.7850     2.1149
 1848.3560    11.8729      .0288    50.0274    46.2466     2.1186
 1848.5084    11.8675      .0320    50.6077    47.2255     2.0811
 1848.6608    11.8580      .0449    49.9800    47.2972     2.0779
 1848.8132    11.8060      .0348    47.1484    45.8806     2.0709
 1848.9656    11.8141      .0140    45.4056    44.1283     2.0746
 1849.1180    11.8257      .0122    44.6647    42.7059     2.0846
 1849.2704    11.8359      .0083    44.2797    43.2814     2.0894
 1849.4228    11.8461      .0055    42.8094    42.4604     2.0875
 1849.5752    11.8564      .0150    41.4274    40.6094     2.0969
 1849.7276    11.8560      .0246    41.1535    40.9368     2.1091
 1849.8800    11.8285      .0257    41.8287    40.6515     2.1012
 1850.0324    11.6294      .0149    42.9630    40.2666     2.0728
 1850.1848    11.5998      .0166    45.0708    41.6451     2.0535
 1850.3372    11.8061      .0223    49.1677    42.9863     2.0414
 1850.4896    11.9481      .0280    52.4161    46.2412     2.0220
 1850.6420    11.9915      .0327    53.5470    49.5343     2.0041
 1850.7944    12.0051      .0318    52.8195    52.6498     1.9938
 1850.9468    12.0186      .0279    50.6543    54.3514     1.9976
 1851.0992    12.0005      .0323    49.2455    52.6192     2.0088
 1851.2516    11.9641      .0489    47.4705    50.6449     2.0314
 1851.4040    11.9453      .0564    43.8029    47.6885     2.0514
 1851.5564    11.9267      .0346    37.4962    45.5763     2.0394
 1851.7088    11.9010      .0201    31.5320    42.0963     2.0349
 1851.8612    11.8804      .0366    27.9752    38.0335     2.0548
 1852.0136    11.8703      .0265    27.3687    36.8292     2.0585
 1852.1660    11.8644      .0126    26.8306    38.1848     2.0479
 1852.3184    11.9189      .0184    26.1068    39.5656     2.0442
 1852.4708    11.9927      .0194    25.8079    41.2102     2.0450
 1852.6232    12.0644      .0166    24.9031    41.9278     2.0206
 1852.7756    12.0645      .0198    23.6940    41.2716     2.0022
 1852.9280    12.0559      .0172    23.7162    41.7201     1.9917
 1853.0804    11.9952      .0156    24.3151    41.6305     1.9918
 1853.2328    11.9176      .0278    24.3739    40.5042     2.0040
 1853.3852    11.8384      .0346    23.9124    39.8718     2.0084
 1853.5376    11.7643      .0297    24.4557    40.2587     1.9969
 1853.6900    11.7383      .0207    24.7851    40.5770     1.9913
 1853.8424    11.7124      .0264    25.0922    40.8951     1.9990
 1853.9948    11.6974      .0275    25.7720    40.2903     1.9975
 1854.1472    11.6865      .0185    26.6857    39.4937     1.9801
 1854.2996    11.6956      .0152    27.5097    38.7135     1.9784
 1854.4520    11.7062      .0046    28.3023    37.4572     1.9741
 1854.6044    11.7169      .0084    29.7274    37.4373     1.9827
 1854.7568    11.7322      .0181    30.8718    40.1035     1.9980
 1854.9092    11.7741      .0246    32.8221    41.3675     2.0135
