~VERSION INFORMATION
VERS.                                                 2.0:   CWLS Log ASCII Standard-VERSION 2.0
WRAP.                                                  NO:   One line per depth step
~Well Information Block
STRT.M                                          1185.7208:   Top Depth
STOP.M                                          3805.7816:   Bottom Depth
STEP.M                                             .15240:   Depth Increment
NULL.                                            -999.250:   Null Value
FLD .                                             WILDCAT:   Field Name
WELL.                                              15/6-3:   NAME
WBN .                                              15/6-3:   WELLBORE
NATI.                                                 NOR:   COUNTRY
BHT1.DEGF                                            97.0:   BH TEMP 1
BS1 .IN                                             17.50:   BIT SIZE 1
CTRY.                                                 NOR:   COUNTRY
CBD1.F                                             1265.0:   CSG 1 DRILL DEP
CBL1.F                                             1267.0:   CSG 1 LOG DEP
CS1 .IN                                              20.0:   CSG 1 SIZE
COMP.                        ESSO EXPLORATION NORWAY INC.:   OPERATOR
PDAT.                                                 MSL:   PERM DATUM
PROV.                                           NORTH SEA:   PROVINCE
COUN.                                         DRILLMASTER:   RIG NAME
SON .                                            DM 08/02:   SOURCE OPERATOR NAME
SPUD.                                                 N/A:   SPUD DATE
LATI.                                       58 30 15.90 N:   SURF. LATITUDE
LONG.                                        1 42 39.50 E:   SURF. LONGITUDE
BTD1.                                            3934.0 F:   TOTAL DEPTH 1
PBWE.                                              15/6-3:   PB WELL ID
APIN.                                              15/6-3:   PB WELLBORE ID
PBWS.                                                 all:   PB WELL NAME SET
~PARAMETER INFORMATION (log)
LNAM.                              FDC/CNL/GR  COMPOSITED:   NAME
LTYP.                                         DEPTH MATCH:   LOG TYPE
LSRV.                                            DEN/NEUT:   LOG SERVICE
LSOU.                                             SPT/NPD:   LOG SOURCE
LVSN.                                                   1:   LOG VERSION
BHIS.                                                   R:   BRIEF HISTORY
FHIS.                                             RAW-LIS:   FULL HISTORY
LCNM.                                        SCHLUMBERGER:   LOGGING CONTRACTOR
TOOL.                             FDC/CNL/GR (COMPOSITED):   TOOL STRING
~Curve Information Block
#MNEM.UNIT                                        API CODE    No Description
#=========                                        ========    == ===========
DEPT.M                                       00 001 00 00:     1  DEPTH
CALI.IN                                                  :     2  Caliper
DRHO.G/CC                                                :     3  Bulk density correction
GR.GAPI                                                  :     4  Gamma Ray
NPHI.%                                                   :     5  Neutron porosity
RHOB.G/CC                                                :     6  Bulk density
~ASCII
# ...
 2468.6240    12.2603      .0399    30.8940    34.8391     2.1562
 2468.7764    12.2706      .0560    29.2470    34.7234     2.1637
 2468.9288    12.2786      .0521    29.2502    34.5480     2.1691
 2469.0812    12.2650      .0405    28.6259    34.3346     2.1598
 2469.2336    12.2514      .0331    27.7545    32.8048     2.1551
 2469.3860    12.2386      .0274    27.0254    32.9708     2.1557
 2469.5384    12.2283      .0238    27.0338    33.6013     2.1489
 2469.6908    12.2224      .0253    27.0394    34.2309     2.1396
 2469.8432    12.2229      .0393    26.3023    32.9167     2.1576
 2469.9956    12.2233      .0503    26.0094    30.8689     2.1743
 2470.1480    12.1880      .0429    26.1678    29.7382     2.1700
 2470.3004    12.1502      .0302    26.9176    28.5586     2.1606
 2470.4528    12.1149      .0492    27.3788    27.2442     2.1761
 2470.6052    12.0634      .0420    26.3814    25.6211     2.1787
 2470.7576    12.0450      .0301    25.4519    23.6318     2.1853
 2470.9100    12.4450      .0241    26.9180    21.6713     2.2222
 2471.0624    12.4958      .0198    27.2684    19.7640     2.2699
 2471.2148    12.4686      .0069    26.7047    19.7796     2.3233
 2471.3672    12.3676      .0174    26.2356    20.1773     2.3474
 2471.5196    12.3959      .0370    27.5287    22.4738     2.3184
 2471.6720    12.4487      .0255    27.3375    26.2318     2.2313
 2471.8244    12.4625      .0097    27.0499    28.6700     2.1764
 2471.9768    12.4238      .0143    27.0192    29.5639     2.1509
 2472.1292    12.3460      .0233    27.2825    29.8554     2.1640
 2472.2816    12.3225      .0134    27.9122    29.2974     2.1644
 2472.4340    12.3065      .0283    28.7444    29.0569     2.1708
 2472.5864    12.2980      .0374    28.8521    28.4432     2.1772
 2472.7388    12.2895      .0295    26.8762    27.9133     2.1779
 2472.8912    12.2811      .0318    26.3203    27.4731     2.1701
 2473.0436    12.2726      .0384    26.7470    27.6597     2.1748
 2473.1960    12.2641      .0241    26.7870    28.1926     2.1590
 2473.3484    12.2556      .0127    27.1298    28.7478     2.1411
 2473.5008    12.2688      .0147    26.7256    29.1128     2.1471
 2473.6532    12.2876      .0184    27.2631    29.2462     2.1498
 2473.8056    12.2752      .0321    27.8702    28.5963     2.1690
 2473.9580    12.2431      .0606    27.4007    27.0827     2.1938
 2474.1104    12.2216      .0497    27.7610    25.2939     2.1929
 2474.2628    12.2033      .0605    27.3184    26.1399     2.2112
 2474.4152    12.1849      .0561    26.8547    28.0330     2.2098
 2474.5676    12.1793      .0462    25.8139    28.7526     2.2031
 2474.7200    12.1825      .0377    26.1221    28.1672     2.1947
 2474.8724    12.1858      .0273    26.6827    28.2211     2.1868
 2475.0248    12.1890      .0361    26.8885    28.8926     2.1863
 2475.1772    12.1923      .0343    27.9916    29.5633     2.1762
 2475.3296    12.1955      .0304    28.1580    29.7996     2.1644
 2475.4820    12.1988      .0312    28.2627    29.2582     2.1693
 2475.6344    12.2009      .0350    28.7451    28.7888     2.1759
 2475.7868    12.2014      .0375    30.1944    28.7785     2.1820
 2475.9392    12.2019      .0187    30.8032    29.3706     2.1694
 2476.0916    12.1677      .0279    31.1437    30.2653     2.1819
 2476.2440    12.1211      .0422    31.4710    31.0626     2.2030
 2476.3964    12.0235      .0570    32.7814    31.2649     2.2176
 2476.5488    12.0395      .0610    33.8886    30.6379     2.2296
 2476.7012    12.1234      .0542    33.1810    29.9634     2.2221
 2476.8536    12.1951      .0474    32.1850    30.8850     2.2161
 2477.0060    12.2254      .0401    31.8119    31.2495     2.2035
 2477.1584    12.2457      .0329    31.2208    32.1451     2.1946
 2477.3108    12.2461      .0281    30.2366    33.1349     2.1666
 2477.4632    12.2598      .0353    28.5184    34.4194     2.1584
 2477.6156    12.2801      .0259    28.1168    35.0101     2.1544
 2477.7680    12.3134      .0256    28.3115    35.5947     2.1539
 2477.9204    12.3408      .0261    27.9652    36.0285     2.1487
 2478.0728    12.3637      .0294    27.6568    34.4934     2.1504
 2478.2252    12.3881      .0267    27.4477    33.3699     2.1510
 2478.3776    12.4124      .0156    27.5899    32.6108     2.1451
 2478.5300    12.4279      .0183    26.8252    32.2289     2.1489
 2478.6824    12.4221      .0317    26.1171    32.2870     2.1552
 2478.8348    12.4162      .0382    25.5407    33.2083     2.1624
 2478.9872    12.4098      .0245    25.2204    34.1281     2.1515
 2479.1396    12.3984      .0149    25.6187    35.9022     2.1392
 2479.2920    12.4008      .0147    25.4583    37.2242     2.1311
 2479.4444    12.4370      .0060    25.5562    37.1592     2.1257
 2479.5968    12.4844      .0206    26.6507    35.8050     2.1368
 2479.7492    12.5317      .0148    27.1504    33.6678     2.1362
 2479.9016    12.5790      .0136    27.2096    31.9109     2.1426
 2480.0540    12.6264      .0190    27.5655    31.8074     2.1517
 2480.2064    12.6583      .0239    27.9247    31.8947     2.1514
 2480.3588    12.6679      .0401    27.4838    32.4550     2.1709
 2480.5112    12.6616      .0561    27.4922    33.7004     2.1904
 2480.6636    12.5784      .0482    27.8002    33.2827     2.1865
 2480.8160    12.4651      .0307    27.8086    32.5958     2.1820
 2480.9684    12.4372      .0397    27.8171    31.4618     2.1883
 2481.1208    12.4377      .0204    27.8646    31.5525     2.1541
 2481.2732    12.4382      .0125    27.9460    31.3829     2.1356
 2481.4256    12.4388      .0146    27.8423    30.9589     2.1409
 2481.5780    12.4438      .0092    27.7811    30.8428     2.1496
 2481.7304    12.4489      .0087    27.5597    30.7337     2.1522
 2481.8828    12.4539      .0195    27.2686    30.2551     2.1612
 2482.0352    12.4590      .0308    27.4565    29.6842     2.1751
 2482.1876    12.4463      .0287    27.7057    28.4528     2.1743
 2482.3400    12.4251      .0402    27.6750    28.1048     2.1874
 2482.4924    12.4096      .0391    28.8522    28.3531     2.1960
 2482.6448    12.4108      .0103    30.3803    27.6362     2.1741
 2482.7972    12.4368      .0156    30.1847    26.9967     2.1715
 2482.9496    12.4806      .0276    28.0862    27.9203     2.1732
 2483.1020    12.4996      .0264    27.2334    28.2999     2.1752
 2483.2544    12.4916      .0133    27.8955    28.4860     2.1693
 2483.4068    12.4794      .0128    28.2262    28.6706     2.1711
 2483.5592    12.4401      .0122    28.4095    27.6696     2.1762
 2483.7116    12.4086      .0138    28.1454    27.2392     2.1824
 2483.8640    12.3816      .0254    27.6334    28.0497     2.1882
 2484.0164    12.3757      .0154    27.5365    28.6945     2.1825
 2484.1688    12.3783      .0183    27.5448    29.0588     2.1797
 2484.3212    12.3585      .0252    28.4549    28.8141     2.1893
 2484.4736    12.3388      .0293    30.0802    29.2774     2.1871
 2484.6260    12.3190      .0165    30.9697    29.9663     2.1726
 2484.7784    12.2991      .0154    31.9122    30.5587     2.1606
 2484.9308    12.2793      .0292    32.2462    31.2549     2.1774
 2485.0832    12.2699      .0398    32.9248    30.3817     2.1761
 2485.2356    12.2703      .0476    33.4251    28.0535     2.1902
 2485.3880    12.2893      .0443    33.4311    27.0277     2.1947
 2485.5404    12.3037      .0370    33.1377    27.1477     2.2063
 2485.6928    12.2855      .0386    33.0420    26.8552     2.2230
 2485.8452    12.2762      .0523    31.9249    25.4023     2.2635
 2485.9976    12.2922      .0642    31.3593    21.2416     2.3129
 2486.1500    12.2926      .0450    30.8540    16.1305     2.3746
 2486.3024    12.2930      .0446    30.2922    12.6949     2.4434
 2486.4548    12.2934      .0308    28.8644    12.0037     2.4614
 2486.6072    12.3083      .0199    28.0976    12.9300     2.4607
 2486.7596    12.3361      .0301    27.3429    13.7812     2.4729
 2486.9120    12.3487      .0158    27.2848    15.0673     2.4420
 2487.0644    12.3909      .0033    27.5090    17.4999     2.3974
