~VERSION INFORMATION
VERS.                                                 2.0:   CWLS Log ASCII Standard-VERSION 2.0
WRAP.                                                  NO:   One line per depth step
~Well Information Block
STRT.M                                          1185.7208:   Top Depth
STOP.M                                          3805.7816:   Bottom Depth
STEP.M                                             .15240:   Depth Increment
NULL.                                            -999.250:   Null Value
FLD .                                             WILDCAT:   Field Name
WELL.                                              15/6-3:   NAME
WBN .                                              15/6-3:   WELLBORE
NATI.                                                 NOR:   COUNTRY
BHT1.DEGF                                            97.0:   BH TEMP 1
BS1 .IN                                             17.50:   BIT SIZE 1
CTRY.                                                 NOR:   COUNTRY
CBD1.F                                             1265.0:   CSG 1 DRILL DEP
CBL1.F                                             1267.0:   CSG 1 LOG DEP
CS1 .IN                                              20.0:   CSG 1 SIZE
COMP.                        ESSO EXPLORATION NORWAY INC.:   OPERATOR
PDAT.                                                 MSL:   PERM DATUM
PROV.                                           NORTH SEA:   PROVINCE
COUN.                                         DRILLMASTER:   RIG NAME
SON .                                            DM 08/02:   SOURCE OPERATOR NAME
SPUD.                                                 N/A:   SPUD DATE
LATI.                                       58 30 15.90 N:   SURF. LATITUDE
LONG.                                        1 42 39.50 E:   SURF. LONGITUDE
BTD1.                                            3934.0 F:   TOTAL DEPTH 1
PBWE.                                              15/6-3:   PB WELL ID
APIN.                                              15/6-3:   PB WELLBORE ID
PBWS.                                                 all:   PB WELL NAME SET
~PARAMETER INFORMATION (log)
LNAM.                              FDC/CNL/GR  COMPOSITED:   NAME
LTYP.                                         DEPTH MATCH:   LOG TYPE
LSRV.                                            DEN/NEUT:   LOG SERVICE
LSOU.                                             SPT/NPD:   LOG SOURCE
LVSN.                                                   1:   LOG VERSION
BHIS.                                                   R:   BRIEF HISTORY
FHIS.                                             RAW-LIS:   FULL HISTORY
LCNM.                                        SCHLUMBERGER:   LOGGING CONTRACTOR
TOOL.                             FDC/CNL/GR (COMPOSITED):   TOOL STRING
~Curve Information Block
#MNEM.UNIT                                        API CODE    No Description
#=========                                        ========    == ===========
DEPT.M                                       00 001 00 00:     1  DEPTH
CALI.IN                                                  :     2  Caliper
DRHO.G/CC                                                :     3  Bulk density correction
GR.GAPI                                                  :     4  Gamma Ray
NPHI.%                                                   :     5  Neutron porosity
RHOB.G/CC                                                :     6  Bulk density
~ASCII
# ...
 3788.7128     8.8884      .0277    93.5692    15.8233     2.5915
 3788.8652     8.8741      .0359    95.6405    17.7460     2.5840
 3789.0176     8.8007      .0375    94.5856    18.6070     2.5745
 3789.1700     8.8567      .0168    91.9071    18.6778     2.5686
 3789.3224     9.0241      .0198    89.9539    19.0037     2.5753
 3789.4748     8.9095      .0310    88.1688    19.3918     2.5702
 3789.6272     8.7989      .0219    86.9251    19.3452     2.5242
 3789.7796     8.7639      .0080    86.5623    17.5626     2.4904
 3789.9320     8.7942     -.0010    86.9023    16.1298     2.4715
 3790.0844     8.8415      .0255    87.2139    15.5899     2.5175
 3790.2368     8.8531      .0219    86.5922    15.9588     2.5358
 3790.3892     8.8543      .0094    85.7708    16.1628     2.5085
 3790.5416     8.8430      .0091    85.9996    16.0065     2.4786
 3790.6940     8.8054      .0199    85.4094    15.8587     2.4829
 3790.8464     8.7617      .0418    83.1846    15.8061     2.5117
 3790.9988     8.7187      .0279    80.1544    16.0010     2.5080
 3791.1512     8.7361      .0142    74.8324    16.2253     2.5006
 3791.3036     8.7885      .0243    67.0164    16.2784     2.5044
 3791.4560     8.8410      .0222    58.6383    16.0979     2.5020
 3791.6084     8.8841      .0086    41.7717    15.8625     2.5052
 3791.7608     8.8768      .0087    11.2819    15.6267     2.5219
 3791.9132     8.8694      .0152    -2.2690    15.6160     2.5536
 3792.0656     8.8574      .0186    -2.6373    15.6151     2.5764
 3792.2180     8.8532      .0138    -2.7104    15.6142     2.5780
 3792.3704     8.8695      .0184    -2.7834    15.5756     2.5903
 3792.5228     8.9374      .0345    -2.8566    15.0156     2.5907
 3792.6752     9.0017      .0492    -2.9297    15.0126     2.6251
 3792.8276     9.0456      .0382    -3.0028    15.0117     2.6401
 3792.9800     9.0196      .0252    -3.0759    15.4291     2.6549
 3793.1324     8.9561      .0120    -3.0760    15.4062     2.6124
 3793.2848     8.8488     -.0011    -3.0309    15.5511     2.5884
 3793.4372     8.7298     -.0084    -2.9859    15.7267     2.5644
 3793.5896     8.6108      .0005    -2.9408    15.7258     2.5457
 3793.7420     8.4271      .0181    -2.8957    15.3069     2.5368
 3793.8944     8.2844      .0356    -2.8507    14.1835     2.5492
 3794.0468     8.4882      .0422    -2.8056    12.0188     2.5336
 3794.1992     8.5876      .0453    -2.7606     9.8541     2.5235
 3794.3516     8.5076      .0364    -2.7268     5.7668     2.5169
 3794.5040     8.4358      .0175    -2.7179     1.2098     2.5130
 3794.6564     8.3764      .0127    -2.7090    -1.2346     2.5190
 3794.8088     8.3600      .0199    -2.7000    -3.0842     2.5266
 3794.9612     8.3823      .0151    -2.7007    -3.2860     2.5126
 3795.1136     8.3913      .0233    -2.7035    -3.3640     2.5189
 3795.2660     8.3662      .0361    -2.7063    -3.3247     2.5314
 3795.4184     8.3435      .0295    -2.7091    -3.2853     2.5253
 3795.5708     8.3563      .0349    -2.7119    -3.2480     2.5208
 3795.7232     8.3614      .0390    -2.7146    -3.2126     2.5156
 3795.8756     8.3554      .0439    -2.7174    -3.1912     2.5413
 3796.0280     8.3494      .0384    -2.7202    -3.1718     2.5294
 3796.1804     8.3399      .0270    -2.7230    -3.1525     2.5175
 3796.3328     8.3255      .0306    -2.7258    -3.1332     2.5182
 3796.4852     8.3111      .0407    -2.7286    -3.1138     2.5236
 3796.6376     8.3082      .0406    -2.7313    -3.0945     2.5271
 3796.7900     8.3100      .0274    -2.7341    -3.1241     2.5178
 3796.9424     8.3217      .0205    -2.7369    -3.1592     2.5163
 3797.0948     8.3364      .0170    -2.7397    -3.1944     2.5032
 3797.2472     8.3590      .0154    -2.7425    -3.2151     2.5139
 3797.3996     8.4822      .0455    -2.7452    -3.2158     2.5504
 3797.5520     8.5442      .0551    -2.7480    -3.2165     2.5546
 3797.7044     8.7795      .0459    -2.7508    -3.2172     2.5393
 3797.8568     8.7358      .0426    -2.7536    -3.2236     2.5431
 3798.0092     8.4448      .0379    -2.7564    -3.2759     2.5468
 3798.1616     8.4352      .0248    -2.7592    -3.3820     2.5181
 3798.3140     8.4358      .0236    -2.7619    -3.4701     2.5138
 3798.4664     8.4365      .0332    -2.7647    -3.5070     2.5272
 3798.6188     8.4372      .0387    -2.7675    -3.4970     2.5364
 3798.7712     8.4379      .0293    -2.7803    -3.4604     2.5200
 3798.9236     8.4386      .0344    -2.8245    -3.4238     2.5194
 3799.0760     8.4284      .0304    -2.8687    -3.3872     2.5265
 3799.2284     8.4181      .0212    -2.9129    -3.3506     2.4760
 3799.3808     8.4078      .0210    -2.9571    -3.4645     2.4109
 3799.5332     8.4043     -.0740    -3.0013     -.0517     2.5000
 3799.6856     8.4136     -.1019    -3.0455     -.0413     2.4997
 3799.8380     8.4231     -.1019    -3.0897     -.0310     2.4994
 3799.9904     8.4424     -.1018    -3.1339     -.0206     2.4990
 3800.1428     8.4617     -.1018    -3.1781     -.0103     2.4987
 3800.2952     8.4648     -.1018    -3.2223      .0001     2.4983
 3800.4476     8.4608     -.1018    -3.2665      .0104     2.4980
 3800.6000     8.4389     -.1018    -3.3107      .0208     2.4977
 3800.7524     8.4171     -.1018    -3.3549      .0312     2.4973
 3800.9048     8.3896     -.1018    -3.3991      .0415     2.4970
 3801.0572     8.3574     -.1017    -3.4433      .0519     2.4966
 3801.2096     8.3315     -.1017    -3.4875      .0584     2.4963
 3801.3620     8.3095     -.1017    -3.5087      .0576     2.4960
 3801.5144  -999.2500     -.1017    -3.4750      .0569     2.4956
 3801.6668  -999.2500     -.1017    -3.4413      .0561     2.4953
 3801.8192  -999.2500     -.1018    -3.4076      .0554     2.4955
 3801.9716  -999.2500     -.1019    -3.3739      .0546     2.4956
 3802.1240  -999.2500     -.1020    -3.3402      .0539     2.4958
 3802.2764  -999.2500     -.1021    -3.3065      .0531     2.4959
 3802.4288  -999.2500     -.1022    -3.2728      .0524     2.4961
 3802.5812  -999.2500     -.1022    -3.2391      .0537     2.4962
 3802.7336  -999.2500     -.1023    -3.2054      .0617     2.4964
 3802.8860  -999.2500     -.1024    -3.1717      .0698     2.4965
 3803.0384  -999.2500     -.1025    -3.1379      .0778     2.4966
 3803.1908  -999.2500     -.1026    -3.0835      .0859     2.4968
 3803.3432  -999.2500     -.1026    -2.9279      .0939     2.4969
 3803.4956  -999.2500     -.1027    -2.7723      .1020     2.4971
 3803.6480  -999.2500     -.1027    -2.6165      .1101     2.4972
 3803.8004  -999.2500     -.1027    -2.4608      .1181     2.4974
 3803.9528  -999.2500     -.1028    -2.3052      .1262     2.4975
 3804.1052  -999.2500     -.1028    -2.1573      .1342     2.4977
 3804.2576  -999.2500     -.1029    -2.2839      .1423     2.4978
 3804.4100  -999.2500     -.1029    -2.4106      .1503     2.4980
 3804.5624  -999.2500     -.1029    -2.5372      .1584     2.4981
 3804.7148  -999.2500     -.1030    -2.6637      .1608     2.4982
 3804.8672  -999.2500     -.1030    -2.7902      .1601     2.4984
 3805.0196  -999.2500     -.1031    -2.9170      .1593     2.4985
 3805.1720  -999.2500     -.1031  -999.2500      .1586     2.4987
 3805.3244  -999.2500     -.1031  -999.2500      .1578     2.4989
 3805.4768  -999.2500     -.1032  -999.2500      .1571     2.4991
 3805.6292  -999.2500     -.1032  -999.2500      .1563     2.4993
 3805.7816  -999.2500     -.1033  -999.2500  -999.2500     2.4995
