~VERSION INFORMATION
VERS.                                                 2.0:   CWLS Log ASCII Standard-VERSION 2.0
WRAP.                                                  NO:   One line per depth step
~Well Information Block
STRT.M                                          1185.7208:   Top Depth
STOP.M                                          3805.7816:   Bottom Depth
STEP.M                                             .15240:   Depth Increment
NULL.                                            -999.250:   Null Value
FLD .                                             WILDCAT:   Field Name
WELL.                                              15/6-3:   NAME
WBN .                                              15/6-3:   WELLBORE
NATI.                                                 NOR:   COUNTRY
BHT1.DEGF                                            97.0:   BH TEMP 1
BS1 .IN                                             17.50:   BIT SIZE 1
CTRY.                                                 NOR:   COUNTRY
CBD1.F                                             1265.0:   CSG 1 DRILL DEP
CBL1.F                                             1267.0:   CSG 1 LOG DEP
CS1 .IN                                              20.0:   CSG 1 SIZE
COMP.                        ESSO EXPLORATION NORWAY INC.:   OPERATOR
PDAT.                                                 MSL:   PERM DATUM
PROV.                                           NORTH SEA:   PROVINCE
COUN.                                         DRILLMASTER:   RIG NAME
SON .                                            DM 08/02:   SOURCE OPERATOR NAME
SPUD.                                                 N/A:   SPUD DATE
LATI.                                       58 30 15.90 N:   SURF. LATITUDE
LONG.                                        1 42 39.50 E:   SURF. LONGITUDE
BTD1.                                            3934.0 F:   TOTAL DEPTH 1
PBWE.                                              15/6-3:   PB WELL ID
APIN.                                              15/6-3:   PB WELLBORE ID
PBWS.                                                 all:   PB WELL NAME SET
~PARAMETER INFORMATION (log)
LNAM.                              FDC/CNL/GR  COMPOSITED:   NAME
LTYP.                                         DEPTH MATCH:   LOG TYPE
LSRV.                                            DEN/NEUT:   LOG SERVICE
LSOU.                                             SPT/NPD:   LOG SOURCE
LVSN.                                                   1:   LOG VERSION
BHIS.                                                   R:   BRIEF HISTORY
FHIS.                                             RAW-LIS:   FULL HISTORY
LCNM.                                        SCHLUMBERGER:   LOGGING CONTRACTOR
TOOL.                             FDC/CNL/GR (COMPOSITED):   TOOL STRING
~Curve Information Block
#MNEM.UNIT                                        API CODE    No Description
#=========                                        ========    == ===========
DEPT.M                                       00 001 00 00:     1  DEPTH
CALI.IN                                                  :     2  Caliper
DRHO.G/CC                                                :     3  Bulk density correction
GR.GAPI                                                  :     4  Gamma Ray
NPHI.%                                                   :     5  Neutron porosity
RHOB.G/CC                                                :     6  Bulk density
~ASCII
# ...
 1353.0560    12.2224      .0051    27.7848    38.2749     2.0491
 1353.2084    12.2459      .0165    28.5474    39.2555     2.0570
 1353.3608    12.2259      .0292    28.7587    39.1685     2.0692
 1353.5132    12.2138      .0342    28.6578    38.0645     2.0762
 1353.6656    12.1965      .0267    27.9242    37.6388     2.0567
 1353.8180    12.1705      .0097    27.5033    36.6981     2.0411
 1353.9704    12.1472      .0138    28.0511    36.2922     2.0514
 1354.1228    12.1566      .0187    28.6601    36.6526     2.0554
 1354.2752    12.1661      .0151    27.9599    35.9179     2.0445
 1354.4276    12.2097      .0068    28.2322    36.0728     2.0328
 1354.5800    12.2608      .0058    30.0034    37.7129     2.0280
 1354.7324    12.3092      .0083    31.3353    39.6084     2.0219
 1354.8848    12.3264      .0148    30.9526    41.9116     2.0242
 1355.0372    12.3004      .0325    31.4158    42.9867     2.0403
 1355.1896    12.2744      .0328    32.5949    42.2851     2.0469
 1355.3420    12.2669      .0207    32.2225    41.7420     2.0386
 1355.4944    12.2670      .0238    31.8056    40.1756     2.0516
 1355.6468    12.2788      .0266    32.4850    39.4546     2.0497
 1355.7992    12.2991      .0279    35.3973    40.1432     2.0441
 1355.9516    12.3164      .0410    38.3626    41.5924     2.0598
 1356.1040    12.3392      .0287    39.6385    39.9830     2.0548
 1356.2564    12.4187      .0252    39.8182    41.5926     2.0391
 1356.4088    12.5837      .0348    41.2409    43.0005     2.0414
 1356.5612    12.6742      .0407    40.5746    44.2627     2.0440
 1356.7136    12.6900      .0371    38.8041    44.7588     2.0323
 1356.8660    12.7115      .0458    36.2619    43.7367     2.0425
 1357.0184    12.8256      .0533    36.3531    43.1453     2.0616
 1357.1708    12.9668      .0462    36.8411    42.3184     2.0521
 1357.3232    12.7167      .0372    36.2319    41.0729     2.0435
 1357.4756    12.4603      .0369    35.4998    41.5014     2.0530
 1357.6280    12.2589      .0550    34.7665    41.8274     2.0752
 1357.7804    12.1515      .0672    34.7167    43.0852     2.0837
 1357.9328    12.1679      .0438    34.8872    43.2804     2.0562
 1358.0852    12.3162      .0225    34.8134    43.8158     2.0531
 1358.2376    12.4410      .0236    34.2232    42.2586     2.0743
 1358.3900    12.4858      .0384    31.2927    40.1846     2.0944
 1358.5424    12.4666      .0289    30.9655    39.5605     2.0889
 1358.6948    12.4535      .0176    32.0942    37.9218     2.0824
 1358.8472    12.4676      .0135    33.4257    36.2648     2.0771
 1358.9996    12.4507      .0095    33.7679    34.6091     2.0716
 1359.1520    12.4858      .0106    34.5528    32.9623     2.0797
 1359.3044    12.6341      .0315    35.4717    32.9167     2.0919
 1359.4568    12.6673      .0287    36.9081    34.2505     2.0796
 1359.6092    12.6873      .0372    40.6967    35.8614     2.0626
 1359.7616    12.6896      .0366    42.7357    39.3997     2.0512
 1359.9140    12.6897      .0437    45.4683    41.4018     2.0122
 1360.0664    12.6984      .0673    49.4811    45.8945     1.9885
 1360.2188    13.0777      .0831    55.0976    50.3488     1.9503
 1360.3712    13.1903      .0680    58.9018    53.7233     1.9164
 1360.5236    12.6735      .0632    61.4677    53.0401     1.9215
 1360.6760    12.4838      .0570    63.9595    54.2091     1.9192
 1360.8284    12.9714      .0413    65.5420    55.1990     1.9120
 1360.9808    12.7913      .0256    65.1437    54.3990     1.9059
 1361.1332    12.7272      .0181    63.4718    51.4058     1.9000
 1361.2856    13.0400      .0106    60.0956    47.8281     1.8782
 1361.4380    12.8805      .0198    58.4203    47.7572     1.8571
 1361.5904    12.7135      .0432    56.3314    48.4990     1.8519
 1361.7428    13.6822      .0533    55.9404    47.4916     1.8178
 1361.8952    14.2136      .0309    57.2339    51.0108     1.7922
 1362.0476    13.3362      .0284    61.0398    52.7840     1.8186
 1362.2000    12.7193      .0296    61.4677    53.7259     1.8660
 1362.3524    12.7890      .0316    62.7218    54.4978     1.9020
 1362.5048    12.6760      .0309    64.2486    55.5530     1.9231
 1362.6572    12.8199      .0229    66.4871    55.7295     1.9299
 1362.8096    13.0259      .0155    67.9437    54.4798     1.9330
 1362.9620    13.1370      .0334    69.4875    54.5267     1.9551
 1363.1144    13.6442      .0193    71.5094    53.6110     1.9470
 1363.2668    13.5339      .0348    72.3220    54.2560     1.9496
 1363.4192    13.2540      .0262    72.2220    53.3104     1.9237
 1363.5716    12.5789      .0335    73.1049    51.3380     1.9227
 1363.7240    13.0029      .0346    74.0717    51.7786     1.9325
 1363.8764    13.2790      .0361    72.2873    52.7083     1.9465
 1364.0288    12.9014      .0217    70.8044    54.5962     1.9224
 1364.1812    12.5536      .0087    70.9594    55.1649     1.9038
 1364.3336    12.8390      .0046    70.6031    55.0059     1.8889
 1364.4860    12.9007      .0032    70.3723    54.4871     1.8853
 1364.6384    12.4578      .0027    69.5077    53.9002     1.8847
 1364.7908    12.6383      .0035    69.2906    52.5585     1.8901
 1364.9432    12.8228      .0093    70.1829    51.5722     1.9049
 1365.0956    12.7015      .0153    71.6821    52.1180     1.9099
 1365.2480    12.5174      .0081    72.7284    51.1740     1.9030
 1365.4004    12.3625      .0107    73.7901    50.0940     1.9004
 1365.5528    12.6436      .0075    74.0257    52.5220     1.8989
 1365.7052    12.8258      .0124    72.9845    55.3491     1.9008
 1365.8576    12.6771      .0286    71.7538    54.8868     1.9165
 1366.0100    12.4295      .0282    69.9240    52.7633     1.9149
 1366.1624    12.3111      .0200    66.7107    49.5006     1.9048
 1366.3148    12.4116      .0107    63.9855    48.6628     1.9034
 1366.4672    12.6489      .0305    62.5118    51.0035     1.9364
 1366.6196    12.6623      .0481    63.8536    49.9701     1.9683
 1366.7720    12.6358      .0486    66.4814    51.9999     1.9797
 1366.9244    13.2283      .0334    65.3756    50.8206     1.9664
 1367.0768    12.9956      .0179    65.1965    50.8549     1.9522
 1367.2292    12.6561      .0207    68.5343    53.4298     1.9675
 1367.3816    12.9584      .0284    68.2808    55.5511     1.9571
 1367.5340    12.9501      .0277    68.0489    54.1448     1.9452
 1367.6864    12.6166      .0274    68.6643    52.9482     1.9410
 1367.8388    12.5689      .0228    67.1097    55.9779     1.9450
 1367.9912    12.6077      .0335    65.7362    56.8964     1.9621
 1368.1436    12.6170      .0326    64.8391    54.1525     1.9706
 1368.2960    12.5519      .0271    64.6216    53.8024     1.9440
 1368.4484    12.4995      .0184    64.2276    53.1637     1.9219
 1368.6008    12.7102      .0124    63.2242    52.7245     1.9094
 1368.7532    12.9211      .0301    60.8883    51.7689     1.9214
 1368.9056    13.0528      .0158    59.2165    50.6543     1.9350
 1369.0580    13.0177      .0082    61.2301    49.5388     1.9500
 1369.2104    13.1213      .0235    64.5623    49.2049     1.9888
 1369.3628    13.4152      .0343    67.2735    50.0749     1.9980
 1369.5152    13.7094      .0467    67.4611    49.6033     2.0071
 1369.6676    13.7241      .0559    65.7166    49.9102     2.0243
 1369.8200    13.5826      .0462    63.3406    49.9561     2.0121
 1369.9724    13.3271      .0423    62.9359    52.4759     1.9979
 1370.1248    12.7046      .0377    63.6777    54.5867     1.9863
 1370.2772    12.6853      .0234    65.5643    54.1493     1.9752
 1370.4296    12.8941      .0387    68.3262    52.8786     1.9895
 1370.5820    12.7749      .0316    69.8619    52.8576     1.9787
 1370.7344    13.1885      .0190    69.7144    51.9727     1.9706
 1370.8868    13.2336      .0311    69.4431    52.5527     1.9749
 1371.0392    12.8936      .0371    68.9133    50.0200     1.9689
 1371.1916    13.4087      .0511    67.8401    51.9026     1.9585
 1371.3440    13.3326      .0532    67.3473    53.8635     1.9416
 1371.4964    13.3014      .0494    67.3486    53.2019     1.9309
