~VERSION INFORMATION
VERS.                                                 2.0:   CWLS Log ASCII Standard-VERSION 2.0
WRAP.                                                  NO:   One line per depth step
~Well Information Block
STRT.M                                          1185.7208:   Top Depth
STOP.M                                          3805.7816:   Bottom Depth
STEP.M                                             .15240:   Depth Increment
NULL.                                            -999.250:   Null Value
FLD .                                             WILDCAT:   Field Name
WELL.                                              15/6-3:   NAME
WBN .                                              15/6-3:   WELLBORE
NATI.                                                 NOR:   COUNTRY
BHT1.DEGF                                            97.0:   BH TEMP 1
BS1 .IN                                             17.50:   BIT SIZE 1
CTRY.                                                 NOR:   COUNTRY
CBD1.F                                             1265.0:   CSG 1 DRILL DEP
CBL1.F                                             1267.0:   CSG 1 LOG DEP
CS1 .IN                                              20.0:   CSG 1 SIZE
COMP.                        ESSO EXPLORATION NORWAY INC.:   OPERATOR
PDAT.                                                 MSL:   PERM DATUM
PROV.                                           NORTH SEA:   PROVINCE
COUN.                                         DRILLMASTER:   RIG NAME
SON .                                            DM 08/02:   SOURCE OPERATOR NAME
SPUD.                                                 N/A:   SPUD DATE
LATI.                                       58 30 15.90 N:   SURF. LATITUDE
LONG.                                        1 42 39.50 E:   SURF. LONGITUDE
BTD1.                                            3934.0 F:   TOTAL DEPTH 1
PBWE.                                              15/6-3:   PB WELL ID
APIN.                                              15/6-3:   PB WELLBORE ID
PBWS.                                                 all:   PB WELL NAME SET
~PARAMETER INFORMATION (log)
LNAM.                              FDC/CNL/GR  COMPOSITED:   NAME
LTYP.                                         DEPTH MATCH:   LOG TYPE
LSRV.                                            DEN/NEUT:   LOG SERVICE
LSOU.                                             SPT/NPD:   LOG SOURCE
LVSN.                                                   1:   LOG VERSION
BHIS.                                                   R:   BRIEF HISTORY
FHIS.                                             RAW-LIS:   FULL HISTORY
LCNM.                                        SCHLUMBERGER:   LOGGING CONTRACTOR
TOOL.                             FDC/CNL/GR (COMPOSITED):   TOOL STRING
~Curve Information Block
#MNEM.UNIT                                        API CODE    No Description
#=========                                        ========    == ===========
DEPT.M                                       00 001 00 00:     1  DEPTH
CALI.IN                                                  :     2  Caliper
DRHO.G/CC                                                :     3  Bulk density correction
GR.GAPI                                                  :     4  Gamma Ray
NPHI.%                                                   :     5  Neutron porosity
RHOB.G/CC                                                :     6  Bulk density
~ASCII
# ...
 2319.8816    11.9888      .0185    28.3255    26.5583     2.1700
 2320.0340    11.9841      .0284    28.2297    26.9498     2.1769
 2320.1864    11.9758      .0249    28.7802    26.5641     2.1767
 2320.3388    11.9676      .0131    29.1082    26.1554     2.1654
 2320.4912    11.9594      .0119    28.9856    26.5307     2.1565
 2320.6436    11.9511      .0178    28.2674    27.2432     2.1665
 2320.7960    11.9444      .0366    28.2848    28.1101     2.1764
 2320.9484    11.9377      .0281    29.5024    29.0120     2.1623
 2321.1008    11.9304      .0216    30.1800    30.7070     2.1624
 2321.2532    11.9198      .0463    29.6925    30.9903     2.1811
 2321.4056    11.9091      .0665    27.9410    31.3818     2.1977
 2321.5580    11.8979      .0728    26.1395    33.0030     2.1924
 2321.7104    11.8868      .0644    25.2972    34.4920     2.1883
 2321.8628    11.8757      .0558    25.1222    35.4327     2.1814
 2322.0152    11.8552      .0422    24.8745    34.6800     2.1773
 2322.1676    11.8329      .0503    24.4710    33.6070     2.1797
 2322.3200    11.8106      .0563    24.0245    33.1899     2.1827
 2322.4724    11.7884      .0542    24.3662    33.4164     2.1738
 2322.6248    11.7662      .0552    25.4298    33.1205     2.1666
 2322.7772    11.7583      .0637    26.3460    32.5786     2.1752
 2322.9296    11.7620      .0700    26.1770    33.2175     2.1806
 2323.0820    11.7658      .0714    25.6259    33.8797     2.1887
 2323.2344    11.7695      .0599    25.1060    34.4395     2.1719
 2323.3868    11.7733      .0410    25.1719    34.1069     2.1583
 2323.5392    11.7770      .0493    26.0225    33.1008     2.1709
 2323.6916    11.7737      .0386    26.3820    33.1272     2.1539
 2323.8440    11.7654      .0327    26.7428    32.4965     2.1569
 2323.9964    11.7596      .0546    27.7766    31.7315     2.1723
 2324.1488    11.7600      .0470    29.2694    30.5709     2.1665
 2324.3012    11.7724      .0392    30.3500    30.1962     2.1765
 2324.4536    11.7991      .0352    31.2631    29.8839     2.1839
 2324.6060    11.8258      .0318    32.1470    28.8322     2.1928
 2324.7584    11.8525      .0242    33.1086    27.7612     2.2019
 2324.9108    11.8792      .0092    34.8098    26.7323     2.2074
 2325.0632    11.9059      .0107    36.5110    26.6115     2.2126
 2325.2156    11.9326      .0138    38.0438    27.0788     2.2098
 2325.3680    11.9593      .0168    39.5656    27.8581     2.2002
 2325.5204    11.9916      .0124    39.5114    28.8271     2.1907
 2325.6728    12.0237      .0145    39.3665    30.1983     2.1920
 2325.8252    12.0155      .0149    37.9508    31.9756     2.2033
 2325.9776    12.0073      .0122    36.3699    33.0409     2.2023
 2326.1300    11.9806      .0250    34.0733    31.4199     2.2009
 2326.2824    11.9489      .0338    32.9002    29.7729     2.1994
 2326.4348    11.9399      .0221    33.7797    28.6684     2.1763
 2326.5872    12.0007      .0092    32.8174    28.5701     2.1664
 2326.7396    12.0268      .0165    32.7507    28.5493     2.1729
 2326.8920    12.0272      .0171    33.5133    28.0189     2.1712
 2327.0444    12.0137      .0052    34.9508    28.5350     2.1528
 2327.1968    11.9990      .0075    38.2346    29.6483     2.1531
 2327.3492    11.9977      .0131    42.6673    30.8293     2.1655
 2327.5016    12.0319      .0244    49.0305    33.9923     2.1737
 2327.6540    12.0662      .0406    54.5156    38.0597     2.2051
 2327.8064    12.1005      .0709    60.0006    42.0155     2.2522
 2327.9588    12.1258      .0880    61.2670    43.0810     2.3049
 2328.1112    12.0960      .0813    56.4937    39.5587     2.3095
 2328.2636    12.0206      .0675    51.2120    35.3200     2.2913
 2328.4160    11.9237      .0448    46.1497    33.2427     2.2628
 2328.5684    11.8642      .0340    43.8947    32.6696     2.2354
 2328.7208    11.8557      .0282    43.0800    34.0214     2.2156
 2328.8732    11.8781      .0311    43.3283    34.1221     2.2028
 2329.0256    11.8858      .0492    43.5932    34.6113     2.2221
 2329.1780    11.8660      .0463    43.6980    34.2191     2.2415
 2329.3304    11.8485      .0474    41.9760    33.1548     2.2428
 2329.4828    11.8350      .0526    40.1757    33.0322     2.2280
 2329.6352    11.8215      .0528    40.9201    33.7272     2.2040
 2329.7876    11.8079      .0634    43.2613    35.0113     2.2195
 2329.9400    11.7944      .0837    46.2466    34.9540     2.2603
 2330.0924    11.7814      .0832    49.2367    36.1932     2.2794
 2330.2448    11.7858      .0713    52.2220    37.3768     2.2871
 2330.3972    11.8162      .0594    54.1968    38.0549     2.2769
 2330.5496    11.8650      .0580    52.3958    39.2253     2.2895
 2330.7020    11.8379      .0621    50.3397    39.8178     2.2862
 2330.8544    11.8044      .0591    47.8543    38.0938     2.2896
 2331.0068    11.7829      .0647    45.3689    36.7295     2.2777
 2331.1592    11.7784      .0574    42.8834    35.8432     2.2500
 2331.3116    11.7756      .0443    41.9008    34.7816     2.2467
 2331.4640    11.7651      .0490    39.7195    33.5263     2.2502
 2331.6164    11.7639      .0494    36.9201    32.7155     2.2469
 2331.7688    11.7736      .0581    35.3454    31.9836     2.2144
 2331.9212    11.7804      .0538    33.7707    31.4954     2.1900
 2332.0736    11.7495      .0493    33.3410    30.7957     2.1878
 2332.2260    11.6813      .0466    33.7234    29.9154     2.1783
 2332.3784    11.6767      .0400    34.2848    29.8008     2.1711
 2332.5308    11.7127      .0339    35.7434    29.9828     2.1744
 2332.6832    11.7674      .0372    36.9706    30.0501     2.1843
 2332.8356    11.7620      .0289    37.1061    29.4101     2.1904
 2332.9880    11.7579      .0314    37.2416    28.8853     2.1988
 2333.1404    11.8086      .0114    37.7711    28.4843     2.1854
 2333.2928    11.8610      .0054    38.4309    28.0826     2.1888
 2333.4452    11.9518      .0120    42.3881    27.7585     2.2059
 2333.5976    12.0437      .0222    45.7763    28.2295     2.2187
 2333.7500    12.0256      .0389    48.4597    29.6726     2.2504
 2333.9024    11.9856      .0555    51.1430    31.6223     2.3136
 2334.0548    11.9860      .0599    52.1795    32.0818     2.3432
 2334.2072    11.9979      .0514    48.4804    30.8472     2.3568
 2334.3596    12.0010      .0368    47.3560    29.1762     2.3444
 2334.5120    11.9880      .0247    46.2315    27.9079     2.3149
 2334.6644    11.9163      .0334    45.7140    27.2488     2.2822
 2334.8168    11.8560      .0518    47.7398    27.0347     2.2874
 2334.9692    11.8215      .0452    50.5907    27.9872     2.2946
 2335.1216    11.8115      .0298    53.2543    29.0159     2.2935
 2335.2740    11.8206      .0293    53.5380    30.0516     2.2871
 2335.4264    11.7606      .0255    53.1296    30.8875     2.2544
 2335.5788    11.7105      .0177    52.1486    31.4232     2.2229
 2335.7312    11.7104      .0230    51.2169    31.9160     2.2132
 2335.8836    11.7108      .0251    52.0079    31.6385     2.2112
 2336.0360    11.7112      .0155    52.8379    30.9048     2.2094
 2336.1884    11.7116      .0206    50.2756    29.9840     2.2099
 2336.3408    11.7249      .0313    46.8452    29.2452     2.2150
 2336.4932    11.7452      .0232    45.0738    29.0134     2.1958
 2336.6456    11.7717      .0134    43.3835    29.0355     2.1846
 2336.7980    11.8009      .0113    41.6626    29.7480     2.1771
 2336.9504    11.8376      .0190    40.4040    30.2337     2.1778
 2337.1028    11.8444      .0164    41.0100    30.7566     2.1539
 2337.2552    11.8290      .0269    40.2265    31.3737     2.1698
 2337.4076    11.8160      .0487    38.5904    32.1439     2.1871
 2337.5600    11.8152      .0613    38.8915    32.9528     2.2002
 2337.7124    11.8077      .0646    40.2181    35.0243     2.1944
 2337.8648    11.7929      .0611    40.7219    35.8492     2.1878
 2338.0172    11.7611      .0579    38.9207    35.8694     2.1785
 2338.1696    11.7293      .0640    38.4158    36.8840     2.1841
 2338.3220    11.7617      .0695    38.1433    38.2126     2.1855
