~VERSION INFORMATION
VERS.                                                 2.0:   CWLS Log ASCII Standard-VERSION 2.0
WRAP.                                                  NO:   One line per depth step
~Well Information Block
STRT.M                                          1185.7208:   Top Depth
STOP.M                                          3805.7816:   Bottom Depth
STEP.M                                             .15240:   Depth Increment
NULL.                                            -999.250:   Null Value
FLD .                                             WILDCAT:   Field Name
WELL.                                              15/6-3:   NAME
WBN .                                              15/6-3:   WELLBORE
NATI.                                                 NOR:   COUNTRY
BHT1.DEGF                                            97.0:   BH TEMP 1
BS1 .IN                                             17.50:   BIT SIZE 1
CTRY.                                                 NOR:   COUNTRY
CBD1.F                                             1265.0:   CSG 1 DRILL DEP
CBL1.F                                             1267.0:   CSG 1 LOG DEP
CS1 .IN                                              20.0:   CSG 1 SIZE
COMP.                        ESSO EXPLORATION NORWAY INC.:   OPERATOR
PDAT.                                                 MSL:   PERM DATUM
PROV.                                           NORTH SEA:   PROVINCE
COUN.                                         DRILLMASTER:   RIG NAME
SON .                                            DM 08/02:   SOURCE OPERATOR NAME
SPUD.                                                 N/A:   SPUD DATE
LATI.                                       58 30 15.90 N:   SURF. LATITUDE
LONG.                                        1 42 39.50 E:   SURF. LONGITUDE
BTD1.                                            3934.0 F:   TOTAL DEPTH 1
PBWE.                                              15/6-3:   PB WELL ID
APIN.                                              15/6-3:   PB WELLBORE ID
PBWS.                                                 all:   PB WELL NAME SET
~PARAMETER INFORMATION (log)
LNAM.                              FDC/CNL/GR  COMPOSITED:   NAME
LTYP.                                         DEPTH MATCH:   LOG TYPE
LSRV.                                            DEN/NEUT:   LOG SERVICE
LSOU.                                             SPT/NPD:   LOG SOURCE
LVSN.                                                   1:   LOG VERSION
BHIS.                                                   R:   BRIEF HISTORY
FHIS.                                             RAW-LIS:   FULL HISTORY
LCNM.                                        SCHLUMBERGER:   LOGGING CONTRACTOR
TOOL.                             FDC/CNL/GR (COMPOSITED):   TOOL STRING
~Curve Information Block
#MNEM.UNIT                                        API CODE    No Description
#=========                                        ========    == ===========
DEPT.M                                       00 001 00 00:     1  DEPTH
CALI.IN                                                  :     2  Caliper
DRHO.G/CC                                                :     3  Bulk density correction
GR.GAPI                                                  :     4  Gamma Ray
NPHI.%                                                   :     5  Neutron porosity
RHOB.G/CC                                                :     6  Bulk density
~ASCII
# ...
 2152.5464    13.5682      .0446    57.3529    46.4660     2.2399
 2152.6988    13.6424      .0619    58.1121    48.8519     2.2924
 2152.8512    13.6795      .0831    60.1634    50.5928     2.3075
 2153.0036    13.6561      .0741    60.8811    50.9696     2.3259
 2153.1560    13.5232      .0487    62.0141    50.8053     2.2906
 2153.3084    13.3628      .0410    61.3563    50.6305     2.2480
 2153.4608    13.3530      .0426    59.6329    51.1666     2.2058
 2153.6132    13.5138      .0404    58.2388    53.2860     2.1849
 2153.7656    13.1988      .0496    56.9040    54.7744     2.1986
 2153.9180    12.5734      .0332    58.1434    52.1620     2.2049
 2154.0704    12.6893      .0437    62.4873    49.9387     2.2108
 2154.2228    12.9495      .0562    66.5006    48.8040     2.2171
 2154.3752    13.2098      .0723    65.8587    49.3995     2.2368
 2154.5276    13.1269      .0711    64.3307    47.0924     2.2440
 2154.6800    12.9430      .0644    60.0178    47.2551     2.2510
 2154.8324    13.9438      .0569    58.9973    47.7473     2.2368
 2154.9848    14.2566      .0471    59.3720    47.5589     2.2179
 2155.1372    13.9718      .0328    59.9046    50.6165     2.1755
 2155.2896    13.9716      .0196    59.6745    50.6342     2.1529
 2155.4420    13.9198      .0331    58.8310    50.1712     2.1706
 2155.5944    13.9712      .0463    57.3180    48.4178     2.1822
 2155.7468    14.0645      .0426    54.6312    46.6740     2.1911
 2155.8992    14.0224      .0417    52.1895    46.9937     2.1981
 2156.0516    13.7316      .0272    49.4647    45.1522     2.2022
 2156.2040    13.3324      .0171    47.7351    42.7639     2.2239
 2156.3564    13.2424      .0359    48.6264    44.1700     2.2197
 2156.5088    13.3883      .0334    51.2563    45.0900     2.1444
 2156.6612    13.3749      .0161    55.4002    47.6394     2.1228
 2156.8136    13.3109      .0205    59.5459    48.0494     2.1420
 2156.9660    13.3535      .0248    61.3182    49.1442     2.1579
 2157.1184    13.7330      .0020    62.6651    49.6973     2.1383
 2157.2708    14.1125      .0018    62.5350    49.7590     2.1296
 2157.4232    14.1306      .0318    62.8737    50.1345     2.1616
 2157.5756    14.0350      .0426    63.7706    50.0366     2.1762
 2157.7280    13.9654      .0304    62.3363    49.7741     2.1712
 2157.8804    13.9282      .0181    60.4411    49.8492     2.1372
 2158.0328    13.9457      .0278    59.9303    51.8509     2.1367
 2158.1852    13.9821      .0369    57.2890    52.2419     2.1438
 2158.3376    13.7616      .0114    53.6974    50.0849     2.1356
 2158.4900    13.5410     -.0102    51.8352    47.5514     2.1556
 2158.6424    13.5989      .0067    50.8488    43.2906     2.1938
 2158.7948    13.8953      .0397    50.6368    42.6237     2.2737
 2158.9472    13.9713      .0440    48.2491    43.5230     2.2679
 2159.0996    13.9540      .0414    48.1961    40.4947     2.2591
 2159.2520    13.7610      .0816    52.0798    38.7954     2.2679
 2159.4044    13.6769      .0929    57.7797    44.1169     2.1951
 2159.5568    14.0576      .0739    60.4194    46.9440     2.1921
 2159.7092    14.2954      .0498    61.8927    48.0782     2.1678
 2159.8616    14.5794      .0231    62.1349    47.3653     2.1445
 2160.0140    14.7454      .0215    61.9753    46.7453     2.1414
 2160.1664    14.4541      .0287    62.3280    47.8652     2.1609
 2160.3188    14.3510      .0399    62.5998    46.2984     2.1950
 2160.4712    14.6273      .0511    63.7048    47.0778     2.2274
 2160.6236    14.4791      .0568    65.1476    48.7248     2.2479
 2160.7760    14.4906      .0528    67.1374    49.5540     2.2228
 2160.9284    14.6134      .0494    69.6630    48.8708     2.2256
 2161.0808    14.5727      .0460    64.2262    48.2160     2.2429
 2161.2332    14.4930      .0558    58.9245    46.8750     2.2319
 2161.3856    14.5931      .0703    54.5618    45.8300     2.2444
 2161.5380    14.2897      .0812    52.0260    44.5647     2.2491
 2161.6904    13.9398      .0887    51.5394    41.7263     2.2619
 2161.8428    13.9229      .1338    52.1079    43.2408     2.2933
 2161.9952    14.2936      .1052    51.8089    43.9446     2.2555
 2162.1476    14.6637      .0731    49.8390    44.4639     2.2593
 2162.3000    14.6624      .0663    50.5160    44.5078     2.2563
 2162.4524    14.5135      .0314    50.4644    45.3742     2.2359
 2162.6048    14.6399      .0081    51.2605    45.7339     2.1971
 2162.7572    14.7909      .0287    52.5023    44.9337     2.2127
 2162.9096    14.7094      .0629    53.6554    46.4310     2.2233
 2163.0620    14.7014      .0753    54.2694    46.5621     2.2151
 2163.2144    14.7069      .0545    54.6180    47.1669     2.1852
 2163.3668    14.7989      .0363    54.8979    46.6223     2.1586
 2163.5192    14.7782      .0126    55.5945    46.6924     2.1602
 2163.6716    14.5658      .0251    57.4638    47.7824     2.1946
 2163.8240    14.5404      .0610    58.7617    46.6330     2.2280
 2163.9764    14.5162      .0661    56.7937    46.0003     2.2276
 2164.1288    14.4606      .0543    54.9000    46.2005     2.2088
 2164.2812    14.3606      .0468    56.0257    43.9123     2.2190
 2164.4336    14.2578      .0590    58.4447    40.7836     2.2564
 2164.5860    14.1534      .0736    59.4321    40.3467     2.2805
 2164.7384    14.0748      .0503    60.4778    40.8466     2.2499
 2164.8908    13.9830      .0479    61.5713    40.5782     2.2578
 2165.0432    13.9190      .0560    62.1435    41.6521     2.2669
 2165.1956    14.1183      .0464    60.3458    42.5520     2.2568
 2165.3480    14.3780      .0351    61.4039    41.3429     2.2276
 2165.5004    13.9186      .0416    60.1127    43.0023     2.2279
 2165.6528    13.9448      .0639    59.4528    44.4971     2.2328
 2165.8052    13.9644      .1037    58.8150    44.5032     2.2356
 2165.9576    14.0020      .1118    57.9111    44.4880     2.2173
 2166.1100    14.3002      .0669    59.5394    44.8862     2.1895
 2166.2624    14.1302      .0766    58.8688    42.4782     2.1943
 2166.4148    13.8681      .0539    57.1637    40.8943     2.1894
 2166.5672    13.8245      .0280    54.2457    39.4196     2.2053
 2166.7196    13.7559      .0607    52.5292    40.3080     2.2740
 2166.8720    13.7061      .0360    52.0857    40.2947     2.2779
 2167.0244    13.8273      .0432    50.5920    40.7453     2.2734
 2167.1768    13.8974      .0732    47.8850    41.8823     2.2890
 2167.3292    13.8767      .0857    43.4690    43.5532     2.2749
 2167.4816    13.7999      .0912    37.6329    43.0361     2.2736
 2167.6340    13.3247      .0499    33.0025    36.7066     2.2811
 2167.7864    13.4978      .0873    33.8296    32.3390     2.3139
 2167.9388    13.0624      .1312    38.0363    43.7427     2.2854
 2168.0912    13.3274      .1297    43.2581    49.7646     2.2141
 2168.2436    13.5800      .0845    44.7592    50.3176     2.1948
 2168.3960    13.8108      .0501    44.5193    49.5262     2.2204
 2168.5484    14.0310      .0462    41.5524    47.3386     2.2504
 2168.7008    14.2025      .0316    40.1759    45.3896     2.2453
 2168.8532    13.8045      .0328    40.3890    44.4258     2.2387
 2169.0056    13.4900      .0384    41.4512    44.0440     2.2425
 2169.1580    13.4814      .0090    42.4734    41.6183     2.2259
 2169.3104    13.5834      .0111    43.4660    39.8549     2.2444
 2169.4628    13.6031      .0184    43.3978    41.6093     2.2610
 2169.6152    13.6017      .0293    43.3128    44.5550     2.2696
 2169.7676    13.5771      .0403    42.6332    45.3468     2.2766
 2169.9200    13.6468      .0511    41.6136    45.6477     2.2690
 2170.0724    13.8173      .0598    42.1684    44.6825     2.2459
 2170.2248    13.6741      .0528    42.7513    44.4712     2.2276
 2170.3772    13.5971      .0507    42.7488    44.4317     2.2094
 2170.5296    13.6241      .0698    43.3961    43.4512     2.2232
 2170.6820    13.6069      .0992    44.0342    42.3527     2.2392
 2170.8344    13.1834      .1008    43.0983    41.1759     2.2632
 2170.9868    13.0875      .1023    43.4438    42.9960     2.2977
