~VERSION INFORMATION
VERS.                                                 2.0:   CWLS Log ASCII Standard-VERSION 2.0
WRAP.                                                  NO:   One line per depth step
~Well Information Block
STRT.M                                          1185.7208:   Top Depth
STOP.M                                          3805.7816:   Bottom Depth
STEP.M                                             .15240:   Depth Increment
NULL.                                            -999.250:   Null Value
FLD .                                             WILDCAT:   Field Name
WELL.                                              15/6-3:   NAME
WBN .                                              15/6-3:   WELLBORE
NATI.                                                 NOR:   COUNTRY
BHT1.DEGF                                            97.0:   BH TEMP 1
BS1 .IN                                             17.50:   BIT SIZE 1
CTRY.                                                 NOR:   COUNTRY
CBD1.F                                             1265.0:   CSG 1 DRILL DEP
CBL1.F                                             1267.0:   CSG 1 LOG DEP
CS1 .IN                                              20.0:   CSG 1 SIZE
COMP.                        ESSO EXPLORATION NORWAY INC.:   OPERATOR
PDAT.                                                 MSL:   PERM DATUM
PROV.                                           NORTH SEA:   PROVINCE
COUN.                                         DRILLMASTER:   RIG NAME
SON .                                            DM 08/02:   SOURCE OPERATOR NAME
SPUD.                                                 N/A:   SPUD DATE
LATI.                                       58 30 15.90 N:   SURF. LATITUDE
LONG.                                        1 42 39.50 E:   SURF. LONGITUDE
BTD1.                                            3934.0 F:   TOTAL DEPTH 1
PBWE.                                              15/6-3:   PB WELL ID
APIN.                                              15/6-3:   PB WELLBORE ID
PBWS.                                                 all:   PB WELL NAME SET
~PARAMETER INFORMATION (log)
LNAM.                              FDC/CNL/GR  COMPOSITED:   NAME
LTYP.                                         DEPTH MATCH:   LOG TYPE
LSRV.                                            DEN/NEUT:   LOG SERVICE
LSOU.                                             SPT/NPD:   LOG SOURCE
LVSN.                                                   1:   LOG VERSION
BHIS.                                                   R:   BRIEF HISTORY
FHIS.                                             RAW-LIS:   FULL HISTORY
LCNM.                                        SCHLUMBERGER:   LOGGING CONTRACTOR
TOOL.                             FDC/CNL/GR (COMPOSITED):   TOOL STRING
~Curve Information Block
#MNEM.UNIT                                        API CODE    No Description
#=========                                        ========    == ===========
DEPT.M                                       00 001 00 00:     1  DEPTH
CALI.IN                                                  :     2  Caliper
DRHO.G/CC                                                :     3  Bulk density correction
GR.GAPI                                                  :     4  Gamma Ray
NPHI.%                                                   :     5  Neutron porosity
RHOB.G/CC                                                :     6  Bulk density
~ASCII
# ...
 1501.7984    14.8346      .0450    55.8667    43.5211     2.0479
 1501.9508    14.9058      .0512    55.8135    44.1385     2.0587
 1502.1032    14.9622      .0312    57.8381    43.5873     2.0513
 1502.2556    14.7473      .0294    57.7388    42.3764     2.0766
 1502.4080    14.6197      .0372    56.7012    42.1479     2.1086
 1502.5604    14.6526      .0313    55.6644    42.6036     2.1221
 1502.7128    14.6953      .0256    55.2570    44.0174     2.1248
 1502.8652    14.8288      .0236    56.2926    43.1398     2.1206
 1503.0176    15.0120      .0369    58.2412    42.2138     2.1248
 1503.1700    15.0197      .0307    60.3503    42.8633     2.1076
 1503.3224    14.9193      .0425    61.0468    43.6976     2.0967
 1503.4748    14.9792      .0532    60.6170    44.9634     2.1043
 1503.6272    15.2700      .0590    61.9081    46.0793     2.0956
 1503.7796    15.1759      .0648    62.1325    46.8386     2.0984
 1503.9320    15.0650      .0510    61.3070    46.1909     2.0770
 1504.0844    14.4015      .0256    60.4809    45.5427     2.0504
 1504.2368    14.6460      .0199    62.1321    45.0316     2.0541
 1504.3892    14.8125      .0398    63.9757    46.0236     2.0753
 1504.5416    14.8129      .0458    63.0919    47.7801     2.0827
 1504.6940    14.8671      .0462    65.1567    47.6039     2.0804
 1504.8464    14.8756      .0433    66.0679    46.7834     2.0722
 1504.9988    14.8486      .0396    66.0661    46.1337     2.0633
 1505.1512    14.8336      .0421    66.9034    46.8273     2.0613
 1505.3036    14.8279      .0377    66.3474    47.1322     2.0515
 1505.4560    14.8889      .0358    64.4750    47.0340     2.0538
 1505.6084    14.9155      .0593    63.4008    46.6479     2.0779
 1505.7608    14.9258      .0675    63.1312    45.6388     2.0925
 1505.9132    14.8132      .0653    61.3645    44.4476     2.0820
 1506.0656    14.8171      .0548    59.3221    44.5782     2.0754
 1506.2180    14.8073      .0424    59.7214    44.8342     2.0523
 1506.3704    14.7182      .0331    59.7198    45.3640     2.0411
 1506.5228    14.7585      .0338    58.0550    44.5101     2.0526
 1506.6752    14.9361      .0474    56.5017    44.9213     2.0900
 1506.8276    14.8655      .0512    58.0036    44.9212     2.1043
 1506.9800    14.7019      .0573    58.0259    44.4091     2.1042
 1507.1324    14.5679      .0525    58.8033    44.9529     2.0831
 1507.2848    14.4505      .0372    60.0488    45.7545     2.0546
 1507.4372    14.4224      .0430    61.2953    46.5867     2.0493
 1507.5896    14.5221      .0480    62.5408    47.1751     2.0575
 1507.7420    14.6143      .0474    62.9353    45.8532     2.0638
 1507.8944    14.5130      .0299    62.5415    45.7774     2.0603
 1508.0468    14.5892      .0398    62.0159    45.9952     2.0794
 1508.1992    14.5310      .0504    61.6239    46.5504     2.0792
 1508.3516    14.4023      .0581    63.7962    46.1521     2.0753
 1508.5040    14.2606      .0400    64.5265    45.6760     2.0588
 1508.6564    14.1085      .0283    64.5341    44.6576     2.0365
 1508.8088    14.1994      .0260    64.4074    44.3245     2.0306
 1508.9612    14.4331      .0332    63.7840    45.3106     2.0356
 1509.1136    14.5463      .0420    63.1611    46.2960     2.0452
 1509.2660    14.4850      .0407    62.5382    47.3253     2.0516
 1509.4184    14.5201      .0376    64.4978    48.3563     2.0529
 1509.5708    14.5840      .0347    67.0341    48.8588     2.0615
 1509.7232    14.4094      .0316    66.5483    49.6878     2.0611
 1509.8756    14.4825      .0283    65.4656    50.2287     2.0507
 1510.0280    14.6097      .0288    66.5162    49.1551     2.0427
 1510.1804    14.6102      .0384    66.9683    48.0240     2.0566
 1510.3328    14.5631      .0494    65.8512    47.7886     2.0756
 1510.4852    14.4763      .0501    64.6803    48.2839     2.0834
 1510.6376    14.3925      .0424    63.7886    46.8827     2.0798
 1510.7900    14.4704      .0451    64.2594    46.1254     2.0807
 1510.9424    14.6024      .0627    65.3000    47.8447     2.0967
 1511.0948    14.3747      .0593    65.4969    46.4502     2.0886
 1511.2472    14.2450      .0506    64.7774    45.7741     2.0834
 1511.3996    14.2539      .0412    63.5031    47.0077     2.0744
 1511.5520    14.3546      .0301    62.4164    47.7005     2.0498
 1511.7044    14.4553      .0351    62.5575    47.9460     2.0387
 1511.8568    14.4930      .0458    63.3300    47.3455     2.0529
 1512.0092    14.2747      .0543    63.8760    44.9073     2.0724
 1512.1616    14.4023      .0451    61.9131    44.8303     2.0669
 1512.3140    14.5045      .0292    59.4945    45.2963     2.0556
 1512.4664    14.4222      .0238    58.6025    45.7459     2.0628
 1512.6188    14.4833      .0277    57.2389    45.4128     2.0635
 1512.7712    14.7381      .0215    56.2411    44.5919     2.0559
 1512.9236    14.8396      .0251    56.9574    45.0627     2.0586
 1513.0760    14.6970      .0357    59.5596    45.4987     2.0392
 1513.2284    15.2371      .0459    61.7212    44.1897     2.0462
 1513.3808    15.3751      .0349    62.2630    44.0180     2.0388
 1513.5332    15.0752      .0239    62.2668    44.8329     2.0232
 1513.6856    14.8276      .0312    62.5897    45.7611     2.0222
 1513.8380    14.6125      .0446    61.9102    46.7534     2.0341
 1513.9904    14.6249      .0330    61.1220    46.4798     2.0403
 1514.1428    14.6835      .0322    62.8461    45.6766     2.0526
 1514.2952    13.9948      .0407    62.8878    45.2763     2.0567
 1514.4476    14.0922      .0483    62.6338    45.4103     2.0735
 1514.6000    13.9463      .0436    62.7779    46.0403     2.0602
 1514.7524    14.2185      .0342    64.3197    46.7232     2.0455
 1514.9048    14.5843      .0389    64.5662    48.1495     2.0468
 1515.0572    14.5742      .0579    63.9131    49.6636     2.0547
 1515.2096    14.4042      .0616    63.5060    50.1314     2.0538
 1515.3620    14.2076      .0464    63.8094    50.8098     2.0371
 1515.5144    14.4240      .0303    65.3112    50.1782     2.0200
 1515.6668    14.6406      .0348    63.8937    47.7015     2.0100
 1515.8192    14.7453      .0372    62.9790    45.2268     2.0198
 1515.9716    14.6742      .0396    61.2766    44.1302     2.0343
 1516.1240    14.8478      .0387    59.8167    44.4503     2.0394
 1516.2764    14.8421      .0400    58.0338    44.3450     2.0433
 1516.4288    14.7113      .0478    55.8826    44.3205     2.0512
 1516.5812    14.7118      .0544    55.4801    44.5575     2.0649
 1516.7336    14.7286      .0449    55.7773    44.6478     2.0600
 1516.8860    14.6397      .0278    55.1221    44.8198     2.0357
 1517.0384    14.5250      .0423    55.0741    43.4936     2.0527
 1517.1908    14.4572      .0430    55.6797    42.1684     2.0442
 1517.3432    14.4877      .0352    55.7749    40.7551     2.0245
 1517.4956    14.4489      .0280    55.3179    41.5587     2.0132
 1517.6480    14.4331      .0325    56.2542    42.3630     2.0069
 1517.8004    14.5656      .0582    58.4815    42.3161     2.0377
 1517.9528    14.4748      .0764    60.3473    41.7843     2.0537
 1518.1052    14.5501      .0709    60.5794    41.5138     2.0478
 1518.2576    14.5092      .0599    60.5830    44.4092     2.0429
 1518.4100    14.5291      .0508    59.8136    45.5997     2.0467
 1518.5624    14.5760      .0658    57.8629    44.8475     2.0700
 1518.7148    14.6491      .0475    57.0351    43.9690     2.0788
 1518.8672    14.7236      .0269    57.9399    44.5593     2.0652
 1519.0196    14.7002      .0203    58.7386    45.4607     2.0906
 1519.1720    14.8374      .0520    60.0829    46.6385     2.1204
 1519.3244    14.9513      .0569    61.5566    47.7763     2.1062
 1519.4768    14.5617      .0478    62.6611    48.4280     2.0631
 1519.6292    14.5823      .0430    63.9166    46.5001     2.0476
 1519.7816    14.8335      .0488    63.5793    44.2680     2.0545
 1519.9340    15.0694      .0475    62.9210    44.0460     2.0620
 1520.0864    14.7586      .0320    62.0768    45.1367     2.0541
 1520.2388    14.8593      .0200    62.5346    46.4314     2.0423
