~VERSION INFORMATION
VERS.                                                 2.0:   CWLS Log ASCII Standard-VERSION 2.0
WRAP.                                                  NO:   One line per depth step
~Well Information Block
STRT.M                                          1185.7208:   Top Depth
STOP.M                                          3805.7816:   Bottom Depth
STEP.M                                             .15240:   Depth Increment
NULL.                                            -999.250:   Null Value
FLD .                                             WILDCAT:   Field Name
WELL.                                              15/6-3:   NAME
WBN .                                              15/6-3:   WELLBORE
NATI.                                                 NOR:   COUNTRY
BHT1.DEGF                                            97.0:   BH TEMP 1
BS1 .IN                                             17.50:   BIT SIZE 1
CTRY.                                                 NOR:   COUNTRY
CBD1.F                                             1265.0:   CSG 1 DRILL DEP
CBL1.F                                             1267.0:   CSG 1 LOG DEP
CS1 .IN                                              20.0:   CSG 1 SIZE
COMP.                        ESSO EXPLORATION NORWAY INC.:   OPERATOR
PDAT.                                                 MSL:   PERM DATUM
PROV.                                           NORTH SEA:   PROVINCE
COUN.                                         DRILLMASTER:   RIG NAME
SON .                                            DM 08/02:   SOURCE OPERATOR NAME
SPUD.                                                 N/A:   SPUD DATE
LATI.                                       58 30 15.90 N:   SURF. LATITUDE
LONG.                                        1 42 39.50 E:   SURF. LONGITUDE
BTD1.                                            3934.0 F:   TOTAL DEPTH 1
PBWE.                                              15/6-3:   PB WELL ID
APIN.                                              15/6-3:   PB WELLBORE ID
PBWS.                                                 all:   PB WELL NAME SET
~PARAMETER INFORMATION (log)
LNAM.                              FDC/CNL/GR  COMPOSITED:   NAME
LTYP.                                         DEPTH MATCH:   LOG TYPE
LSRV.                                            DEN/NEUT:   LOG SERVICE
LSOU.                                             SPT/NPD:   LOG SOURCE
LVSN.                                                   1:   LOG VERSION
BHIS.                                                   R:   BRIEF HISTORY
FHIS.                                             RAW-LIS:   FULL HISTORY
LCNM.                                        SCHLUMBERGER:   LOGGING CONTRACTOR
TOOL.                             FDC/CNL/GR (COMPOSITED):   TOOL STRING
~Curve Information Block
#MNEM.UNIT                                        API CODE    No Description
#=========                                        ========    == ===========
DEPT.M                                       00 001 00 00:     1  DEPTH
CALI.IN                                                  :     2  Caliper
DRHO.G/CC                                                :     3  Bulk density correction
GR.GAPI                                                  :     4  Gamma Ray
NPHI.%                                                   :     5  Neutron porosity
RHOB.G/CC                                                :     6  Bulk density
~ASCII
# ...
 1985.2112    11.9238      .0239    19.3060    28.6408     2.2203
 1985.3636    11.9545      .0156    19.6881    27.3576     2.2234
 1985.5160    11.9486      .0164    19.8321    27.0107     2.2349
 1985.6684    11.9427      .0180    19.3541    28.3503     2.2395
 1985.8208    11.9368      .0284    19.0606    29.0734     2.2462
 1985.9732    11.9017      .0348    19.0573    29.2404     2.2527
 1986.1256    11.8552      .0315    19.1642    29.1467     2.2524
 1986.2780    11.8211      .0180    19.9782    29.0896     2.2353
 1986.4304    11.7969      .0189    20.0596    30.4804     2.2258
 1986.5828    11.7845      .0229    19.1524    32.0012     2.2292
 1986.7352    11.7743      .0209    18.6958    32.4852     2.2328
 1986.8876    11.7742      .0324    18.4502    33.1292     2.2427
 1987.0400    11.7740      .0512    18.3860    33.9452     2.2604
 1987.1924    11.7635      .0377    18.5819    34.7104     2.2523
 1987.3448    11.7392      .0468    18.7863    33.4442     2.2638
 1987.4972    11.7335      .0622    18.1123    30.2639     2.2855
 1987.6496    11.7334      .0516    18.1006    28.9183     2.2695
 1987.8020    11.7332      .0752    19.3665    28.8018     2.2908
 1987.9544    11.7331      .0945    20.3934    29.1956     2.3136
 1988.1068    11.7138      .0788    20.6224    29.1920     2.2933
 1988.2592    11.6928      .0568    20.5837    29.5015     2.2720
 1988.4116    11.6939      .0409    20.3562    30.3391     2.2514
 1988.5640    11.7026      .0391    20.0531    29.1872     2.2463
 1988.7164    11.7114      .0437    19.6375    29.6991     2.2463
 1988.8688    11.7202      .0483    19.5652    30.0897     2.2463
 1989.0212    11.7290      .0509    19.8034    29.9089     2.2636
 1989.1736    11.7441      .0386    19.5618    29.3958     2.2518
 1989.3260    11.7625      .0499    20.0464    28.5287     2.2658
 1989.4784    11.7654      .0465    21.0055    28.1061     2.2757
 1989.6308    11.7532      .0414    21.0803    27.8082     2.2889
 1989.7832    11.7536      .0450    20.8007    27.6859     2.2892
 1989.9356    11.7563      .0475    19.9601    27.2926     2.2958
 1990.0880    11.7590      .0385    19.1214    26.2898     2.2876
 1990.2404    11.7617      .0295    18.8533    25.9353     2.2782
 1990.3928    11.7645      .0289    18.4989    26.4841     2.2807
 1990.5452    11.7672      .0321    17.5244    26.0756     2.2778
 1990.6976    11.7699      .0369    16.8594    25.9478     2.2842
 1990.8500    11.7966      .0272    17.4334    25.6175     2.2858
 1991.0024    11.8365      .0438    17.4622    26.0206     2.2902
 1991.1548    11.8846      .0585    17.4458    26.4240     2.3047
 1991.3072    11.8895      .0583    17.7393    26.2911     2.2945
 1991.4596    11.8858      .0456    18.1815    25.9229     2.2771
 1991.6120    11.8339      .0320    18.0316    25.9825     2.2672
 1991.7644    11.8056      .0196    18.7699    26.2729     2.2515
 1991.9168    11.7796      .0353    19.8253    26.5631     2.2599
 1992.0692    11.7644      .0259    20.1287    26.3885     2.2658
 1992.2216    11.7567      .0290    19.8269    27.3711     2.2478
 1992.3740    11.7490      .0369    19.0734    28.6298     2.2658
 1992.5264    11.7342      .0445    19.0749    29.5736     2.2642
 1992.6788    11.7190      .0493    18.7492    30.0653     2.2665
 1992.8312    11.6934      .0541    18.0024    30.7848     2.2715
 1992.9836    11.6432      .0621    17.3824    31.7419     2.2647
 1993.1360    11.6044      .0615    16.8430    33.4915     2.2485
 1993.2884    11.5657      .0574    17.6053    34.2832     2.2324
 1993.4408    11.5270      .0783    18.3506    34.7641     2.2407
 1993.5932    11.4882      .0967    18.8675    34.7216     2.2539
 1993.7456    11.4715      .0881    18.4951    34.4953     2.2409
 1993.8980    11.4553      .0757    19.2458    34.4016     2.2400
 1994.0504    11.4470      .0619    19.5417    34.2915     2.2222
 1994.2028    11.4469      .0404    19.2509    33.5028     2.1892
 1994.3552    11.4568      .0345    18.1783    34.4145     2.1768
 1994.5076    11.4673      .0473    18.3527    35.3268     2.1841
 1994.6600    11.5364      .0651    18.6188    35.1795     2.2038
 1994.8124    11.6056      .0669    19.0768    34.2593     2.2297
 1994.9648    11.6747      .0460    19.1407    33.1017     2.2267
 1995.1172    11.7439      .0301    18.7161    31.4207     2.2252
 1995.2696    11.8130      .0213    18.4089    29.9090     2.2309
 1995.4220    11.8511      .0124    16.4420    28.9828     2.2234
 1995.5744    11.8619      .0130    15.7799    29.5719     2.2347
 1995.7268    11.8892      .0168    16.4157    30.2924     2.2332
 1995.8792    11.9235      .0204    17.0253    29.9631     2.2398
 1996.0316    11.9445      .0084    18.5937    29.0599     2.2221
 1996.1840    11.9444      .0023    19.7305    28.4753     2.2159
 1996.3364    11.9396      .0030    20.2315    28.7205     2.2159
 1996.4888    11.9194      .0047    20.2500    29.2201     2.2159
 1996.6412    11.8987      .0115    18.7730    29.5315     2.2177
 1996.7936    11.8766      .0178    18.4282    29.2938     2.2334
 1996.9460    11.8803      .0144    18.6643    28.4271     2.2385
 1997.0984    11.9049      .0027    19.0239    27.8339     2.2250
 1997.2508    11.9083      .0061    19.3222    28.2063     2.2372
 1997.4032    11.9117      .0289    19.1182    29.1256     2.2520
 1997.5556    11.9151      .0339    18.9109    30.9289     2.2423
 1997.7080    11.9185      .0350    18.6734    32.7975     2.2409
 1997.8604    11.9219      .0416    18.3940    34.3697     2.2295
 1998.0128    11.9037      .0484    17.4566    35.2035     2.2212
 1998.1652    11.8258      .0540    17.3642    35.8495     2.2247
 1998.3176    11.7754      .0618    17.2742    37.2865     2.2281
 1998.4700    11.7548      .0694    18.0238    37.9635     2.2171
 1998.6224    11.6998      .0590    18.5375    37.5668     2.2010
 1998.7748    11.6242      .0470    18.9221    37.2823     2.1814
 1998.9272    11.5096      .0398    19.2681    36.6134     2.1619
 1999.0796    11.5194      .0415    19.6134    36.0885     2.1650
 1999.2320    11.5762      .0458    18.9299    35.7447     2.1738
 1999.3844    11.6330      .0481    19.2923    35.3964     2.1758
 1999.5368    11.6733      .0478    19.7421    35.4674     2.1797
 1999.6892    11.6972      .0398    19.3707    36.5788     2.1884
 1999.8416    11.6930      .0305    17.8644    36.3113     2.1768
 1999.9940    11.6836      .0414    17.8786    34.4434     2.1938
 2000.1464    11.6640      .0427    18.1822    33.0933     2.1929
 2000.2988    11.7287      .0549    17.8453    34.1320     2.2003
 2000.4512    11.8621      .0493    17.0891    35.4513     2.1916
 2000.6036    11.8971      .0308    17.4220    35.8030     2.1769
 2000.7560    11.8227      .0172    17.7084    35.8556     2.1579
 2000.9084    11.7484      .0244    16.3473    36.2078     2.1616
 2001.0608    11.7243      .0160    17.3002    35.4160     2.1596
 2001.2132    11.7070      .0110    18.4101    34.0347     2.1489
 2001.3656    11.6896      .0091    18.4649    33.2931     2.1581
 2001.5180    11.6912      .0141    17.9589    32.8811     2.1700
 2001.6704    11.7199      .0154    17.5803    33.0361     2.1734
 2001.8228    11.7331      .0123    17.7203    33.0526     2.1662
 2001.9752    11.7464      .0090    17.7926    32.7282     2.1590
 2002.1276    11.7670      .0056    17.6706    31.6992     2.1434
 2002.2800    11.8640      .0020    17.0195    30.9689     2.1238
 2002.4324    11.9610     -.0075    17.5780    31.2501     2.1088
 2002.5848    12.0579     -.0016    19.0769    30.2088     2.1240
 2002.7372    12.1549      .0068    20.4741    30.8053     2.1399
 2002.8896    12.2055      .0136    21.3302    31.6157     2.1389
 2003.0420    12.2424      .0176    22.8927    33.4009     2.1337
 2003.1944    12.2842      .0188    24.6547    35.2791     2.1347
 2003.3468    12.3249      .0095    26.1971    36.2025     2.1289
 2003.4992    12.3549      .0084    28.2566    35.4623     2.1256
 2003.6516    12.2982      .0129    30.3171    36.8641     2.1351
