~VERSION INFORMATION
VERS.                                                 2.0:   CWLS Log ASCII Standard-VERSION 2.0
WRAP.                                                  NO:   One line per depth step
~Well Information Block
STRT.M                                          1185.7208:   Top Depth
STOP.M                                          3805.7816:   Bottom Depth
STEP.M                                             .15240:   Depth Increment
NULL.                                            -999.250:   Null Value
FLD .                                             WILDCAT:   Field Name
WELL.                                              15/6-3:   NAME
WBN .                                              15/6-3:   WELLBORE
NATI.                                                 NOR:   COUNTRY
BHT1.DEGF                                            97.0:   BH TEMP 1
BS1 .IN                                             17.50:   BIT SIZE 1
CTRY.                                                 NOR:   COUNTRY
CBD1.F                                             1265.0:   CSG 1 DRILL DEP
CBL1.F                                             1267.0:   CSG 1 LOG DEP
CS1 .IN                                              20.0:   CSG 1 SIZE
COMP.                        ESSO EXPLORATION NORWAY INC.:   OPERATOR
PDAT.                                                 MSL:   PERM DATUM
PROV.                                           NORTH SEA:   PROVINCE
COUN.                                         DRILLMASTER:   RIG NAME
SON .                                            DM 08/02:   SOURCE OPERATOR NAME
SPUD.                                                 N/A:   SPUD DATE
LATI.                                       58 30 15.90 N:   SURF. LATITUDE
LONG.                                        1 42 39.50 E:   SURF. LONGITUDE
BTD1.                                            3934.0 F:   TOTAL DEPTH 1
PBWE.                                              15/6-3:   PB WELL ID
APIN.                                              15/6-3:   PB WELLBORE ID
PBWS.                                                 all:   PB WELL NAME SET
~PARAMETER INFORMATION (log)
LNAM.                              FDC/CNL/GR  COMPOSITED:   NAME
LTYP.                                         DEPTH MATCH:   LOG TYPE
LSRV.                                            DEN/NEUT:   LOG SERVICE
LSOU.                                             SPT/NPD:   LOG SOURCE
LVSN.                                                   1:   LOG VERSION
BHIS.                                                   R:   BRIEF HISTORY
FHIS.                                             RAW-LIS:   FULL HISTORY
LCNM.                                        SCHLUMBERGER:   LOGGING CONTRACTOR
TOOL.                             FDC/CNL/GR (COMPOSITED):   TOOL STRING
~Curve Information Block
#MNEM.UNIT                                        API CODE    No Description
#=========                                        ========    == ===========
DEPT.M                                       00 001 00 00:     1  DEPTH
CALI.IN                                                  :     2  Caliper
DRHO.G/CC                                                :     3  Bulk density correction
GR.GAPI                                                  :     4  Gamma Ray
NPHI.%                                                   :     5  Neutron porosity
RHOB.G/CC                                                :     6  Bulk density
~ASCII
# ...
 1669.1336    15.2888      .0633    57.5058    50.0408     2.1190
 1669.2860    15.0950      .0384    58.8935    49.2030     2.1339
 1669.4384    15.2492      .0075    60.5208    47.7505     2.1474
 1669.5908    15.5291      .0297    60.9637    47.2804     2.1516
 1669.7432    15.0718      .0477    61.9804    49.5960     2.0992
 1669.8956    15.1944      .0324    62.7071    52.3078     2.0168
 1670.0480    15.2573      .0412    64.2710    52.4854     2.0138
 1670.2004    15.7633      .0377    65.7332    50.7127     2.0030
 1670.3528    15.8598      .0214    66.1774    49.8139     1.9951
 1670.5052    15.6636      .0276    66.5183    49.3319     2.0104
 1670.6576    15.1210      .0197    66.4874    50.3657     2.0170
 1670.8100    15.1718      .0195    66.4118    48.4035     2.0236
 1670.9624    15.4290      .0242    65.9237    47.4642     2.0334
 1671.1148    15.3009      .0288    66.7761    48.8273     2.0283
 1671.2672    15.3910      .0223    67.5643    48.7893     2.0197
 1671.4196    14.9267      .0309    66.2671    47.6023     2.0310
 1671.5720    14.7563      .0423    65.2505    46.9365     2.0440
 1671.7244    14.7162      .0462    63.4450    49.0315     2.0579
 1671.8768    14.9655      .0459    61.8865    47.9832     2.0610
 1672.0292    15.1288      .0516    60.2012    47.0103     2.0772
 1672.1816    15.1442      .0348    58.0769    48.8162     2.0879
 1672.3340    15.3007      .0254    58.2400    48.2104     2.1185
 1672.4864    15.2896      .0429    59.4430    47.8691     2.1654
 1672.6388    15.3787      .0599    63.2579    50.0618     2.1433
 1672.7912    15.3047      .0515    66.5792    52.3276     2.0913
 1672.9436    15.4848      .0385    67.3032    52.5879     2.0531
 1673.0960    15.6104      .0358    67.3218    50.7029     2.0370
 1673.2484    15.1526      .0347    67.9758    49.8064     2.0300
 1673.4008    14.9203      .0215    69.5179    48.6612     2.0179
 1673.5532    15.2201      .0352    71.3059    47.4217     2.0284
 1673.7056    14.9262      .0420    73.5509    46.3697     2.0376
 1673.8580    14.8300      .0381    71.9881    46.8398     2.0423
 1674.0104    15.1242      .0455    71.1883    47.2371     2.0611
 1674.1628    15.5019      .0535    71.6067    47.3441     2.0782
 1674.3152    15.2126      .0433    72.5459    47.2368     2.0692
 1674.4676    15.0490      .0304    74.2225    46.2676     2.0553
 1674.6200    15.0817      .0320    75.2895    45.2956     2.0521
 1674.7724    14.8470      .0275    73.5175    47.2638     2.0536
 1674.9248    14.8582      .0291    71.5904    49.3719     2.0574
 1675.0772    14.8549      .0373    70.3398    50.0855     2.0625
 1675.2296    14.9216      .0457    70.2843    50.1679     2.0651
 1675.3820    14.7827      .0484    70.7448    49.2683     2.0654
 1675.5344    15.0822      .0487    71.1653    49.1103     2.0639
 1675.6868    15.3819      .0388    71.2266    46.0595     2.0652
 1675.8392    15.6813      .0248    69.8667    45.0956     2.0453
 1675.9916    15.3288      .0145    68.3834    46.0143     2.0371
 1676.1440    15.5036      .0261    68.2654    45.6617     2.0527
 1676.2964    15.4357      .0323    69.1268    46.3964     2.0724
 1676.4488    15.5348      .0315    71.8336    46.7010     2.0593
 1676.6012    15.1678      .0364    73.2010    47.1756     2.0435
 1676.7536    15.4147      .0409    72.6919    47.7536     2.0447
 1676.9060    15.6625      .0463    72.8179    47.8402     2.0449
 1677.0584    15.9718      .0488    71.7506    46.4637     2.0400
 1677.2108    15.6744      .0493    70.9193    47.5038     2.0446
 1677.3632    15.3869      .0458    71.3018    49.3596     2.0440
 1677.5156    16.0014      .0286    69.9934    50.7175     2.0228
 1677.6680    15.9339      .0136    68.5655    50.7188     2.0066
 1677.8204    15.4956      .0204    67.9118    49.4187     2.0150
 1677.9728    15.1482      .0320    67.7435    47.1924     2.0338
 1678.1252    15.0318      .0301    67.1404    45.1652     2.0324
 1678.2776    14.8332      .0293    67.1371    46.2612     2.0272
 1678.4300    14.9619      .0372    67.7585    47.5272     2.0353
 1678.5824    15.4217      .0473    68.9446    48.3550     2.0378
 1678.7348    15.8870      .0367    70.3612    48.2091     2.0236
 1678.8872    16.0749      .0334    71.2005    46.9742     2.0223
 1679.0396    15.6023      .0359    72.5011    46.4158     2.0308
 1679.1920    15.4650      .0216    71.2405    48.1477     2.0202
 1679.3444    15.9231      .0237    70.0970    49.2455     2.0169
 1679.4968    15.6136      .0176    71.7254    49.7587     2.0069
 1679.6492    15.5549      .0129    73.9235    51.1600     1.9959
 1679.8016    15.6344      .0183    76.0747    51.6734     2.0011
 1679.9540    15.6902      .0396    76.5010    51.4700     2.0263
 1680.1064    15.3892      .0471    76.6255    48.4101     2.0481
 1680.2588    14.8794      .0412    75.9087    46.9659     2.0489
 1680.4112    15.3629      .0517    74.1546    49.1510     2.0668
 1680.5636    15.4169      .0607    73.1197    50.5005     2.0721
 1680.7160    15.7044      .0536    72.1067    49.5032     2.0617
 1680.8684    15.1276      .0491    70.0745    49.7395     2.0600
 1681.0208    15.2648      .0513    70.3801    50.3873     2.0709
 1681.1732    15.1570      .0484    72.4911    51.1694     2.0710
 1681.3256    15.5210      .0468    74.5269    51.1104     2.0672
 1681.4780    15.3287      .0479    75.6496    51.3661     2.0666
 1681.6304    15.5788      .0478    76.9345    51.6112     2.0631
 1681.7828    15.4762      .0441    75.5727    51.3000     2.0532
 1681.9352    15.1574      .0444    74.4528    50.9235     2.0606
 1682.0876    14.9724      .0389    75.5219    50.6948     2.0679
 1682.2400    14.8666      .0391    75.9092    51.1902     2.0628
 1682.3924    14.7402      .0464    75.0348    52.0420     2.0656
 1682.5448    14.7108      .0407    73.4577    50.8405     2.0442
 1682.6972    14.8901      .0339    73.0771    50.1934     2.0354
 1682.8496    15.2959      .0370    74.2182    49.2756     2.0431
 1683.0020    15.3168      .0434    73.9906    49.5298     2.0503
 1683.1544    15.0958      .0542    72.9960    50.2572     2.0523
 1683.3068    15.0875      .0646    71.1286    50.6809     2.0723
 1683.4592    15.0868      .0534    69.1895    50.0163     2.0929
 1683.6116    14.7782      .0142    66.7478    48.8545     2.1048
 1683.7640    14.7552      .0145    64.2322    49.6815     2.1300
 1683.9164    14.7057      .0341    63.6096    49.9022     2.1426
 1684.0688    14.7005      .0450    65.5829    49.2614     2.1127
 1684.2212    14.7298      .0325    66.0521    49.4042     2.0477
 1684.3736    14.6755      .0347    65.8251    51.4635     2.0424
 1684.5260    14.6197      .0448    66.8698    52.4221     2.0555
 1684.6784    14.7545      .0471    67.0937    51.2149     2.0593
 1684.8308    14.8680      .0220    65.8356    51.0557     2.0444
 1684.9832    14.8422      .0185    65.0265    49.8045     2.0471
 1685.1356    14.6337      .0166    64.4745    48.8599     2.0530
 1685.2880    14.6025      .0346    64.4161    49.4483     2.0838
 1685.4404    14.7041      .0323    64.0497    50.2089     2.0804
 1685.5928    14.6225      .0211    63.6320    50.5859     2.0616
 1685.7452    14.6897      .0125    63.5857    49.7630     2.0466
 1685.8976    14.8975      .0176    63.1851    48.0753     2.0392
 1686.0500    14.6128      .0255    61.9326    47.5557     2.0348
 1686.2024    14.6559      .0306    60.6783    48.6663     2.0339
 1686.3548    14.7200      .0253    60.1079    48.8322     2.0362
 1686.5072    14.6483      .0232    60.1943    48.7024     2.0405
 1686.6596    14.5657      .0175    61.5250    48.3549     2.0254
 1686.8120    14.7319      .0198    62.3968    49.7071     2.0232
 1686.9644    14.7307      .0241    62.9307    50.3277     2.0133
 1687.1168    14.5983      .0091    63.7759    50.3883     1.9930
 1687.2692    14.5497      .0153    63.0521    50.8614     1.9918
 1687.4216    14.5189      .0341    61.9131    49.1703     2.0086
 1687.5740    14.5283      .0391    60.2566    48.8662     2.0053
