~VERSION INFORMATION
VERS.                                                 2.0:   CWLS Log ASCII Standard-VERSION 2.0
WRAP.                                                  NO:   One line per depth step
~Well Information Block
STRT.M                                          1185.7208:   Top Depth
STOP.M                                          3805.7816:   Bottom Depth
STEP.M                                             .15240:   Depth Increment
NULL.                                            -999.250:   Null Value
FLD .                                             WILDCAT:   Field Name
WELL.                                              15/6-3:   NAME
WBN .                                              15/6-3:   WELLBORE
NATI.                                                 NOR:   COUNTRY
BHT1.DEGF                                            97.0:   BH TEMP 1
BS1 .IN                                             17.50:   BIT SIZE 1
CTRY.                                                 NOR:   COUNTRY
CBD1.F                                             1265.0:   CSG 1 DRILL DEP
CBL1.F                                             1267.0:   CSG 1 LOG DEP
CS1 .IN                                              20.0:   CSG 1 SIZE
COMP.                        ESSO EXPLORATION NORWAY INC.:   OPERATOR
PDAT.                                                 MSL:   PERM DATUM
PROV.                                           NORTH SEA:   PROVINCE
COUN.                                         DRILLMASTER:   RIG NAME
SON .                                            DM 08/02:   SOURCE OPERATOR NAME
SPUD.                                                 N/A:   SPUD DATE
LATI.                                       58 30 15.90 N:   SURF. LATITUDE
LONG.                                        1 42 39.50 E:   SURF. LONGITUDE
BTD1.                                            3934.0 F:   TOTAL DEPTH 1
PBWE.                                              15/6-3:   PB WELL ID
APIN.                                              15/6-3:   PB WELLBORE ID
PBWS.                                                 all:   PB WELL NAME SET
~PARAMETER INFORMATION (log)
LNAM.                              FDC/CNL/GR  COMPOSITED:   NAME
LTYP.                                         DEPTH MATCH:   LOG TYPE
LSRV.                                            DEN/NEUT:   LOG SERVICE
LSOU.                                             SPT/NPD:   LOG SOURCE
LVSN.                                                   1:   LOG VERSION
BHIS.                                                   R:   BRIEF HISTORY
FHIS.                                             RAW-LIS:   FULL HISTORY
LCNM.                                        SCHLUMBERGER:   LOGGING CONTRACTOR
TOOL.                             FDC/CNL/GR (COMPOSITED):   TOOL STRING
~Curve Information Block
#MNEM.UNIT                                        API CODE    No Description
#=========                                        ========    == ===========
DEPT.M                                       00 001 00 00:     1  DEPTH
CALI.IN                                                  :     2  Caliper
DRHO.G/CC                                                :     3  Bulk density correction
GR.GAPI                                                  :     4  Gamma Ray
NPHI.%                                                   :     5  Neutron porosity
RHOB.G/CC                                                :     6  Bulk density
~ASCII
 1185.7208  -999.2500  -999.2500      .9089  -999.2500  -999.2500
 1185.8732     8.0038     -.0027      .5177    59.9194     2.4994
 1186.0256     7.9885     -.0027      .1268    59.9197     2.4994
 1186.1780     7.9832     -.0027      .3806    59.9200     2.4994
 1186.3304     8.0130     -.0027      .4822    59.9203     2.4994
 1186.4828     8.0550     -.0027      .5838    59.9206     2.4994
 1186.6352     8.0667     -.0027      .6602    59.9209     2.4994
 1186.7876     8.0382     -.0027      .6557    59.9212     2.4994
 1186.9400     7.9752     -.0027      .6512    59.9215     2.4994
 1187.0924     7.9806     -.0027      .6468    59.9218     2.4994
 1187.2448     8.0405     -.0027      .6423    59.9221     2.4994
 1187.3972     8.0644     -.0027      .6272    59.9224     2.4994
 1187.5496     8.0710     -.0027      .5224    59.9227     2.4994
 1187.7020     8.0607     -.0027      .4177    59.9230     2.4994
 1187.8544     8.0550     -.0027      .4170    59.9233     2.4994
 1188.0068     8.0605     -.0027      .8419    59.9236     2.4994
 1188.1592     8.0660     -.0027      .5945    59.9239     2.4994
 1188.3116     8.0714     -.0027      .4397    59.9242     2.4994
 1188.4640     8.0624     -.0027      .3267    59.9245     2.4994
 1188.6164     8.0444     -.0025      .4468    59.9248     2.4994
 1188.7688     7.9960     -.0022      .5667    59.9251     2.4994
 1188.9212     7.9719     -.0019      .6868    59.9254     2.4993
 1189.0736     8.0656     -.0017      .8067    59.9257     2.4993
 1189.2260     8.0271     -.0014      .7736    59.9260     2.4993
 1189.3784     7.9537     -.0011      .4581    59.9263     2.4993
 1189.5308     7.9668     -.0009      .1423    59.9372     2.4993
 1189.6832     7.9775     -.0008     -.1732    59.9827     2.4993
 1189.8356     8.9427     -.0008     -.4890    59.9272     2.4993
 1189.9880    12.3333     -.0008     -.0387    61.6315     2.4993
 1190.1404    12.3331     -.2727     9.3177    63.8867     2.1074
 1190.2928    12.3329     -.2996    44.8988    59.7338     2.0940
 1190.4452    12.3328     -.2998    31.1260    58.5093     2.0917
 1190.5976    12.3326     -.2999    30.5635    61.5805     2.1079
 1190.7500    12.3177     -.3001    30.4277    64.2006     2.1311
 1190.9024    11.9824     -.3002    30.4238    66.3180     2.1394
 1191.0548    12.1026     -.3004    28.9602    67.6208     2.1197
 1191.2072    12.2907     -.3005    27.3948    65.2198     2.0725
 1191.3596    12.2919     -.3005    26.5264    63.2540     2.0236
 1191.5120    12.2811     -.3005    27.4963    64.4546     1.9951
 1191.6644    12.2927     -.3005    28.7414    65.9030     2.0457
 1191.8168    12.3113     -.3005    29.5816    65.9328     2.1136
 1191.9692    12.3040     -.3006    29.7988    64.8395     2.1573
 1192.1216    12.1136     -.3006    30.0830    64.1922     2.1340
 1192.2740    11.8139     -.3006    30.5306    66.6729     2.1072
 1192.4264    11.6059     -.3006    30.6840    66.9276     2.1140
 1192.5788    11.3238     -.3006    30.3826    67.6057     2.1122
 1192.7312    10.7936     -.3006    29.2334    69.8775     2.0556
 1192.8836     9.2388     -.3006    27.8924    73.8078     1.9969
 1193.0360     9.1230     -.3006    25.6659    73.3344     1.9382
 1193.1884    11.1648     -.3006    23.5031    67.8139     1.9101
 1193.3408    12.2309     -.3006    24.6142    63.2917     1.9438
 1193.4932    12.3001     -.3006    26.0548    60.9890     1.9120
 1193.6456    12.3858     -.2998    29.6428    61.7556     1.8081
 1193.7980    12.4727     -.1860    33.6351    62.3926     1.7135
 1193.9504    12.8008     -.0350    37.0822    61.5065     1.7641
 1194.1028    13.7079      .0037    38.1652    57.6798     1.7170
 1194.2552    15.6298      .0065    39.1876    55.1406     1.7325
 1194.4076    15.9025      .0142    39.5083    54.0408     1.7692
 1194.5600    15.9531      .0106    38.9777    54.8474     1.7768
 1194.7124    15.8456     -.0047    37.8913    56.4802     1.7931
 1194.8648    15.7013     -.0032    37.6891    56.7465     1.8214
 1195.0172    16.0160     -.0094    36.7754    56.4770     1.8147
 1195.1696    16.2700     -.0035    37.9844    56.1360     1.7622
 1195.3220    16.5599     -.0091    39.0120    55.7630     1.7216
 1195.4744    16.1691     -.0255    40.1178    54.5878     1.6985
 1195.6268    15.3264     -.0174    39.0287    54.1434     1.6959
 1195.7792    16.2328     -.0169    39.8376    54.6392     1.6979
 1195.9316    16.5826     -.0274    39.5949    55.0672     1.7273
 1196.0840    16.5645     -.0263    39.1281    56.4180     1.7744
 1196.2364    16.5463     -.0241    36.0505    58.4979     1.7861
 1196.3888    16.5282     -.0182    33.7948    59.6497     1.7130
 1196.5412    16.5101     -.0150    32.4006    58.9226     1.6177
 1196.6936    16.4919     -.0223    32.0759    58.0564     1.5187
 1196.8460    16.4738     -.0250    33.8315    56.8257     1.5025
 1196.9984    16.1257     -.0144    36.1230    56.0625     1.5660
 1197.1508    16.0111     -.0107    38.9783    54.0740     1.6370
 1197.3032    16.0068     -.0150    42.0910    53.5172     1.7315
 1197.4556    16.0026     -.0099    41.8830    55.9286     1.7768
 1197.6080    15.9983     -.0053    38.6644    59.5873     1.7359
 1197.7604    15.9995     -.0185    34.4249    62.9118     1.6099
 1197.9128    16.4794     -.0276    32.3394    64.0583     1.5146
 1198.0652    16.5524     -.0301    32.3356    63.4235     1.4777
 1198.2176    16.5308     -.0325    32.3318    62.5400     1.4901
 1198.3700    16.4159     -.0351    32.4364    61.7597     1.5036
 1198.5224    16.3726     -.0363    31.9512    62.3389     1.4886
 1198.6748    16.0330     -.0376    30.7858    63.7721     1.4471
 1198.8272    16.0493     -.0390    29.6398    64.0483     1.4311
 1198.9796    16.4787     -.0390    29.6748    63.8413     1.4326
 1199.1320    16.4545     -.0391    30.9957    63.7891     1.4413
 1199.2844    16.4094     -.0375    32.3156    61.9221     1.4510
 1199.4368    16.3703     -.0335    33.8367    59.7898     1.4618
 1199.5892    16.3299     -.0291    35.1035    59.9017     1.4895
 1199.7416    16.2328     -.0179    38.6299    60.3148     1.5287
 1199.8940    16.1307     -.0221    42.5276    58.8042     1.6126
 1200.0464    15.8343     -.0211    45.7160    55.4434     1.6965
 1200.1988    15.0859     -.0135    48.4414    53.9971     1.7477
 1200.3512    14.6016     -.0116    48.4379    54.1625     1.7577
 1200.5036    16.1890     -.0158    49.5064    54.3570     1.7470
 1200.6560    16.3134     -.0178    49.4300    52.8166     1.7519
 1200.8084    15.3129     -.0172    48.2207    52.3026     1.7619
 1200.9608    15.1912     -.0131    47.1195    53.8539     1.7635
 1201.1132    15.1284     -.0172    47.0470    53.6823     1.7465
 1201.2656    15.0722     -.0088    47.2146    52.1314     1.7482
 1201.4180    15.2465     -.0002    47.0102    52.0367     1.7587
 1201.5704    14.1277     -.0028    45.7312    52.1577     1.7556
 1201.7228    16.3403     -.0123    43.4659    53.2400     1.7260
 1201.8752    15.1760     -.0219    40.2061    56.5474     1.6761
 1202.0276    14.3038     -.0324    37.5133    59.8549     1.6025
 1202.1800    13.9598     -.0315    35.7407    60.2888     1.5454
 1202.3324    14.4718     -.0269    35.3185    60.0140     1.5180
 1202.4848    16.0115     -.0223    36.6057    61.5315     1.5142
 1202.6372    16.0143     -.0212    37.0098    62.7253     1.5306
 1202.7896    16.0171     -.0214    38.8556    62.4335     1.5329
 1202.9420    16.0198     -.0203    41.0295    59.7307     1.5350
 1203.0944    16.0226     -.0146    43.6023    59.9485     1.5647
 1203.2468    16.0254     -.0082    46.6427    56.5449     1.6364
 1203.3992    16.0281     -.0017    49.6856    55.0406     1.7894
 1203.5516    16.2508      .0052    52.0068    54.0599     1.8494
 1203.7040    15.7383      .0112    52.8600    52.0375     1.9156
 1203.8564    15.3395      .0156    51.8522    50.4907     1.9122
 1204.0088    15.2190      .0104    52.7908    51.3668     1.8978
 1204.1612    14.9843      .0030    54.2525    52.8567     1.8817
