~VERSION INFORMATION
VERS.                                                 2.0:   CWLS Log ASCII Standard-VERSION 2.0
WRAP.                                                  NO:   One line per depth step
~Well Information Block
STRT.M                                          1185.7208:   Top Depth
STOP.M                                          3805.7816:   Bottom Depth
STEP.M                                             .15240:   Depth Increment
NULL.                                            -999.250:   Null Value
FLD .                                             WILDCAT:   Field Name
WELL.                                              15/6-3:   NAME
WBN .                                              15/6-3:   WELLBORE
NATI.                                                 NOR:   COUNTRY
BHT1.DEGF                                            97.0:   BH TEMP 1
BS1 .IN                                             17.50:   BIT SIZE 1
CTRY.                                                 NOR:   COUNTRY
CBD1.F                                             1265.0:   CSG 1 DRILL DEP
CBL1.F                                             1267.0:   CSG 1 LOG DEP
CS1 .IN                                              20.0:   CSG 1 SIZE
COMP.                        ESSO EXPLORATION NORWAY INC.:   OPERATOR
PDAT.                                                 MSL:   PERM DATUM
PROV.                                           NORTH SEA:   PROVINCE
COUN.                                         DRILLMASTER:   RIG NAME
SON .                                            DM 08/02:   SOURCE OPERATOR NAME
SPUD.                                                 N/A:   SPUD DATE
LATI.                                       58 30 15.90 N:   SURF. LATITUDE
LONG.                                        1 42 39.50 E:   SURF. LONGITUDE
BTD1.                                            3934.0 F:   TOTAL DEPTH 1
PBWE.                                              15/6-3:   PB WELL ID
APIN.                                              15/6-3:   PB WELLBORE ID
PBWS.                                                 all:   PB WELL NAME SET
~PARAMETER INFORMATION (log)
LNAM.                              FDC/CNL/GR  COMPOSITED:   NAME
LTYP.                                         DEPTH MATCH:   LOG TYPE
LSRV.                                            DEN/NEUT:   LOG SERVICE
LSOU.                                             SPT/NPD:   LOG SOURCE
LVSN.                                                   1:   LOG VERSION
BHIS.                                                   R:   BRIEF HISTORY
FHIS.                                             RAW-LIS:   FULL HISTORY
LCNM.                                        SCHLUMBERGER:   LOGGING CONTRACTOR
TOOL.                             FDC/CNL/GR (COMPOSITED):   TOOL STRING
~Curve Information Block
#MNEM.UNIT                                        API CODE    No Description
#=========                                        ========    == ===========
DEPT.M                                       00 001 00 00:     1  DEPTH
CALI.IN                                                  :     2  Caliper
DRHO.G/CC                                                :     3  Bulk density correction
GR.GAPI                                                  :     4  Gamma Ray
NPHI.%                                                   :     5  Neutron porosity
RHOB.G/CC                                                :     6  Bulk density
~ASCII
# ...
 3472.6352     9.0513      .0070    89.7970    41.7204     2.4505
 3472.7876     9.0512     -.0013    92.7154    39.6935     2.4727
 3472.9400     9.0511     -.0089    93.4267    36.8299     2.4896
 3473.0924     9.0510      .0039    90.9080    34.5199     2.4925
 3473.2448     9.3745      .0113    89.8521    33.9464     2.4638
 3473.3972     9.3130      .0431    87.0362    33.7126     2.4492
 3473.5496     9.0307      .0881    83.7174    34.4209     2.4393
 3473.7020     9.1843      .0928    81.8135    35.8422     2.3945
 3473.8544     9.6332      .0851    82.7717    37.4278     2.3405
 3474.0068    10.2413      .0673    86.4697    37.8562     2.2995
 3474.1592     9.9917      .0691    86.0556    36.4048     2.2956
 3474.3116     9.8829      .0930    86.0894    35.7208     2.3647
 3474.4640    10.0061      .0992    88.6740    36.2984     2.3932
 3474.6164     9.7452      .0788    91.0191    36.8759     2.3815
 3474.7688     9.4773      .0691    90.8880    37.3905     2.3967
 3474.9212     9.2992      .0771    89.5972    37.5454     2.4262
 3475.0736     9.1967      .0522    93.5939    36.6248     2.4441
 3475.2260     9.1527      .0373    95.0535    36.5309     2.4792
 3475.3784     9.1011      .0220    94.3139    35.4132     2.5100
 3475.5308     9.0704      .0048    93.6091    33.8052     2.5083
 3475.6832     9.0705      .0014    95.6166    32.9782     2.4763
 3475.8356     9.0898     -.0012    98.2929    34.5916     2.4484
 3475.9880     9.0906      .0050    98.5412    36.2118     2.4298
 3476.1404     9.0907      .0239   100.8756    37.7977     2.4153
 3476.2928     9.0999      .0262   101.2178    37.2307     2.4401
 3476.4452     9.1107      .0133   100.7131    37.8864     2.4698
 3476.5976     9.0936      .0047    99.9024    37.5965     2.4914
 3476.7500     9.1512      .0059    98.1898    37.4680     2.5071
 3476.9024     9.2220      .0040    96.8748    38.3095     2.4995
 3477.0548     9.2311      .0113    95.3006    38.7581     2.5433
 3477.2072     9.2100     -.0015    95.1005    37.9871     2.5812
 3477.3596     9.1777      .0453   101.6188    38.0391     2.6215
 3477.5120     9.1418      .0666   102.3030    38.5721     2.5935
 3477.6644     9.1219      .0363   101.3471    37.7767     2.4958
 3477.8168     9.1235      .0343    99.5426    36.4450     2.5050
 3477.9692     9.2928      .0711    97.4565    34.7327     2.5514
 3478.1216     9.1729      .0560    94.6478    33.8218     2.5538
 3478.2740     9.1547      .0471    95.3300    33.7755     2.5356
 3478.4264     9.1721      .0410    96.6666    33.9801     2.5254
 3478.5788     9.1471      .0425    96.3884    34.5150     2.4902
 3478.7312     9.1096      .0045    95.9374    35.2005     2.4611
 3478.8836     9.0734      .0106    95.4859    35.3985     2.4606
 3479.0360     9.1022      .0092    95.0357    34.8453     2.4619
 3479.1884     9.1325      .0233    94.5042    33.7646     2.4386
 3479.3408     9.1437      .0524    89.7843    35.1143     2.4248
 3479.4932     9.1635      .0853    84.4586    37.0112     2.4082
 3479.6456     9.2903      .0744    83.1671    38.4947     2.3778
 3479.7980     9.4735      .0602    82.4698    39.5561     2.3562
 3479.9504     9.5541      .0742    81.7678    39.1119     2.3468
 3480.1028     9.8510      .0335    81.1727    38.3984     2.3040
 3480.2552     9.9535      .0268    80.8965    37.4685     2.3281
 3480.4076    10.5792      .0233    79.0540    37.2852     2.3359
 3480.5600    10.6316      .0449    76.1455    38.0307     2.3156
 3480.7124    10.0924      .0534    77.7850    40.1026     2.2953
 3480.8648     9.7419      .0710    81.0106    41.5748     2.3096
 3481.0172     9.6774      .0523    84.0872    42.6269     2.2946
 3481.1696    10.2515      .0580    83.1065    43.5888     2.2752
 3481.3220    10.0826      .0571    83.5167    44.4303     2.2877
 3481.4744     9.7811      .0568    85.7432    44.9094     2.3240
 3481.6268     9.6215      .0425    88.9846    44.5522     2.3425
 3481.7792     9.3157      .0138    92.9925    42.5812     2.3601
 3481.9316     9.3081      .0099    96.6461    40.9187     2.4024
 3482.0840     9.0823      .0215    95.7423    39.5846     2.4253
 3482.2364     9.5913      .0461    94.4171    38.2865     2.4650
 3482.3888     9.3739      .0764    92.8380    35.8318     2.5001
 3482.5412     9.0477      .0312    86.9712    29.4254     2.5544
 3482.6936     8.9795     -.0309    79.7999    25.3637     2.6744
 3482.8460     8.9357     -.0070    71.7710    25.7462     2.7760
 3482.9984     8.9509      .0184    69.1935    28.0844     2.7456
 3483.1508     9.0086      .0168    73.6480    30.0962     2.6401
 3483.3032     9.1479      .0201    80.3710    32.0366     2.5571
 3483.4556     9.1622      .0331    88.0135    33.6410     2.5181
 3483.6080     9.1451      .0521    92.5860    34.3000     2.5302
 3483.7604     9.1267      .0603    91.7901    34.5111     2.5302
 3483.9128     9.1195      .0632    93.6547    33.3650     2.5389
 3484.0652     9.1282      .0376    93.3260    31.4443     2.5314
 3484.2176     9.1370      .0292    93.7334    29.9286     2.5330
 3484.3700     9.1457      .0178    91.5851    28.4154     2.5379
 3484.5224     9.1544      .0407    88.6375    26.9624     2.5611
 3484.6748     9.1700      .0888    85.6269    25.5303     2.5961
 3484.8272     9.1536      .1109    82.6114    25.6967     2.5919
 3484.9796     9.1174      .1051    80.2621    26.7327     2.5759
 3485.1320     9.0967      .1101    78.2754    28.2467     2.5446
 3485.2844     9.4247      .0387    69.8864    30.3896     2.5022
 3485.4368     9.4301     -.0241    65.2564    30.6196     2.5285
 3485.5892     8.8187      .0030    62.1804    26.6069     2.4813
 3485.7416     9.4015     -.0033    65.2123    25.5173     2.3966
 3485.8940     9.9267      .0269    71.2754    28.4529     2.4336
 3486.0464     9.9660      .0436    74.5031    30.6972     2.4849
 3486.1988    10.0105      .0270    78.9357    31.6307     2.4688
 3486.3512    10.4527      .0126    81.8676    32.2862     2.4390
 3486.5036    10.7982      .0461    84.5985    32.6307     2.4295
 3486.6560    10.2873      .0690    84.2998    33.6816     2.4041
 3486.8084     9.4088      .0669    81.8150    34.8546     2.3979
 3486.9608     9.4358      .0718    77.5210    35.3666     2.4369
 3487.1132     9.4803      .0833    78.2305    33.7222     2.4654
 3487.2656     9.5532      .0846    80.7139    32.9661     2.4588
 3487.4180     9.6866      .0762    81.4738    33.1115     2.4625
 3487.5704     9.7686      .0779    79.5882    32.8917     2.4769
 3487.7228     9.9509      .0631    77.0437    32.6182     2.4765
 3487.8752     9.1908      .1004    74.4139    31.6290     2.5574
 3488.0276     9.7289      .1129    72.3983    31.7373     2.6052
 3488.1800    10.1140      .0803    72.6387    31.7470     2.6716
 3488.3324     9.7192      .0421    72.8936    30.9620     2.7454
 3488.4848     9.5237      .0295    70.6500    30.5253     2.7474
 3488.6372     9.4335      .0226    67.2493    30.4481     2.7299
 3488.7896     9.4461      .0240    63.9584    30.0209     2.7279
 3488.9420     9.4719      .0328    62.5773    29.4377     2.7126
 3489.0944     9.4294     -.0167    61.3690    28.8088     2.6583
 3489.2468     9.7048     -.0210    60.1640    28.1721     2.6218
 3489.3992     9.6829     -.0020    58.2213    26.0820     2.5695
 3489.5516     9.3434      .0493    50.7528    23.6878     2.5319
 3489.7040     9.0078      .0265    43.9645    21.1537     2.4720
 3489.8564     8.6771     -.0081    38.4849    20.1007     2.3914
 3490.0088     8.4108     -.0184    36.2771    20.9876     2.3794
 3490.1612     8.2881     -.0138    35.7156    21.6281     2.3772
 3490.3136     8.3212     -.0069    35.9780    21.8970     2.3925
 3490.4660     8.3498     -.0047    36.2404    22.1660     2.3918
 3490.6184     8.3719     -.0088    35.6381    22.4350     2.3879
 3490.7708     8.3701     -.0131    34.3063    22.6797     2.3735
 3490.9232     8.3688     -.0174    36.4790    22.8955     2.3617
 3491.0756     8.3811     -.0164    37.6117    22.7542     2.3694
