~VERSION INFORMATION
VERS.                                                 2.0:   CWLS Log ASCII Standard-VERSION 2.0
WRAP.                                                  NO:   One line per depth step
~Well Information Block
STRT.M                                          1185.7208:   Top Depth
STOP.M                                          3805.7816:   Bottom Depth
STEP.M                                             .15240:   Depth Increment
NULL.                                            -999.250:   Null Value
FLD .                                             WILDCAT:   Field Name
WELL.                                              15/6-3:   NAME
WBN .                                              15/6-3:   WELLBORE
NATI.                                                 NOR:   COUNTRY
BHT1.DEGF                                            97.0:   BH TEMP 1
BS1 .IN                                             17.50:   BIT SIZE 1
CTRY.                                                 NOR:   COUNTRY
CBD1.F                                             1265.0:   CSG 1 DRILL DEP
CBL1.F                                             1267.0:   CSG 1 LOG DEP
CS1 .IN                                              20.0:   CSG 1 SIZE
COMP.                        ESSO EXPLORATION NORWAY INC.:   OPERATOR
PDAT.                                                 MSL:   PERM DATUM
PROV.                                           NORTH SEA:   PROVINCE
COUN.                                         DRILLMASTER:   RIG NAME
SON .                                            DM 08/02:   SOURCE OPERATOR NAME
SPUD.                                                 N/A:   SPUD DATE
LATI.                                       58 30 15.90 N:   SURF. LATITUDE
LONG.                                        1 42 39.50 E:   SURF. LONGITUDE
BTD1.                                            3934.0 F:   TOTAL DEPTH 1
PBWE.                                              15/6-3:   PB WELL ID
APIN.                                              15/6-3:   PB WELLBORE ID
PBWS.                                                 all:   PB WELL NAME SET
~PARAMETER INFORMATION (log)
LNAM.                              FDC/CNL/GR  COMPOSITED:   NAME
LTYP.                                         DEPTH MATCH:   LOG TYPE
LSRV.                                            DEN/NEUT:   LOG SERVICE
LSOU.                                             SPT/NPD:   LOG SOURCE
LVSN.                                                   1:   LOG VERSION
BHIS.                                                   R:   BRIEF HISTORY
FHIS.                                             RAW-LIS:   FULL HISTORY
LCNM.                                        SCHLUMBERGER:   LOGGING CONTRACTOR
TOOL.                             FDC/CNL/GR (COMPOSITED):   TOOL STRING
~Curve Information Block
#MNEM.UNIT                                        API CODE    No Description
#=========                                        ========    == ===========
DEPT.M                                       00 001 00 00:     1  DEPTH
CALI.IN                                                  :     2  Caliper
DRHO.G/CC                                                :     3  Bulk density correction
GR.GAPI                                                  :     4  Gamma Ray
NPHI.%                                                   :     5  Neutron porosity
RHOB.G/CC                                                :     6  Bulk density
~ASCII
# ...
 2635.9592    11.7955      .0091    39.7999    38.3008     2.1097
 2636.1116    11.8311      .0133    39.0271    36.2897     2.0881
 2636.2640    11.8692      .0146    37.9553    32.4017     2.1157
 2636.4164    11.8696      .0280    37.7933    28.8927     2.1731
 2636.5688    11.8700      .0268    37.8000    26.5389     2.2164
 2636.7212    11.8995      .0253    37.8067    25.0267     2.2199
 2636.8736    11.9605      .0279    37.6591    24.4844     2.2310
 2637.0260    11.9711      .0247    38.2702    25.0593     2.2379
 2637.1784    11.9558      .0411    39.1091    26.0583     2.2489
 2637.3308    11.8659      .0599    40.2519    26.6697     2.2818
 2637.4832    11.8523      .0673    42.0700    27.2677     2.2931
 2637.6356    11.8856      .0787    42.6465    27.4602     2.3274
 2637.7880    11.9791      .0933    42.0079    27.5808     2.3744
 2637.9404    12.0507      .1024    39.8626    29.9081     2.3889
 2638.0928    12.0376      .1111    38.0261    31.3087     2.3635
 2638.2452    11.9337      .0859    35.9998    31.7868     2.3218
 2638.3976    11.8838      .0554    33.8416    25.8034     2.3206
 2638.5500    11.8799      .0265    32.2477    21.4984     2.3390
 2638.7024    11.9608      .0112    31.5961    20.0653     2.3637
 2638.8548    12.0254      .0193    32.5027    22.0923     2.3584
 2639.0072    12.0561      .0315    33.7092    24.7238     2.3162
 2639.1596    12.0564      .0366    34.0150    27.6408     2.2270
 2639.3120    12.0521      .0286    34.4247    28.6335     2.1676
 2639.4644    12.0416      .0416    34.6293    28.4990     2.1619
 2639.6168    12.0310      .0365    35.5358    28.5139     2.1605
 2639.7692    12.0204      .0451    34.7261    28.5820     2.1695
 2639.9216    11.9869      .0570    34.8696    29.0309     2.1908
 2640.0740    11.9472      .0634    35.2563    29.3836     2.1894
 2640.2264    11.9073      .0741    36.3213    29.2291     2.2070
 2640.3788    11.8755      .0750    37.8389    28.6192     2.2135
 2640.5312    11.8458      .0347    39.2940    27.6690     2.2046
 2640.6836    11.7917      .0310    40.6805    26.0014     2.2242
 2640.8360    11.8595      .0231    43.4168    25.3139     2.2844
 2640.9884    12.1007      .0384    46.3055    28.8302     2.3319
 2641.1408    12.3889      .0665    47.6357    34.6811     2.3578
 2641.2932    12.7213      .0848    47.4681    39.2179     2.3185
 2641.4456    13.0448      .0841    44.8997    41.7365     2.3009
 2641.5980    13.1169      .0828    42.3270    39.7244     2.2881
 2641.7504    13.1191      .0505    40.3618    37.5878     2.3038
 2641.9028    12.8918      .0379    38.5630    35.2746     2.3227
 2642.0552    12.6206      .0431    38.1751    36.0836     2.3307
 2642.2076    12.4254      .1115    41.7077    38.9042     2.3619
 2642.3600    12.7919      .1468    45.3520    42.8041     2.2924
 2642.5124    13.2282      .1361    47.3024    43.3102     2.2899
 2642.6648    13.4028      .0808    46.8455    41.1073     2.2646
 2642.8172    13.2720      .0390    46.0198    40.4517     2.2467
 2642.9696    13.3575      .0451    46.1875    40.4421     2.2805
 2643.1220    13.4572      .0624    47.5350    41.1242     2.3085
 2643.2744    13.4021      .0825    47.7061    41.4778     2.2986
 2643.4268    13.2257      .0796    47.8444    40.5226     2.2836
 2643.5792    12.9461      .0287    47.4475    38.4500     2.2969
 2643.7316    12.7731      .0542    45.9783    35.6189     2.3335
 2643.8840    12.9438      .1044    45.1666    36.7853     2.3379
 2644.0364    13.1622      .1185    45.9750    38.7581     2.3132
 2644.1888    12.9546      .0760    45.9927    40.9693     2.2522
 2644.3412    12.6115      .1022    44.6869    39.7122     2.2807
 2644.4936    12.5092      .1014    42.9901    39.7079     2.2640
 2644.6460    12.6078      .0742    40.0467    37.6101     2.2660
 2644.7984    12.6950      .0495    38.1652    33.3211     2.3527
 2644.9508    12.6501      .0557    38.3720    29.2332     2.4044
 2645.1032    12.6159      .0976    39.3759    30.8175     2.4453
 2645.2556    12.6464      .1328    39.7422    33.0573     2.4390
 2645.4080    12.8824      .0681    40.6527    33.3860     2.3508
 2645.5604    12.6814      .0409    40.8942    32.2734     2.2983
 2645.7128    12.3302      .0704    40.4578    31.0784     2.3108
 2645.8652    12.2503      .0586    38.9595    28.8309     2.2630
 2646.0176    12.1776      .0240    37.3187    22.2736     2.2894
 2646.1700    12.1094      .0266    37.6251    19.1932     2.3269
 2646.3224    12.0045      .0455    37.6318    18.8516     2.3465
 2646.4748    11.9319      .0535    37.2494    19.4152     2.3225
 2646.6272    11.9774      .0520    37.0461    16.7878     2.3542
 2646.7796    12.0180      .0459    37.6520    14.8936     2.3751
 2646.9320    12.0434      .0556    39.4651    16.5095     2.4209
 2647.0844    12.0550      .0429    41.3928    19.9426     2.4011
 2647.2368    12.0403      .0405    43.5930    24.1522     2.3783
 2647.3892    12.0256      .0578    47.3867    28.5162     2.3545
 2647.5416    12.0122      .0757    51.0165    33.4711     2.3232
 2647.6940    12.0005      .0734    50.2444    38.1730     2.2431
 2647.8464    12.0187      .0487    46.6518    41.1161     2.2193
 2647.9988    12.0384      .0229    41.8674    36.9184     2.1779
 2648.1512    12.0388      .0053    36.9196    31.5799     2.1725
 2648.3036    12.0470      .0219    33.4967    28.5822     2.1702
 2648.4560    12.0742      .0208    31.4090    28.7646     2.1601
 2648.6084    12.0937      .0193    33.4868    28.1379     2.1523
 2648.7608    12.1113      .0382    35.0579    28.4567     2.1764
 2648.9132    12.1161      .0378    33.4034    28.7515     2.1696
 2649.0656    12.1072      .0346    34.0446    27.6138     2.1666
 2649.2180    12.0898      .0364    34.9145    28.0678     2.1682
 2649.3704    12.0551      .0470    33.9939    27.9738     2.1764
 2649.5228    12.0203      .0582    32.9814    27.7933     2.1937
 2649.6752    11.9856      .0495    33.3236    27.9943     2.1937
 2649.8276    11.9469      .0449    34.5369    27.3164     2.1998
 2649.9800    11.9010      .0434    34.7988    25.8934     2.2190
 2650.1324    11.8641      .0562    34.8055    24.2291     2.2477
 2650.2848    11.8644      .0668    34.5129    23.5364     2.2786
 2650.4372    11.8693      .0543    35.1186    23.3465     2.2750
 2650.5896    11.8818      .0440    34.7428    22.1056     2.2776
 2650.7420    11.9201      .0445    33.9344    20.4674     2.3020
 2650.8944    11.9683      .0408    33.2451    20.2641     2.3237
 2651.0468    12.0089      .0405    32.7503    19.4584     2.3268
 2651.1992    12.0446      .0533    32.7571    19.5242     2.3075
 2651.3516    12.0209      .0593    33.3927    21.0531     2.2824
 2651.5040    11.9871      .0454    33.9684    22.4438     2.2570
 2651.6564    11.9393      .0386    33.6758    23.6213     2.2338
 2651.8088    11.8915      .0438    33.6823    24.2337     2.2347
 2651.9612    11.8635      .0498    34.4356    24.5571     2.2401
 2652.1136    11.8572      .0456    36.2792    24.7078     2.2346
 2652.2660    11.8766      .0409    35.1113    25.5657     2.2283
 2652.4184    11.8961      .0476    33.2455    25.2574     2.2308
 2652.5708    11.9156      .0552    33.2485    24.4512     2.2491
 2652.7232    11.9254      .0515    32.5636    23.6451     2.2439
 2652.8756    11.9122      .0435    32.5060    23.4370     2.2369
 2653.0280    11.9305      .0352    32.5090    23.7951     2.2342
 2653.1804    11.9565      .0296    31.9132    23.8348     2.2312
 2653.3328    11.9773      .0347    32.5150    23.5127     2.2339
 2653.4852    11.9926      .0233    33.2829    23.2638     2.2188
 2653.6376    12.0078      .0266    34.6168    23.3490     2.2153
 2653.7900    11.9807      .0327    35.7798    24.1672     2.2190
 2653.9424    11.9472      .0308    36.0851    25.1848     2.2108
 2654.0948    11.9255      .0182    36.1228    26.1622     2.1937
 2654.2472    11.9114      .0229    36.1257    26.8269     2.2004
 2654.3996    11.9116      .0239    35.0091    26.6496     2.1941
