~VERSION INFORMATION
VERS.                                                 2.0:   CWLS Log ASCII Standard-VERSION 2.0
WRAP.                                                  NO:   One line per depth step
~Well Information Block
STRT.M                                          1185.7208:   Top Depth
STOP.M                                          3805.7816:   Bottom Depth
STEP.M                                             .15240:   Depth Increment
NULL.                                            -999.250:   Null Value
FLD .                                             WILDCAT:   Field Name
WELL.                                              15/6-3:   NAME
WBN .                                              15/6-3:   WELLBORE
NATI.                                                 NOR:   COUNTRY
BHT1.DEGF                                            97.0:   BH TEMP 1
BS1 .IN                                             17.50:   BIT SIZE 1
CTRY.                                                 NOR:   COUNTRY
CBD1.F                                             1265.0:   CSG 1 DRILL DEP
CBL1.F                                             1267.0:   CSG 1 LOG DEP
CS1 .IN                                              20.0:   CSG 1 SIZE
COMP.                        ESSO EXPLORATION NORWAY INC.:   OPERATOR
PDAT.                                                 MSL:   PERM DATUM
PROV.                                           NORTH SEA:   PROVINCE
COUN.                                         DRILLMASTER:   RIG NAME
SON .                                            DM 08/02:   SOURCE OPERATOR NAME
SPUD.                                                 N/A:   SPUD DATE
LATI.                                       58 30 15.90 N:   SURF. LATITUDE
LONG.                                        1 42 39.50 E:   SURF. LONGITUDE
BTD1.                                            3934.0 F:   TOTAL DEPTH 1
PBWE.                                              15/6-3:   PB WELL ID
APIN.                                              15/6-3:   PB WELLBORE ID
PBWS.                                                 all:   PB WELL NAME SET
~PARAMETER INFORMATION (log)
LNAM.                              FDC/CNL/GR  COMPOSITED:   NAME
LTYP.                                         DEPTH MATCH:   LOG TYPE
LSRV.                                            DEN/NEUT:   LOG SERVICE
LSOU.                                             SPT/NPD:   LOG SOURCE
LVSN.                                                   1:   LOG VERSION
BHIS.                                                   R:   BRIEF HISTORY
FHIS.                                             RAW-LIS:   FULL HISTORY
LCNM.                                        SCHLUMBERGER:   LOGGING CONTRACTOR
TOOL.                             FDC/CNL/GR (COMPOSITED):   TOOL STRING
~Curve Information Block
#MNEM.UNIT                                        API CODE    No Description
#=========                                        ========    == ===========
DEPT.M                                       00 001 00 00:     1  DEPTH
CALI.IN                                                  :     2  Caliper
DRHO.G/CC                                                :     3  Bulk density correction
GR.GAPI                                                  :     4  Gamma Ray
NPHI.%                                                   :     5  Neutron porosity
RHOB.G/CC                                                :     6  Bulk density
~ASCII
# ...
 3621.3776    12.0987      .0108    40.9809    14.3213     2.4712
 3621.5300    12.0767      .0140    40.3763    14.1422     2.4835
 3621.6824    12.5881      .0256    39.4091    13.9385     2.4887
 3621.8348    12.6691      .0422    36.0604    14.0274     2.5101
 3621.9872    11.9883      .0277    34.1594    14.9294     2.4791
 3622.1396    11.9488      .0167    34.7178    15.6133     2.4336
 3622.2920    12.0213      .0356    35.2792    15.6741     2.4363
 3622.4444    12.5781      .0547    35.7527    15.1793     2.4702
 3622.5968    12.2349      .0692    35.4356    14.1161     2.5068
 3622.7492    12.2584      .0665    33.8629    13.1940     2.5414
 3622.9016    12.8354      .0380    32.9959    13.0747     2.5389
 3623.0540    13.3406      .0142    33.4077    13.0095     2.5157
 3623.2064    13.2868      .0248    33.4258    12.8788     2.5424
 3623.3588    12.4681      .0435    34.7483    12.2976     2.5594
 3623.5112    11.8937      .0445    37.1238    11.6054     2.5612
 3623.6636    11.7857      .0439    38.7610    10.6683     2.5538
 3623.8160    11.7384      .0306    38.4368     9.6920     2.5268
 3623.9684    11.6897      .0062    37.5005     8.5112     2.4875
 3624.1208    11.6618      .0117    36.4472     7.2921     2.5000
 3624.2732    11.6685      .0217    34.3543     6.9180     2.5214
 3624.4256    11.6753      .0192    31.9596     6.9816     2.5332
 3624.5780    11.6702      .0129    31.5317     7.0661     2.5611
 3624.7304    11.6489      .0136    33.5606     7.1138     2.5851
 3624.8828    11.6067      .0322    33.6954     7.0044     2.6152
 3625.0352    11.5567      .0273    34.5606     6.0647     2.6360
 3625.1876    11.5417      .0181    35.3575     5.1670     2.6599
 3625.3400    11.5559      .0109    34.6196     4.7568     2.6492
 3625.4924    11.5866      .0045    37.2976     4.6806     2.6408
 3625.6448    11.6008      .0041    39.7877     4.7784     2.6302
 3625.7972    11.5982      .0107    42.0597     5.4827     2.6225
 3625.9496    11.5770      .0140    44.8791     6.9229     2.6135
 3626.1020    11.5616      .0065    47.6984     8.6756     2.6023
 3626.2544    11.5886      .0056    50.5134    11.0315     2.5852
 3626.4068    11.6284      .0143    50.3804    13.4198     2.5203
 3626.5592    11.7130      .0459    48.6260    15.5404     2.4639
 3626.7116    12.0132      .0458    47.4966    15.9514     2.4076
 3626.8640    12.4370      .0549    44.9594    14.8509     2.4203
 3627.0164    11.9142      .0460    42.1564    12.9506     2.4062
 3627.1688    12.3767      .0689    39.6583    11.6950     2.3720
 3627.3212    13.1100      .0891    38.1144    11.1571     2.3354
 3627.4736    13.2314      .0646    38.1648    11.3190     2.2685
 3627.6260    13.2657      .0451    38.7841    12.0950     2.2560
 3627.7784    13.8516      .0239    39.8942    12.8858     2.2851
 3627.9308    13.7098      .0062    42.3261    12.0926     2.3522
 3628.0832    13.0634     -.0021    45.4222    10.7551     2.3894
 3628.2356    12.9855     -.0084    48.3629    10.8420     2.4123
 3628.3880    12.9038      .0012    50.2872    11.9713     2.3978
 3628.5404    12.6134      .0169    51.6381    12.7979     2.3451
 3628.6928    13.0464      .0582    50.7144    12.6489     2.2408
 3628.8452    14.0181      .0770    48.0864    11.3658     2.1904
 3628.9976    14.0135      .0751    45.6259    10.5058     2.1934
 3629.1500    14.0090      .0788    44.3483    11.4609     2.2162
 3629.3024    14.0044      .0948    45.4821    12.6874     2.2816
 3629.4548    13.9998      .1109    46.9371    12.2595     2.3728
 3629.6072    13.9952      .1207    48.1036    11.2078     2.4014
 3629.7596    13.9907      .1127    46.5487    10.1192     2.3960
 3629.9120    13.9861      .0932    44.3240     9.7651     2.4106
 3630.0644    13.9815      .0750    45.4553     9.4809     2.4247
 3630.2168    13.9769      .0658    49.0680     9.5459     2.4211
 3630.3692    13.9724      .0416    53.3262    11.1747     2.3946
 3630.5216    13.9167      .0159    55.7551    14.0788     2.3661
 3630.6740    13.9415      .0103    54.6762    17.1772     2.3412
 3630.8264    13.6533      .0238    50.2691    19.4689     2.3350
 3630.9788    13.4927      .0599    47.3215    18.9932     2.3418
 3631.1312    13.9183      .0331    45.4135    18.0946     2.2824
 3631.2836    14.0093      .0114    44.7648    18.3368     2.2481
 3631.4360    14.0060      .0269    45.3423    17.3106     2.2737
 3631.5884    14.0028      .0409    45.6576    16.4139     2.2591
 3631.7408    13.9995      .0439    45.7697    17.1910     2.2351
 3631.8932    13.9962      .0218    46.3396    18.1819     2.2621
 3632.0456    13.9930      .0143    47.3364    18.5711     2.3194
 3632.1980    13.9897      .0337    48.5104    18.5640     2.3875
 3632.3504    13.9864      .0402    51.6063    17.3887     2.4304
 3632.5028    13.9832      .0107    53.8363    16.0427     2.4871
 3632.6552    13.9217     -.0027    53.3092    13.3237     2.5402
 3632.8076    13.7572     -.0047    52.7222    11.1799     2.5144
 3632.9600    14.0009      .0044    49.2403    11.2990     2.4983
 3633.1124    14.0002      .0308    46.0255    12.4035     2.4564
 3633.2648    13.9992      .0682    43.1818    14.0857     2.4047
 3633.4172    13.9982      .0603    40.1449    16.6304     2.3527
 3633.5696    13.9972      .0387    38.6906    18.5201     2.3191
 3633.7220    13.9962      .0559    39.3528    18.1703     2.4128
 3633.8744    13.9952      .0545    40.3808    17.3333     2.4667
 3634.0268    13.9942      .0447    39.5655    16.4772     2.5214
 3634.1792    13.9933      .0658    39.7747    15.6033     2.5606
 3634.3316    13.9923      .0770    40.3408    15.5881     2.5124
 3634.4840    13.9913      .0835    41.4117    16.3080     2.4671
 3634.6364    13.9903      .0720    43.1904    16.9912     2.4226
 3634.7888    13.9893      .0762    44.7301    16.7967     2.4201
 3634.9412    13.9883      .0629    44.2497    17.5428     2.4133
 3635.0936    13.9874      .0731    43.7352    18.4577     2.4366
 3635.2460    13.9864      .0543    45.0345    18.5724     2.4422
 3635.3984    13.9854      .0441    46.3777    17.3960     2.4690
 3635.5508    13.9844      .0548    47.4478    16.0279     2.5101
 3635.7032    13.9834      .0490    47.1837    15.1222     2.5234
 3635.8556    13.9824      .0858    46.6620    14.8318     2.5388
 3636.0080    13.9814      .0827    46.6464    15.4369     2.5401
 3636.1604    13.9805      .0651    46.4377    15.9795     2.5257
 3636.3128    13.9798      .0411    47.3272    15.5464     2.5280
 3636.4652    13.9811      .0290    47.9069    14.5416     2.5350
 3636.6176    13.9829      .0245    47.6686    13.6954     2.5238
 3636.7700    13.9846      .0490    45.5678    13.7113     2.5181
 3636.9224    13.9863      .0834    42.7905    14.2562     2.5109
 3637.0748    13.9880      .1047    43.1679    15.4559     2.4928
 3637.2272    13.9897      .0755    45.1531    16.6808     2.4697
 3637.3796    13.9914      .0537    45.8484    16.9522     2.4913
 3637.5320    13.9932      .0445    45.1567    16.4973     2.4951
 3637.6844    13.9949      .0255    43.1931    16.0440     2.4780
 3637.8368    13.9966      .0330    42.6623    14.8684     2.4665
 3637.9892    13.9983      .0567    43.2025    13.6015     2.4675
 3638.1416    14.0000      .0801    44.0969    13.0663     2.4736
 3638.2940    14.0017      .0747    43.3949    14.2752     2.4440
 3638.4464    14.0035      .0571    43.0519    15.6455     2.4087
 3638.5988    14.0052      .0596    45.5734    16.8899     2.4171
 3638.7512    14.0069      .0387    49.1104    16.8706     2.4531
 3638.9036    14.0086      .0218    52.4958    16.5549     2.5008
 3639.0560    14.0103      .0130    54.4381    17.4806     2.5162
 3639.2084    14.0121      .0057    57.2319    18.8555     2.4933
 3639.3608    14.0138      .0241    60.0731    20.4563     2.4886
 3639.5132    14.0155      .0345    62.7945    22.1867     2.4978
 3639.6656    14.0170      .0433    57.7747    23.2138     2.5086
 3639.8180    14.0184      .0445    50.3246    21.0425     2.4620
