~VERSION INFORMATION
VERS.                                                 2.0:   CWLS Log ASCII Standard-VERSION 2.0
WRAP.                                                  NO:   One line per depth step
~Well Information Block
STRT.M                                          1185.7208:   Top Depth
STOP.M                                          3805.7816:   Bottom Depth
STEP.M                                             .15240:   Depth Increment
NULL.                                            -999.250:   Null Value
FLD .                                             WILDCAT:   Field Name
WELL.                                              15/6-3:   NAME
WBN .                                              15/6-3:   WELLBORE
NATI.                                                 NOR:   COUNTRY
BHT1.DEGF                                            97.0:   BH TEMP 1
BS1 .IN                                             17.50:   BIT SIZE 1
CTRY.                                                 NOR:   COUNTRY
CBD1.F                                             1265.0:   CSG 1 DRILL DEP
CBL1.F                                             1267.0:   CSG 1 LOG DEP
CS1 .IN                                              20.0:   CSG 1 SIZE
COMP.                        ESSO EXPLORATION NORWAY INC.:   OPERATOR
PDAT.                                                 MSL:   PERM DATUM
PROV.                                           NORTH SEA:   PROVINCE
COUN.                                         DRILLMASTER:   RIG NAME
SON .                                            DM 08/02:   SOURCE OPERATOR NAME
SPUD.                                                 N/A:   SPUD DATE
LATI.                                       58 30 15.90 N:   SURF. LATITUDE
LONG.                                        1 42 39.50 E:   SURF. LONGITUDE
BTD1.                                            3934.0 F:   TOTAL DEPTH 1
PBWE.                                              15/6-3:   PB WELL ID
APIN.                                              15/6-3:   PB WELLBORE ID
PBWS.                                                 all:   PB WELL NAME SET
~PARAMETER INFORMATION (log)
LNAM.                              FDC/CNL/GR  COMPOSITED:   NAME
LTYP.                                         DEPTH MATCH:   LOG TYPE
LSRV.                                            DEN/NEUT:   LOG SERVICE
LSOU.                                             SPT/NPD:   LOG SOURCE
LVSN.                                                   1:   LOG VERSION
BHIS.                                                   R:   BRIEF HISTORY
FHIS.                                             RAW-LIS:   FULL HISTORY
LCNM.                                        SCHLUMBERGER:   LOGGING CONTRACTOR
TOOL.                             FDC/CNL/GR (COMPOSITED):   TOOL STRING
~Curve Information Block
#MNEM.UNIT                                        API CODE    No Description
#=========                                        ========    == ===========
DEPT.M                                       00 001 00 00:     1  DEPTH
CALI.IN                                                  :     2  Caliper
DRHO.G/CC                                                :     3  Bulk density correction
GR.GAPI                                                  :     4  Gamma Ray
NPHI.%                                                   :     5  Neutron porosity
RHOB.G/CC                                                :     6  Bulk density
~ASCII
# ...
 3119.3720     9.2297      .0230    25.2545    20.0047     2.6012
 3119.5244     9.2211      .0164    25.3343    19.5498     2.5847
 3119.6768     9.2120      .0111    25.7608    18.6304     2.5840
 3119.8292     9.2116      .0066    26.9531    17.4261     2.5694
 3119.9816     9.2244      .0104    27.2815    15.9361     2.5628
 3120.1340     9.2374      .0097    27.8746    15.6976     2.5736
 3120.2864     9.2503      .0136    28.5060    16.3478     2.5747
 3120.4388     9.2330      .0139    28.5000    16.9990     2.5584
 3120.5912     9.2296      .0074    28.7557    17.4248     2.5518
 3120.7436     9.0906      .0020    29.2188    17.4786     2.5583
 3120.8960     9.2088      .0044    29.9017    17.3934     2.5614
 3121.0484     9.2084      .0068    30.5357    17.4935     2.5530
 3121.2008     9.2212      .0077    30.5700    17.7678     2.5610
 3121.3532     9.2276      .0065    30.2640    18.0906     2.5658
 3121.5056     9.2960     -.0030    30.2580    18.9348     2.5545
 3121.6580     9.2042     -.0149    29.0914    20.8809     2.5316
 3121.8104     9.1785     -.0189    29.1768    23.1114     2.5060
 3121.9628     9.1621     -.0087    29.3208    24.3771     2.5163
 3122.1152     9.1457      .0015    31.0107    25.1049     2.5183
 3122.2676     9.1849      .0116    31.9434    25.3696     2.5343
 3122.4200     9.2248      .0155    31.7633    25.3373     2.5482
 3122.5724     9.2106      .0118    28.2922    25.7785     2.5566
 3122.7248     9.1243      .0082    26.7995    25.9563     2.5585
 3122.8772     9.1148      .0056    27.5992    25.9224     2.5530
 3123.0296     9.1829      .0070    29.3180    25.6927     2.5436
 3123.1820     9.2552      .0144    34.8350    25.4388     2.5331
 3123.3344     9.2067      .0441    37.1610    25.0543     2.5340
 3123.4868     9.1701      .0411    37.9036    24.2103     2.5309
 3123.6392     9.1616      .0159    36.9746    21.9857     2.4998
 3123.7916     9.1612     -.0064    33.1738    19.5979     2.4835
 3123.9440     9.1608     -.0033    30.5864    17.4960     2.4716
 3124.0964     9.1775      .0018    30.3167    16.1931     2.4779
 3124.2488     9.1798      .0078    32.3573    16.9254     2.4907
 3124.4012     9.1792      .0071    31.4234    18.0165     2.5021
 3124.5536     9.1786      .0024    31.6909    18.7460     2.5115
 3124.7060     9.1779     -.0037    32.1089    18.9146     2.5146
 3124.8584     9.1497     -.0087    32.2237    18.1956     2.5199
 3125.0108     9.1468     -.0113    33.3811    17.8612     2.5193
 3125.1632     9.2267     -.0007    34.2744    18.4315     2.5439
 3125.3156     9.1735      .0087    33.3862    17.9271     2.5599
 3125.4680     9.1655      .0176    33.0669    17.3874     2.5703
 3125.6204     9.1828      .0124    31.8516    16.3336     2.5474
 3125.7728     9.2041      .0149    31.5721    15.2292     2.5368
 3125.9252     9.2254      .0078    31.9823    14.7034     2.5417
 3126.0776     9.2467     -.0017    31.7759    14.7979     2.5321
 3126.2300     9.2351     -.0063    30.8529    15.3433     2.5266
 3126.3824     9.2141      .0029    29.9263    16.4236     2.5244
 3126.5348     9.1932      .0022    29.4062    17.7395     2.5326
 3126.6872     9.1723     -.0027    29.7333    18.9918     2.5451
 3126.8396     9.1514     -.0053    32.1451    21.1352     2.5338
 3126.9920     9.1305     -.0103    31.9445    23.2821     2.5348
 3127.1444     9.1210      .0025    30.1200    26.7277     2.5460
 3127.2968     9.1135      .0057    29.6581    27.1004     2.5571
 3127.4492     9.1061      .0121    29.6485    27.2652     2.5772
 3127.6016     9.1348      .0202    30.5095    27.6406     2.6017
 3127.7540     9.1438      .0159    31.4285    27.0991     2.5785
 3127.9064     9.1310      .0193    31.4189    26.2356     2.5758
 3128.0588     9.1003      .0147    32.1164    24.7355     2.5737
 3128.2112     9.0727      .0036    33.1221    22.5722     2.5584
 3128.3636     9.0714      .0152    32.4139    19.6128     2.5379
 3128.5160     9.1032      .0235    29.2060    16.9235     2.5304
 3128.6684     9.1439      .0094    26.8513    15.3967     2.5298
 3128.8208     9.1583      .0095    25.2605    14.8197     2.5627
 3128.9732     9.0997     -.0032    26.6881    15.0223     2.5288
 3129.1256     9.0778     -.0107    28.1940    15.8533     2.5362
 3129.2780     9.1641      .0014    28.1844    17.3638     2.5349
 3129.4304     9.2479      .0027    28.1748    19.4502     2.5035
 3129.5828     9.2213     -.0066    27.5429    21.5637     2.4714
 3129.7352     9.0785     -.0159    26.8067    24.5248     2.4698
 3129.8876     9.0486     -.0111    26.2539    27.0141     2.4828
 3130.0400     9.0415      .0015    25.0065    28.9429     2.5022
 3130.1924     9.0344      .0072    24.3800    29.4520     2.5423
 3130.3448     9.0387      .0026    23.7710    28.5089     2.5692
 3130.4972     9.0473      .0066    22.2120    26.4403     2.5736
 3130.6496     9.0271      .0093    20.6066    23.8350     2.5871
 3130.8020     8.9915      .0162    20.3756    19.1710     2.5955
 3130.9544     9.0081      .0260    20.7358    15.5160     2.6238
 3131.1068     9.0227      .0257    22.1658    13.7379     2.6302
 3131.2592     9.0331      .0131    23.3039    13.8347     2.5935
 3131.4116     9.0411      .0025    24.2529    13.8644     2.5747
 3131.5640     9.0357      .0018    24.5944    13.7611     2.5565
 3131.7164     8.9994      .0043    24.3230    13.7426     2.5557
 3131.8688     8.9631      .0092    22.5947    13.7438     2.5689
 3132.0212     8.9509      .0053    21.5690    13.8210     2.5713
 3132.1736     8.9387      .0105    22.1406    13.9056     2.5801
 3132.3260     8.9264      .0053    24.4927    13.9662     2.5771
 3132.4784     8.9393      .0097    24.2456    14.0191     2.5718
 3132.6308     8.9371      .0095    23.3313    14.1097     2.5499
 3132.7832     8.9314      .0093    22.1212    14.1421     2.5531
 3132.9356     8.9257      .0122    22.4347    13.4623     2.5574
 3133.0880     8.9199      .0111    23.3339    12.5851     2.5626
 3133.2404     8.9188      .0111    24.8848    11.5966     2.5792
 3133.3928     8.9181      .0125    26.6267    11.2889     2.5888
 3133.5452     8.9316      .0115    27.5999    11.4510     2.5962
 3133.6976     8.9460      .0098    27.2267    11.7833     2.6051
 3133.8500     8.9571      .0149    26.8064    11.8399     2.5939
 3134.0024     8.9605      .0019    25.9408    11.2787     2.5576
 3134.1548     8.9638     -.0041    26.3392     9.0834     2.5562
 3134.3072     8.9672      .0093    27.1810     8.8174     2.5768
 3134.4596     8.9705      .0093    26.5115     8.9150     2.5928
 3134.6120     8.9724      .0059    26.8016     9.1227     2.5801
 3134.7644     8.9422      .0025    28.1431     9.5230     2.5694
 3134.9168     8.7939      .0041    29.2690    10.2874     2.5751
 3135.0692     8.8624      .0050    28.3465    11.1899     2.5899
 3135.2216     8.8935      .0129    26.9223    12.0780     2.5995
 3135.3740     8.9170      .0125    26.1299    12.9661     2.5930
 3135.5264     8.9365      .0054    26.0021    13.4053     2.5737
 3135.6788     8.9698     -.0006    26.8499    13.5676     2.5595
 3135.8312     9.0228      .0009    27.3245    13.6231     2.5690
 3135.9836     9.0401      .0115    27.3149    13.6605     2.5888
 3136.1360     9.0046      .0202    27.3895    13.6979     2.5859
 3136.2884     8.9469      .0146    25.8392    13.7179     2.5759
 3136.4408     8.9635      .0019    24.8902    13.7191     2.5815
 3136.5932     8.9801      .0024    25.9300    13.7202     2.5867
 3136.7456     8.9920      .0083    26.8238    13.7214     2.5904
 3136.8980     9.0028      .0104    26.7964    13.8156     2.5946
 3137.0504     9.0136      .0052    26.3497    13.9632     2.5825
 3137.2028     9.0244     -.0039    25.0889    13.8158     2.5716
 3137.3552     9.0353     -.0054    24.5338    13.3914     2.5804
 3137.5076     9.0461     -.0014    26.1686    12.5086     2.5804
 3137.6600     9.0569      .0064    27.5096    11.7741     2.5713
 3137.8124     9.0340      .0080    28.7906    11.8284     2.5604
