~VERSION INFORMATION
VERS.                                                 2.0:   CWLS Log ASCII Standard-VERSION 2.0
WRAP.                                                  NO:   One line per depth step
~Well Information Block
STRT.M                                          1185.7208:   Top Depth
STOP.M                                          3805.7816:   Bottom Depth
STEP.M                                             .15240:   Depth Increment
NULL.                                            -999.250:   Null Value
FLD .                                             WILDCAT:   Field Name
WELL.                                              15/6-3:   NAME
WBN .                                              15/6-3:   WELLBORE
NATI.                                                 NOR:   COUNTRY
BHT1.DEGF                                            97.0:   BH TEMP 1
BS1 .IN                                             17.50:   BIT SIZE 1
CTRY.                                                 NOR:   COUNTRY
CBD1.F                                             1265.0:   CSG 1 DRILL DEP
CBL1.F                                             1267.0:   CSG 1 LOG DEP
CS1 .IN                                              20.0:   CSG 1 SIZE
COMP.                        ESSO EXPLORATION NORWAY INC.:   OPERATOR
PDAT.                                                 MSL:   PERM DATUM
PROV.                                           NORTH SEA:   PROVINCE
COUN.                                         DRILLMASTER:   RIG NAME
SON .                                            DM 08/02:   SOURCE OPERATOR NAME
SPUD.                                                 N/A:   SPUD DATE
LATI.                                       58 30 15.90 N:   SURF. LATITUDE
LONG.                                        1 42 39.50 E:   SURF. LONGITUDE
BTD1.                                            3934.0 F:   TOTAL DEPTH 1
PBWE.                                              15/6-3:   PB WELL ID
APIN.                                              15/6-3:   PB WELLBORE ID
PBWS.                                                 all:   PB WELL NAME SET
~PARAMETER INFORMATION (log)
LNAM.                              FDC/CNL/GR  COMPOSITED:   NAME
LTYP.                                         DEPTH MATCH:   LOG TYPE
LSRV.                                            DEN/NEUT:   LOG SERVICE
LSOU.                                             SPT/NPD:   LOG SOURCE
LVSN.                                                   1:   LOG VERSION
BHIS.                                                   R:   BRIEF HISTORY
FHIS.                                             RAW-LIS:   FULL HISTORY
LCNM.                                        SCHLUMBERGER:   LOGGING CONTRACTOR
TOOL.                             FDC/CNL/GR (COMPOSITED):   TOOL STRING
~Curve Information Block
#MNEM.UNIT                                        API CODE    No Description
#=========                                        ========    == ===========
DEPT.M                                       00 001 00 00:     1  DEPTH
CALI.IN                                                  :     2  Caliper
DRHO.G/CC                                                :     3  Bulk density correction
GR.GAPI                                                  :     4  Gamma Ray
NPHI.%                                                   :     5  Neutron porosity
RHOB.G/CC                                                :     6  Bulk density
~ASCII
# ...
 2803.2944    12.2777      .0133    10.9926    10.7282     2.5659
 2803.4468    12.3045      .0081    11.3247    10.5482     2.5675
 2803.5992    12.3314      .0021    11.3348    10.2947     2.5688
 2803.7516    12.3480      .0001    11.5387     9.9708     2.5689
 2803.9040    12.3186     -.0004    11.9460     9.6049     2.5597
 2804.0564    12.2944     -.0001    12.3456     9.2148     2.5503
 2804.2088    12.2948      .0105    12.5498     9.3978     2.5523
 2804.3612    12.3133      .0197    13.1798     9.9095     2.5583
 2804.5136    12.3367      .0233    15.0037    10.5974     2.5735
 2804.6660    12.3442      .0108    16.8725    11.3793     2.5643
 2804.8184    12.3517      .0142    19.6606    12.7941     2.5545
 2804.9708    12.3404      .0440    22.4532    14.8133     2.5701
 2805.1232    12.3027      .0747    25.1012    18.1060     2.5787
 2805.2756    12.2650      .0625    27.3464    21.4119     2.5558
 2805.4280    12.2752      .0422    29.3304    24.3084     2.5259
 2805.5804    12.2977      .0414    29.4861    23.0845     2.5333
 2805.7328    12.3214      .0264    29.7487    22.1397     2.5240
 2805.8852    12.3451      .0232    30.5797    22.4938     2.5262
 2806.0376    12.3689      .0288    31.3758    23.1637     2.5456
 2806.1900    12.3926      .0228    30.9748    23.0772     2.5576
 2806.3424    12.3473      .0305    29.5749    20.1643     2.5707
 2806.4948    12.3196      .0520    29.0306    16.6313     2.5893
 2806.6472    12.3887      .0500    30.9286    16.6847     2.5664
 2806.7996    12.4776      .0314    32.0338    19.9760     2.5306
 2806.9520    12.4800      .0369    28.9838    21.6373     2.5349
 2807.1044    12.4626      .0446    25.7468    19.2499     2.5796
 2807.2568    12.3973      .0395    22.5098    15.7175     2.6128
 2807.4092    12.3571      .0810    19.7391    10.8894     2.6660
 2807.5616    12.4521      .0520    19.4113    10.8053     2.6511
 2807.7140    12.5596      .0362    18.5449    11.6800     2.6100
 2807.8664    12.4788      .0305    15.0784    10.3922     2.6272
 2808.0188    12.4525      .0273    12.7170     7.3392     2.6530
 2808.1712    12.4307      .0239    12.1600     5.3225     2.6220
 2808.3236    12.4447      .0148    12.1001     5.8847     2.5941
 2808.4760    12.4782      .0277    13.4055     7.4903     2.5823
 2808.6284    12.4836      .0363    14.1708     8.8164     2.5740
 2808.7808    12.4444      .0421    14.7206    10.0327     2.5821
 2808.9332    12.3437      .0314    15.0363    10.6695     2.5794
 2809.0856    12.3266      .0297    16.0140    11.4321     2.5551
 2809.2380    12.4067      .0743    17.1464    12.4783     2.5350
 2809.3904    12.4938      .1281    17.3564    17.2467     2.5290
 2809.5428    12.4966      .0522    15.6829    20.5519     2.4303
 2809.6952    12.3352     -.0102    12.9645    20.4818     2.4413
 2809.8476    12.2200      .0036    10.4626    16.2675     2.5258
 2810.0000    12.1988      .0083     9.3327    12.9134     2.5241
 2810.1524    12.1777      .0103     9.9430    13.4883     2.4918
 2810.3048    12.1778      .0061    10.8398    14.1331     2.4608
 2810.4572    12.1907      .0154    10.7312    15.7795     2.4396
 2810.6096    12.1966      .0243    10.4627    16.0167     2.4369
 2810.7620    12.2025      .0134    10.2967    16.3257     2.4326
 2810.9144    12.2083      .0209    10.2999    16.9506     2.4303
 2811.0668    12.2060      .0343    10.5829    17.6581     2.4325
 2811.2192    12.2016      .0396    10.9174    18.4114     2.4483
 2811.3716    12.1973      .0283    11.2520    18.6163     2.4388
 2811.5240    12.1929      .0126    11.4554    18.1436     2.4257
 2811.6764    12.1958     -.0026    11.2310    18.6204     2.4150
 2811.8288    12.2049     -.0141    10.4978    18.1830     2.4204
 2811.9812    12.2183     -.0058     9.4505    17.5287     2.4204
 2812.1336    12.2447      .0099     9.6814    16.7338     2.4154
 2812.2860    12.2712      .0257     9.9127    15.8898     2.4333
 2812.4384    12.2530      .0334     9.8851    15.9918     2.4639
 2812.5908    12.2330      .0406     9.5872    16.5794     2.4815
 2812.7432    12.2484      .0450     9.5904    18.0526     2.4712
 2812.8956    12.2640      .0404     9.6179    18.7615     2.4438
 2813.0480    12.2796      .0395     9.8959    17.9675     2.4533
 2813.2004    12.2971      .0260     9.9420    17.2034     2.4541
 2813.3528    12.3410      .0104    10.3510    17.0993     2.4539
 2813.5052    12.3849      .0046    10.2982    17.6605     2.4642
 2813.6576    12.3888      .0176    10.8062    18.1310     2.4786
 2813.8100    12.3815      .0343    10.9185    18.1899     2.4966
 2813.9624    12.3742      .0135    10.8126    18.1779     2.4661
 2814.1148    12.3664      .0153    10.7177    18.5385     2.4718
 2814.2672    12.3586      .0217    10.1670    18.9021     2.4785
 2814.4196    12.3631      .0244     9.9246    18.8722     2.4807
 2814.5720    12.3728      .0163     9.6286    18.6702     2.4701
 2814.7244    12.3835      .0077     9.6318    17.7923     2.4784
 2814.8768    12.3949      .0104     9.0510    16.8334     2.4960
 2815.0292    12.3891      .0080     8.1420    16.2170     2.5060
 2815.1816    12.3783      .0025     8.1451    15.4048     2.4981
 2815.3340    12.3534     -.0005     8.6558    14.4933     2.5048
 2815.4864    12.3280     -.0008     9.3484    14.6759     2.5184
 2815.6388    12.3027      .0046     9.6509    14.5364     2.5419
 2815.7912    12.3113      .0187     9.6541    13.7331     2.5568
 2815.9436    12.3261      .0302    10.2822    13.1325     2.5703
 2816.0960    12.3423      .0231    10.5582    13.0933     2.5782
 2816.2484    12.3585      .0147    10.4479    13.0721     2.5771
 2816.4008    12.3748      .0064    10.5646    13.2074     2.5622
 2816.5532    12.3759     -.0003    10.0781    13.3428     2.5503
 2816.7056    12.3681     -.0007     9.6732    13.4023     2.5635
 2816.8580    12.3641      .0046     9.9396    13.4921     2.5714
 2817.0104    12.3779      .0130     9.9788    13.5686     2.5734
 2817.1628    12.3823      .0220    10.2638    13.7199     2.5861
 2817.3152    12.3747      .0250     9.9940    13.9434     2.5630
 2817.4676    12.3554      .0167     9.9884    14.0653     2.5372
 2817.6200    12.3370      .0215    10.2909    14.3987     2.5432
 2817.7724    12.3238      .0215    10.5935    15.0505     2.5556
 2817.9248    12.3241      .0204    10.5967    15.9295     2.5570
 2818.0772    12.3309      .0171    10.5999    16.8444     2.5378
 2818.2296    12.3394      .0128    10.6031    17.8003     2.5126
 2818.3820    12.3450      .0079    10.9057    18.8188     2.4909
 2818.5344    12.3453      .0064    11.1751    19.8372     2.4872
 2818.6868    12.3457      .0285    11.2115    19.8875     2.5067
 2818.8392    12.3460      .0418    11.2147    19.0646     2.5262
 2818.9916    12.3463      .0276    10.0667    18.2543     2.5194
 2819.1440    12.3467      .0116    10.2244    17.5126     2.5189
 2819.2964    12.3425      .0133    10.5314    16.8936     2.5212
 2819.4488    12.3276      .0090    10.6287    16.9848     2.5122
 2819.6012    12.2918      .0058    10.4579    17.1606     2.5124
 2819.7536    12.2556      .0110     9.7228    17.2666     2.5069
 2819.9060    12.2489      .0308     9.8145    16.9809     2.5144
 2820.0584    12.2494      .0328     9.8580    16.1645     2.5140
 2820.2108    12.2499      .0210     9.8098    15.2809     2.5024
 2820.3632    12.2628      .0346     8.9239    14.5201     2.5199
 2820.5156    12.2831      .0235     8.3907    13.7593     2.4937
 2820.6680    12.2976      .0105     8.3041    13.2394     2.4841
 2820.8204    12.3085      .0049     9.2244    13.3709     2.4826
 2820.9728    12.3193      .0094    10.0365    13.2867     2.4924
 2821.1252    12.3302      .0102    10.6297    12.9703     2.4994
 2821.2776    12.3330      .0014    10.7340    13.0425     2.4959
 2821.4300    12.3335      .0038    10.5931    12.7598     2.5045
 2821.5824    12.3300      .0145    10.6018    11.9685     2.5147
 2821.7348    12.3213      .0252    10.4545    11.0286     2.5154
