~VERSION INFORMATION
VERS.                                                 2.0:   CWLS Log ASCII Standard-VERSION 2.0
WRAP.                                                  NO:   One line per depth step
~Well Information Block
STRT.M                                           847.3928:   Top Depth
STOP.M                                          5117.4884:   Bottom Depth
STEP.M                                             .15240:   Depth Increment
NULL.                                            -999.250:   Null Value
FLD .                                             WILDCAT:   Field Name
WELL.                                              15/3-3:   NAME
WBN .                                              15/3-3:   WELLBORE
NATI.                                                 NOR:   COUNTRY
CTRY.                                                 NOR:   COUNTRY
COMP.                             ELF AQUITAINE NORGE A/S:   OPERATOR
PROV.                                           NORTH SEA:   PROVINCE
COUN.                                        PENTAGONE 84:   RIG NAME
SPUD.                                          1979/01/05:   SPUD DATE
LATI.                                       58 52 31.25 N:   SURF. LATITUDE
LONG.                                        1 46 46.27 E:   SURF. LONGITUDE
PBWE.                                              15/3-3:   PB WELL ID
APIN.                                              15/3-3:   PB WELLBORE ID
PBWS.                                                 all:   PB WELL NAME SET
~PARAMETER INFORMATION (log)
LNAM.                              FDC/CNL/GR  COMPOSITED:   NAME
LTYP.                                         DEPTH MATCH:   LOG TYPE
LSRV.                                            DEN/NEUT:   LOG SERVICE
LSOU.                                             SPT/NPD:   LOG SOURCE
LVSN.                                                   1:   LOG VERSION
BHIS.                                                   R:   BRIEF HISTORY
FHIS.                                             RAW-LIS:   FULL HISTORY
LCNM.                                                 SCH:   LOGGING CONTRACTOR
TOOL.                             FDC/CNL/GR (COMPOSITED):   TOOL STRING
~Curve Information Block
#MNEM.UNIT                                        API CODE    No Description
#=========                                        ========    == ===========
DEPT.M                                       00 001 00 00:     1  DEPTH
CALI.IN                                                  :     2  Caliper
DRHO.G/CC                                                :     3  Bulk density correction
GR.GAPI                                                  :     4  Gamma Ray
NPHI.%                                                   :     5  Neutron porosity
RHOB.G/CC                                                :     6  Bulk density
TENS.LB                                                  :     7  Cable Tension
~ASCII
  847.3928  -999.2500  -999.2500  -999.2500  -999.2500     2.1675  -999.2500
  847.5452    18.5287     -.2905    26.6687  -999.2500     2.1785  -999.2500
  847.6976    18.3704     -.2910    26.8265  -999.2500     2.2227  -999.2500
  847.8500    18.2746     -.2914    27.9039  -999.2500     2.2523  -999.2500
  848.0024    18.2196     -.2918    28.2379  -999.2500     2.2644  -999.2500
  848.1548    18.1769     -.2922    27.4752  -999.2500     2.2582  -999.2500
  848.3072    18.1499     -.2920    26.9330  -999.2500     2.2233  -999.2500
  848.4596    18.1426     -.2916    28.4934  -999.2500     2.1910  -999.2500
  848.6120    18.1353     -.2912    28.6713  -999.2500     2.1908  -999.2500
  848.7644    18.1451     -.2908    28.6729  -999.2500     2.2500  -999.2500
  848.9168    18.1594     -.2904    28.6744  -999.2500     2.3227  -999.2500
  849.0692    18.1738     -.2905    29.3740  -999.2500     2.3757  -999.2500
  849.2216    18.2330     -.2907    31.3399  -999.2500     2.4042  -999.2500
  849.3740    18.2934     -.2910    32.4464  -999.2500     2.4216  -999.2500
  849.5264    18.3550     -.2912    32.2763  -999.2500     2.4343  -999.2500
  849.6788    18.4194     -.2911    32.9547  -999.2500     2.4442  -999.2500
  849.8312    18.4837     -.2906    34.0510  -999.2500     2.4514  -999.2500
  849.9836    18.5752     -.2902    34.7394  -999.2500     2.4628  -999.2500
  850.1360    18.6626     -.2897    33.8931  -999.2500     2.4823  -999.2500
  850.2884    18.7196     -.2893    32.3076  -999.2500     2.5085  -999.2500
  850.4408    18.8185     -.2895    31.8907  -999.2500     2.5245  -999.2500
  850.5932    18.9610     -.2897    32.0751  -999.2500     2.5086  -999.2500
  850.7456    19.0988     -.2899    30.5077  -999.2500     2.4731  -999.2500
  850.8980    19.1979     -.2901    30.9886  -999.2500     2.4508  -999.2500
  851.0504    19.2126     -.2903    30.0909  -999.2500     2.4139  -999.2500
  851.2028    19.2128     -.2904    29.6940  -999.2500     2.3828  -999.2500
  851.3552    19.2131     -.2905    29.7782  -999.2500     2.3746  -999.2500
  851.5076    19.2133     -.2907    30.3024  -999.2500     2.3874  -999.2500
  851.6600    19.2135     -.2908    30.5162  -999.2500     2.4018  -999.2500
  851.8124    19.1735     -.2909    31.3202  -999.2500     2.3907  -999.2500
  851.9648    19.1304     -.2910    32.1022  -999.2500     2.3575  -999.2500
  852.1172    19.1368     -.2911    32.2935  -999.2500     2.2968  -999.2500
  852.2696    19.1611     -.2913    32.2951  -999.2500     2.2215  -999.2500
  852.4220    19.1806     -.2915    32.2967  -999.2500     2.1365  -999.2500
  852.5744    19.1941     -.2917    32.1793  -999.2500     2.0812  -999.2500
  852.7268    19.1681     -.2918    31.9015  -999.2500     2.0419  -999.2500
  852.8792    19.1401     -.2920    31.9031  -999.2500     2.0285  -999.2500
  853.0316    19.1189     -.2922    31.9047  -999.2500     2.0715  -999.2500
  853.1840    19.1486     -.2910    31.4058  -999.2500     2.1759  -999.2500
  853.3364    19.1909     -.2897    30.9459  -999.2500     2.2620  -999.2500
  853.4888    19.2332     -.2885    30.4666  -999.2500     2.3639  -999.2500
  853.6412    19.2755     -.2874    30.1177  -999.2500     2.4049  -999.2500
  853.7936    19.2762     -.2878    30.3023  -999.2500     2.4176  -999.2500
  853.9460    19.2607     -.2885    30.8897  -999.2500     2.3820  -999.2500
  854.0984    19.1666     -.2891    32.0675  -999.2500     2.3421  -999.2500
  854.2508    19.0724     -.2897    32.3160  -999.2500     2.3034  -999.2500
  854.4032    19.0440     -.2903    31.9851  -999.2500     2.3189  -999.2500
  854.5556    19.0182     -.2909    31.0252  -999.2500     2.3843  -999.2500
  854.7080    19.0184     -.2912    30.1806  -999.2500     2.4470  -999.2500
  854.8604    19.0628     -.2912    29.7383  -999.2500     2.4724  -999.2500
  855.0128    19.1038     -.2912    29.8302  -999.2500     2.4716  -999.2500
  855.1652    19.1381     -.2912    29.9342  -999.2500     2.4378  -999.2500
  855.3176    19.1279     -.2908    30.3460  -999.2500     2.3923  -999.2500
  855.4700    19.1176     -.2905    31.7246  -999.2500     2.3377  -999.2500
  855.6224    19.1074     -.2891    32.2730  -999.2500     2.2997  -999.2500
  855.7748    19.1050     -.2836    32.5314  -999.2500     2.2396  -999.2500
  855.9272    19.1437     -.2741    31.5748  -999.2500     2.1450  -999.2500
  856.0796    19.2041     -.2495    30.3266  -999.2500     2.0655  -999.2500
  856.2320    19.2049     -.1817    31.2624  -999.2500     2.0076  -999.2500
  856.3844    19.1801     -.0631    33.1722  -999.2500     1.9568  -999.2500
  856.5368    19.1803      .0257    34.6480  -999.2500     1.9321  -999.2500
  856.6892    19.1921      .0488    34.7725  -999.2500     1.8556  -999.2500
  856.8416    19.3024      .0205    34.1372  -999.2500     1.6770  -999.2500
  856.9940    19.3872      .0137    34.4856  -999.2500     1.6272  -999.2500
  857.1464    19.4056      .0226    35.0797  -999.2500     1.6138  -999.2500
  857.2988    19.4205      .0333    35.4494  -999.2500     1.6355  -999.2500
  857.4512    19.4136      .0489    36.6554  -999.2500     1.6702  -999.2500
  857.6036    19.4063      .0637    36.9359  -999.2500     1.7158  -999.2500
  857.7560    19.4119      .0634    37.0269  -999.2500     1.7699  -999.2500
  857.9084    19.4474      .0585    37.7078  -999.2500     1.8041  -999.2500
  858.0608    19.4830      .0546    37.7980  -999.2500     1.8323  -999.2500
  858.2132    19.5131      .0547    37.3185  -999.2500     1.8520  -999.2500
  858.3656    19.5217      .0570    37.3617  -999.2500     1.8545  -999.2500
  858.5180    19.5204      .0618    38.0167  -999.2500     1.8687  -999.2500
  858.6704    19.5114      .0704    38.3361  -999.2500     1.8881  -999.2500
  858.8228    19.5023      .0790    39.3308  -999.2500     1.9067  -999.2500
  858.9752    19.4933      .0883    39.1855  -999.2500     1.9251  -999.2500
  859.1276    19.4842      .0931    38.7061  -999.2500     1.9515  -999.2500
  859.2800    19.4881      .0831    38.8526  -999.2500     1.9643  -999.2500
  859.4324    19.4942      .0684    39.6704  -999.2500     1.9852  -999.2500
  859.5848    19.5002      .0685    39.7721  -999.2500     2.0074  -999.2500
  859.7372    19.5063      .0696    40.2922  -999.2500     2.0266  -999.2500
  859.8896    19.5124      .0695    40.7744  -999.2500     2.0392  -999.2500
  860.0420    19.5185      .0678    41.7928  -999.2500     2.0419  -999.2500
  860.1944    19.5244      .0672    42.9990  -999.2500     2.0371  -999.2500
  860.3468    19.5281      .0717    44.2045  -999.2500     2.0328  -999.2500
  860.4992    19.5317      .0844    45.1293  -999.2500     2.0391  -999.2500
  860.6516    19.5354      .0892    45.8487  -999.2500     2.0324  -999.2500
  860.8040    19.5390      .0872    47.6132  -999.2500     2.0089  -999.2500
  860.9564    19.5427      .0884    49.3797  -999.2500     1.9854  -999.2500
  861.1088    19.5394      .0893    49.1777  -999.2500     1.9782  -999.2500
  861.2612    19.5155      .0771    48.3406  -999.2500     2.0024  -999.2500
  861.4136    19.4917      .0664    47.8314  -999.2500     2.0331  -999.2500
  861.5660    19.4891      .0644    46.2121  -999.2500     2.0523  -999.2500
  861.7184    19.4929      .0630    44.4688  -999.2500     2.0555  -999.2500
  861.8708    19.4968      .0642    44.2014  -999.2500     2.0650  -999.2500
  862.0232    19.5006      .0680    44.5735  -999.2500     2.0696  -999.2500
  862.1756    19.5045      .0673    44.9456  -999.2500     2.0768  -999.2500
  862.3280    19.5088      .0693    45.4376  -999.2500     2.0794  -999.2500
  862.4804    19.5143      .0697    45.9349  -999.2500     2.0772  -999.2500
  862.6328    19.5197      .0624    46.4190  -999.2500     2.0622  -999.2500
  862.7852    19.5251      .0543    46.3705  -999.2500     2.0516  -999.2500
  862.9376    19.5426      .0510    44.6493  -999.2500     2.0452  -999.2500
  863.0900    19.5728      .0525    43.6902  -999.2500     2.0446  -999.2500
