~VERSION INFORMATION
VERS.                                                 2.0:   CWLS Log ASCII Standard-VERSION 2.0
WRAP.                                                  NO:   One line per depth step
~Well Information Block
STRT.M                                           847.3928:   Top Depth
STOP.M                                          5117.4884:   Bottom Depth
STEP.M                                             .15240:   Depth Increment
NULL.                                            -999.250:   Null Value
FLD .                                             WILDCAT:   Field Name
WELL.                                              15/3-3:   NAME
WBN .                                              15/3-3:   WELLBORE
NATI.                                                 NOR:   COUNTRY
CTRY.                                                 NOR:   COUNTRY
COMP.                             ELF AQUITAINE NORGE A/S:   OPERATOR
PROV.                                           NORTH SEA:   PROVINCE
COUN.                                        PENTAGONE 84:   RIG NAME
SPUD.                                          1979/01/05:   SPUD DATE
LATI.                                       58 52 31.25 N:   SURF. LATITUDE
LONG.                                        1 46 46.27 E:   SURF. LONGITUDE
PBWE.                                              15/3-3:   PB WELL ID
APIN.                                              15/3-3:   PB WELLBORE ID
PBWS.                                                 all:   PB WELL NAME SET
~PARAMETER INFORMATION (log)
LNAM.                              FDC/CNL/GR  COMPOSITED:   NAME
LTYP.                                         DEPTH MATCH:   LOG TYPE
LSRV.                                            DEN/NEUT:   LOG SERVICE
LSOU.                                             SPT/NPD:   LOG SOURCE
LVSN.                                                   1:   LOG VERSION
BHIS.                                                   R:   BRIEF HISTORY
FHIS.                                             RAW-LIS:   FULL HISTORY
LCNM.                                                 SCH:   LOGGING CONTRACTOR
TOOL.                             FDC/CNL/GR (COMPOSITED):   TOOL STRING
~Curve Information Block
#MNEM.UNIT                                        API CODE    No Description
#=========                                        ========    == ===========
DEPT.M                                       00 001 00 00:     1  DEPTH
CALI.IN                                                  :     2  Caliper
DRHO.G/CC                                                :     3  Bulk density correction
GR.GAPI                                                  :     4  Gamma Ray
NPHI.%                                                   :     5  Neutron porosity
RHOB.G/CC                                                :     6  Bulk density
TENS.LB                                                  :     7  Cable Tension
~ASCII
# ...
 3969.7640    15.1477     -.0103    57.8881  -999.2500     2.3609  1129.3735
 3969.9164    14.5972     -.0210    56.7135  -999.2500     2.3526  1208.1716
 3970.0688    14.2205     -.0206    56.8684  -999.2500     2.3443  1065.1357
 3970.2212    14.4586     -.0147    58.9471  -999.2500     2.3290   914.8741
 3970.3736    14.7970     -.0053    60.4274  -999.2500     2.3079   912.6008
 3970.5260    14.9117     -.0015    60.7740  -999.2500     2.2885   897.1552
 3970.6784    14.7348     -.0080    60.4912  -999.2500     2.2888   898.9639
 3970.8308    14.8597     -.0048    61.2200  -999.2500     2.3232   851.9543
 3970.9832    15.2562     -.0020    62.6757  -999.2500     2.3628   945.0497
 3971.1356    15.4800     -.0050    63.0561  -999.2500     2.3611  1080.7607
 3971.2880    15.1391      .0018    63.0675  -999.2500     2.3669  1055.3110
 3971.4404    14.7854      .0121    63.0433  -999.2500     2.3891  1066.3350
 3971.5928    14.6742      .0059    62.8059  -999.2500     2.3701  1050.7668
 3971.7452    14.5620      .0000    62.2742  -999.2500     2.3687   895.6223
 3971.8976    14.7799      .0027    62.5518  -999.2500     2.3878   540.2655
 3972.0500    14.4680     -.0004    64.1705  -999.2500     2.3805   539.6624
 3972.2024    13.7219     -.0017    64.7158  -999.2500     2.3767   877.0575
 3972.3548    13.8056      .0057    65.3367  -999.2500     2.3922  1208.8950
 3972.5072    14.0953      .0161    67.3822  -999.2500     2.4055  1392.1426
 3972.6596    13.9125      .0150    69.3912  -999.2500     2.4231  1325.7683
 3972.8120    13.3629     -.0019    69.9788  -999.2500     2.4601  1254.4871
 3972.9644    13.4473     -.0125    68.2418  -999.2500     2.5177  1045.2961
 3973.1168    13.4332     -.0119    64.5772  -999.2500     2.5650   646.5695
 3973.2692    12.9507     -.0078    60.1711  -999.2500     2.5860   482.9736
 3973.4216    12.9109     -.0036    58.0792  -999.2500     2.5922   530.0483
 3973.5740    12.9370     -.0042    57.8043  -999.2500     2.5878   502.7405
 3973.7264    13.0029     -.0062    56.6633  -999.2500     2.5933   474.4310
 3973.8788    12.9568     -.0067    56.5280  -999.2500     2.6069   599.9944
 3974.0312    12.9598     -.0048    58.6498  -999.2500     2.6072   767.4657
 3974.1836    13.0100     -.0038    61.3871  -999.2500     2.5876   776.8422
 3974.3360    13.0941      .0016    62.9634  -999.2500     2.5634   621.1538
 3974.4884    13.1265      .0099    63.5896  -999.2500     2.5492   521.4794
 3974.6408    13.0477      .0132    64.3716  -999.2500     2.5288   528.7388
 3974.7932    12.9970      .0200    67.4270  -999.2500     2.4845   584.3522
 3974.9456    13.0516      .0364    73.9670  -999.2500     2.4668   615.4973
 3975.0980    13.1029      .0281    76.3124  -999.2500     2.4928   575.7688
 3975.2504    13.1696      .0198    76.3016  -999.2500     2.5450   539.2316
 3975.4028    13.1817      .0119    75.6462  -999.2500     2.5550   566.1537
 3975.5552    13.1939      .0105    76.2425  -999.2500     2.5563   597.2853
 3975.7076    13.2517      .0166    78.3111  -999.2500     2.5593   602.3289
 3975.8600    13.5424      .0226    78.9502  -999.2500     2.5611   504.3267
 3976.0124    13.4728      .0130    78.5117  -999.2500     2.5574   505.0188
 3976.1648    13.2409      .0019    77.0473  -999.2500     2.5594   535.3131
 3976.3172    12.9610     -.0039    74.4559  -999.2500     2.5720   564.5830
 3976.4696    13.0543     -.0037    70.0142  -999.2500     2.5897   588.9977
 3976.6220    13.1267     -.0062    64.5236  -999.2500     2.5984   513.9838
 3976.7744    13.1707     -.0060    60.2594  -999.2500     2.6046   443.2381
 3976.9268    13.1798      .0002    58.7832  -999.2500     2.6123   444.7261
 3977.0792    13.1559      .0071    59.7920  -999.2500     2.6220   495.4664
 3977.2316    13.1206      .0061    60.9950  -999.2500     2.6193   580.5367
 3977.3840    13.0937      .0032    62.0541  -999.2500     2.6092   680.9672
 3977.5364    13.0939      .0034    62.6466  -999.2500     2.5961   779.4954
 3977.6888    13.1544      .0097    58.4389  -999.2500     2.5838   682.5333
 3977.8412    13.1830      .0169    55.4142  -999.2500     2.5744   558.4971
 3977.9936    13.1510      .0249    53.9805  -999.2500     2.5729   463.9806
 3978.1460    13.0290      .0299    54.8560  -999.2500     2.5832   476.6079
 3978.2984    12.9985      .0135    56.4934  -999.2500     2.5716   491.0624
 3978.4508    12.9859     -.0011    58.8853  -999.2500     2.5740   477.4318
 3978.6032    12.9671     -.0004    60.7097  -999.2500     2.5725   552.0583
 3978.7556    13.2132      .0047    61.7882  -999.2500     2.5580   600.3466
 3978.9080    13.4096      .0037    61.8849  -999.2500     2.5304   597.2623
 3979.0604    13.3908     -.0017    61.0657  -999.2500     2.4939   584.7073
 3979.2128    13.3518     -.0046    60.2600  -999.2500     2.4549   597.0947
 3979.3652    13.1847     -.0204    62.0669  -999.2500     2.4242   541.9460
 3979.5176    13.2585     -.0034    64.7247  -999.2500     2.4064   582.8112
 3979.6700    13.2396      .0160    64.7027  -999.2500     2.4100   707.7823
 3979.8224    13.4028      .0169    62.6295  -999.2500     2.4470   796.0315
 3979.9748    13.6316      .0081    61.7622  -999.2500     2.4651   762.0740
 3980.1272    13.7500      .0120    64.5928  -999.2500     2.4357   558.7034
 3980.2796    13.5157      .0109    68.0698  -999.2500     2.3804   527.4136
 3980.4320    13.0907      .0104    66.8858  -999.2500     2.3720   650.4838
 3980.5844    12.7157      .0255    65.7068  -999.2500     2.3956   648.9039
 3980.7368    13.1854      .0335    67.5152  -999.2500     2.4176   630.3004
 3980.8892    13.8119      .0357    70.5957  -999.2500     2.4185   615.0388
 3981.0416    13.8346      .0025    67.0493  -999.2500     2.3900   488.8745
 3981.1940    13.7581      .0131    64.0811  -999.2500     2.3560   500.8940
 3981.3464    13.5077      .0075    68.1580  -999.2500     2.3386   439.8236
 3981.4988    13.1187      .0007    72.7454  -999.2500     2.3072   519.5933
 3981.6512    13.1316      .0042    73.2530  -999.2500     2.3251   588.8540
 3981.8036    13.3489      .0099    69.8166  -999.2500     2.3416   611.2809
 3981.9560    13.7271      .0171    66.6208  -999.2500     2.3414   698.4253
 3982.1084    14.4422      .0180    65.5847  -999.2500     2.3711   645.7549
 3982.2608    14.5563      .0026    65.0423  -999.2500     2.3805   533.9468
 3982.4132    14.0208      .0023    66.2321  -999.2500     2.3722   521.7321
 3982.5656    13.7415      .0040    69.0032  -999.2500     2.3670   584.4647
 3982.7180    13.5888      .0068    72.6618  -999.2500     2.3726   639.7178
 3982.8704    13.4850      .0144    73.5896  -999.2500     2.4090   563.6588
 3983.0228    13.4522      .0034    72.4770  -999.2500     2.4471   512.0345
 3983.1752    13.4486      .0130    71.8521  -999.2500     2.4551   532.8113
 3983.3276    13.5171      .0185    73.3969  -999.2500     2.4009   670.2075
 3983.4800    13.1934      .0063    72.3868  -999.2500     2.3867   803.1533
 3983.6324    13.2257     -.0045    72.2286  -999.2500     2.4655   650.1359
 3983.7848    13.2562      .0047    69.4833  -999.2500     2.4992   459.0522
 3983.9372    13.2316      .0206    69.3227  -999.2500     2.5186   481.2122
 3984.0896    12.8659      .0195    72.3265  -999.2500     2.5003   582.0902
 3984.2420    12.7106      .0244    70.4522  -999.2500     2.4975   527.2726
 3984.3944    12.8799      .0126    66.2583  -999.2500     2.5146   369.4158
 3984.5468    13.1248      .0176    63.6608  -999.2500     2.5217   220.5627
 3984.6992    13.1784      .0332    63.9109  -999.2500     2.5201   819.8007
 3984.8516    13.1722      .0417    63.4686  -999.2500     2.5448  2005.4519
 3985.0040    13.2426      .0404    63.7221  -999.2500     2.5665  2331.4937
 3985.1564    13.3018      .0529    67.3719  -999.2500     2.5822  2194.0923
 3985.3088    13.3214      .0532    68.0687  -999.2500     2.5933  2056.2905
 3985.4612    13.3232      .0490    68.9461  -999.2500     2.5936  1905.4534
