~VERSION INFORMATION
VERS.                                                 2.0:   CWLS Log ASCII Standard-VERSION 2.0
WRAP.                                                  NO:   One line per depth step
~Well Information Block
STRT.M                                           847.3928:   Top Depth
STOP.M                                          5117.4884:   Bottom Depth
STEP.M                                             .15240:   Depth Increment
NULL.                                            -999.250:   Null Value
FLD .                                             WILDCAT:   Field Name
WELL.                                              15/3-3:   NAME
WBN .                                              15/3-3:   WELLBORE
NATI.                                                 NOR:   COUNTRY
CTRY.                                                 NOR:   COUNTRY
COMP.                             ELF AQUITAINE NORGE A/S:   OPERATOR
PROV.                                           NORTH SEA:   PROVINCE
COUN.                                        PENTAGONE 84:   RIG NAME
SPUD.                                          1979/01/05:   SPUD DATE
LATI.                                       58 52 31.25 N:   SURF. LATITUDE
LONG.                                        1 46 46.27 E:   SURF. LONGITUDE
PBWE.                                              15/3-3:   PB WELL ID
APIN.                                              15/3-3:   PB WELLBORE ID
PBWS.                                                 all:   PB WELL NAME SET
~PARAMETER INFORMATION (log)
LNAM.                              FDC/CNL/GR  COMPOSITED:   NAME
LTYP.                                         DEPTH MATCH:   LOG TYPE
LSRV.                                            DEN/NEUT:   LOG SERVICE
LSOU.                                             SPT/NPD:   LOG SOURCE
LVSN.                                                   1:   LOG VERSION
BHIS.                                                   R:   BRIEF HISTORY
FHIS.                                             RAW-LIS:   FULL HISTORY
LCNM.                                                 SCH:   LOGGING CONTRACTOR
TOOL.                             FDC/CNL/GR (COMPOSITED):   TOOL STRING
~Curve Information Block
#MNEM.UNIT                                        API CODE    No Description
#=========                                        ========    == ===========
DEPT.M                                       00 001 00 00:     1  DEPTH
CALI.IN                                                  :     2  Caliper
DRHO.G/CC                                                :     3  Bulk density correction
GR.GAPI                                                  :     4  Gamma Ray
NPHI.%                                                   :     5  Neutron porosity
RHOB.G/CC                                                :     6  Bulk density
TENS.LB                                                  :     7  Cable Tension
~ASCII
# ...
 1417.9784    18.8876      .0182    51.1875  -999.2500     1.9947  -999.2500
 1418.1308    18.8991      .0113    51.2829  -999.2500     1.9942  -999.2500
 1418.2832    18.9227      .0091    51.5831  -999.2500     1.9993  -999.2500
 1418.4356    18.9455      .0109    51.3801  -999.2500     2.0030  -999.2500
 1418.5880    18.9664      .0140    51.1611  -999.2500     2.0066  -999.2500
 1418.7404    18.9871      .0141    50.8475  -999.2500     2.0044  -999.2500
 1418.8928    18.9869      .0113    50.3115  -999.2500     1.9989  -999.2500
 1419.0452    18.9260      .0078    49.9552  -999.2500     1.9936  -999.2500
 1419.1976    18.8398      .0054    51.3436  -999.2500     1.9924  -999.2500
 1419.3500    18.7723      .0063    52.1518  -999.2500     1.9986  -999.2500
 1419.5024    18.7707      .0108    51.7210  -999.2500     2.0093  -999.2500
 1419.6548    18.7873      .0164    50.4057  -999.2500     2.0222  -999.2500
 1419.8072    18.8705      .0216    48.1498  -999.2500     2.0398  -999.2500
 1419.9596    18.9657      .0229    46.3439  -999.2500     2.0611  -999.2500
 1420.1120    19.0349      .0227    45.5492  -999.2500     2.0796  -999.2500
 1420.2644    19.0454      .0244    45.2464  -999.2500     2.0970  -999.2500
 1420.4168    19.0376      .0308    45.8322  -999.2500     2.1093  -999.2500
 1420.5692    19.0283      .0274    47.3092  -999.2500     2.0855  -999.2500
 1420.7216    19.0275      .0212    49.7404  -999.2500     2.0489  -999.2500
 1420.8740    19.0483      .0168    52.1579  -999.2500     2.0058  -999.2500
 1421.0264    19.1040      .0200    53.2500  -999.2500     1.9741  -999.2500
 1421.1788    19.1769      .0293    53.0543  -999.2500     1.9537  -999.2500
 1421.3312    19.2520      .0480    52.2294  -999.2500     1.9500  -999.2500
 1421.4836    19.3305      .0737    51.5962  -999.2500     1.9468  -999.2500
 1421.6360    19.4350      .0948    51.2177  -999.2500     1.9191  -999.2500
 1421.7884    19.5204      .0889    51.3193  -999.2500     1.8802  -999.2500
 1421.9408    19.5452      .0762    51.4816  -999.2500     1.8466  -999.2500
 1422.0932    19.5241      .0632    50.7157  -999.2500     1.8311  -999.2500
 1422.2456    19.4979      .0554    49.7584  -999.2500     1.8336  -999.2500
 1422.3980    19.4937      .0581    49.6295  -999.2500     1.8282  -999.2500
 1422.5504    19.4942      .0586    50.1813  -999.2500     1.8315  -999.2500
 1422.7028    19.4949      .0478    50.7627  -999.2500     1.8551  -999.2500
 1422.8552    19.4956      .0375    51.4364  -999.2500     1.8886  -999.2500
 1423.0076    19.5061      .0447    51.6443  -999.2500     1.9261  -999.2500
 1423.1600    19.5155      .0592    51.7190  -999.2500     1.9586  -999.2500
 1423.3124    19.4864      .0601    53.1091  -999.2500     1.9809  -999.2500
 1423.4648    19.4249      .0447    53.2320  -999.2500     1.9742  -999.2500
 1423.6172    19.3641      .0281    52.5703  -999.2500     1.9800  -999.2500
 1423.7696    19.3424      .0234    51.9351  -999.2500     1.9979  -999.2500
 1423.9220    19.2907      .0212    51.4087  -999.2500     2.0119  -999.2500
 1424.0744    19.2013      .0148    50.8823  -999.2500     2.0102  -999.2500
 1424.2268    19.1396      .0100    49.6147  -999.2500     2.0053  -999.2500
 1424.3792    19.1132      .0130    49.6479  -999.2500     2.0104  -999.2500
 1424.5316    19.1408      .0181    50.1751  -999.2500     2.0046  -999.2500
 1424.6840    19.1688      .0180    51.0058  -999.2500     1.9969  -999.2500
 1424.8364    19.1880      .0150    51.6520  -999.2500     1.9919  -999.2500
 1424.9888    19.2033      .0102    52.7750  -999.2500     1.9855  -999.2500
 1425.1412    19.1921      .0076    52.6293  -999.2500     1.9842  -999.2500
 1425.2936    19.1481      .0065    51.9473  -999.2500     1.9890  -999.2500
 1425.4460    19.1296      .0097    51.8721  -999.2500     1.9985  -999.2500
 1425.5984    19.1278      .0145    52.3935  -999.2500     2.0094  -999.2500
 1425.7508    19.1183      .0165    50.4181  -999.2500     2.0192  -999.2500
 1425.9032    19.1030      .0136    48.5752  -999.2500     2.0200  -999.2500
 1426.0556    19.0808      .0125    48.3199  -999.2500     2.0212  -999.2500
 1426.2080    19.0521      .0168    48.9446  -999.2500     2.0289  -999.2500
 1426.3604    19.0202      .0243    48.1241  -999.2500     2.0351  -999.2500
 1426.5128    18.9998      .0302    47.5757  -999.2500     2.0403  -999.2500
 1426.6652    19.0305      .0234    47.9661  -999.2500     2.0314  -999.2500
 1426.8176    19.0590      .0175    48.4240  -999.2500     2.0121  -999.2500
 1426.9700    19.0408      .0181    48.9795  -999.2500     1.9999  -999.2500
 1427.1224    19.0167      .0191    49.2896  -999.2500     1.9974  -999.2500
 1427.2748    18.9981      .0177    49.5968  -999.2500     1.9935  -999.2500
 1427.4272    18.9957      .0124    49.9045  -999.2500     1.9942  -999.2500
 1427.5796    19.0085      .0108    50.2192  -999.2500     2.0009  -999.2500
 1427.7320    19.0355      .0127    50.7312  -999.2500     2.0086  -999.2500
 1427.8844    19.0490      .0186    51.3387  -999.2500     2.0163  -999.2500
 1428.0368    19.0272      .0239    51.9293  -999.2500     2.0198  -999.2500
 1428.1892    18.9880      .0262    52.2199  -999.2500     2.0184  -999.2500
 1428.3416    18.9252      .0290    52.8826  -999.2500     2.0191  -999.2500
 1428.4940    18.8527      .0352    53.5254  -999.2500     2.0279  -999.2500
 1428.6464    18.8556      .0373    53.9880  -999.2500     2.0389  -999.2500
 1428.7988    18.8774      .0297    54.2276  -999.2500     2.0381  -999.2500
 1428.9512    18.8577      .0209    52.7872  -999.2500     2.0347  -999.2500
 1429.1036    18.8113      .0131    50.3859  -999.2500     2.0353  -999.2500
 1429.2560    18.7896      .0095    49.9043  -999.2500     2.0367  -999.2500
 1429.4084    18.8209      .0212    49.4745  -999.2500     2.0381  -999.2500
 1429.5608    18.8374      .0304    48.9604  -999.2500     2.0363  -999.2500
 1429.7132    18.8378      .0290    48.3049  -999.2500     2.0266  -999.2500
 1429.8656    18.8373      .0287    48.1032  -999.2500     2.0227  -999.2500
 1430.0180    18.8615      .0300    49.1317  -999.2500     2.0316  -999.2500
 1430.1704    18.8670      .0304    49.9810  -999.2500     2.0368  -999.2500
 1430.3228    18.8441      .0278    50.8286  -999.2500     2.0357  -999.2500
 1430.4752    18.8094      .0269    51.6741  -999.2500     2.0328  -999.2500
 1430.6276    18.7915      .0255    52.1133  -999.2500     2.0300  -999.2500
 1430.7800    18.7895      .0198    52.0289  -999.2500     2.0218  -999.2500
 1430.9324    18.7902      .0168    51.4297  -999.2500     2.0127  -999.2500
 1431.0848    18.7927      .0232    50.7535  -999.2500     2.0199  -999.2500
 1431.2372    18.8222      .0323    50.1927  -999.2500     2.0326  -999.2500
 1431.3896    18.8769      .0328    49.9544  -999.2500     2.0419  -999.2500
 1431.5420    18.9081      .0282    49.2949  -999.2500     2.0462  -999.2500
 1431.6944    18.9023      .0235    47.8232  -999.2500     2.0465  -999.2500
 1431.8468    18.8796      .0187    48.3645  -999.2500     2.0430  -999.2500
 1431.9992    18.8507      .0151    47.3830  -999.2500     2.0412  -999.2500
 1432.1516    18.8369      .0121    46.7327  -999.2500     2.0440  -999.2500
 1432.3040    18.8424      .0109    46.2197  -999.2500     2.0485  -999.2500
 1432.4564    18.8561      .0142    45.8674  -999.2500     2.0652  -999.2500
 1432.6088    18.8737      .0211    46.0997  -999.2500     2.0769  -999.2500
 1432.7612    18.8413      .0295    46.7615  -999.2500     2.0808  -999.2500
 1432.9136    18.8123      .0317    48.2611  -999.2500     2.0692  -999.2500
 1433.0660    18.7927      .0234    50.8212  -999.2500     2.0438  -999.2500
 1433.2184    18.7995      .0146    54.3414  -999.2500     2.0161  -999.2500
 1433.3708    18.8146      .0103    56.8678  -999.2500     2.0064  -999.2500
 1433.5232    18.8200      .0063    58.3063  -999.2500     2.0021  -999.2500
 1433.6756    18.8211      .0036    57.6918  -999.2500     1.9998  -999.2500
