~VERSION INFORMATION
VERS.                                                 2.0:   CWLS Log ASCII Standard-VERSION 2.0
WRAP.                                                  NO:   One line per depth step
~Well Information Block
STRT.M                                           847.3928:   Top Depth
STOP.M                                          5117.4884:   Bottom Depth
STEP.M                                             .15240:   Depth Increment
NULL.                                            -999.250:   Null Value
FLD .                                             WILDCAT:   Field Name
WELL.                                              15/3-3:   NAME
WBN .                                              15/3-3:   WELLBORE
NATI.                                                 NOR:   COUNTRY
CTRY.                                                 NOR:   COUNTRY
COMP.                             ELF AQUITAINE NORGE A/S:   OPERATOR
PROV.                                           NORTH SEA:   PROVINCE
COUN.                                        PENTAGONE 84:   RIG NAME
SPUD.                                          1979/01/05:   SPUD DATE
LATI.                                       58 52 31.25 N:   SURF. LATITUDE
LONG.                                        1 46 46.27 E:   SURF. LONGITUDE
PBWE.                                              15/3-3:   PB WELL ID
APIN.                                              15/3-3:   PB WELLBORE ID
PBWS.                                                 all:   PB WELL NAME SET
~PARAMETER INFORMATION (log)
LNAM.                              FDC/CNL/GR  COMPOSITED:   NAME
LTYP.                                         DEPTH MATCH:   LOG TYPE
LSRV.                                            DEN/NEUT:   LOG SERVICE
LSOU.                                             SPT/NPD:   LOG SOURCE
LVSN.                                                   1:   LOG VERSION
BHIS.                                                   R:   BRIEF HISTORY
FHIS.                                             RAW-LIS:   FULL HISTORY
LCNM.                                                 SCH:   LOGGING CONTRACTOR
TOOL.                             FDC/CNL/GR (COMPOSITED):   TOOL STRING
~Curve Information Block
#MNEM.UNIT                                        API CODE    No Description
#=========                                        ========    == ===========
DEPT.M                                       00 001 00 00:     1  DEPTH
CALI.IN                                                  :     2  Caliper
DRHO.G/CC                                                :     3  Bulk density correction
GR.GAPI                                                  :     4  Gamma Ray
NPHI.%                                                   :     5  Neutron porosity
RHOB.G/CC                                                :     6  Bulk density
TENS.LB                                                  :     7  Cable Tension
~ASCII
# ...
 3113.8856    13.7334     -.0024    41.3866  -999.2500     2.5397   250.7139
 3114.0380    13.7294      .0014    40.1795  -999.2500     2.5503   266.3582
 3114.1904    13.7255      .0015    39.3537  -999.2500     2.5633   284.5850
 3114.3428    13.7232      .0033    39.0126  -999.2500     2.5720   274.2554
 3114.4952    13.7230      .0007    39.2191  -999.2500     2.5624   255.8561
 3114.6476    13.7230     -.0054    39.2205  -999.2500     2.5518   265.3669
 3114.8000    13.7230     -.0031    39.0562  -999.2500     2.5583   306.2208
 3114.9524    13.7231     -.0014    37.8718  -999.2500     2.5625   334.3141
 3115.1048    13.7231     -.0027    34.5673  -999.2500     2.5592   314.8266
 3115.2572    13.7200     -.0001    30.4570  -999.2500     2.5599   281.4183
 3115.4096    13.7112     -.0028    28.8945  -999.2500     2.5579   268.4904
 3115.5620    13.6997     -.0055    31.1753  -999.2500     2.5579   273.1725
 3115.7144    13.6878     -.0023    35.1854  -999.2500     2.5675   290.3369
 3115.8668    13.6675     -.0000    37.7475  -999.2500     2.5671   302.0342
 3116.0192    13.6393      .0019    36.1153  -999.2500     2.5607   295.3478
 3116.1716    13.6181      .0028    30.8732  -999.2500     2.5598   284.3873
 3116.3240    13.6267      .0016    25.9655  -999.2500     2.5597   273.9253
 3116.4764    13.6581     -.0036    25.2850  -999.2500     2.5553   272.9005
 3116.6288    13.6894     -.0105    28.3913  -999.2500     2.5524   289.9708
 3116.7812    13.7148     -.0115    31.7635  -999.2500     2.5573   326.0759
 3116.9336    13.7260     -.0081    32.5842  -999.2500     2.5647   373.7125
 3117.0860    13.7288     -.0063    31.1623  -999.2500     2.5686   382.7419
 3117.2384    13.7317     -.0025    29.0290  -999.2500     2.5743   334.4807
 3117.3908    13.7345      .0010    27.6685  -999.2500     2.5768   282.6261
 3117.5432    13.7373      .0026    28.5847  -999.2500     2.5813   261.0439
 3117.6956    13.7401      .0040    31.1043  -999.2500     2.5837   273.8500
 3117.8480    13.7422      .0026    33.7173  -999.2500     2.5740   304.0349
 3118.0004    13.7416      .0023    35.5420  -999.2500     2.5685   333.3383
 3118.1528    13.7390     -.0019    36.9848  -999.2500     2.5604   344.8331
 3118.3052    13.7365     -.0107    38.5606  -999.2500     2.5478   331.4193
 3118.4576    13.7339     -.0150    39.6898  -999.2500     2.5470   296.6839
 3118.6100    13.7313     -.0182    39.7354  -999.2500     2.5479   289.8036
 3118.7624    13.7287     -.0146    39.1474  -999.2500     2.5515   331.0969
 3118.9148    13.7261     -.0026    38.1638  -999.2500     2.5594   330.6860
 3119.0672    13.7244      .0035    35.2479  -999.2500     2.5642   297.1091
 3119.2196    13.7239     -.0000    30.9448  -999.2500     2.5732   324.6655
 3119.3720    13.7240     -.0071    29.3784  -999.2500     2.5730   356.8710
 3119.5244    13.7240     -.0105    30.6383  -999.2500     2.5581   325.5901
 3119.6768    13.7257     -.0065    30.9886  -999.2500     2.5497   312.9211
 3119.8292    13.7395      .0019    29.7347  -999.2500     2.5582   337.4346
 3119.9816    13.7593      .0064    29.3148  -999.2500     2.5659   353.1976
 3120.1340    13.7705      .0044    30.1709  -999.2500     2.5735   349.0382
 3120.2864    13.7772      .0028    30.5704  -999.2500     2.5878   329.9868
 3120.4388    13.7843      .0059    29.9831  -999.2500     2.5950   311.2234
 3120.5912    13.7922      .0043    29.4236  -999.2500     2.5907   305.9221
 3120.7436    13.8005     -.0023    30.0519  -999.2500     2.5777   314.3370
 3120.8960    13.8088     -.0061    31.4921  -999.2500     2.5642   320.3162
 3121.0484    13.8171     -.0074    32.8565  -999.2500     2.5618   324.2212
 3121.2008    13.8269     -.0055    35.0771  -999.2500     2.5640   311.4536
 3121.3532    13.8388     -.0012    38.3714  -999.2500     2.5632   302.5005
 3121.5056    13.8515      .0020    40.9747  -999.2500     2.5649   305.3463
 3121.6580    13.8609      .0028    41.0175  -999.2500     2.5727   286.2734
 3121.8104    13.8640      .0016    39.3419  -999.2500     2.5751   281.7097
 3121.9628    13.8641      .0032    39.5199  -999.2500     2.5766   301.5122
 3122.1152    13.8679      .0054    40.8252  -999.2500     2.5844   310.0946
 3122.2676    13.8755      .0035    41.5721  -999.2500     2.5830   292.0509
 3122.4200    13.8681      .0033    42.3624  -999.2500     2.5865   261.4742
 3122.5724    13.8201      .0092    42.5854  -999.2500     2.6108   267.8042
 3122.7248    13.7555      .0163    42.3964  -999.2500     2.6472   295.4845
 3122.8772    13.7352      .0297    43.1576  -999.2500     2.7300   308.6651
 3123.0296    13.7503     -.0002    43.7020  -999.2500     2.8729   303.6133
 3123.1820    13.7653     -.0940    42.4302  -999.2500     2.8629   284.7910
 3123.3344    13.7793     -.1008    40.9496  -999.2500     2.6567   272.1475
 3123.4868    13.7885     -.0345    40.2784  -999.2500     2.5431   268.9342
 3123.6392    13.7940     -.0125    39.6909  -999.2500     2.5488   276.1906
 3123.7916    13.7995     -.0105    40.1792  -999.2500     2.5518   292.0457
 3123.9440    13.8049     -.0092    41.8898  -999.2500     2.5523   299.9967
 3124.0964    13.8104     -.0065    43.6031  -999.2500     2.5553   303.6018
 3124.2488    13.8159     -.0134    45.0983  -999.2500     2.5492   298.8775
 3124.4012    13.8214     -.0187    44.2589  -999.2500     2.5413   281.6138
 3124.5536    13.8334     -.0122    41.2564  -999.2500     2.5439   273.9655
 3124.7060    13.8528     -.0065    40.4934  -999.2500     2.5521   285.2256
 3124.8584    13.8698     -.0020    41.9702  -999.2500     2.5636   304.2331
 3125.0108    13.8732      .0037    42.5850  -999.2500     2.5771   320.0890
 3125.1632    13.8521      .0052    43.3204  -999.2500     2.5854   332.7869
 3125.3156    13.8169      .0037    43.4409  -999.2500     2.5883   342.2374
 3125.4680    13.7840      .0032    41.4562  -999.2500     2.5916   341.5213
 3125.6204    13.7549      .0030    38.4785  -999.2500     2.5944   337.1635
 3125.7728    13.7368     -.0022    34.9960  -999.2500     2.5919   345.3336
 3125.9252    13.7401     -.0106    30.4567  -999.2500     2.5820   360.3461
 3126.0776    13.7552     -.0141    26.9264  -999.2500     2.5667   361.4617
 3126.2300    13.7703     -.0167    27.2730  -999.2500     2.5541   348.3497
 3126.3824    13.7855     -.0136    30.1731  -999.2500     2.5581   330.5544
 3126.5348    13.7996     -.0110    33.5264  -999.2500     2.5763   314.2392
 3126.6872    13.8061     -.0082    35.0735  -999.2500     2.5894   308.8939
 3126.8396    13.8063     -.0010    35.1393  -999.2500     2.5955   311.4769
 3126.9920    13.8064     -.0017    36.2171  -999.2500     2.5935   321.4219
 3127.1444    13.8024     -.0022    38.7392  -999.2500     2.5795   328.6846
 3127.2968    13.7857      .0006    42.1135  -999.2500     2.5761   320.0013
 3127.4492    13.7605     -.0026    45.2136  -999.2500     2.5821   311.7486
 3127.6016    13.7384     -.0038    46.5245  -999.2500     2.5813   328.8509
 3127.7540    13.7336      .0035    45.2136  -999.2500     2.5729   332.5839
 3127.9064    13.7429      .0061    41.6565  -999.2500     2.5661   304.3251
 3128.0588    13.7523      .0054    39.8575  -999.2500     2.5726   292.2750
 3128.2112    13.7616      .0055    40.3492  -999.2500     2.5746   307.5937
 3128.3636    13.7670     -.0000    38.4671  -999.2500     2.5640   332.0370
 3128.5160    13.7678     -.0045    34.3834  -999.2500     2.5618   354.7673
 3128.6684    13.7679     -.0028    31.7296  -999.2500     2.5739   358.2776
 3128.8208    13.7680     -.0006    32.7996  -999.2500     2.5867   339.5689
 3128.9732    13.7681     -.0026    36.1001  -999.2500     2.5936   318.1681
 3129.1256    13.7665     -.0056    36.6333  -999.2500     2.5935   316.5154
 3129.2780    13.7624     -.0028    34.9312  -999.2500     2.5960   324.7653
 3129.4304    13.7576      .0139    35.7073  -999.2500     2.6570   317.7902
 3129.5828    13.7528      .0420    37.6824  -999.2500     2.7773   302.7875
