~VERSION INFORMATION
VERS.                                                 2.0:   CWLS Log ASCII Standard-VERSION 2.0
WRAP.                                                  NO:   One line per depth step
~Well Information Block
STRT.M                                           847.3928:   Top Depth
STOP.M                                          5117.4884:   Bottom Depth
STEP.M                                             .15240:   Depth Increment
NULL.                                            -999.250:   Null Value
FLD .                                             WILDCAT:   Field Name
WELL.                                              15/3-3:   NAME
WBN .                                              15/3-3:   WELLBORE
NATI.                                                 NOR:   COUNTRY
CTRY.                                                 NOR:   COUNTRY
COMP.                             ELF AQUITAINE NORGE A/S:   OPERATOR
PROV.                                           NORTH SEA:   PROVINCE
COUN.                                        PENTAGONE 84:   RIG NAME
SPUD.                                          1979/01/05:   SPUD DATE
LATI.                                       58 52 31.25 N:   SURF. LATITUDE
LONG.                                        1 46 46.27 E:   SURF. LONGITUDE
PBWE.                                              15/3-3:   PB WELL ID
APIN.                                              15/3-3:   PB WELLBORE ID
PBWS.                                                 all:   PB WELL NAME SET
~PARAMETER INFORMATION (log)
LNAM.                              FDC/CNL/GR  COMPOSITED:   NAME
LTYP.                                         DEPTH MATCH:   LOG TYPE
LSRV.                                            DEN/NEUT:   LOG SERVICE
LSOU.                                             SPT/NPD:   LOG SOURCE
LVSN.                                                   1:   LOG VERSION
BHIS.                                                   R:   BRIEF HISTORY
FHIS.                                             RAW-LIS:   FULL HISTORY
LCNM.                                                 SCH:   LOGGING CONTRACTOR
TOOL.                             FDC/CNL/GR (COMPOSITED):   TOOL STRING
~Curve Information Block
#MNEM.UNIT                                        API CODE    No Description
#=========                                        ========    == ===========
DEPT.M                                       00 001 00 00:     1  DEPTH
CALI.IN                                                  :     2  Caliper
DRHO.G/CC                                                :     3  Bulk density correction
GR.GAPI                                                  :     4  Gamma Ray
NPHI.%                                                   :     5  Neutron porosity
RHOB.G/CC                                                :     6  Bulk density
TENS.LB                                                  :     7  Cable Tension
~ASCII
# ...
 2828.5928    18.1000      .0011    41.7504  -999.2500     2.5287   179.6655
 2828.7452    18.0970      .0006    40.9556  -999.2500     2.5251   165.4250
 2828.8976    18.0941      .0002    41.0273  -999.2500     2.5250   156.2391
 2829.0500    18.0911     -.0000    42.0319  -999.2500     2.5292   158.9990
 2829.2024    18.0882      .0009    42.5814  -999.2500     2.5357   168.0505
 2829.3548    18.0848      .0015    42.7052  -999.2500     2.5349   171.0688
 2829.5072    18.0796      .0020    42.3407  -999.2500     2.5299   164.3073
 2829.6596    18.0731      .0029    41.9007  -999.2500     2.5279   195.7395
 2829.8120    18.0653      .0053    41.4613  -999.2500     2.5269   213.0807
 2829.9644    18.0530      .0105    40.5724  -999.2500     2.5299   193.5766
 2830.1168    18.0374      .0122    39.6611  -999.2500     2.5328   181.3879
 2830.2692    18.0218      .0058    38.7880  -999.2500     2.5260   170.2448
 2830.4216    18.0085      .0005    38.1719  -999.2500     2.5201   187.1006
 2830.5740    18.0003      .0003    37.6702  -999.2500     2.5203   168.8641
 2830.7264    17.9941     -.0009    36.8337  -999.2500     2.5187   182.6781
 2830.8788    17.9893     -.0030    35.4470  -999.2500     2.5191   196.3125
 2831.0312    17.9875     -.0032    34.4418  -999.2500     2.5277   200.5334
 2831.1836    18.0080     -.0006    35.2409  -999.2500     2.5382   194.0941
 2831.3360    18.0563      .0026    36.1328  -999.2500     2.5436   186.0643
 2831.4884    18.0977      .0052    35.8485  -999.2500     2.5487   175.1452
 2831.6408    18.1212      .0065    35.4071  -999.2500     2.5540   180.4148
 2831.7932    18.1282      .0090    35.9929  -999.2500     2.5564   187.5285
 2831.9456    18.1285      .0109    36.2652  -999.2500     2.5508   189.2027
 2832.0980    18.1287      .0077    35.5930  -999.2500     2.5363   176.9120
 2832.2504    18.1290      .0028    36.2729  -999.2500     2.5231   167.1161
 2832.4028    18.1248     -.0005    37.2352  -999.2500     2.5141   173.8835
 2832.5552    18.1118     -.0030    38.0744  -999.2500     2.5074   185.7907
 2832.7076    18.0940     -.0027    38.9021  -999.2500     2.5071   194.0996
 2832.8600    18.0726      .0006    39.3286  -999.2500     2.5109   197.3010
 2833.0124    18.0487      .0016    38.2155  -999.2500     2.5160   192.1729
 2833.1648    18.0399     -.0006    36.6190  -999.2500     2.5205   177.3534
 2833.3172    18.0540     -.0014    35.3372  -999.2500     2.5229   155.8906
 2833.4696    18.0829      .0030    35.1967  -999.2500     2.5290   144.6360
 2833.6220    18.1132      .0072    37.0414  -999.2500     2.5358   154.8465
 2833.7744    18.1412      .0049    39.6644  -999.2500     2.5379   169.5425
 2833.9268    18.1638      .0018    40.9067  -999.2500     2.5367   181.0815
 2834.0792    18.1666      .0016    41.0544  -999.2500     2.5298   189.9501
 2834.2316    18.1590      .0006    40.3540  -999.2500     2.5197   192.6632
 2834.3840    18.1514     -.0006    39.5893  -999.2500     2.5188   189.7746
 2834.5364    18.1439     -.0002    38.8012  -999.2500     2.5196   183.7516
 2834.6888    18.1363      .0001    38.4483  -999.2500     2.5167   186.7087
 2834.8412    18.1382     -.0002    38.8698  -999.2500     2.5136   192.7234
 2834.9936    18.1460     -.0014    38.8044  -999.2500     2.5123   186.5267
 2835.1460    18.1454     -.0030    37.4377  -999.2500     2.5167   184.6562
 2835.2984    18.1217     -.0027    35.6217  -999.2500     2.5290   184.7508
 2835.4508    18.1101     -.0007    34.4075  -999.2500     2.5446   193.5535
 2835.6032    18.1526      .0015    34.3616  -999.2500     2.5576   176.8161
 2835.7556    18.2134      .0040    35.8773  -999.2500     2.5508   169.4772
 2835.9080    18.2567      .0072    38.0732  -999.2500     2.5336   173.2970
 2836.0604    18.2618      .0125    39.1575  -999.2500     2.5244   187.8046
 2836.2128    18.2264      .0164    39.5084  -999.2500     2.5183   184.6320
 2836.3652    18.1668      .0131    38.5362  -999.2500     2.5123   178.0693
 2836.5176    18.1021      .0065    36.8109  -999.2500     2.5113   182.8621
 2836.6700    18.0903      .0005    35.3091  -999.2500     2.5150   186.8893
 2836.8224    18.1274      .0005    34.5869  -999.2500     2.5194   187.1267
 2836.9748    18.1689      .0085    35.6148  -999.2500     2.5202   192.7703
 2837.1272    18.1930      .0181    37.4495  -999.2500     2.5168   201.3991
 2837.2796    18.1742      .0276    38.5979  -999.2500     2.5154   193.9575
 2837.4320    18.1194      .0295    37.9600  -999.2500     2.5269   176.6115
 2837.5844    18.0670      .0166    36.0800  -999.2500     2.5394   169.1801
 2837.7368    18.0981      .0044    34.3177  -999.2500     2.5486   174.7891
 2837.8892    18.1463      .0034    34.6840  -999.2500     2.5514   179.7892
 2838.0416    18.1951      .0088    37.8599  -999.2500     2.5391   196.1400
 2838.1940    18.2163      .0148    40.9200  -999.2500     2.5286   219.7981
 2838.3464    18.1952      .0193    41.7841  -999.2500     2.5317   242.1106
 2838.4988    18.1388      .0190    41.2246  -999.2500     2.5335   244.4519
 2838.6512    18.0693      .0082    40.5811  -999.2500     2.5303   223.7191
 2838.8036    18.0012      .0044    40.0380  -999.2500     2.5270   195.1480
 2838.9560    17.9814      .0039    37.7548  -999.2500     2.5264   177.0864
 2839.1084    17.9806      .0063    34.2775  -999.2500     2.5253   187.9466
 2839.2608    17.9905      .0108    31.4257  -999.2500     2.5187   210.2305
 2839.4132    17.9877      .0158    30.0461  -999.2500     2.5175   213.0934
 2839.5656    17.9614      .0256    29.5859  -999.2500     2.5141   190.3373
 2839.7180    17.9021      .0163    28.4978  -999.2500     2.4992   167.1617
 2839.8704    17.8718      .0068    27.2603  -999.2500     2.4834   186.2354
 2840.0228    17.8441      .0045    26.1556  -999.2500     2.4784   210.5371
 2840.1752    17.8187      .0037    25.1556  -999.2500     2.4790   195.6692
 2840.3276    17.7957      .0118    23.5703  -999.2500     2.4974   205.3131
 2840.4800    17.7644      .0142    22.5478  -999.2500     2.5155   181.5855
 2840.6324    17.7740      .0201    22.6082  -999.2500     2.5229   156.2528
 2840.7848    17.7852      .0442    22.8602  -999.2500     2.5328   164.0929
 2840.9372    17.8238      .0684    22.0885  -999.2500     2.5477   180.5089
 2841.0896    17.8869      .0749    21.2920  -999.2500     2.5390   202.2216
 2841.2420    17.9240      .0416    20.3769  -999.2500     2.4983   203.6362
 2841.3944    17.9203      .0132    19.1632  -999.2500     2.4967   193.4323
 2841.5468    17.9077      .0100    17.3291  -999.2500     2.5065   174.8097
 2841.6992    17.9003      .0140    16.0116  -999.2500     2.5175   160.3509
 2841.8516    17.8948      .0186    16.4496  -999.2500     2.5193   151.5945
 2842.0040    17.8895      .0173    17.4539  -999.2500     2.5240   149.6819
 2842.1564    17.8859      .0139    18.5438  -999.2500     2.5258   158.3629
 2842.3088    17.8894      .0095    19.6456  -999.2500     2.5258   188.2748
 2842.4612    17.9104      .0072    21.1009  -999.2500     2.5354   214.0966
 2842.6136    17.9341      .0110    22.4453  -999.2500     2.5456   210.7522
 2842.7660    17.9480      .0154    24.0449  -999.2500     2.5536   204.9699
 2842.9184    17.9556      .0156    24.7308  -999.2500     2.5555   204.7090
 2843.0708    17.9589      .0104    23.7966  -999.2500     2.5406   213.1588
 2843.2232    17.9419      .0100    22.2310  -999.2500     2.5257   223.7209
 2843.3756    17.9152      .0151    22.3504  -999.2500     2.5136   233.9235
 2843.5280    17.8782      .0220    23.9840  -999.2500     2.5036   238.9416
 2843.6804    17.8362      .0322    25.6652  -999.2500     2.5076   228.0632
 2843.8328    17.8168      .0449    27.4590  -999.2500     2.5148   207.5097
 2843.9852    17.8000      .0560    29.3195  -999.2500     2.5256   188.8024
 2844.1376    17.8134      .0565    30.6523  -999.2500     2.5270   169.8696
 2844.2900    17.8447      .0435    29.9950  -999.2500     2.5165   185.5872
