~VERSION INFORMATION
VERS.                                                 2.0:   CWLS Log ASCII Standard-VERSION 2.0
WRAP.                                                  NO:   One line per depth step
~Well Information Block
STRT.M                                           847.3928:   Top Depth
STOP.M                                          5117.4884:   Bottom Depth
STEP.M                                             .15240:   Depth Increment
NULL.                                            -999.250:   Null Value
FLD .                                             WILDCAT:   Field Name
WELL.                                              15/3-3:   NAME
WBN .                                              15/3-3:   WELLBORE
NATI.                                                 NOR:   COUNTRY
CTRY.                                                 NOR:   COUNTRY
COMP.                             ELF AQUITAINE NORGE A/S:   OPERATOR
PROV.                                           NORTH SEA:   PROVINCE
COUN.                                        PENTAGONE 84:   RIG NAME
SPUD.                                          1979/01/05:   SPUD DATE
LATI.                                       58 52 31.25 N:   SURF. LATITUDE
LONG.                                        1 46 46.27 E:   SURF. LONGITUDE
PBWE.                                              15/3-3:   PB WELL ID
APIN.                                              15/3-3:   PB WELLBORE ID
PBWS.                                                 all:   PB WELL NAME SET
~PARAMETER INFORMATION (log)
LNAM.                              FDC/CNL/GR  COMPOSITED:   NAME
LTYP.                                         DEPTH MATCH:   LOG TYPE
LSRV.                                            DEN/NEUT:   LOG SERVICE
LSOU.                                             SPT/NPD:   LOG SOURCE
LVSN.                                                   1:   LOG VERSION
BHIS.                                                   R:   BRIEF HISTORY
FHIS.                                             RAW-LIS:   FULL HISTORY
LCNM.                                                 SCH:   LOGGING CONTRACTOR
TOOL.                             FDC/CNL/GR (COMPOSITED):   TOOL STRING
~Curve Information Block
#MNEM.UNIT                                        API CODE    No Description
#=========                                        ========    == ===========
DEPT.M                                       00 001 00 00:     1  DEPTH
CALI.IN                                                  :     2  Caliper
DRHO.G/CC                                                :     3  Bulk density correction
GR.GAPI                                                  :     4  Gamma Ray
NPHI.%                                                   :     5  Neutron porosity
RHOB.G/CC                                                :     6  Bulk density
TENS.LB                                                  :     7  Cable Tension
~ASCII
# ...
 1132.6856    19.0045      .0357    54.5671  -999.2500     2.0800  -999.2500
 1132.8380    18.7403      .0291    54.0495  -999.2500     2.0649  -999.2500
 1132.9904    18.6259      .0240    53.2570  -999.2500     2.0477  -999.2500
 1133.1428    18.2131      .0274    53.0696  -999.2500     2.0409  -999.2500
 1133.2952    18.0455      .0280    52.7911  -999.2500     2.0341  -999.2500
 1133.4476    18.1600      .0247    52.6631  -999.2500     2.0287  -999.2500
 1133.6000    18.4039      .0208    53.1774  -999.2500     2.0246  -999.2500
 1133.7524    18.8630      .0188    52.8808  -999.2500     2.0213  -999.2500
 1133.9048    18.5333      .0191    53.0684  -999.2500     2.0185  -999.2500
 1134.0572    18.2010      .0203    52.8084  -999.2500     2.0094  -999.2500
 1134.2096    18.1205      .0189    51.7534  -999.2500     1.9970  -999.2500
 1134.3620    18.0688      .0177    51.1133  -999.2500     1.9815  -999.2500
 1134.5144    18.1326      .0192    52.0152  -999.2500     1.9653  -999.2500
 1134.6668    18.1760      .0203    53.4346  -999.2500     1.9538  -999.2500
 1134.8192    18.2752      .0206    54.1872  -999.2500     1.9483  -999.2500
 1134.9716    18.5110      .0216    54.5449  -999.2500     1.9427  -999.2500
 1135.1240    18.7907      .0259    54.0431  -999.2500     1.9431  -999.2500
 1135.2764    19.3184      .0276    53.5694  -999.2500     1.9439  -999.2500
 1135.4288    19.5356      .0234    53.3704  -999.2500     1.9299  -999.2500
 1135.5812    19.5586      .0204    53.4438  -999.2500     1.9133  -999.2500
 1135.7336    19.5587      .0264    54.1999  -999.2500     1.9162  -999.2500
 1135.8860    19.5588      .0384    53.3238  -999.2500     1.9293  -999.2500
 1136.0384    19.5589      .0449    50.6564  -999.2500     1.9435  -999.2500
 1136.1908    19.5709      .0456    47.9240  -999.2500     1.9569  -999.2500
 1136.3432    19.5695      .0405    45.8197  -999.2500     1.9619  -999.2500
 1136.4956    19.4417      .0332    45.0140  -999.2500     1.9603  -999.2500
 1136.6480    19.4601      .0258    45.2660  -999.2500     1.9572  -999.2500
 1136.8004    19.3563      .0184    46.0212  -999.2500     1.9539  -999.2500
 1136.9528    19.2052      .0131    46.9771  -999.2500     1.9494  -999.2500
 1137.1052    19.0232      .0097    48.3775  -999.2500     1.9431  -999.2500
 1137.2576    18.9941      .0080    49.9831  -999.2500     1.9368  -999.2500
 1137.4100    19.1654      .0099    51.2060  -999.2500     1.9372  -999.2500
 1137.5624    19.4036      .0190    51.2321  -999.2500     1.9465  -999.2500
 1137.7148    19.4283      .0320    50.4654  -999.2500     1.9629  -999.2500
 1137.8672    19.2504      .0416    50.0339  -999.2500     1.9813  -999.2500
 1138.0196    18.8632      .0411    50.2157  -999.2500     1.9863  -999.2500
 1138.1720    18.7496      .0350    51.1325  -999.2500     1.9801  -999.2500
 1138.3244    18.9398      .0287    52.0115  -999.2500     1.9738  -999.2500
 1138.4768    18.9828      .0231    51.7379  -999.2500     1.9706  -999.2500
 1138.6292    18.9528      .0188    50.7254  -999.2500     1.9691  -999.2500
 1138.7816    18.9719      .0149    49.4331  -999.2500     1.9709  -999.2500
 1138.9340    18.8955      .0115    48.4119  -999.2500     1.9749  -999.2500
 1139.0864    18.7723      .0085    48.3771  -999.2500     1.9773  -999.2500
 1139.2388    18.9272      .0077    49.0906  -999.2500     1.9846  -999.2500
 1139.3912    19.1923      .0122    49.7140  -999.2500     1.9987  -999.2500
 1139.5436    19.1711      .0192    50.5378  -999.2500     2.0087  -999.2500
 1139.6960    18.9970      .0234    51.2938  -999.2500     2.0130  -999.2500
 1139.8484    18.8088      .0245    50.8981  -999.2500     2.0123  -999.2500
 1140.0008    18.6668      .0243    49.8130  -999.2500     2.0066  -999.2500
 1140.1532    18.6279      .0208    48.2473  -999.2500     1.9984  -999.2500
 1140.3056    18.6133      .0136    46.6071  -999.2500     1.9864  -999.2500
 1140.4580    18.6147      .0086    45.7645  -999.2500     1.9793  -999.2500
 1140.6104    18.5899      .0106    45.4939  -999.2500     1.9805  -999.2500
 1140.7628    18.5550      .0194    45.3104  -999.2500     1.9862  -999.2500
 1140.9152    18.5216      .0314    45.4557  -999.2500     1.9919  -999.2500
 1141.0676    18.5578      .0406    45.8951  -999.2500     1.9957  -999.2500
 1141.2200    18.7267      .0423    46.7457  -999.2500     2.0045  -999.2500
 1141.3724    18.9558      .0393    47.6849  -999.2500     2.0137  -999.2500
 1141.5248    19.1848      .0377    48.3132  -999.2500     2.0276  -999.2500
 1141.6772    19.2775      .0368    49.6927  -999.2500     2.0343  -999.2500
 1141.8296    19.0215      .0340    51.7795  -999.2500     2.0311  -999.2500
 1141.9820    18.6502      .0328    53.8278  -999.2500     2.0317  -999.2500
 1142.1344    18.4731      .0371    54.8391  -999.2500     2.0369  -999.2500
 1142.2868    18.4733      .0408    54.8644  -999.2500     2.0378  -999.2500
 1142.4392    18.4884      .0366    55.8185  -999.2500     2.0264  -999.2500
 1142.5916    18.5054      .0303    57.4253  -999.2500     2.0089  -999.2500
 1142.7440    18.5733      .0274    58.2487  -999.2500     1.9974  -999.2500
 1142.8964    18.7164      .0286    57.5542  -999.2500     1.9911  -999.2500
 1143.0488    18.8622      .0287    55.5747  -999.2500     1.9888  -999.2500
 1143.2012    19.0430      .0278    54.0880  -999.2500     1.9874  -999.2500
 1143.3536    18.9518      .0250    53.5443  -999.2500     1.9850  -999.2500
 1143.5060    18.7770      .0208    52.0346  -999.2500     1.9775  -999.2500
 1143.6584    18.7066      .0165    50.6508  -999.2500     1.9694  -999.2500
 1143.8108    18.6496      .0146    50.1488  -999.2500     1.9614  -999.2500
 1143.9632    18.6401      .0132    50.0679  -999.2500     1.9539  -999.2500
 1144.1156    18.6506      .0118    50.2736  -999.2500     1.9450  -999.2500
 1144.2680    18.6675      .0102    50.6250  -999.2500     1.9387  -999.2500
 1144.4204    18.7253      .0092    51.1456  -999.2500     1.9376  -999.2500
 1144.5728    18.7809      .0098    51.1900  -999.2500     1.9369  -999.2500
 1144.7252    18.7391      .0124    50.8678  -999.2500     1.9369  -999.2500
 1144.8776    18.6210      .0184    49.9910  -999.2500     1.9365  -999.2500
 1145.0300    18.5370      .0244    47.8400  -999.2500     1.9328  -999.2500
 1145.1824    18.3099      .0301    45.9938  -999.2500     1.9201  -999.2500
 1145.3348    18.1829      .0329    45.6434  -999.2500     1.9043  -999.2500
 1145.4872    18.1260      .0326    46.2795  -999.2500     1.8909  -999.2500
 1145.6396    18.1760      .0339    46.8799  -999.2500     1.8952  -999.2500
 1145.7920    18.2994      .0334    46.6909  -999.2500     1.8931  -999.2500
 1145.9444    18.2962      .0275    46.6861  -999.2500     1.8943  -999.2500
 1146.0968    18.1950      .0216    47.9054  -999.2500     1.8926  -999.2500
 1146.2492    18.1576      .0163    49.3027  -999.2500     1.8976  -999.2500
 1146.4016    18.2224      .0143    50.0335  -999.2500     1.9181  -999.2500
 1146.5540    18.2943      .0204    50.1363  -999.2500     1.9334  -999.2500
 1146.7064    18.3662      .0274    50.0052  -999.2500     1.9581  -999.2500
 1146.8588    18.4239      .0290    49.9777  -999.2500     1.9511  -999.2500
 1147.0112    18.3715      .0273    50.8474  -999.2500     1.9387  -999.2500
 1147.1636    18.3337      .0250    51.9416  -999.2500     1.9309  -999.2500
 1147.3160    18.3230      .0213    52.3574  -999.2500     1.9240  -999.2500
 1147.4684    18.3187      .0170    52.4975  -999.2500     1.9175  -999.2500
 1147.6208    18.3287      .0122    52.0188  -999.2500     1.9030  -999.2500
 1147.7732    18.3393      .0093    51.4616  -999.2500     1.9050  -999.2500
 1147.9256    18.3500      .0101    50.9002  -999.2500     1.9050  -999.2500
 1148.0780    18.3607      .0120    50.1295  -999.2500     1.9135  -999.2500
 1148.2304    18.3714      .0094    49.2502  -999.2500     1.9076  -999.2500
 1148.3828    18.3853      .0081    48.1487  -999.2500     1.9000  -999.2500
