~VERSION INFORMATION
VERS.                                                 2.0:   CWLS Log ASCII Standard-VERSION 2.0
WRAP.                                                  NO:   One line per depth step
~Well Information Block
STRT.M                                           847.3928:   Top Depth
STOP.M                                          5117.4884:   Bottom Depth
STEP.M                                             .15240:   Depth Increment
NULL.                                            -999.250:   Null Value
FLD .                                             WILDCAT:   Field Name
WELL.                                              15/3-3:   NAME
WBN .                                              15/3-3:   WELLBORE
NATI.                                                 NOR:   COUNTRY
CTRY.                                                 NOR:   COUNTRY
COMP.                             ELF AQUITAINE NORGE A/S:   OPERATOR
PROV.                                           NORTH SEA:   PROVINCE
COUN.                                        PENTAGONE 84:   RIG NAME
SPUD.                                          1979/01/05:   SPUD DATE
LATI.                                       58 52 31.25 N:   SURF. LATITUDE
LONG.                                        1 46 46.27 E:   SURF. LONGITUDE
PBWE.                                              15/3-3:   PB WELL ID
APIN.                                              15/3-3:   PB WELLBORE ID
PBWS.                                                 all:   PB WELL NAME SET
~PARAMETER INFORMATION (log)
LNAM.                              FDC/CNL/GR  COMPOSITED:   NAME
LTYP.                                         DEPTH MATCH:   LOG TYPE
LSRV.                                            DEN/NEUT:   LOG SERVICE
LSOU.                                             SPT/NPD:   LOG SOURCE
LVSN.                                                   1:   LOG VERSION
BHIS.                                                   R:   BRIEF HISTORY
FHIS.                                             RAW-LIS:   FULL HISTORY
LCNM.                                                 SCH:   LOGGING CONTRACTOR
TOOL.                             FDC/CNL/GR (COMPOSITED):   TOOL STRING
~Curve Information Block
#MNEM.UNIT                                        API CODE    No Description
#=========                                        ========    == ===========
DEPT.M                                       00 001 00 00:     1  DEPTH
CALI.IN                                                  :     2  Caliper
DRHO.G/CC                                                :     3  Bulk density correction
GR.GAPI                                                  :     4  Gamma Ray
NPHI.%                                                   :     5  Neutron porosity
RHOB.G/CC                                                :     6  Bulk density
TENS.LB                                                  :     7  Cable Tension
~ASCII
# ...
 3684.4712    12.8370     -.0121    38.6207  -999.2500     2.5930   812.9491
 3684.6236    12.8427     -.0045    39.8394  -999.2500     2.6061   773.9908
 3684.7760    12.8485     -.0083    39.1828  -999.2500     2.6061   742.7885
 3684.9284    12.8542     -.0121    36.3932  -999.2500     2.5986   745.6191
 3685.0808    12.8599     -.0060    34.6124  -999.2500     2.6041   771.5758
 3685.2332    12.8657     -.0025    33.4823  -999.2500     2.6179   777.9220
 3685.3856    12.8714     -.0031    33.2445  -999.2500     2.6248   797.5856
 3685.5380    12.8760      .0028    33.1599  -999.2500     2.6218   805.7898
 3685.6904    12.8747     -.0016    33.8124  -999.2500     2.6149   779.1250
 3685.8428    12.8721     -.0055    34.1848  -999.2500     2.6085   796.3704
 3685.9952    12.8695     -.0030    34.0493  -999.2500     2.6079   788.1855
 3686.1476    12.8669     -.0056    35.7772  -999.2500     2.6097   758.8475
 3686.3000    12.8644     -.0137    36.0742  -999.2500     2.6080   729.8755
 3686.4524    12.8618     -.0215    34.2215  -999.2500     2.5995   711.7948
 3686.6048    12.8592     -.0192    34.8919  -999.2500     2.5906   733.8228
 3686.7572    12.8566     -.0165    33.2561  -999.2500     2.5816   745.1105
 3686.9096    12.8593     -.0150    30.7837  -999.2500     2.5746   764.7413
 3687.0620    12.8639     -.0164    30.3374  -999.2500     2.5752   759.9711
 3687.2144    12.8687     -.0113    31.4159  -999.2500     2.5783   765.7068
 3687.3668    12.8734     -.0026    32.6782  -999.2500     2.5964   775.2621
 3687.5192    12.8782      .0024    33.4237  -999.2500     2.6065   789.8263
 3687.6716    12.8829      .0001    33.5874  -999.2500     2.6089   787.2169
 3687.8240    12.8877     -.0013    33.4709  -999.2500     2.6143   764.4331
 3687.9764    12.8924     -.0005    32.9160  -999.2500     2.6177   740.7208
 3688.1288    12.9040     -.0026    32.7017  -999.2500     2.6221   717.8125
 3688.2812    12.9190     -.0092    33.4913  -999.2500     2.6234   727.4120
 3688.4336    12.9306     -.0102    32.5161  -999.2500     2.6232   758.0952
 3688.5860    12.9337     -.0133    31.7019  -999.2500     2.6184   781.1595
 3688.7384    12.9311     -.0197    31.8008  -999.2500     2.6096   781.7662
 3688.8908    12.9269     -.0212    33.0186  -999.2500     2.5981   765.1382
 3689.0432    12.9226     -.0166    33.7738  -999.2500     2.5888   756.6199
 3689.1956    12.9182     -.0121    33.9816  -999.2500     2.5895   761.5173
 3689.3480    12.9161     -.0117    34.1955  -999.2500     2.5958   744.2880
 3689.5004    12.9221     -.0117    33.9864  -999.2500     2.5937   721.3973
 3689.6528    12.9341     -.0086    33.9492  -999.2500     2.5913   716.8149
 3689.8052    12.9445     -.0064    35.5762  -999.2500     2.5953   716.8213
 3689.9576    12.9376     -.0107    37.1729  -999.2500     2.5957   722.6632
 3690.1100    12.9121     -.0149    36.8868  -999.2500     2.5977   736.9893
 3690.2624    12.8949     -.0110    36.5509  -999.2500     2.6015   740.0328
 3690.4148    12.8918     -.0079    36.5307  -999.2500     2.5971   716.7622
 3690.5672    12.8916     -.0106    36.4339  -999.2500     2.5933   689.9268
 3690.7196    12.8914     -.0114    36.1237  -999.2500     2.5961   688.6134
 3690.8720    12.8913     -.0107    35.0692  -999.2500     2.5974   699.9785
 3691.0244    12.8911     -.0138    34.6412  -999.2500     2.5925   694.6396
 3691.1768    12.8912     -.0112    34.9538  -999.2500     2.5998   721.6495
 3691.3292    12.8928     -.0044    33.9721  -999.2500     2.6067   740.4387
 3691.4816    12.8960      .0022    31.3295  -999.2500     2.6099   710.6912
 3691.6340    12.8992      .0054    31.7250  -999.2500     2.6176   681.2916
 3691.7864    12.9024     -.0029    32.7928  -999.2500     2.6127   673.1697
 3691.9388    12.9057     -.0051    32.6388  -999.2500     2.6185   696.2145
 3692.0912    12.9089     -.0064    32.8454  -999.2500     2.6028   726.3466
 3692.2436    12.9125     -.0092    32.7443  -999.2500     2.6012   753.5077
 3692.3960    12.9162     -.0066    33.1135  -999.2500     2.6083   706.5797
 3692.5484    12.9200     -.0121    34.3491  -999.2500     2.5970   708.9265
 3692.7008    12.9238     -.0140    34.2540  -999.2500     2.5855   767.6179
 3692.8532    12.9275     -.0121    31.4156  -999.2500     2.5920   812.8094
 3693.0056    12.9525     -.0126    30.7298  -999.2500     2.5908   845.5881
 3693.1580    12.9886     -.0090    30.1267  -999.2500     2.6004   868.8445
 3693.3104    13.0239     -.0083    30.1833  -999.2500     2.6040   862.8877
 3693.4628    13.0134     -.0143    31.1997  -999.2500     2.6031   799.5656
 3693.6152    12.9972     -.0068    31.7194  -999.2500     2.6030   753.8037
 3693.7676    12.9809      .0031    31.2369  -999.2500     2.6254   746.8202
 3693.9200    12.9683     -.0021    31.3409  -999.2500     2.6302   775.4760
 3694.0724    12.9620     -.0048    31.1714  -999.2500     2.6284   764.7622
 3694.2248    12.9571      .0017    31.3836  -999.2500     2.6263   775.0978
 3694.3772    12.9522      .0036    31.8036  -999.2500     2.6283   792.0775
 3694.5296    12.9452      .0010    31.9784  -999.2500     2.6174   757.3369
 3694.6820    12.9322     -.0029    32.0943  -999.2500     2.6136   755.7378
 3694.8344    12.9167     -.0029    33.3264  -999.2500     2.6038   782.0768
 3694.9868    12.9013     -.0039    36.0988  -999.2500     2.5903   806.8195
 3695.1392    12.8859     -.0089    38.6103  -999.2500     2.5880   813.7870
 3695.2916    12.8729     -.0154    39.5101  -999.2500     2.5886   810.1217
 3695.4440    12.8724     -.0208    38.6319  -999.2500     2.5759   797.5105
 3695.5964    12.8806     -.0198    36.2065  -999.2500     2.5629   769.0383
 3695.7488    12.8985     -.0184    35.0288  -999.2500     2.5633   745.9462
 3695.9012    12.9276     -.0152    36.0064  -999.2500     2.5700   761.9340
 3696.0536    12.9303     -.0111    38.0015  -999.2500     2.5606   775.0840
 3696.2060    12.9043     -.0175    39.8006  -999.2500     2.5420   751.5375
 3696.3584    12.8767     -.0227    40.0267  -999.2500     2.5385   732.8704
 3696.5108    12.8650     -.0175    39.6286  -999.2500     2.5530   732.0747
 3696.6632    12.8648     -.0125    37.7135  -999.2500     2.5712   742.9238
 3696.8156    12.8646     -.0128    33.7219  -999.2500     2.5797   760.7657
 3696.9680    12.8645     -.0132    31.2615  -999.2500     2.5767   779.3152
 3697.1204    12.8621     -.0118    30.6038  -999.2500     2.5682   782.4540
 3697.2728    12.8577     -.0078    31.0596  -999.2500     2.5601   778.0161
 3697.4252    12.8531     -.0025    33.2177  -999.2500     2.5648   781.1047
 3697.5776    12.8485      .0027    34.3148  -999.2500     2.5785   785.6393
 3697.7300    12.8438      .0025    34.2056  -999.2500     2.5984   795.2202
 3697.8824    12.8392     -.0040    32.3432  -999.2500     2.6104   804.3448
 3698.0348    12.8345     -.0120    32.0037  -999.2500     2.6144   789.3994
 3698.1872    12.8299     -.0110    32.0282  -999.2500     2.6110   772.7349
 3698.3396    12.8252     -.0017    30.9071  -999.2500     2.6081   782.0616
 3698.4920    12.8250      .0031    30.0134  -999.2500     2.6087   742.2296
 3698.6444    12.8280     -.0022    28.2480  -999.2500     2.5943   696.7856
 3698.7968    12.8316     -.0038    25.9981  -999.2500     2.5921   745.8927
 3698.9492    12.8351     -.0054    24.5720  -999.2500     2.6005   834.1808
 3699.1016    12.8386     -.0047    24.5986  -999.2500     2.6050   814.7708
 3699.2540    12.8422     -.0019    25.9408  -999.2500     2.6052   831.1671
 3699.4064    12.8457     -.0054    29.4172  -999.2500     2.6042   851.4374
 3699.5588    12.8493     -.0033    30.6055  -999.2500     2.6084   849.7324
 3699.7112    12.8528      .0014    31.7056  -999.2500     2.6181   814.3164
 3699.8636    12.8564      .0053    31.9048  -999.2500     2.6242   771.0686
 3700.0160    12.8599      .0023    31.3953  -999.2500     2.6151   727.5059
 3700.1684    12.8575     -.0046    33.8307  -999.2500     2.6043   705.4337
