~VERSION INFORMATION
VERS.                                                 2.0:   CWLS Log ASCII Standard-VERSION 2.0
WRAP.                                                  NO:   One line per depth step
~Well Information Block
STRT.M                                           847.3928:   Top Depth
STOP.M                                          5117.4884:   Bottom Depth
STEP.M                                             .15240:   Depth Increment
NULL.                                            -999.250:   Null Value
FLD .                                             WILDCAT:   Field Name
WELL.                                              15/3-3:   NAME
WBN .                                              15/3-3:   WELLBORE
NATI.                                                 NOR:   COUNTRY
CTRY.                                                 NOR:   COUNTRY
COMP.                             ELF AQUITAINE NORGE A/S:   OPERATOR
PROV.                                           NORTH SEA:   PROVINCE
COUN.                                        PENTAGONE 84:   RIG NAME
SPUD.                                          1979/01/05:   SPUD DATE
LATI.                                       58 52 31.25 N:   SURF. LATITUDE
LONG.                                        1 46 46.27 E:   SURF. LONGITUDE
PBWE.                                              15/3-3:   PB WELL ID
APIN.                                              15/3-3:   PB WELLBORE ID
PBWS.                                                 all:   PB WELL NAME SET
~PARAMETER INFORMATION (log)
LNAM.                              FDC/CNL/GR  COMPOSITED:   NAME
LTYP.                                         DEPTH MATCH:   LOG TYPE
LSRV.                                            DEN/NEUT:   LOG SERVICE
LSOU.                                             SPT/NPD:   LOG SOURCE
LVSN.                                                   1:   LOG VERSION
BHIS.                                                   R:   BRIEF HISTORY
FHIS.                                             RAW-LIS:   FULL HISTORY
LCNM.                                                 SCH:   LOGGING CONTRACTOR
TOOL.                             FDC/CNL/GR (COMPOSITED):   TOOL STRING
~Curve Information Block
#MNEM.UNIT                                        API CODE    No Description
#=========                                        ========    == ===========
DEPT.M                                       00 001 00 00:     1  DEPTH
CALI.IN                                                  :     2  Caliper
DRHO.G/CC                                                :     3  Bulk density correction
GR.GAPI                                                  :     4  Gamma Ray
NPHI.%                                                   :     5  Neutron porosity
RHOB.G/CC                                                :     6  Bulk density
TENS.LB                                                  :     7  Cable Tension
~ASCII
# ...
 4809.7928     8.6462     -.0192    68.5855    29.4562     2.3994    27.2049
 4809.9452     8.6696     -.0203    66.9790    29.6679     2.6174    57.7517
 4810.0976     8.6814     -.0186    66.8886    30.1986     2.7262    88.2274
 4810.2500     8.6903      .0101    65.9193    30.9420     2.7786   118.7475
 4810.4024     8.6993      .0327    64.7583    31.9059     2.7370   149.2943
 4810.5548     8.7084      .0566    63.4542    31.8402     2.7103   163.9485
 4810.7072     8.7090      .0378    61.8400    32.0729     2.6567   143.2374
 4810.8596     8.7051      .0177    60.2836    31.5529     2.6204   111.0181
 4811.0120     8.7006     -.0006    56.9449    29.4952     2.6070    78.5702
 4811.1644     8.6961      .0078    50.7379    28.4429     2.6109    52.5146
 4811.3168     8.6951      .0040    45.0922    28.9379     2.6159    32.8601
 4811.4692     8.6955      .0041    43.6326    29.7106     2.6224    20.4859
 4811.6216     8.6961      .0045    43.6639    29.4203     2.6469    17.5483
 4811.7740     8.6967      .0125    43.9460    28.9559     2.6681    51.9741
 4811.9264     8.6973      .0127    47.5198    30.0097     2.6818    55.6343
 4812.0788     8.7042      .0211    49.0590    34.2043     2.6567    24.3890
 4812.2312     8.7147      .0261    51.0005    38.6361     2.6282    -8.4375
 4812.3836     8.7321      .0086    55.1729    39.8871     2.5327   -41.2786
 4812.5360     8.7805     -.0019    63.2032    44.0591     2.4399   -45.6370
 4812.6884     9.0417      .0074    67.6169    45.4502     2.3400   -40.0667
 4812.8408     8.7694      .0320    68.7887    49.2333     2.3832    63.0805
 4812.9932     8.7182      .0201    67.5775    45.9138     2.5070   169.6248
 4813.1456     8.6695      .0419    72.4323    42.8766     2.5486   192.0189
 4813.2980     8.7030      .0337    79.7970    37.6973     2.5109   129.5556
 4813.4504     8.7136      .0074    80.5405    33.1819     2.4859    65.2424
 4813.6028     8.7248     -.0139    81.7887    30.2119     2.4403    10.4337
 4813.7552     8.7474     -.0219    84.6919    28.2973     2.4295    38.9306
 4813.9076     8.8744     -.0379    82.9746    25.6997     2.4431   139.2534
 4814.0600     9.2466     -.0973    79.4982    24.9784     2.4289   239.5762
 4814.2124     9.4585     -.1056    76.0200    25.3537     2.4353   230.1957
 4814.3648     9.5278     -.0922    73.3708    27.0367     2.4573   186.6032
 4814.5172     9.5427     -.0790    69.8906    29.7699     2.4738   142.8232
 4814.6696     9.5480     -.0807    65.6294    32.0355     2.4701    99.1830
 4814.8220     9.5738     -.1050    62.8012    33.7776     2.4780    55.5428
 4814.9744     9.6625     -.1400    61.8206    35.2927     2.4852    11.9026
 4815.1268     9.7389     -.1360    62.9723    36.7254     2.5171   -31.7376
 4815.2792     9.7813     -.1033    67.3531    37.7527     2.5616   -57.1036
 4815.4316     9.7602     -.0799    68.6746    37.4681     2.5552   -78.8987
 4815.5840     9.7236     -.0681    69.5925    38.0452     2.5274   -96.2953
 4815.7364     9.7210     -.0746    70.6460    39.2744     2.4748  -108.1343
 4815.8888     9.7690     -.0483    73.2814    38.3551     2.4582   -93.1972
 4816.0412     9.5259      .0084    69.1468    37.4848     2.4792   -62.3588
 4816.1936     8.9938     -.0017    62.4842    33.4345     2.5059   -24.5605
 4816.3460     8.7080      .0220    69.9714    23.2924     2.6482    13.3638
 4816.4984     8.7004      .0197    73.2662    15.8205     2.6548    51.2880
 4816.6508     8.8104     -.0148    72.3477    13.3725     2.6675   121.4876
 4816.8032     8.8357     -.0621    70.4923    16.8704     2.7187   187.4596
 4816.9556     8.6853     -.0536    70.0473    21.2422     2.7098   165.9833
 4817.1080     8.7076     -.0428    69.0297    27.7285     2.7004   101.4669
 4817.2604     8.7442     -.0460    64.1149    33.5443     2.6521    37.0894
 4817.4128     9.1500     -.0962    59.7088    38.1460     2.5716    14.7766
 4817.5652    10.0308     -.0822    46.3542    40.5592     2.4647    61.8304
 4817.7176    10.4869     -.0653    40.3307    39.2213     2.4860    22.7163
 4817.8700    10.5456     -.0479    38.3437    38.7730     2.5199   -51.1506
 4818.0224     9.3575     -.0127    37.5231    36.4273     2.5653   -95.8066
 4818.1748     8.6696      .0083    39.7158    31.8681     2.5896   -92.9611
 4818.3272     8.5330     -.0219    43.8971    25.4447     2.5507    11.5625
 4818.4796     8.5871     -.0668    52.6048    22.5545     2.5415   118.5868
 4818.6320     9.8503     -.1039    63.1653    25.6452     2.5106   189.4130
 4818.7844    10.1529     -.1140    64.3736    34.3837     2.4764   166.7661
 4818.9368    10.2917     -.1137    66.5229    37.3436     2.4679   117.2874
 4819.0892    10.4350     -.1283    68.9630    37.8435     2.4692    64.8971
 4819.2416    10.5778     -.1362    70.4098    37.7221     2.4617    12.6306
 4819.3940    10.7213     -.1270    71.8898    37.2035     2.4552   -39.6359
 4819.5464    10.6650     -.1009    74.6955    37.0416     2.4593   -84.7840
 4819.6988    10.3571     -.0740    75.1057    36.2751     2.4766  -115.9864
 4819.8512    10.1037     -.0776    72.4835    33.8005     2.4740  -120.6889
 4820.0036    10.0546     -.0975    70.0665    29.6874     2.4568   -96.8239
 4820.1560    10.0225     -.0804    69.5854    25.4809     2.4852   -63.4096
 4820.3084    10.0067     -.0493    72.1934    23.5355     2.5069   -32.5268
 4820.4608    10.0814     -.0588    73.3821    22.6595     2.4560   -15.2535
 4820.6132    10.0794     -.0408    71.1285    22.2223     2.4867   -16.6693
 4820.7656    10.0675     -.0261    67.0650    21.8474     2.5226   -25.7442
 4820.9180     9.8782     -.0129    64.2536    20.7747     2.5615   -47.8318
 4821.0704     9.8448     -.0057    62.8334    18.5334     2.5884   -65.4811
 4821.2228     9.8453      .0031    61.4739    16.1642     2.5873   -60.6858
 4821.3752     9.8619      .0154    59.3489    16.2131     2.6121   -41.6517
 4821.5276     9.8379      .0031    58.8470    17.7396     2.5821   -22.0524
 4821.6800     9.3726      .0055    62.7358    19.5867     2.5848    -2.3454
 4821.8324     8.8868      .0017    66.8849    22.4977     2.5909    17.3078
 4821.9848     8.8395     -.0211    66.8054    25.3790     2.5753    22.6120
 4822.1372     8.9603     -.0410    62.4623    27.8343     2.6093    19.0972
 4822.2896     8.8365     -.0399    57.1620    28.6203     2.6739    12.2217
 4822.4420     8.6309      .0322    53.1576    25.4056     2.8172      .7950
 4822.5944     8.5341      .1068    51.1834    21.5838     2.9324   -24.8301
 4822.7468     8.5148      .0975    49.4255    19.0998     2.9105   -57.6145
 4822.8992     8.5326      .0394    47.4030    16.1032     2.7829   -86.4619
 4823.0516     8.5566      .0037    45.6722    13.2530     2.6353  -106.0720
 4823.2040     8.5707     -.0017    41.4289    11.8933     2.5714  -103.7568
 4823.3564     8.6103     -.0105    35.6126    11.1915     2.5660   -87.9950
 4823.5088     8.6531     -.0195    35.0550     9.5769     2.5638   -44.7877
 4823.6612     8.6741     -.0268    45.6134     8.7517     2.5562    99.1782
 4823.8136     8.6934     -.0396    47.6214    11.4871     2.5600   350.6284
 4823.9660     8.7111     -.0450    47.7429    16.5547     2.5851   518.7684
 4824.1184     8.7174     -.0536    50.9675    16.6008     2.5805   449.1310
 4824.2708     8.7080     -.0533    54.3800    16.4751     2.5537   367.7196
 4824.4232     8.6991     -.0557    60.6150    20.1948     2.5547   286.0003
 4824.5756     8.6907     -.0472    63.7104    20.9537     2.5684   204.2603
 4824.7280     8.6734     -.0335    64.8416    21.2389     2.5836   188.8254
 4824.8804     8.6433     -.0141    63.1452    23.8412     2.5967   200.1338
 4825.0328     8.6169      .0059    59.9007    27.7985     2.6156   224.1919
 4825.1852     8.5955      .0246    54.5068    31.4219     2.6465   180.2355
 4825.3376     8.5939      .0412    47.8276    34.4708     2.6656    89.0787
 4825.4900     8.5938      .0452    41.8553    33.4314     2.6601    19.4319
