~VERSION INFORMATION
VERS.                                                 2.0:   CWLS Log ASCII Standard-VERSION 2.0
WRAP.                                                  NO:   One line per depth step
~Well Information Block
STRT.M                                           847.3928:   Top Depth
STOP.M                                          5117.4884:   Bottom Depth
STEP.M                                             .15240:   Depth Increment
NULL.                                            -999.250:   Null Value
FLD .                                             WILDCAT:   Field Name
WELL.                                              15/3-3:   NAME
WBN .                                              15/3-3:   WELLBORE
NATI.                                                 NOR:   COUNTRY
CTRY.                                                 NOR:   COUNTRY
COMP.                             ELF AQUITAINE NORGE A/S:   OPERATOR
PROV.                                           NORTH SEA:   PROVINCE
COUN.                                        PENTAGONE 84:   RIG NAME
SPUD.                                          1979/01/05:   SPUD DATE
LATI.                                       58 52 31.25 N:   SURF. LATITUDE
LONG.                                        1 46 46.27 E:   SURF. LONGITUDE
PBWE.                                              15/3-3:   PB WELL ID
APIN.                                              15/3-3:   PB WELLBORE ID
PBWS.                                                 all:   PB WELL NAME SET
~PARAMETER INFORMATION (log)
LNAM.                              FDC/CNL/GR  COMPOSITED:   NAME
LTYP.                                         DEPTH MATCH:   LOG TYPE
LSRV.                                            DEN/NEUT:   LOG SERVICE
LSOU.                                             SPT/NPD:   LOG SOURCE
LVSN.                                                   1:   LOG VERSION
BHIS.                                                   R:   BRIEF HISTORY
FHIS.                                             RAW-LIS:   FULL HISTORY
LCNM.                                                 SCH:   LOGGING CONTRACTOR
TOOL.                             FDC/CNL/GR (COMPOSITED):   TOOL STRING
~Curve Information Block
#MNEM.UNIT                                        API CODE    No Description
#=========                                        ========    == ===========
DEPT.M                                       00 001 00 00:     1  DEPTH
CALI.IN                                                  :     2  Caliper
DRHO.G/CC                                                :     3  Bulk density correction
GR.GAPI                                                  :     4  Gamma Ray
NPHI.%                                                   :     5  Neutron porosity
RHOB.G/CC                                                :     6  Bulk density
TENS.LB                                                  :     7  Cable Tension
~ASCII
# ...
 4524.5000     7.5124     -.0708  -999.2500     9.5548     2.3779    23.4323
 4524.6524     7.5512     -.0633  -999.2500     9.2117     2.3993    23.2709
 4524.8048     7.5919     -.0528  -999.2500     8.8311     2.4177    23.1092
 4524.9572     7.6128     -.0563  -999.2500     8.4417     2.4055    22.9475
 4525.1096     7.5979     -.0595  -999.2500     8.0326     2.4077    22.7861
 4525.2620     7.6049     -.0464  -999.2500     7.6723     2.4219    22.6246
 4525.4144     7.7171     -.0341  -999.2500     7.4437     2.4359    22.4627
 4525.5668     7.8660     -.0244  -999.2500     7.2877     2.4433    22.3012
 4525.7192     7.9231     -.0251  -999.2500     7.1712     2.4330    22.1398
 4525.8716     7.9806     -.0234  -999.2500     7.2623     2.4219    21.9784
 4526.0240     8.0591     -.0164  -999.2500     7.6158     2.4325    21.5275
 4526.1764     8.0614     -.0094  -999.2500     7.6948     2.4546    20.7659
 4526.3288     8.0244     -.0002  -999.2500     7.4275     2.4625    19.9790
 4526.4812     7.9859      .0006  -999.2500     7.2390     2.4601    19.1921
 4526.6336     7.9687      .0076  -999.2500     7.1540     2.4570    18.4027
 4526.7860     8.0227      .0173  -999.2500     7.3193     2.4714    17.6158
 4526.9384     8.1303      .0231  -999.2500     7.9465     2.4879    16.8289
 4527.0908     8.1952      .0179  -999.2500     8.8938     2.4788    16.0420
 4527.2432     8.2067      .0129  -999.2500    10.3684     2.4627    15.2551
 4527.3956     8.2110      .0064  -999.2500    12.3890     2.4474    14.4670
 4527.5480     8.2154     -.0004  -999.2500    15.3693     2.4394    13.6788
 4527.7004     8.2224     -.0094  -999.2500    19.6440     2.4333    12.8919
 4527.8528     8.2339     -.0183  -999.2500    25.0777     2.4279    12.1050
 4528.0052     8.2472     -.0223  -999.2500    31.0109     2.4325    11.3156
 4528.1576     8.2553     -.0094  -999.2500    33.0457     2.4587    10.5287
 4528.3100     8.2564      .0009  -999.2500    29.7642     2.4892     9.7418
 4528.4624     8.2558      .0006  -999.2500    22.1907     2.5020     8.9549
 4528.6148     8.2551      .0105  -999.2500    16.3055     2.5109     8.1699
 4528.7672     8.2544      .0197  -999.2500    15.2830     2.5252     7.7436
 4528.9196     8.2538      .0056  -999.2500    14.8690     2.5285     7.8619
 4529.0720     8.2530     -.0021  -999.2500    13.8660     2.5726     8.1653
 4529.2244     8.2514      .0010  -999.2500    12.1530     2.6280     8.4688
 4529.3768     8.2489      .0019  -999.2500    10.7008     2.6768     8.7733
 4529.5292     8.2464     -.0015  -999.2500    10.2905     2.6953     9.0767
 4529.6816     8.2439     -.0037  -999.2500    10.5039     2.7120     9.3802
 4529.8340     8.2414     -.0059  -999.2500    10.6719     2.7107     9.6837
 4529.9864     8.2389     -.0088  -999.2500    10.2858     2.6896     9.9876
 4530.1388     8.2364     -.0088  -999.2500     9.2227     2.6684    10.2916
 4530.2912     8.2339     -.0045  -999.2500     7.8665     2.6571    10.5951
 4530.4436     8.2314      .0023  -999.2500     7.3288     2.6676    10.8985
 4530.5960     8.2289      .0114  -999.2500     8.3124     2.6323    11.2030
 4530.7484     8.2269      .0207  -999.2500     9.9816     2.5897    11.5064
 4530.9008     8.2267      .0236  -999.2500    12.5243     2.5201    11.8099
 4531.0532     8.2280      .0002  -999.2500    16.2601     2.4573    12.1134
 4531.2056     8.2292     -.0103  -999.2500    20.6641     2.4449    12.4169
 4531.3580     8.2305     -.0170  -999.2500    26.5561     2.4371    12.7198
 4531.5104     8.2318     -.0051  -999.2500    33.3479     2.4283    13.0228
 4531.6628     8.2330      .0026  -999.2500    39.4596     2.4163    13.2126
 4531.8152     8.2343      .0090  -999.2500    42.7054     2.4084    13.1172
 4531.9676     8.2356      .0044  -999.2500    42.9805     2.4013    12.8487
 4532.1200     8.2368      .0060  -999.2500    42.7866     2.3936    12.5810
 4532.2724     8.2381      .0094  -999.2500    43.1997     2.3810    12.3133
 4532.4248     8.2385      .0025  -999.2500    44.1168     2.3711    12.0457
 4532.5772     8.2379     -.0047  -999.2500    44.7106     2.3341    11.7780
 4532.7296     8.2372      .0015  -999.2500    45.0559     2.3092    11.5099
 4532.8820     8.2366      .0033  -999.2500    45.6892     2.2917    11.2418
 4533.0344     8.2359     -.0151  -999.2500    46.4772     2.2914    10.9741
 4533.1868     8.2353     -.0098  -999.2500    46.4877     2.3112    10.7064
 4533.3392     8.2346      .0036  -999.2500    46.2052     2.3155    10.4379
 4533.4916     8.2339      .0061  -999.2500    45.8402     2.3084    10.1702
 4533.6440     8.2333     -.0001  -999.2500    45.0628     2.3096     9.9026
 4533.7964     8.2326     -.0066  -999.2500    44.8100     2.3257     9.6349
 4533.9488     8.2320     -.0058  -999.2500    44.7500     2.3557     9.3676
 4534.1012     8.2313     -.0001  -999.2500    44.2157     2.3830     9.1004
 4534.2536     8.2306     -.0073  -999.2500    43.2227     2.4106     8.8327
 4534.4060     8.2300     -.0108  -999.2500    41.6951     2.4451     8.4218
 4534.5584     8.2293     -.0060  -999.2500    41.2921     2.4566     7.8593
 4534.7108     8.2287      .0023  -999.2500    42.0765     2.4675     7.2938
 4534.8632     8.2280      .0115  -999.2500    41.3777     2.4896     6.7283
 4535.0156     8.2275      .0166  -999.2500    40.0872     2.5117     6.1628
 4535.1680     8.2288      .0062  -999.2500    39.4628     2.5297     5.5974
 4535.3204     8.2317     -.0041  -999.2500    38.6752     2.5363     5.0310
 4535.4728     8.2347      .0009  -999.2500    38.8718     2.5088     4.4646
 4535.6252     8.2377      .0042  -999.2500    40.6306     2.4874     3.8991
 4535.7776     8.2406     -.0035  -999.2500    42.5077     2.4794     3.3336
 4535.9300     8.2433     -.0146  -999.2500    43.0241     2.4649     2.7663
 4536.0824     8.2456     -.0134  -999.2500    42.4507     2.4912     2.4236
 4536.2348     8.2477     -.0075  -999.2500    40.6440     2.5414     2.5154
 4536.3872     8.2498     -.0120  -999.2500    38.3737     2.6010     2.8188
 4536.5396     8.2519     -.0131  -999.2500    36.8842     2.6138     3.1218
 4536.6920     8.2540     -.0001  -999.2500    36.0175     2.5919     3.4248
 4536.8444     8.2562      .0158  -999.2500    36.4981     2.5636     3.7282
 4536.9968     8.2536      .0090  -999.2500    38.4102     2.5119     4.0317
 4537.1492     8.2397      .0016  -999.2500    40.2773     2.5031     4.3352
 4537.3016     8.2191     -.0018  -999.2500    40.8063     2.5348     4.6396
 4537.4540     8.2035     -.0028  -999.2500    40.9579     2.5667     4.9431
 4537.6064     8.1997     -.0032  -999.2500    41.5756     2.5829     5.2465
 4537.7588     8.2028     -.0044  -999.2500    41.7280     2.6070     5.5500
 4537.9112     8.2059      .0043  -999.2500    41.1327     2.6423     5.8539
 4538.0636     8.2090      .0269  -999.2500    40.3338     2.6506     6.1579
 4538.2160     8.2121      .0129    68.4431    39.4803     2.6192     6.4613
 4538.3684     8.2152     -.0055    67.3372    39.2643     2.5947     6.7648
 4538.5208     8.2183     -.0231    65.3445    39.9414     2.6142     6.7179
 4538.6732     8.2214     -.0209    65.4379    40.6864     2.6364     6.0586
 4538.8256     8.2245     -.0057    68.6083    40.8832     2.6050     5.1382
 4538.9780     8.2275      .0030    72.8003    41.0003     2.5409     4.2178
 4539.1304     8.2306     -.0030    75.6777    42.0702     2.4600     3.2973
 4539.2828     8.2337     -.0198    77.1052    43.6328     2.4326     2.3784
 4539.4352     8.2368     -.0202    77.3196    44.1876     2.4448     1.4594
 4539.5876     8.2399     -.0097    75.8823    43.3415     2.4777      .5390
 4539.7400     8.2430     -.0006    74.8121    42.5044     2.5109     -.1164
 4539.8924     8.2461     -.0070    74.9643    42.1914     2.5110     -.1593
 4540.0448     8.2492     -.0011    76.1135    41.6408     2.4923      .1441
 4540.1972     8.2523      .0064    76.4605    41.4001     2.4735      .4476
