~VERSION INFORMATION
VERS.                                                 2.0:   CWLS Log ASCII Standard-VERSION 2.0
WRAP.                                                  NO:   One line per depth step
~Well Information Block
STRT.M                                           847.3928:   Top Depth
STOP.M                                          5117.4884:   Bottom Depth
STEP.M                                             .15240:   Depth Increment
NULL.                                            -999.250:   Null Value
FLD .                                             WILDCAT:   Field Name
WELL.                                              15/3-3:   NAME
WBN .                                              15/3-3:   WELLBORE
NATI.                                                 NOR:   COUNTRY
CTRY.                                                 NOR:   COUNTRY
COMP.                             ELF AQUITAINE NORGE A/S:   OPERATOR
PROV.                                           NORTH SEA:   PROVINCE
COUN.                                        PENTAGONE 84:   RIG NAME
SPUD.                                          1979/01/05:   SPUD DATE
LATI.                                       58 52 31.25 N:   SURF. LATITUDE
LONG.                                        1 46 46.27 E:   SURF. LONGITUDE
PBWE.                                              15/3-3:   PB WELL ID
APIN.                                              15/3-3:   PB WELLBORE ID
PBWS.                                                 all:   PB WELL NAME SET
~PARAMETER INFORMATION (log)
LNAM.                              FDC/CNL/GR  COMPOSITED:   NAME
LTYP.                                         DEPTH MATCH:   LOG TYPE
LSRV.                                            DEN/NEUT:   LOG SERVICE
LSOU.                                             SPT/NPD:   LOG SOURCE
LVSN.                                                   1:   LOG VERSION
BHIS.                                                   R:   BRIEF HISTORY
FHIS.                                             RAW-LIS:   FULL HISTORY
LCNM.                                                 SCH:   LOGGING CONTRACTOR
TOOL.                             FDC/CNL/GR (COMPOSITED):   TOOL STRING
~Curve Information Block
#MNEM.UNIT                                        API CODE    No Description
#=========                                        ========    == ===========
DEPT.M                                       00 001 00 00:     1  DEPTH
CALI.IN                                                  :     2  Caliper
DRHO.G/CC                                                :     3  Bulk density correction
GR.GAPI                                                  :     4  Gamma Ray
NPHI.%                                                   :     5  Neutron porosity
RHOB.G/CC                                                :     6  Bulk density
TENS.LB                                                  :     7  Cable Tension
~ASCII
# ...
 2543.3000    17.8989      .0269    41.6819  -999.2500     2.2899  -999.2500
 2543.4524    17.9213      .0274    44.7008  -999.2500     2.2821  -999.2500
 2543.6048    17.9674      .0320    47.7380  -999.2500     2.2796  -999.2500
 2543.7572    18.0047      .0235    50.7543  -999.2500     2.2721  -999.2500
 2543.9096    18.0177      .0107    52.7602  -999.2500     2.2704  -999.2500
 2544.0620    18.0168      .0089    54.5621  -999.2500     2.2872  -999.2500
 2544.2144    17.9762      .0105    56.0909  -999.2500     2.3049  -999.2500
 2544.3668    17.9571      .0126    56.4123  -999.2500     2.3035  -999.2500
 2544.5192    17.9691      .0147    53.6943  -999.2500     2.3023  -999.2500
 2544.6716    18.0128      .0138    51.7635  -999.2500     2.3079  -999.2500
 2544.8240    18.0427      .0138    51.5726  -999.2500     2.3202  -999.2500
 2544.9764    18.0726      .0165    51.7254  -999.2500     2.3318  -999.2500
 2545.1288    18.1048      .0232    51.1207  -999.2500     2.3444  -999.2500
 2545.2812    18.0953      .0300    48.8893  -999.2500     2.3510  -999.2500
 2545.4336    18.0587      .0336    47.7402  -999.2500     2.3513  -999.2500
 2545.5860    18.0077      .0311    47.5558  -999.2500     2.3478  -999.2500
 2545.7384    17.9748      .0234    47.0500  -999.2500     2.3216  -999.2500
 2545.8908    17.9746      .0172    47.1950  -999.2500     2.3193  -999.2500
 2546.0432    17.9798      .0191    48.5055  -999.2500     2.3163  -999.2500
 2546.1956    18.0025      .0225    49.9501  -999.2500     2.3083  -999.2500
 2546.3480    18.0337      .0318    51.5079  -999.2500     2.3039  -999.2500
 2546.5004    18.0084      .0303    53.3035  -999.2500     2.2907  -999.2500
 2546.6528    18.0060      .0236    53.6439  -999.2500     2.2836  -999.2500
 2546.8052    18.0259      .0289    53.0316  -999.2500     2.2934  -999.2500
 2546.9576    18.0793      .0297    52.4055  -999.2500     2.3029  -999.2500
 2547.1100    18.1512      .0217    53.7372  -999.2500     2.3056  -999.2500
 2547.2624    18.1321      .0243    55.9676  -999.2500     2.3006  -999.2500
 2547.4148    18.0663      .0343    58.7794  -999.2500     2.2986  -999.2500
 2547.5672    17.9952      .0427    60.7420  -999.2500     2.2859  -999.2500
 2547.7196    17.9717      .0399    61.3307  -999.2500     2.2777  -999.2500
 2547.8720    17.9914      .0360    59.8064  -999.2500     2.2886  -999.2500
 2548.0244    17.9808      .0321    56.2968  -999.2500     2.3027  -999.2500
 2548.1768    17.9709      .0283    52.2759  -999.2500     2.3104  -999.2500
 2548.3292    17.9820      .0244    48.5565  -999.2500     2.2953  -999.2500
 2548.4816    18.0190      .0203    46.1412  -999.2500     2.2818  -999.2500
 2548.6340    18.0301      .0161    45.0680  -999.2500     2.2677  -999.2500
 2548.7864    18.0536      .0123    45.9315  -999.2500     2.2515  -999.2500
 2548.9388    18.1569      .0123    48.5139  -999.2500     2.2440  -999.2500
 2549.0912    18.5284      .0110    50.5914  -999.2500     2.2412  -999.2500
 2549.2436    18.2861      .0081    50.9367  -999.2500     2.2310  -999.2500
 2549.3960    17.9520      .0083    49.2627  -999.2500     2.2122  -999.2500
 2549.5484    18.0417      .0119    47.0877  -999.2500     2.2116  -999.2500
 2549.7008    18.2560      .0174    46.5250  -999.2500     2.2274  -999.2500
 2549.8532    18.2579      .0211    46.6698  -999.2500     2.2409  -999.2500
 2550.0056    18.0003      .0182    45.4292  -999.2500     2.2506  -999.2500
 2550.1580    17.9876      .0209    41.2944  -999.2500     2.2578  -999.2500
 2550.3104    17.9872      .0269    36.3705  -999.2500     2.2666  -999.2500
 2550.4628    18.0068      .0304    33.3218  -999.2500     2.2776  -999.2500
 2550.6152    17.9970      .0251    32.1971  -999.2500     2.2852  -999.2500
 2550.7676    17.9730      .0186    32.1605  -999.2500     2.2710  -999.2500
 2550.9200    17.9525      .0121    32.9332  -999.2500     2.2434  -999.2500
 2551.0724    17.9455      .0105    33.8861  -999.2500     2.2323  -999.2500
 2551.2248    17.9451      .0107    34.1772  -999.2500     2.2268  -999.2500
 2551.3772    17.9447      .0084    33.4182  -999.2500     2.2245  -999.2500
 2551.5296    17.9582      .0026    31.3438  -999.2500     2.2221  -999.2500
 2551.6820    17.9739     -.0039    29.2630  -999.2500     2.2122  -999.2500
 2551.8344    17.9987     -.0096    28.5227  -999.2500     2.1990  -999.2500
 2551.9868    18.0209     -.0080    28.6857  -999.2500     2.1861  -999.2500
 2552.1392    18.0228     -.0027    29.0508  -999.2500     2.1796  -999.2500
 2552.2916    18.0127      .0046    29.1087  -999.2500     2.1855  -999.2500
 2552.4440    17.9832      .0119    28.8920  -999.2500     2.1935  -999.2500
 2552.5964    17.9499      .0161    28.4396  -999.2500     2.2000  -999.2500
 2552.7488    17.9344      .0162    27.7071  -999.2500     2.2030  -999.2500
 2552.9012    17.9248      .0131    26.9960  -999.2500     2.1975  -999.2500
 2553.0536    17.9208      .0071    26.6171  -999.2500     2.1907  -999.2500
 2553.2060    17.9204      .0015    26.5446  -999.2500     2.1864  -999.2500
 2553.3584    17.9225      .0013    26.4720  -999.2500     2.1868  -999.2500
 2553.5108    17.9396      .0067    26.8473  -999.2500     2.1895  -999.2500
 2553.6632    17.9393      .0127    27.1567  -999.2500     2.1931  -999.2500
 2553.8156    17.9389      .0137    26.4870  -999.2500     2.1899  -999.2500
 2553.9680    17.9385      .0159    26.0189  -999.2500     2.1843  -999.2500
 2554.1204    17.9429      .0174    26.2771  -999.2500     2.1830  -999.2500
 2554.2728    17.9522      .0147    26.4238  -999.2500     2.1880  -999.2500
 2554.4252    17.9615      .0116    25.8705  -999.2500     2.1935  -999.2500
 2554.5776    17.9708      .0102    24.9604  -999.2500     2.1982  -999.2500
 2554.7300    17.9801      .0086    24.1578  -999.2500     2.1959  -999.2500
 2554.8824    17.9894      .0070    23.7918  -999.2500     2.1916  -999.2500
 2555.0348    17.9987      .0044    23.2312  -999.2500     2.1873  -999.2500
 2555.1872    18.0080      .0012    22.6168  -999.2500     2.1823  -999.2500
 2555.3396    18.0151     -.0011    22.5129  -999.2500     2.1785  -999.2500
 2555.4920    18.0147      .0007    23.3119  -999.2500     2.1851  -999.2500
 2555.6444    18.0144      .0029    24.8914  -999.2500     2.1891  -999.2500
 2555.7968    18.0140      .0035    26.3326  -999.2500     2.1891  -999.2500
 2555.9492    18.0136      .0056    26.9071  -999.2500     2.1914  -999.2500
 2556.1016    18.0133      .0078    26.7864  -999.2500     2.1958  -999.2500
 2556.2540    18.0129      .0103    26.6696  -999.2500     2.2010  -999.2500
 2556.4064    18.0125      .0130    26.6564  -999.2500     2.2052  -999.2500
 2556.5588    18.0179      .0169    26.3380  -999.2500     2.2097  -999.2500
 2556.7112    18.0303      .0223    26.4521  -999.2500     2.2223  -999.2500
 2556.8636    18.0426      .0323    27.2152  -999.2500     2.2338  -999.2500
 2557.0160    18.0549      .0346    28.9315  -999.2500     2.2404  -999.2500
 2557.1684    18.0673      .0264    32.9120  -999.2500     2.2621  -999.2500
 2557.3208    18.0796      .0183    38.0161  -999.2500     2.2919  -999.2500
 2557.4732    18.0858      .0198    43.3407  -999.2500     2.3437  -999.2500
 2557.6256    18.0626      .0248    48.6121  -999.2500     2.3423  -999.2500
 2557.7780    18.0421      .0318    50.8790  -999.2500     2.3234  -999.2500
 2557.9304    18.0235      .0401    51.0485  -999.2500     2.3094  -999.2500
 2558.0828    18.0089      .0332    51.0396  -999.2500     2.2920  -999.2500
 2558.2352    18.0206      .0270    50.4240  -999.2500     2.2851  -999.2500
 2558.3876    18.0431      .0274    49.6946  -999.2500     2.2891  -999.2500
 2558.5400    18.0907      .0315    49.6271  -999.2500     2.2977  -999.2500
 2558.6924    18.1737      .0340    50.5242  -999.2500     2.3172  -999.2500
 2558.8448    18.2656      .0315    51.7942  -999.2500     2.3283  -999.2500
 2558.9972    18.3573      .0232    52.0140  -999.2500     2.3196  -999.2500
