~VERSION INFORMATION
VERS.                                                 2.0:   CWLS Log ASCII Standard-VERSION 2.0
WRAP.                                                  NO:   One line per depth step
~Well Information Block
STRT.M                                           847.3928:   Top Depth
STOP.M                                          5117.4884:   Bottom Depth
STEP.M                                             .15240:   Depth Increment
NULL.                                            -999.250:   Null Value
FLD .                                             WILDCAT:   Field Name
WELL.                                              15/3-3:   NAME
WBN .                                              15/3-3:   WELLBORE
NATI.                                                 NOR:   COUNTRY
CTRY.                                                 NOR:   COUNTRY
COMP.                             ELF AQUITAINE NORGE A/S:   OPERATOR
PROV.                                           NORTH SEA:   PROVINCE
COUN.                                        PENTAGONE 84:   RIG NAME
SPUD.                                          1979/01/05:   SPUD DATE
LATI.                                       58 52 31.25 N:   SURF. LATITUDE
LONG.                                        1 46 46.27 E:   SURF. LONGITUDE
PBWE.                                              15/3-3:   PB WELL ID
APIN.                                              15/3-3:   PB WELLBORE ID
PBWS.                                                 all:   PB WELL NAME SET
~PARAMETER INFORMATION (log)
LNAM.                              FDC/CNL/GR  COMPOSITED:   NAME
LTYP.                                         DEPTH MATCH:   LOG TYPE
LSRV.                                            DEN/NEUT:   LOG SERVICE
LSOU.                                             SPT/NPD:   LOG SOURCE
LVSN.                                                   1:   LOG VERSION
BHIS.                                                   R:   BRIEF HISTORY
FHIS.                                             RAW-LIS:   FULL HISTORY
LCNM.                                                 SCH:   LOGGING CONTRACTOR
TOOL.                             FDC/CNL/GR (COMPOSITED):   TOOL STRING
~Curve Information Block
#MNEM.UNIT                                        API CODE    No Description
#=========                                        ========    == ===========
DEPT.M                                       00 001 00 00:     1  DEPTH
CALI.IN                                                  :     2  Caliper
DRHO.G/CC                                                :     3  Bulk density correction
GR.GAPI                                                  :     4  Gamma Ray
NPHI.%                                                   :     5  Neutron porosity
RHOB.G/CC                                                :     6  Bulk density
TENS.LB                                                  :     7  Cable Tension
~ASCII
# ...
 2258.0072    19.5154      .0475    68.2307  -999.2500     2.2189  -999.2500
 2258.1596    19.5167      .0512    68.6440  -999.2500     2.2459  -999.2500
 2258.3120    19.5163      .0654    69.0081  -999.2500     2.2634  -999.2500
 2258.4644    19.5158      .0827    70.6388  -999.2500     2.2725  -999.2500
 2258.6168    19.5153      .0752    73.1232  -999.2500     2.2556  -999.2500
 2258.7692    19.5148      .0610    75.0025  -999.2500     2.2337  -999.2500
 2258.9216    19.5129      .0498    74.1582  -999.2500     2.2212  -999.2500
 2259.0740    19.4992      .0513    71.1287  -999.2500     2.2150  -999.2500
 2259.2264    19.4754      .0634    68.1095  -999.2500     2.2132  -999.2500
 2259.3788    19.4937      .0797    65.9088  -999.2500     2.2106  -999.2500
 2259.5312    19.5071      .0945    63.5291  -999.2500     2.2077  -999.2500
 2259.6836    19.4963      .0948    61.3267  -999.2500     2.2050  -999.2500
 2259.8360    19.4915      .1044    60.1963  -999.2500     2.2188  -999.2500
 2259.9884    19.4919      .0980    60.1793  -999.2500     2.2379  -999.2500
 2260.1408    19.5105      .0738    60.9692  -999.2500     2.2459  -999.2500
 2260.2932    19.5099      .0498    62.3795  -999.2500     2.2329  -999.2500
 2260.4456    19.5058      .0342    64.0242  -999.2500     2.2160  -999.2500
 2260.5980    19.4674      .0388    65.0984  -999.2500     2.2023  -999.2500
 2260.7504    19.4117      .0605    64.5728  -999.2500     2.1919  -999.2500
 2260.9028    19.4011      .0822    62.1856  -999.2500     2.1779  -999.2500
 2261.0552    19.4854      .0972    58.2903  -999.2500     2.1635  -999.2500
 2261.2076    19.4232      .0773    54.7744  -999.2500     2.1304  -999.2500
 2261.3600    19.3884      .0704    54.4666  -999.2500     2.1003  -999.2500
 2261.5124    19.4652      .0815    55.8646  -999.2500     2.0874  -999.2500
 2261.6648    19.4846      .0762    55.8708  -999.2500     2.0844  -999.2500
 2261.8172    19.4367      .0645    55.0768  -999.2500     2.1076  -999.2500
 2261.9696    19.3095      .0550    55.6525  -999.2500     2.1539  -999.2500
 2262.1220    19.2846      .0591    57.5492  -999.2500     2.1826  -999.2500
 2262.2744    19.3839      .0728    58.9716  -999.2500     2.1753  -999.2500
 2262.4268    19.3747      .0875    59.2553  -999.2500     2.1707  -999.2500
 2262.5792    19.4407      .1021    58.4901  -999.2500     2.1676  -999.2500
 2262.7316    19.4607      .1168    57.3506  -999.2500     2.1663  -999.2500
 2262.8840    19.4686      .1157    56.1546  -999.2500     2.1584  -999.2500
 2263.0364    19.4794      .0957    54.7493  -999.2500     2.1463  -999.2500
 2263.1888    19.4898      .0871    53.3485  -999.2500     2.1553  -999.2500
 2263.3412    19.4987      .0777    52.5824  -999.2500     2.1658  -999.2500
 2263.4936    19.4999      .0653    53.0281  -999.2500     2.1711  -999.2500
 2263.6460    19.4994      .0589    54.8870  -999.2500     2.1789  -999.2500
 2263.7984    19.4936      .0683    56.5104  -999.2500     2.1656  -999.2500
 2263.9508    19.4759      .0719    56.7143  -999.2500     2.1506  -999.2500
 2264.1032    19.4403      .0614    57.2575  -999.2500     2.1404  -999.2500
 2264.2556    19.4418      .0596    58.6980  -999.2500     2.1489  -999.2500
 2264.4080    19.4784      .0745    59.5437  -999.2500     2.1759  -999.2500
 2264.5604    19.5215      .0937    59.6859  -999.2500     2.1925  -999.2500
 2264.7128    19.5243      .0995    60.0216  -999.2500     2.1858  -999.2500
 2264.8652    19.5092      .0962    60.3090  -999.2500     2.1613  -999.2500
 2265.0176    19.4978      .0997    59.4944  -999.2500     2.1538  -999.2500
 2265.1700    19.4913      .0989    59.5736  -999.2500     2.1574  -999.2500
 2265.3224    19.4673      .0989    60.3806  -999.2500     2.1692  -999.2500
 2265.4748    19.4695      .0956    60.1384  -999.2500     2.1831  -999.2500
 2265.6272    19.4871      .0875    59.5473  -999.2500     2.1915  -999.2500
 2265.7796    19.4927      .0837    59.4687  -999.2500     2.2018  -999.2500
 2265.9320    19.4922      .0827    59.5948  -999.2500     2.2095  -999.2500
 2266.0844    19.4917      .0791    59.9418  -999.2500     2.2126  -999.2500
 2266.2368    19.4912      .0870    61.0728  -999.2500     2.2204  -999.2500
 2266.3892    19.4907      .0899    62.5612  -999.2500     2.2292  -999.2500
 2266.5416    19.4902      .0766    62.6674  -999.2500     2.2227  -999.2500
 2266.6940    19.4898      .0582    62.5331  -999.2500     2.2035  -999.2500
 2266.8464    19.4893      .0444    62.5276  -999.2500     2.1947  -999.2500
 2266.9988    19.4879      .0365    61.8567  -999.2500     2.1851  -999.2500
 2267.1512    19.4154      .0385    58.8710  -999.2500     2.1735  -999.2500
 2267.3036    19.2161      .0500    54.6536  -999.2500     2.1730  -999.2500
 2267.4560    18.9584      .0615    51.1909  -999.2500     2.1859  -999.2500
 2267.6084    18.8158      .0761    49.6217  -999.2500     2.2139  -999.2500
 2267.7608    18.9293      .0993    50.8901  -999.2500     2.2506  -999.2500
 2267.9132    19.1949      .1073    54.1311  -999.2500     2.2620  -999.2500
 2268.0656    19.3904      .1003    57.1791  -999.2500     2.2541  -999.2500
 2268.2180    19.4693      .0906    59.4788  -999.2500     2.2462  -999.2500
 2268.3704    19.4968      .0724    62.6534  -999.2500     2.2271  -999.2500
 2268.5228    19.5039      .0494    64.6789  -999.2500     2.2069  -999.2500
 2268.6752    19.5034      .0426    65.4473  -999.2500     2.2116  -999.2500
 2268.8276    19.5029      .0610    65.3532  -999.2500     2.2354  -999.2500
 2268.9800    19.5025      .0815    65.4792  -999.2500     2.2511  -999.2500
 2269.1324    19.5071      .0955    64.7743  -999.2500     2.2691  -999.2500
 2269.2848    19.5196      .1031    63.5580  -999.2500     2.2854  -999.2500
 2269.4372    19.5335      .0962    62.3971  -999.2500     2.2900  -999.2500
 2269.5896    19.5401      .0774    61.8437  -999.2500     2.2847  -999.2500
 2269.7420    19.5371      .0576    61.0981  -999.2500     2.2754  -999.2500
 2269.8944    19.5307      .0384    60.4772  -999.2500     2.2693  -999.2500
 2270.0468    19.5242      .0301    60.8961  -999.2500     2.2623  -999.2500
 2270.1992    19.5164      .0360    60.9202  -999.2500     2.2533  -999.2500
 2270.3516    19.5066      .0479    59.9729  -999.2500     2.2404  -999.2500
 2270.5040    19.4796      .0639    58.5171  -999.2500     2.2264  -999.2500
 2270.6564    19.3916      .0782    57.2782  -999.2500     2.2266  -999.2500
 2270.8088    19.2169      .0735    54.1579  -999.2500     2.2348  -999.2500
 2270.9612    19.0065      .0640    50.2113  -999.2500     2.2421  -999.2500
 2271.1136    18.9265      .0731    49.8053  -999.2500     2.2592  -999.2500
 2271.2660    19.1197      .0862    52.3674  -999.2500     2.2702  -999.2500
 2271.4184    19.3868      .0814    56.0223  -999.2500     2.2612  -999.2500
 2271.5708    19.4886      .0641    57.5475  -999.2500     2.2534  -999.2500
 2271.7232    19.4619      .0520    57.4999  -999.2500     2.2564  -999.2500
 2271.8756    19.3844      .0425    58.1907  -999.2500     2.2581  -999.2500
 2272.0280    19.2997      .0390    59.3727  -999.2500     2.2585  -999.2500
 2272.1804    19.2277      .0554    60.9129  -999.2500     2.2706  -999.2500
 2272.3328    19.2012      .0740    61.3799  -999.2500     2.2796  -999.2500
 2272.4852    19.1011      .0693    61.8594  -999.2500     2.2645  -999.2500
 2272.6376    18.9737      .0538    61.4753  -999.2500     2.2478  -999.2500
 2272.7900    18.9617      .0440    59.3969  -999.2500     2.2391  -999.2500
 2272.9424    18.9510      .0449    57.4419  -999.2500     2.2342  -999.2500
 2273.0948    18.8387      .0559    56.3106  -999.2500     2.2411  -999.2500
 2273.2472    18.7402      .0671    54.6955  -999.2500     2.2478  -999.2500
 2273.3996    18.7088      .0620    51.8896  -999.2500     2.2319  -999.2500
 2273.5520    18.7058      .0409    49.5222  -999.2500     2.2109  -999.2500
 2273.7044    18.4559      .0346    50.1009  -999.2500     2.2221  -999.2500
