~VERSION INFORMATION
VERS.                                                 2.0:   CWLS Log ASCII Standard-VERSION 2.0
WRAP.                                                  NO:   One line per depth step
~Well Information Block
STRT.M                                           847.3928:   Top Depth
STOP.M                                          5117.4884:   Bottom Depth
STEP.M                                             .15240:   Depth Increment
NULL.                                            -999.250:   Null Value
FLD .                                             WILDCAT:   Field Name
WELL.                                              15/3-3:   NAME
WBN .                                              15/3-3:   WELLBORE
NATI.                                                 NOR:   COUNTRY
CTRY.                                                 NOR:   COUNTRY
COMP.                             ELF AQUITAINE NORGE A/S:   OPERATOR
PROV.                                           NORTH SEA:   PROVINCE
COUN.                                        PENTAGONE 84:   RIG NAME
SPUD.                                          1979/01/05:   SPUD DATE
LATI.                                       58 52 31.25 N:   SURF. LATITUDE
LONG.                                        1 46 46.27 E:   SURF. LONGITUDE
PBWE.                                              15/3-3:   PB WELL ID
APIN.                                              15/3-3:   PB WELLBORE ID
PBWS.                                                 all:   PB WELL NAME SET
~PARAMETER INFORMATION (log)
LNAM.                              FDC/CNL/GR  COMPOSITED:   NAME
LTYP.                                         DEPTH MATCH:   LOG TYPE
LSRV.                                            DEN/NEUT:   LOG SERVICE
LSOU.                                             SPT/NPD:   LOG SOURCE
LVSN.                                                   1:   LOG VERSION
BHIS.                                                   R:   BRIEF HISTORY
FHIS.                                             RAW-LIS:   FULL HISTORY
LCNM.                                                 SCH:   LOGGING CONTRACTOR
TOOL.                             FDC/CNL/GR (COMPOSITED):   TOOL STRING
~Curve Information Block
#MNEM.UNIT                                        API CODE    No Description
#=========                                        ========    == ===========
DEPT.M                                       00 001 00 00:     1  DEPTH
CALI.IN                                                  :     2  Caliper
DRHO.G/CC                                                :     3  Bulk density correction
GR.GAPI                                                  :     4  Gamma Ray
NPHI.%                                                   :     5  Neutron porosity
RHOB.G/CC                                                :     6  Bulk density
TENS.LB                                                  :     7  Cable Tension
~ASCII
# ...
 1703.2712    17.8720      .0231    22.4319  -999.2500     2.0702  -999.2500
 1703.4236    17.7809      .0158    21.8428  -999.2500     2.0590  -999.2500
 1703.5760    17.7225      .0111    21.9820  -999.2500     2.0579  -999.2500
 1703.7284    17.7231      .0102    22.3967  -999.2500     2.0570  -999.2500
 1703.8808    17.7237      .0116    22.3958  -999.2500     2.0587  -999.2500
 1704.0332    17.7243      .0122    21.9120  -999.2500     2.0664  -999.2500
 1704.1856    17.7249      .0098    21.2653  -999.2500     2.0665  -999.2500
 1704.3380    17.7413      .0063    21.4037  -999.2500     2.0672  -999.2500
 1704.4904    17.7720      .0083    22.4890  -999.2500     2.0713  -999.2500
 1704.6428    17.7856      .0065    23.1562  -999.2500     2.0700  -999.2500
 1704.7952    17.7741      .0027    23.5291  -999.2500     2.0613  -999.2500
 1704.9476    17.7564     -.0005    23.9767  -999.2500     2.0494  -999.2500
 1705.1000    17.7302      .0041    23.5907  -999.2500     2.0427  -999.2500
 1705.2524    17.7243      .0112    22.9617  -999.2500     2.0510  -999.2500
 1705.4048    17.7199      .0184    22.8450  -999.2500     2.0619  -999.2500
 1705.5572    17.7155      .0206    23.4026  -999.2500     2.0653  -999.2500
 1705.7096    17.7111      .0165    24.5496  -999.2500     2.0633  -999.2500
 1705.8620    17.7309      .0159    25.1934  -999.2500     2.0646  -999.2500
 1706.0144    17.7581      .0202    24.7353  -999.2500     2.0755  -999.2500
 1706.1668    17.7725      .0187    23.7559  -999.2500     2.0833  -999.2500
 1706.3192    17.7631      .0121    23.0728  -999.2500     2.0798  -999.2500
 1706.4716    17.7437      .0054    22.6940  -999.2500     2.0625  -999.2500
 1706.6240    17.7275      .0012    22.5510  -999.2500     2.0552  -999.2500
 1706.7764    17.7235      .0017    22.6142  -999.2500     2.0523  -999.2500
 1706.9288    17.7426      .0047    22.2418  -999.2500     2.0495  -999.2500
 1707.0812    17.7573      .0077    21.6249  -999.2500     2.0491  -999.2500
 1707.2336    17.7924      .0108    21.6256  -999.2500     2.0545  -999.2500
 1707.3860    17.8171      .0106    22.1411  -999.2500     2.0575  -999.2500
 1707.5384    17.7750      .0097    22.0308  -999.2500     2.0566  -999.2500
 1707.6908    17.7304      .0089    21.8239  -999.2500     2.0566  -999.2500
 1707.8432    17.7220      .0112    22.2148  -999.2500     2.0595  -999.2500
 1707.9956    17.7347      .0140    22.4968  -999.2500     2.0619  -999.2500
 1708.1480    17.7596      .0167    22.4261  -999.2500     2.0676  -999.2500
 1708.3004    17.7931      .0169    22.3061  -999.2500     2.0677  -999.2500
 1708.4528    17.8266      .0146    22.2167  -999.2500     2.0664  -999.2500
 1708.6052    17.8601      .0121    22.3248  -999.2500     2.0627  -999.2500
 1708.7576    17.8335      .0096    22.2607  -999.2500     2.0594  -999.2500
 1708.9100    17.8469      .0082    21.6277  -999.2500     2.0606  -999.2500
 1709.0624    17.8634      .0074    21.1979  -999.2500     2.0605  -999.2500
 1709.2148    17.8640      .0057    21.5495  -999.2500     2.0504  -999.2500
 1709.3672    17.8404      .0037    22.1691  -999.2500     2.0463  -999.2500
 1709.5196    17.8142      .0056    22.2252  -999.2500     2.0488  -999.2500
 1709.6720    17.7945      .0086    21.7148  -999.2500     2.0527  -999.2500
 1709.8244    17.8071      .0112    20.9998  -999.2500     2.0560  -999.2500
 1709.9768    17.7959      .0085    20.5809  -999.2500     2.0523  -999.2500
 1710.1292    17.7805      .0084    20.8789  -999.2500     2.0514  -999.2500
 1710.2816    17.8052      .0094    21.5692  -999.2500     2.0569  -999.2500
 1710.4340    17.8280      .0081    22.2088  -999.2500     2.0576  -999.2500
 1710.5864    17.8493      .0051    22.8079  -999.2500     2.0531  -999.2500
 1710.7388    17.8679      .0026    23.1324  -999.2500     2.0509  -999.2500
 1710.8912    17.8184      .0003    22.8558  -999.2500     2.0487  -999.2500
 1711.0436    17.7816     -.0009    22.4010  -999.2500     2.0488  -999.2500
 1711.1960    17.7506      .0004    22.3745  -999.2500     2.0509  -999.2500
 1711.3484    17.7340      .0031    22.4315  -999.2500     2.0538  -999.2500
 1711.5008    17.7848      .0057    22.3009  -999.2500     2.0596  -999.2500
 1711.6532    17.8411      .0084    21.9451  -999.2500     2.0663  -999.2500
 1711.8056    17.7945      .0080    21.4594  -999.2500     2.0691  -999.2500
 1711.9580    17.7186      .0072    21.0814  -999.2500     2.0719  -999.2500
 1712.1104    17.7576      .0076    20.9712  -999.2500     2.0726  -999.2500
 1712.2628    17.7960      .0092    20.9961  -999.2500     2.0709  -999.2500
 1712.4152    17.7966      .0098    21.2621  -999.2500     2.0656  -999.2500
 1712.5676    17.7972      .0085    22.1758  -999.2500     2.0586  -999.2500
 1712.7200    17.7978      .0062    23.3117  -999.2500     2.0560  -999.2500
 1712.8724    17.7833      .0049    24.3147  -999.2500     2.0562  -999.2500
 1713.0248    17.7163      .0059    24.6648  -999.2500     2.0555  -999.2500
 1713.1772    17.7004      .0104    24.3252  -999.2500     2.0621  -999.2500
 1713.3296    17.7290      .0142    23.7980  -999.2500     2.0700  -999.2500
 1713.4820    17.7537      .0179    23.4615  -999.2500     2.0760  -999.2500
 1713.6344    17.7756      .0192    23.0222  -999.2500     2.0775  -999.2500
 1713.7868    17.7677      .0193    22.3456  -999.2500     2.0749  -999.2500
 1713.9392    17.7391      .0175    22.0887  -999.2500     2.0698  -999.2500
 1714.0916    17.7068      .0146    22.1353  -999.2500     2.0700  -999.2500
 1714.2440    17.7359      .0140    21.7065  -999.2500     2.0726  -999.2500
 1714.3964    17.7720      .0133    20.8274  -999.2500     2.0704  -999.2500
 1714.5488    17.8070      .0111    20.2122  -999.2500     2.0691  -999.2500
 1714.7012    17.8147      .0096    20.3037  -999.2500     2.0687  -999.2500
 1714.8536    17.7861      .0116    21.0088  -999.2500     2.0687  -999.2500
 1715.0060    17.7760      .0140    21.8583  -999.2500     2.0676  -999.2500
 1715.1584    17.7673      .0131    22.1427  -999.2500     2.0637  -999.2500
 1715.3108    17.7572      .0112    21.8778  -999.2500     2.0578  -999.2500
 1715.4632    17.7486      .0105    21.6696  -999.2500     2.0573  -999.2500
 1715.6156    17.7492      .0193    21.6563  -999.2500     2.0684  -999.2500
 1715.7680    17.7561      .0273    21.8424  -999.2500     2.0795  -999.2500
 1715.9204    17.7793      .0310    22.2830  -999.2500     2.0888  -999.2500
 1716.0728    17.8077      .0265    22.7589  -999.2500     2.0921  -999.2500
 1716.2252    17.8312      .0201    23.0374  -999.2500     2.0830  -999.2500
 1716.3776    17.8488      .0149    23.0445  -999.2500     2.0775  -999.2500
 1716.5300    17.8523      .0165    23.3022  -999.2500     2.0753  -999.2500
 1716.6824    17.8518      .0190    23.5501  -999.2500     2.0724  -999.2500
 1716.8348    17.8335      .0236    23.0089  -999.2500     2.0748  -999.2500
 1716.9872    17.8402      .0246    22.4755  -999.2500     2.0770  -999.2500
 1717.1396    17.8569      .0237    22.7690  -999.2500     2.0733  -999.2500
 1717.2920    17.8735      .0185    23.4234  -999.2500     2.0692  -999.2500
 1717.4444    17.8757      .0144    23.8524  -999.2500     2.0699  -999.2500
 1717.5968    17.8504      .0118    23.8979  -999.2500     2.0786  -999.2500
 1717.7492    17.8371      .0126    23.7835  -999.2500     2.0871  -999.2500
 1717.9016    17.7940      .0137    23.6301  -999.2500     2.0877  -999.2500
 1718.0540    17.7611      .0135    23.4901  -999.2500     2.0902  -999.2500
 1718.2064    17.7839      .0130    23.3916  -999.2500     2.0924  -999.2500
 1718.3588    17.7996      .0117    23.1477  -999.2500     2.0897  -999.2500
 1718.5112    17.8002      .0081    22.6561  -999.2500     2.0821  -999.2500
 1718.6636    17.7896      .0071    22.3884  -999.2500     2.0788  -999.2500
 1718.8160    17.7431      .0080    22.4653  -999.2500     2.0701  -999.2500
 1718.9684    17.7223      .0081    22.2079  -999.2500     2.0649  -999.2500
