~VERSION INFORMATION
VERS.                                                 2.0:   CWLS Log ASCII Standard-VERSION 2.0
WRAP.                                                  NO:   One line per depth step
~Well Information Block
STRT.M                                           847.3928:   Top Depth
STOP.M                                          5117.4884:   Bottom Depth
STEP.M                                             .15240:   Depth Increment
NULL.                                            -999.250:   Null Value
FLD .                                             WILDCAT:   Field Name
WELL.                                              15/3-3:   NAME
WBN .                                              15/3-3:   WELLBORE
NATI.                                                 NOR:   COUNTRY
CTRY.                                                 NOR:   COUNTRY
COMP.                             ELF AQUITAINE NORGE A/S:   OPERATOR
PROV.                                           NORTH SEA:   PROVINCE
COUN.                                        PENTAGONE 84:   RIG NAME
SPUD.                                          1979/01/05:   SPUD DATE
LATI.                                       58 52 31.25 N:   SURF. LATITUDE
LONG.                                        1 46 46.27 E:   SURF. LONGITUDE
PBWE.                                              15/3-3:   PB WELL ID
APIN.                                              15/3-3:   PB WELLBORE ID
PBWS.                                                 all:   PB WELL NAME SET
~PARAMETER INFORMATION (log)
LNAM.                              FDC/CNL/GR  COMPOSITED:   NAME
LTYP.                                         DEPTH MATCH:   LOG TYPE
LSRV.                                            DEN/NEUT:   LOG SERVICE
LSOU.                                             SPT/NPD:   LOG SOURCE
LVSN.                                                   1:   LOG VERSION
BHIS.                                                   R:   BRIEF HISTORY
FHIS.                                             RAW-LIS:   FULL HISTORY
LCNM.                                                 SCH:   LOGGING CONTRACTOR
TOOL.                             FDC/CNL/GR (COMPOSITED):   TOOL STRING
~Curve Information Block
#MNEM.UNIT                                        API CODE    No Description
#=========                                        ========    == ===========
DEPT.M                                       00 001 00 00:     1  DEPTH
CALI.IN                                                  :     2  Caliper
DRHO.G/CC                                                :     3  Bulk density correction
GR.GAPI                                                  :     4  Gamma Ray
NPHI.%                                                   :     5  Neutron porosity
RHOB.G/CC                                                :     6  Bulk density
TENS.LB                                                  :     7  Cable Tension
~ASCII
# ...
 1972.7144    17.6536      .0106    35.0253  -999.2500     2.0129  -999.2500
 1972.8668    17.7536      .0165    35.6817  -999.2500     2.0172  -999.2500
 1973.0192    17.6060      .0197    35.0741  -999.2500     2.0218  -999.2500
 1973.1716    17.5541      .0205    35.1435  -999.2500     2.0280  -999.2500
 1973.3240    17.5658      .0205    36.4823  -999.2500     2.0318  -999.2500
 1973.4764    17.5592      .0223    37.5166  -999.2500     2.0311  -999.2500
 1973.6288    17.6172      .0249    37.5788  -999.2500     2.0281  -999.2500
 1973.7812    17.7741      .0232    36.6981  -999.2500     2.0261  -999.2500
 1973.9336    17.6985      .0199    36.1778  -999.2500     2.0190  -999.2500
 1974.0860    17.6112      .0195    35.9803  -999.2500     2.0148  -999.2500
 1974.2384    17.8004      .0233    35.9005  -999.2500     2.0136  -999.2500
 1974.3908    18.0741      .0245    35.7074  -999.2500     2.0117  -999.2500
 1974.5432    18.2907      .0217    35.6702  -999.2500     2.0068  -999.2500
 1974.6956    17.8704      .0231    35.0675  -999.2500     2.0093  -999.2500
 1974.8480    17.7516      .0250    34.1623  -999.2500     2.0094  -999.2500
 1975.0004    17.8747      .0251    33.4148  -999.2500     1.9963  -999.2500
 1975.1528    18.0081      .0308    33.8575  -999.2500     1.9913  -999.2500
 1975.3052    18.3147      .0426    34.9866  -999.2500     1.9940  -999.2500
 1975.4576    18.8322      .0607    36.3595  -999.2500     2.0056  -999.2500
 1975.6100    19.4351      .0741    37.3864  -999.2500     2.0108  -999.2500
 1975.7624    19.5412      .0637    37.1143  -999.2500     2.0026  -999.2500
 1975.9148    19.5469      .0475    36.6325  -999.2500     1.9875  -999.2500
 1976.0672    19.5362      .0335    36.2147  -999.2500     1.9880  -999.2500
 1976.2196    19.5234      .0343    36.0311  -999.2500     1.9829  -999.2500
 1976.3720    19.4880      .0433    36.6829  -999.2500     1.9975  -999.2500
 1976.5244    19.4574      .0448    37.6071  -999.2500     2.0134  -999.2500
 1976.6768    19.3098      .0362    38.4846  -999.2500     2.0167  -999.2500
 1976.8292    18.8760      .0264    38.7862  -999.2500     2.0045  -999.2500
 1976.9816    18.8307      .0187    38.7612  -999.2500     1.9974  -999.2500
 1977.1340    18.8617      .0159    38.4024  -999.2500     1.9805  -999.2500
 1977.2864    19.3296      .0173    38.7979  -999.2500     1.9548  -999.2500
 1977.4388    18.9219      .0212    39.1936  -999.2500     1.9337  -999.2500
 1977.5912    18.2592      .0337    39.5392  -999.2500     1.9261  -999.2500
 1977.7436    17.9919      .0327    40.2879  -999.2500     1.9257  -999.2500
 1977.8960    17.8954      .0315    40.8985  -999.2500     1.9460  -999.2500
 1978.0484    17.9062      .0304    40.3707  -999.2500     1.9714  -999.2500
 1978.2008    18.3363      .0252    39.7755  -999.2500     1.9738  -999.2500
 1978.3532    19.0628      .0223    39.1779  -999.2500     1.9637  -999.2500
 1978.5056    19.1997      .0267    38.6001  -999.2500     1.9576  -999.2500
 1978.6580    18.6185      .0330    38.5207  -999.2500     1.9505  -999.2500
 1978.8104    17.9933      .0391    37.7820  -999.2500     1.9394  -999.2500
 1978.9628    17.8380      .0421    37.7608  -999.2500     1.9270  -999.2500
 1979.1152    17.7629      .0438    37.8850  -999.2500     1.9158  -999.2500
 1979.2676    17.7320      .0513    36.0416  -999.2500     1.9181  -999.2500
 1979.4200    17.7523      .0520    35.0128  -999.2500     1.9271  -999.2500
 1979.5724    17.7416      .0357    34.7040  -999.2500     1.9256  -999.2500
 1979.7248    17.6676      .0183    33.7031  -999.2500     1.9367  -999.2500
 1979.8772    17.7339      .0190    32.4402  -999.2500     1.9561  -999.2500
 1980.0296    17.8002      .0314    32.0716  -999.2500     1.9898  -999.2500
 1980.1820    17.7206      .0397    32.8899  -999.2500     2.0014  -999.2500
 1980.3344    17.6377      .0349    33.9736  -999.2500     2.0009  -999.2500
 1980.4868    17.5494      .0249    35.2789  -999.2500     1.9973  -999.2500
 1980.6392    17.5386      .0188    37.6640  -999.2500     2.0052  -999.2500
 1980.7916    17.5618      .0190    39.8817  -999.2500     2.0184  -999.2500
 1980.9440    17.5969      .0233    40.9258  -999.2500     2.0255  -999.2500
 1981.0964    17.6280      .0240    41.0700  -999.2500     2.0251  -999.2500
 1981.2488    17.6703      .0224    40.5833  -999.2500     2.0206  -999.2500
 1981.4012    17.7287      .0209    39.3808  -999.2500     2.0153  -999.2500
 1981.5536    17.8067      .0206    38.9161  -999.2500     2.0123  -999.2500
 1981.7060    17.8189      .0238    39.2856  -999.2500     2.0092  -999.2500
 1981.8584    17.7918      .0267    40.5925  -999.2500     2.0059  -999.2500
 1982.0108    17.8211      .0253    41.5719  -999.2500     2.0054  -999.2500
 1982.1632    17.8435      .0254    41.4750  -999.2500     2.0121  -999.2500
 1982.3156    17.8219      .0282    41.2107  -999.2500     2.0188  -999.2500
 1982.4680    17.7874      .0279    41.2911  -999.2500     2.0212  -999.2500
 1982.6204    17.7743      .0234    41.3395  -999.2500     2.0177  -999.2500
 1982.7728    17.7980      .0170    41.0039  -999.2500     2.0098  -999.2500
 1982.9252    17.8768      .0103    40.4860  -999.2500     2.0008  -999.2500
 1983.0776    17.9441      .0092    40.7489  -999.2500     1.9915  -999.2500
 1983.2300    18.0397      .0108    41.1253  -999.2500     1.9751  -999.2500
 1983.3824    18.2700      .0100    41.3313  -999.2500     1.9547  -999.2500
 1983.5348    18.8868      .0152    40.8382  -999.2500     1.9294  -999.2500
 1983.6872    19.3638      .0319    40.0714  -999.2500     1.9049  -999.2500
 1983.8396    19.4936      .0502    39.3239  -999.2500     1.8867  -999.2500
 1983.9920    19.5376      .0490    39.4503  -999.2500     1.8718  -999.2500
 1984.1444    19.5930      .0366    41.8328  -999.2500     1.8797  -999.2500
 1984.2968    19.6402      .0239    44.0025  -999.2500     1.9097  -999.2500
 1984.4492    19.5483      .0130    43.9647  -999.2500     1.9392  -999.2500
 1984.6016    19.2149      .0096    42.9243  -999.2500     1.9656  -999.2500
 1984.7540    18.6658      .0120    42.1310  -999.2500     2.0080  -999.2500
 1984.9064    18.1641      .0153    42.3433  -999.2500     2.0371  -999.2500
 1985.0588    18.0025      .0161    42.9260  -999.2500     2.0576  -999.2500
 1985.2112    17.7944      .0176    43.2790  -999.2500     2.1000  -999.2500
 1985.3636    17.6568      .0215    43.3023  -999.2500     2.1701  -999.2500
 1985.5160    17.8491      .0182    42.1067  -999.2500     2.2270  -999.2500
 1985.6684    18.3987      .0081    41.4110  -999.2500     2.2691  -999.2500
 1985.8208    19.1094      .0134    42.5226  -999.2500     2.3104  -999.2500
 1985.9732    19.4758      .0367    44.2942  -999.2500     2.3009  -999.2500
 1986.1256    19.5151      .0490    44.9799  -999.2500     2.2374  -999.2500
 1986.2780    19.5004      .0430    44.8834  -999.2500     2.1477  -999.2500
 1986.4304    19.4862      .0370    44.6696  -999.2500     2.0753  -999.2500
 1986.5828    19.4730      .0363    44.1130  -999.2500     2.0513  -999.2500
 1986.7352    19.4352      .0370    43.3211  -999.2500     2.0519  -999.2500
 1986.8876    19.3124      .0379    42.9624  -999.2500     2.0571  -999.2500
 1987.0400    19.2372      .0364    42.8362  -999.2500     2.0596  -999.2500
 1987.1924    19.3957      .0311    42.4636  -999.2500     2.0478  -999.2500
 1987.3448    19.5067      .0238    42.5503  -999.2500     2.0320  -999.2500
 1987.4972    19.3262      .0182    43.3606  -999.2500     2.0260  -999.2500
 1987.6496    18.9650      .0161    43.8060  -999.2500     2.0249  -999.2500
 1987.8020    18.5850      .0161    43.7920  -999.2500     2.0232  -999.2500
 1987.9544    18.3731      .0168    43.8358  -999.2500     2.0203  -999.2500
 1988.1068    18.3368      .0199    43.2334  -999.2500     2.0252  -999.2500
 1988.2592    18.3601      .0253    42.4665  -999.2500     2.0382  -999.2500
 1988.4116    18.3933      .0278    42.3056  -999.2500     2.0466  -999.2500
