~VERSION INFORMATION
VERS.                                                 2.0:   CWLS Log ASCII Standard-VERSION 2.0
WRAP.                                                  NO:   One line per depth step
~Well Information Block
STRT.M                                           847.3928:   Top Depth
STOP.M                                          5117.4884:   Bottom Depth
STEP.M                                             .15240:   Depth Increment
NULL.                                            -999.250:   Null Value
FLD .                                             WILDCAT:   Field Name
WELL.                                              15/3-3:   NAME
WBN .                                              15/3-3:   WELLBORE
NATI.                                                 NOR:   COUNTRY
CTRY.                                                 NOR:   COUNTRY
COMP.                             ELF AQUITAINE NORGE A/S:   OPERATOR
PROV.                                           NORTH SEA:   PROVINCE
COUN.                                        PENTAGONE 84:   RIG NAME
SPUD.                                          1979/01/05:   SPUD DATE
LATI.                                       58 52 31.25 N:   SURF. LATITUDE
LONG.                                        1 46 46.27 E:   SURF. LONGITUDE
PBWE.                                              15/3-3:   PB WELL ID
APIN.                                              15/3-3:   PB WELLBORE ID
PBWS.                                                 all:   PB WELL NAME SET
~PARAMETER INFORMATION (log)
LNAM.                              FDC/CNL/GR  COMPOSITED:   NAME
LTYP.                                         DEPTH MATCH:   LOG TYPE
LSRV.                                            DEN/NEUT:   LOG SERVICE
LSOU.                                             SPT/NPD:   LOG SOURCE
LVSN.                                                   1:   LOG VERSION
BHIS.                                                   R:   BRIEF HISTORY
FHIS.                                             RAW-LIS:   FULL HISTORY
LCNM.                                                 SCH:   LOGGING CONTRACTOR
TOOL.                             FDC/CNL/GR (COMPOSITED):   TOOL STRING
~Curve Information Block
#MNEM.UNIT                                        API CODE    No Description
#=========                                        ========    == ===========
DEPT.M                                       00 001 00 00:     1  DEPTH
CALI.IN                                                  :     2  Caliper
DRHO.G/CC                                                :     3  Bulk density correction
GR.GAPI                                                  :     4  Gamma Ray
NPHI.%                                                   :     5  Neutron porosity
RHOB.G/CC                                                :     6  Bulk density
TENS.LB                                                  :     7  Cable Tension
~ASCII
# ...
 5095.0856     8.9600      .0037    34.2503     4.6440     2.6413   174.1978
 5095.2380     8.8913      .0051    33.7904     4.5761     2.6339   167.1609
 5095.3904     8.7364      .0099    32.9894     3.4906     2.6258   184.0940
 5095.5428     8.5711      .0171    28.4722     2.1918     2.6239   209.8423
 5095.6952     8.5332      .0148    26.8289     2.1744     2.6257   208.9977
 5095.8476     8.5565      .0107    31.8921     3.4678     2.6322   197.8026
 5096.0000     8.5798      .0198    30.5826     5.1137     2.6404   188.7260
 5096.1524     8.6129      .0272    28.5219     5.4284     2.6366   187.3965
 5096.3048     8.6414      .0200    29.0464     5.1433     2.6221   182.7709
 5096.4572     8.6338      .0226    28.1317     4.3300     2.6231   162.3493
 5096.6096     8.6034      .0241    27.5444     3.8521     2.6292   155.8546
 5096.7620     8.5597      .0235    28.1426     3.9931     2.6295   175.7685
 5096.9144     8.5114      .0204    27.4505     4.8582     2.6168   209.0001
 5097.0668     8.5511      .0075    26.5061     5.9804     2.5891   236.6995
 5097.2192     8.7269      .0026    29.3398     7.1452     2.5770   228.0796
 5097.3716     8.8805      .0050    29.0551     7.6399     2.5795   183.0373
 5097.5240     8.9429      .0072    29.1781     7.1120     2.5923   175.5289
 5097.6764     8.9018      .0103    33.6364     6.4832     2.6142   213.1095
 5097.8288     8.7581      .0097    37.6723     5.9109     2.6323   250.0987
 5097.9812     8.5928      .0055    40.8225     5.2830     2.6448   286.9698
 5098.1336     8.5786     -.0006    40.6781     4.7893     2.6635   304.9197
 5098.2860     8.7265     -.0016    38.5752     5.3644     2.6974   282.7616
 5098.4384     8.8669     -.0006    34.6969     6.3441     2.7155   239.4234
 5098.5908     8.9380      .0043    30.0512     5.8785     2.6908   210.5470
 5098.7432     8.9162      .0070    24.2794     4.1834     2.6631   200.8721
 5098.8956     8.8279      .0084    20.2784     2.6767     2.6458   192.8024
 5099.0480     8.6942      .0115    18.7762     2.1965     2.6289   181.2197
 5099.2004     8.5437      .0196    20.4870     2.3896     2.6186   166.9724
 5099.3528     8.4735      .0268    22.0602     2.7436     2.6128   168.0755
 5099.5052     8.4575      .0225    23.4040     2.9963     2.6042   184.3981
 5099.6576     8.4548      .0152    24.3750     3.0638     2.5910   201.7183
 5099.8100     8.4578      .0243    25.9570     3.2374     2.5964   185.3830
 5099.9624     8.4619      .0245    27.7622     4.3895     2.6007   170.7289
 5100.1148     8.4660      .0155    32.7866     5.6864     2.6162   205.6896
 5100.2672     8.4699      .0052    37.1986     4.6861     2.6189   243.5945
 5100.4196     8.4701      .0095    36.0714     4.4018     2.6326   225.2262
 5100.5720     8.4697      .0269    26.7342     4.2741     2.6491   171.2472
 5100.7244     8.4693      .0220    23.5898     4.1427     2.6400   165.5658
 5100.8768     8.4688      .0202    24.1187     4.0891     2.6070   175.5074
 5101.0292     8.4691      .0232    27.6267     4.0880     2.5783   185.8379
 5101.1816     8.4756      .0342    40.3085     3.9917     2.5803   183.3600
 5101.3340     8.4823      .0131    50.5637     3.9807     2.5804   156.6189
 5101.4864     8.4970      .0176    58.5379     4.9591     2.6016   111.8905
 5101.6388     8.5463      .0212    62.5015     6.8321     2.6358    67.1621
 5101.7912     8.5906      .0138    62.5661     9.2773     2.6752    22.3130
 5101.9436     8.6052      .0058    60.3780    11.8091     2.6842   -22.2568
 5102.0960     8.6116     -.0084    45.3773    12.1110     2.6558   -59.9309
 5102.2484     8.6385     -.0037    27.7996     9.9323     2.6452   -71.5768
 5102.4008     8.6122      .0156    25.8594     6.6004     2.6445   -83.1426
 5102.5532     8.5161      .0294    24.2994     6.9880     2.6372   -92.8965
 5102.7056     8.4941      .0213    26.1858     6.8342     2.6025   -96.4991
 5102.8580     8.4878      .0124    28.0405     6.4603     2.5663   -96.5961
 5103.0104     8.4908      .0067    29.0990     5.9086     2.5597   -97.5039
 5103.1628     8.5017      .0070    29.9843     5.3860     2.5683   -98.8570
 5103.3152     8.5125      .0015    30.1216     5.1444     2.5682  -100.2038
 5103.4676     8.5264     -.0012    28.5513     5.2377     2.5636  -101.5502
 5103.6200     8.5452      .0098    27.5944     5.6399     2.5812  -102.8989
 5103.7724     8.5654      .0240    25.3784     6.2635     2.6059  -104.2477
 5103.9248     8.6045      .0281    24.8821     7.6393     2.6330   -24.7600
 5104.0772     8.6944      .0110    23.7017    11.6959     2.6400   102.6989
 5104.2296     8.8106      .0010    24.9069    14.9308     2.6165   118.2695
 5104.3820     8.9243     -.0010    25.0229    14.3236     2.5954   163.3427
 5104.5344     9.0259     -.0007    23.3851    12.6049     2.5804   184.5421
 5104.6868     9.1096      .0000    22.6810    11.3381     2.5677   114.8802
 5104.8392     9.1728     -.0006    22.4075    10.2353     2.5650    22.5298
 5104.9916     9.2101     -.0023    21.8337     9.3592     2.5668   -69.9054
 5105.1440     9.2297     -.0035    22.6538     8.6345     2.5602  -108.6780
 5105.2964     9.2326      .0018    22.6447     7.7991     2.5844  -113.0451
 5105.4488     9.1073      .0079    24.5539     7.0977     2.5863  -112.8489
 5105.6012     8.8880      .0036    26.1922     6.6013     2.5798  -112.6529
 5105.7536     8.6218      .0090    25.8296     5.6384     2.5883  -112.4562
 5105.9060     8.4973      .0153    25.5642     4.2456     2.5961  -112.2601
 5106.0584     8.4595      .0209    28.0514     3.5619     2.6076  -112.0640
 5106.2108     8.4585      .0148    28.2903     3.2816     2.6110  -111.6519
 5106.3632     8.4639      .0072    26.4504     3.1698     2.6005   -85.1958
 5106.5156     8.4701      .0016    25.2559     3.1707     2.5914    34.3469
 5106.6680     8.4891      .0030    25.7270     3.1717     2.6155   146.2168
 5106.8204     8.5226      .0048    25.7716     3.1713     2.6542   159.7702
 5106.9728     8.5310      .0101    26.2968     3.1578     2.6507    63.9187
 5107.1252     8.5305      .0197    26.8420     3.1302     2.6536   -43.1603
 5107.2776     8.5301      .0227    25.6014     3.1026     2.6650  -113.1502
 5107.4300     8.5291      .0194    24.4617     3.0759     2.6741  -109.5191
 5107.5824     8.5262      .0195    23.3530     3.0585     2.6685   -75.1797
 5107.7348     8.5221      .0126    21.6046     3.0594     2.6575   -29.0481
 5107.8872     8.5180      .0089    19.3071     3.0604     2.6455   -41.3771
 5108.0396     8.5139      .0162    16.6923     3.0614     2.6558   -78.2020
 5108.1920     8.5098      .0301    11.9102     3.0624     2.6778  -104.2565
 5108.3444     8.5112      .0421     3.9858     3.0634     2.6767  -103.8777
 5108.4968     8.5208      .0354     -.2008     3.0671     2.6561   -45.9368
 5108.6492     8.5160      .0251     -.1920     3.0879     2.6587    69.2001
 5108.8016     8.4941      .0170     -.1832     3.1241     2.6459     6.4814
 5108.9540     8.4713      .0148     -.1745     3.1603     2.6300    87.2486
 5109.1064     8.4448      .0199     -.1657     3.1566     2.6323   953.1390
 5109.2588     8.4163      .0167     -.1569     3.1015     2.6564  1859.6765
 5109.4112     8.4131      .0076     -.1482     3.0326     2.6682  2099.1880
 5109.5636     8.4633     -.0011     -.1394     2.9576     2.6742  2077.6494
 5109.7160     8.6092     -.0010     -.1306     2.8789     2.6913  2115.5571
 5109.8684     8.7415      .0044     -.1219     2.8513     2.6936  2175.2627
 5110.0208     8.8218      .0126     -.1131     2.8655     2.6979  2139.1050
 5110.1732     8.8203      .0122     -.1044     2.8871     2.7096  2063.4937
 5110.3256     8.7902      .0087     -.0956     2.8851     2.6793  2045.5376
 5110.4780     8.7503      .0079     -.0868     2.8684     2.6637  2048.6294
 5110.6304     8.7313      .0129     -.0781     2.8499     2.6725  2026.6514
 5110.7828     8.7175      .0183     -.0693     2.8295     2.6746  1950.9380
