~VERSION INFORMATION
VERS.                                                 2.0:   CWLS Log ASCII Standard-VERSION 2.0
WRAP.                                                  NO:   One line per depth step
~Well Information Block
STRT.M                                           847.3928:   Top Depth
STOP.M                                          5117.4884:   Bottom Depth
STEP.M                                             .15240:   Depth Increment
NULL.                                            -999.250:   Null Value
FLD .                                             WILDCAT:   Field Name
WELL.                                              15/3-3:   NAME
WBN .                                              15/3-3:   WELLBORE
NATI.                                                 NOR:   COUNTRY
CTRY.                                                 NOR:   COUNTRY
COMP.                             ELF AQUITAINE NORGE A/S:   OPERATOR
PROV.                                           NORTH SEA:   PROVINCE
COUN.                                        PENTAGONE 84:   RIG NAME
SPUD.                                          1979/01/05:   SPUD DATE
LATI.                                       58 52 31.25 N:   SURF. LATITUDE
LONG.                                        1 46 46.27 E:   SURF. LONGITUDE
PBWE.                                              15/3-3:   PB WELL ID
APIN.                                              15/3-3:   PB WELLBORE ID
PBWS.                                                 all:   PB WELL NAME SET
~PARAMETER INFORMATION (log)
LNAM.                              FDC/CNL/GR  COMPOSITED:   NAME
LTYP.                                         DEPTH MATCH:   LOG TYPE
LSRV.                                            DEN/NEUT:   LOG SERVICE
LSOU.                                             SPT/NPD:   LOG SOURCE
LVSN.                                                   1:   LOG VERSION
BHIS.                                                   R:   BRIEF HISTORY
FHIS.                                             RAW-LIS:   FULL HISTORY
LCNM.                                                 SCH:   LOGGING CONTRACTOR
TOOL.                             FDC/CNL/GR (COMPOSITED):   TOOL STRING
~Curve Information Block
#MNEM.UNIT                                        API CODE    No Description
#=========                                        ========    == ===========
DEPT.M                                       00 001 00 00:     1  DEPTH
CALI.IN                                                  :     2  Caliper
DRHO.G/CC                                                :     3  Bulk density correction
GR.GAPI                                                  :     4  Gamma Ray
NPHI.%                                                   :     5  Neutron porosity
RHOB.G/CC                                                :     6  Bulk density
TENS.LB                                                  :     7  Cable Tension
~ASCII
# ...
 4239.2072     8.2198     -.0252    27.7149    12.5702     2.4669   219.0865
 4239.3596     8.0914     -.0321    28.9954    16.7877     2.4054   163.9873
 4239.5120     7.9784     -.0573    29.3038    18.8125     2.3448   140.6141
 4239.6644     7.9204     -.0575    29.0732    19.8579     2.3092   158.2121
 4239.8168     7.9182     -.0640    29.2335    19.9097     2.2931   174.7466
 4239.9692     7.9188     -.0640    30.2262    18.8638     2.3047   176.9697
 4240.1216     7.9215     -.0622    32.4734    18.5622     2.3055   177.1483
 4240.2740     7.9241     -.0544    35.8612    18.9629     2.3235   184.9064
 4240.4264     7.9268     -.0476    40.9281    19.5663     2.3379   180.2146
 4240.5788     7.9294     -.0608    46.4673    20.3081     2.3312   170.3776
 4240.7312     7.9321     -.0561    56.6456    21.2293     2.3259   160.5721
 4240.8836     7.9347     -.0590    63.1396    22.5281     2.3334   159.3100
 4241.0360     7.9467     -.0538    60.0838    24.0592     2.3415   174.4478
 4241.1884     8.0005     -.0605    48.3415    25.7186     2.3401   187.7845
 4241.3408     7.9894     -.0634    39.7923    27.1671     2.3099   181.3076
 4241.4932     7.9359     -.0508    37.5578    25.8780     2.2586   196.4557
 4241.6456     7.8965     -.0531    37.9972    25.2853     2.2120   208.7547
 4241.7980     7.8964     -.0577    38.1643    24.5161     2.2047   190.9740
 4241.9504     7.8963     -.0621    39.2093    23.7941     2.2146   161.0931
 4242.1028     7.8982     -.0641    42.2196    23.5450     2.2238   131.3077
 4242.2552     7.9038     -.0552    45.0578    23.4708     2.2432   139.4104
 4242.4076     7.9094     -.0621    45.5719    23.7516     2.2661   161.4594
 4242.5600     7.9149     -.0505    46.6368    23.8648     2.2922   196.8353
 4242.7124     7.9332     -.0493    49.1566    23.6228     2.3129   217.6191
 4242.8648     7.9530     -.0529    52.3422    22.3839     2.3318   212.8030
 4243.0172     8.0088     -.0470    52.8955    21.0714     2.3590   203.2671
 4243.1696     8.0148     -.0419    53.3923    20.5454     2.3706   189.5528
 4243.3220     7.9327     -.0465    55.5501    18.3214     2.3639   182.2411
 4243.4744     7.9223     -.0441    66.6140    17.8333     2.3943   181.0757
 4243.6268     8.0037     -.0321    80.0404    20.3196     2.4319   181.2547
 4243.7792     8.1062     -.0237    84.8631    24.4677     2.4756   206.3014
 4243.9316     8.2088     -.0347    70.7848    25.9635     2.4666   221.3617
 4244.0840     8.2477     -.0561    55.1913    23.8455     2.4326   208.0618
 4244.2364     8.1166     -.0510    50.4432    22.2413     2.4037   182.0339
 4244.3888     7.9000     -.0572    49.9818    21.0037     2.3523   187.4231
 4244.5412     7.8857     -.0614    54.4668    20.1722     2.3293   192.8295
 4244.6936     7.9187     -.0581    61.1387    19.6480     2.3114   198.2186
 4244.8460     7.9374     -.0531    67.4154    20.0591     2.3119   204.0674
 4244.9984     7.9387     -.0481    70.8551    20.1481     2.3448   211.7332
 4245.1508     7.8906     -.0435    83.7962    18.5835     2.3936   221.5690
 4245.3032     7.8734     -.0377    79.4724    16.4162     2.4075   203.8226
 4245.4556     7.8928     -.0284    75.4451    17.1802     2.4192   184.2074
 4245.6080     7.9524     -.0295    70.1789    19.3183     2.4493   200.1506
 4245.7604     7.9979     -.0382    62.4885    21.1809     2.4581   213.5587
 4245.9128     8.0118     -.0465    54.3241    21.0149     2.4467   213.7368
 4246.0652     8.0028     -.0546    44.6430    19.4935     2.4284   210.3150
 4246.2176     7.9856     -.0594    42.4121    17.9556     2.4151   195.5178
 4246.3700     7.9649     -.0605    44.6956    16.7640     2.3960   188.6454
 4246.5224     7.9306     -.0630    53.8705    17.2791     2.3510   182.5238
 4246.6748     7.9053     -.0664    61.7320    18.1698     2.3266   176.4022
 4246.8272     7.8866     -.0503    73.2666    19.2284     2.3541   168.0080
 4246.9796     7.8935     -.0336    76.9981    20.2871     2.4038   198.1033
 4247.1320     7.9868     -.0198    78.4896    20.5823     2.4455   211.3990
 4247.2844     8.1461     -.0187    81.1742    21.3442     2.4833   200.9541
 4247.4368     8.2324     -.0084    81.7565    21.6574     2.4958   185.1770
 4247.5892     8.2837     -.0089    83.6121    22.5411     2.4826   169.4000
 4247.7416     8.2764     -.0060    91.9412    24.1445     2.4779   204.9855
 4247.8940     8.2881     -.0011   106.8510    24.9979     2.4942   289.7784
 4248.0464     8.3914     -.0140   117.9834    24.8559     2.5022   374.5713
 4248.1988     8.4889     -.0157   119.4685    24.6051     2.5004   405.1220
 4248.3512     8.5066     -.0185   122.9238    24.8215     2.4960   385.8154
 4248.5036     8.5064     -.0197   133.7806    26.7834     2.5043   385.6069
 4248.6560     8.5063     -.0069   135.1193    28.7197     2.5184   385.7811
 4248.8084     8.5061     -.0023   132.9580    28.0507     2.5082   385.9553
 4248.9608     8.5060     -.0072   128.1670    27.5088     2.4935   394.6895
 4249.1132     8.5058     -.0111   117.9606    26.1925     2.5082   446.0856
 4249.2656     8.5057     -.0201   107.0151    24.1371     2.5048   436.5751
 4249.4180     8.5055     -.0273    92.7305    20.5099     2.4736   349.9388
 4249.5704     8.5054     -.0325    74.3591    16.6650     2.4490   257.8660
 4249.7228     8.4760     -.0282    70.5255    12.1304     2.4415   199.9231
 4249.8752     8.4342     -.0364    82.3867    13.0920     2.4303   259.9272
 4250.0276     8.4057     -.0407   111.6482    16.5605     2.4330   228.1142
 4250.1800     8.3113     -.0383   127.7879    19.5454     2.4183   148.9610
 4250.3324     8.1728     -.0223   129.5396    20.5375     2.3944   201.4802
 4250.4848     8.2193     -.0025   126.2145    22.9295     2.4590   297.3572
 4250.6372     8.4338     -.0060   126.3146    24.9378     2.5187   387.1760
 4250.7896     8.5307      .0034   128.3966    24.7024     2.5417   450.4395
 4250.9420     8.5654      .0106   130.8785    24.3894     2.5364   481.3315
 4251.0944     8.5772      .0046   130.2378    25.1680     2.5243   457.2783
 4251.2468     8.5953      .0050   126.3962    25.9397     2.5249   419.7066
 4251.3992     8.6191      .0140   124.7469    25.8483     2.5443   382.9326
 4251.5516     8.6516      .0187   122.0375    25.1471     2.5607   358.8114
 4251.7040     8.6663      .0029   117.4367    24.1996     2.5463   464.0792
 4251.8564     8.6727     -.0136   111.3375    22.9660     2.5307   670.4410
 4252.0088     8.6792     -.0086   109.7629    23.0272     2.5235   876.8031
 4252.1612     8.6856     -.0058   112.8517    24.5311     2.5164   834.6948
 4252.3136     8.6921     -.0041   117.6216    25.4242     2.5273   655.6786
 4252.4660     8.6986     -.0044   118.7366    24.7909     2.5258   476.0886
 4252.6184     8.7038     -.0121   118.9480    24.7074     2.5080   399.6455
 4252.7708     8.7086     -.0165   118.1086    24.7165     2.4863   435.4203
 4252.9232     8.7134     -.0062   117.0750    24.4887     2.5087   466.8973
 4253.0756     8.7181      .0073   114.8279    24.0286     2.5474   456.1232
 4253.2280     8.7229      .0028   111.0766    23.4430     2.5462   455.4458
 4253.3804     8.7277     -.0013   107.2032    22.6996     2.5496   473.4047
 4253.5328     8.7325     -.0013   100.8821    21.7047     2.5435   486.5695
 4253.6852     8.7373      .0026    93.0404    21.9705     2.5129   437.9311
 4253.8376     8.7382      .0044    90.0295    22.8145     2.5051   411.9451
 4253.9900     8.7380     -.0005    92.4634    22.6194     2.5101   444.1300
 4254.1424     8.7378     -.0036    93.0132    21.6274     2.5148   451.0835
 4254.2948     8.7376     -.0042    87.8033    20.3551     2.5281   457.0861
 4254.4472     8.7374     -.0016    82.6302    19.1455     2.5246   466.9821
 4254.5996     8.7372      .0024    79.5469    18.1038     2.5210   464.8415
 4254.7520     8.7370      .0009    80.6629    17.1484     2.5394   448.6991
 4254.9044     8.7368     -.0031    80.1812    16.8206     2.5460   424.7682
