~VERSION INFORMATION
VERS.                                                 2.0:   CWLS Log ASCII Standard-VERSION 2.0
WRAP.                                                  NO:   One line per depth step
~Well Information Block
STRT.M                                           847.3928:   Top Depth
STOP.M                                          5117.4884:   Bottom Depth
STEP.M                                             .15240:   Depth Increment
NULL.                                            -999.250:   Null Value
FLD .                                             WILDCAT:   Field Name
WELL.                                              15/3-3:   NAME
WBN .                                              15/3-3:   WELLBORE
NATI.                                                 NOR:   COUNTRY
CTRY.                                                 NOR:   COUNTRY
COMP.                             ELF AQUITAINE NORGE A/S:   OPERATOR
PROV.                                           NORTH SEA:   PROVINCE
COUN.                                        PENTAGONE 84:   RIG NAME
SPUD.                                          1979/01/05:   SPUD DATE
LATI.                                       58 52 31.25 N:   SURF. LATITUDE
LONG.                                        1 46 46.27 E:   SURF. LONGITUDE
PBWE.                                              15/3-3:   PB WELL ID
APIN.                                              15/3-3:   PB WELLBORE ID
PBWS.                                                 all:   PB WELL NAME SET
~PARAMETER INFORMATION (log)
LNAM.                              FDC/CNL/GR  COMPOSITED:   NAME
LTYP.                                         DEPTH MATCH:   LOG TYPE
LSRV.                                            DEN/NEUT:   LOG SERVICE
LSOU.                                             SPT/NPD:   LOG SOURCE
LVSN.                                                   1:   LOG VERSION
BHIS.                                                   R:   BRIEF HISTORY
FHIS.                                             RAW-LIS:   FULL HISTORY
LCNM.                                                 SCH:   LOGGING CONTRACTOR
TOOL.                             FDC/CNL/GR (COMPOSITED):   TOOL STRING
~Curve Information Block
#MNEM.UNIT                                        API CODE    No Description
#=========                                        ========    == ===========
DEPT.M                                       00 001 00 00:     1  DEPTH
CALI.IN                                                  :     2  Caliper
DRHO.G/CC                                                :     3  Bulk density correction
GR.GAPI                                                  :     4  Gamma Ray
NPHI.%                                                   :     5  Neutron porosity
RHOB.G/CC                                                :     6  Bulk density
TENS.LB                                                  :     7  Cable Tension
~ASCII
# ...
 3399.1784    12.7029      .0033    21.5515  -999.2500     2.6150   978.0078
 3399.3308    12.7047      .0049    21.0378  -999.2500     2.6118   932.0044
 3399.4832    12.6871      .0032    22.9164  -999.2500     2.6161   900.5656
 3399.6356    12.6655     -.0011    23.7300  -999.2500     2.6147   908.0177
 3399.7880    12.6597     -.0074    22.4545  -999.2500     2.6003   904.4139
 3399.9404    12.6668     -.0125    22.2339  -999.2500     2.5864   873.0685
 3400.0928    12.6738     -.0112    23.1002  -999.2500     2.5738   878.3208
 3400.2452    12.6809     -.0030    23.6239  -999.2500     2.5763   909.5273
 3400.3976    12.6879      .0024    23.9638  -999.2500     2.5906   932.3605
 3400.5500    12.6909      .0065    22.7770  -999.2500     2.5973   946.9800
 3400.7024    12.6885      .0071    20.2593  -999.2500     2.5954   943.3363
 3400.8548    12.6846      .0000    19.9077  -999.2500     2.5909   924.3824
 3401.0072    12.6807     -.0018    21.5222  -999.2500     2.5909   903.5032
 3401.1596    12.6767     -.0030    23.4449  -999.2500     2.5876   889.7493
 3401.3120    12.6732     -.0037    26.4038  -999.2500     2.5792   888.2234
 3401.4644    12.6731      .0075    29.2828  -999.2500     2.5886   907.5958
 3401.6168    12.6760      .0129    29.7105  -999.2500     2.5930   945.0673
 3401.7692    12.6789      .0042    28.1379  -999.2500     2.5861   960.6305
 3401.9216    12.6818     -.0015    26.9338  -999.2500     2.5941   945.7714
 3402.0740    12.6847     -.0002    25.5068  -999.2500     2.6074   931.0975
 3402.2264    12.6876      .0004    22.8533  -999.2500     2.6081   930.4122
 3402.3788    12.6900     -.0015    21.4941  -999.2500     2.5927   940.4751
 3402.5312    12.6920     -.0095    23.3742  -999.2500     2.5705   943.3795
 3402.6836    12.6939     -.0129    25.8406  -999.2500     2.5609   933.5649
 3402.8360    12.6959     -.0055    26.6677  -999.2500     2.5670   930.8363
 3402.9884    12.6978     -.0059    26.9195  -999.2500     2.5711   945.3617
 3403.1408    12.6998     -.0136    26.4148  -999.2500     2.5683   964.6061
 3403.2932    12.7017     -.0159    25.4773  -999.2500     2.5679   973.9513
 3403.4456    12.7037     -.0092    25.1756  -999.2500     2.5761   972.7799
 3403.5980    12.7052     -.0006    25.0951  -999.2500     2.5856   969.3857
 3403.7504    12.7055      .0018    24.5308  -999.2500     2.5943   955.7316
 3403.9028    12.7052     -.0010    23.5291  -999.2500     2.5998   933.3602
 3404.0552    12.7048     -.0019    21.6875  -999.2500     2.6083   928.9993
 3404.2076    12.7044      .0012    20.4662  -999.2500     2.6120   945.0298
 3404.3600    12.7041      .0042    21.2167  -999.2500     2.6043   964.5836
 3404.5124    12.7037      .0034    22.7067  -999.2500     2.5936   983.6324
 3404.6648    12.7011     -.0010    24.0043  -999.2500     2.5787   994.0774
 3404.8172    12.6937     -.0046    24.6201  -999.2500     2.5646   987.9966
 3404.9696    12.6836     -.0082    24.6931  -999.2500     2.5593   972.5011
 3405.1220    12.6736     -.0104    24.1178  -999.2500     2.5587   955.5215
 3405.2744    12.6665     -.0126    23.0901  -999.2500     2.5471   938.5131
 3405.4268    12.6683     -.0163    22.5849  -999.2500     2.5402   929.5386
 3405.5792    12.6760     -.0157    23.5775  -999.2500     2.5504   929.1193
 3405.7316    12.6837     -.0100    25.0170  -999.2500     2.5704   929.2550
 3405.8840    12.6914     -.0052    24.8554  -999.2500     2.5857   935.4614
 3406.0364    12.6971     -.0063    23.1752  -999.2500     2.5898   948.0956
 3406.1888    12.6976     -.0059    21.0627  -999.2500     2.5949   952.8923
 3406.3412    12.6948     -.0049    20.1221  -999.2500     2.5951   946.4772
 3406.4936    12.6920     -.0088    20.7741  -999.2500     2.5874   948.5983
 3406.6460    12.6892     -.0123    21.8530  -999.2500     2.5776   957.6738
 3406.7984    12.6864     -.0084    21.6678  -999.2500     2.5765   953.9015
 3406.9508    12.6837      .0007    20.6698  -999.2500     2.5859   940.4828
 3407.1032    12.6809      .0086    20.7849  -999.2500     2.5939   931.7606
 3407.2556    12.6781      .0094    21.5986  -999.2500     2.5860   930.5173
 3407.4080    12.6753      .0082    22.8525  -999.2500     2.5766   934.9304
 3407.5604    12.6725      .0119    24.1998  -999.2500     2.5734   945.8588
 3407.7128    12.6698      .0076    24.5438  -999.2500     2.5623   959.0099
 3407.8652    12.6670     -.0013    24.8390  -999.2500     2.5534   972.1790
 3408.0176    12.6642     -.0004    25.6803  -999.2500     2.5586   974.7408
 3408.1700    12.6614      .0046    25.6865  -999.2500     2.5740   957.6563
 3408.3224    12.6586      .0040    23.1978  -999.2500     2.5909   928.5491
 3408.4748    12.6559     -.0010    19.3942  -999.2500     2.5917   902.1525
 3408.6272    12.6563     -.0023    17.8929  -999.2500     2.5693   896.0183
 3408.7796    12.6605      .0026    18.7447  -999.2500     2.5632   910.7842
 3408.9320    12.6653      .0084    20.0777  -999.2500     2.5792   926.6688
 3409.0844    12.6701      .0074    21.4085  -999.2500     2.5964   936.7159
 3409.2368    12.6748     -.0042    22.7381  -999.2500     2.5969   947.8652
 3409.3892    12.6796     -.0111    22.5109  -999.2500     2.5868   958.2141
 3409.5416    12.6844     -.0053    20.5656  -999.2500     2.5964   959.4926
 3409.6940    12.6892     -.0057    18.4684  -999.2500     2.5979   944.6750
 3409.8464    12.6945     -.0129    17.7233  -999.2500     2.5727   924.5496
 3409.9988    12.7004     -.0133    18.3936  -999.2500     2.5528   914.7794
 3410.1512    12.7062     -.0075    19.1241  -999.2500     2.5564   921.8177
 3410.3036    12.7120     -.0087    19.7832  -999.2500     2.5674   943.1753
 3410.4560    12.7179     -.0163    19.9658  -999.2500     2.5750   970.5713
 3410.6084    12.7237     -.0106    19.6581  -999.2500     2.5852   989.2343
 3410.7608    12.7211     -.0021    19.3692  -999.2500     2.5903   977.0535
 3410.9132    12.7053     -.0020    19.8884  -999.2500     2.5831   943.6877
 3411.0656    12.6755      .0026    21.9284  -999.2500     2.5810   930.7341
 3411.2180    12.6319      .0034    24.1168  -999.2500     2.5810   944.3412
 3411.3704    12.6139     -.0057    24.4463  -999.2500     2.5712   963.6346
 3411.5228    12.6263     -.0185    22.7902  -999.2500     2.5680   973.8470
 3411.6752    12.6386     -.0264    20.7368  -999.2500     2.5690   964.3956
 3411.8276    12.6454     -.0192    20.6036  -999.2500     2.5655   938.2432
 3411.9800    12.6459     -.0061    22.6569  -999.2500     2.5679   923.2991
 3412.1324    12.6455     -.0031    24.5967  -999.2500     2.5771   958.5649
 3412.2848    12.6452     -.0066    24.5684  -999.2500     2.5862  1062.3491
 3412.4372    12.6448     -.0048    22.9262  -999.2500     2.5878  1129.7966
 3412.5896    12.6460      .0007    22.6837  -999.2500     2.5819  1056.4534
 3412.7420    12.6512      .0026    24.4647  -999.2500     2.5808   947.5966
 3412.8944    12.6586      .0000    25.8882  -999.2500     2.5916   913.9231
 3413.0468    12.6660      .0013    25.6997  -999.2500     2.6065   940.1859
 3413.1992    12.6735      .0025    22.6081  -999.2500     2.6105   983.2574
 3413.3516    12.6794     -.0019    19.8956  -999.2500     2.6066  1009.9930
 3413.5040    12.6804     -.0096    19.0377  -999.2500     2.5989  1000.4122
 3413.6564    12.6777     -.0178    17.8222  -999.2500     2.5851   965.7645
 3413.8088    12.6751     -.0168    17.7020  -999.2500     2.5820   931.0176
 3413.9612    12.6724     -.0056    18.8681  -999.2500     2.5898   926.1208
 3414.1136    12.6698      .0032    20.2239  -999.2500     2.5946   936.2249
 3414.2660    12.6671      .0029    21.5362  -999.2500     2.6038   936.3511
 3414.4184    12.6645     -.0015    21.5627  -999.2500     2.6126   951.7584
 3414.5708    12.6618     -.0057    20.8848  -999.2500     2.6010   979.4542
 3414.7232    12.6588     -.0061    21.5991  -999.2500     2.5815   998.6813
 3414.8756    12.6549     -.0019    23.1003  -999.2500     2.5795   992.7971
