~VERSION INFORMATION
VERS.                                                 2.0:   CWLS Log ASCII Standard-VERSION 2.0
WRAP.                                                  NO:   One line per depth step
~Well Information Block
STRT.M                                           398.5748:   Top Depth
STOP.M                                          3794.8088:   Bottom Depth
STEP.M                                             .15240:   Depth Increment
NULL.                                            -999.250:   Null Value
FLD .                                             WILDCAT:   Field Name
WELL.                                              15/9-7:   NAME
WBN .                                              15/9-7:   WELLBORE
NATI.                                                 NOR:   COUNTRY
BHT1.DEGF                                            78.0:   BH TEMP 1
BHT2.DEGF                                            90.0:   BH TEMP 2
BHT3.DEGF                                            91.0:   BH TEMP 3
BS1 .IN                                             17.50:   BIT SIZE 1
CTRY.                                                 NOR:   COUNTRY
CBD1.M                                              181.0:   CSG 1 DRILL DEP
CBL1.M                                              181.0:   CSG 1 LOG DEP
CS1 .IN                                              30.0:   CSG 1 SIZE
COMP.                                             STATOIL:   OPERATOR
PDAT.                                                 MSL:   PERM DATUM
PROV.                                            OFFSHORE:   PROVINCE
COUN.                                    NEPTUNO NORDRAUG:   RIG NAME
SPUD.                                          1980/12/26:   SPUD DATE
LATI.                                       58 22 56.07 N:   SURF. LATITUDE
LONG.                                        1 42 45.99 E:   SURF. LONGITUDE
BTD1.                                             465.0 M:   TOTAL DEPTH 1
BTD2.                                            1185.0 M:   TOTAL DEPTH 2
BTD3.                                            1185.0 M:   TOTAL DEPTH 3
PBWE.                                              15/9-7:   PB WELL ID
APIN.                                              15/9-7:   PB WELLBORE ID
PBWS.                                                 all:   PB WELL NAME SET
~PARAMETER INFORMATION (log)
LNAM.                              FDC/CNL/GR  COMPOSITED:   NAME
LTYP.                                         DEPTH MATCH:   LOG TYPE
LSRV.                                            DEN/NEUT:   LOG SERVICE
LSOU.                                             SPT/NPD:   LOG SOURCE
LVSN.                                                   1:   LOG VERSION
BHIS.                                                   R:   BRIEF HISTORY
FHIS.                                             RAW-LIS:   FULL HISTORY
LCNM.                                        SCHLUMBERGER:   LOGGING CONTRACTOR
TOOL.                             FDC/CNL/GR (COMPOSITED):   TOOL STRING
~Curve Information Block
#MNEM.UNIT                                        API CODE    No Description
#=========                                        ========    == ===========
DEPT.M                                       00 001 00 00:     1  DEPTH
CALI.IN                                                  :     2  Caliper
CS.                                                      :     3  Cable Speed
DRHO.G/CC                                                :     4  Bulk density correction
GR.GAPI                                                  :     5  Gamma Ray
NPHI.%                                                   :     6  Neutron porosity
RHOB.G/CC                                                :     7  Bulk density
TENS.LB                                                  :     8  Cable Tension
~ASCII
# ...
 2881.0184     9.2344  2688.0000     -.0205     7.4805     6.7871     2.5977  3480.0000
 2881.1708     9.2500  2598.0000     -.0210     7.7812     8.3008     2.5898  3460.0000
 2881.3232     9.2891  2544.0000     -.0215     7.7773     9.4727     2.5918  3474.0000
 2881.4756     9.3047  2540.0000     -.0049     7.1602     9.3750     2.6113  3484.0000
 2881.6280     9.3672  2538.0000      .0098     8.3906     7.6172     2.6250  3494.0000
 2881.7804     9.4375  2534.0000      .0244     8.7109     6.3477     2.6250  3490.0000
 2881.9328     9.6641  2526.0000      .0122     8.7031     5.9570     2.6152  3454.0000
 2882.0852     9.5469  2522.0000      .0049     9.6406     6.5430     2.6172  3470.0000
 2882.2376     9.5078  2524.0000      .0376    10.5703     8.7891     2.6523  3490.0000
 2882.3900     9.4766  2524.0000      .0195    13.3828    13.1348     2.6211  3534.0000
 2882.5424     9.8594  2524.0000      .0229    13.6719    16.1621     2.5801  3540.0000
 2882.6948     9.3828  2528.0000      .0234    15.8594    17.1387     2.5605  3514.0000
 2882.8472     9.3672  2526.0000      .0254    16.5000    16.3574     2.5078  3480.0000
 2882.9996     9.3906  2526.0000      .0005    14.6641    18.7500     2.4844  3460.0000
 2883.1520     9.4375  2528.0000     -.0161    12.4922    21.0938     2.5000  3464.0000
 2883.3044     9.3437  2530.0000     -.0107     9.0625    19.4824     2.5879  3434.0000
 2883.4568     9.3281  2528.0000      .0073     8.7812    14.5508     2.6680  3450.0000
 2883.6092     9.3203  2528.0000      .0010     7.5664    10.6934     2.6523  3490.0000
 2883.7616     9.3047  2530.0000      .0024     6.9375     9.4238     2.6367  3504.0000
 2883.9140     9.2734  2530.0000     -.0010     5.9648     8.7402     2.5977  3490.0000
 2884.0664     9.2109  2534.0000      .0220     5.9258     9.0332     2.6133  3534.0000
 2884.2188     9.1953  2532.0000      .0112     6.8398     9.7656     2.6055  3530.0000
 2884.3712     9.1953  2532.0000      .0146     6.2187     9.3262     2.6250  3540.0000
 2884.5236     9.2031  2536.0000     -.0039     5.6016     8.4961     2.6113  3490.0000
 2884.6760     9.2031  2536.0000      .0063     5.3008     8.2031     2.6230  3454.0000
 2884.8284     9.2031  2532.0000     -.0024     7.1680     8.4961     2.6113  3394.0000
 2884.9808     9.1953  2528.0000     -.0020     7.4687     8.8867     2.6035  3430.0000
 2885.1332     9.1797  2526.0000      .0039     6.8437     8.9844     2.6094  3450.0000
 2885.2856     9.1484  2526.0000     -.0005     7.1641     8.7402     2.6133  3510.0000
 2885.4380     9.1406  2524.0000     -.0015     7.4844     8.3496     2.6250  3500.0000
 2885.5904     9.1172  2528.0000     -.0063     9.0391     7.5195     2.5918  3540.0000
 2885.7428     9.1016  2524.0000      .0020     8.7266     8.7402     2.5723  3530.0000
 2885.8952     9.1016  2528.0000      .0020     9.6719     9.5703     2.5527  3504.0000
 2886.0476     9.1250  2528.0000     -.0020     9.3672    11.1816     2.5664  3450.0000
 2886.2000     9.1484  2524.0000     -.0088    10.6172    11.3770     2.5664  3400.0000
 2886.3524     9.1484  2526.0000     -.0083    10.6328    11.7188     2.5684  3404.0000
 2886.5048     9.1484  2528.0000     -.0083    11.0000    11.8164     2.5566  3440.0000
 2886.6572     9.1484  2530.0000     -.0034    10.4219    10.8398     2.5742  3444.0000
 2886.8096     9.1484  2532.0000      .0093     9.4609     9.8145     2.5996  3470.0000
 2886.9620     9.1484  2532.0000     -.0005     9.0937     9.7656     2.5996  3480.0000
 2887.1144     9.1406  2534.0000      .0142     8.4219    10.0586     2.6367  3520.0000
 2887.2668     9.1406  2536.0000     -.0088     8.1094    10.1563     2.6172  3554.0000
 2887.4192     9.1250  2536.0000     -.0039     7.8047     9.0820     2.6348  3560.0000
 2887.5716     9.1250  2538.0000     -.0063     8.1016     9.4727     2.5918  3544.0000
 2887.7240     9.1172  2534.0000      .0112     8.4062    10.5469     2.6055  3490.0000
 2887.8764     9.1172  2532.0000      .0010     8.0937    11.3281     2.5801  3460.0000
 2888.0288     9.1172  2526.0000     -.0010     7.4727    10.3516     2.5977  3444.0000
 2888.1812     9.0937  2524.0000     -.0044     7.4727     8.8379     2.6172  3464.0000
 2888.3336     9.0937  2524.0000      .0049     8.3984     7.6660     2.6367  3470.0000
 2888.4860     9.1016  2528.0000      .0020     9.9687     8.4961     2.6426  3480.0000
 2888.6384     9.1328  2526.0000      .0112    10.6016     9.9609     2.6387  3460.0000
 2888.7908     9.1328  2526.0000      .0107     9.9844    11.4258     2.6328  3450.0000
 2888.9432     9.1328  2528.0000      .0122     8.4219    10.4980     2.6367  3444.0000
 2889.0956     9.1328  2528.0000      .0098     8.1094     9.3262     2.6172  3480.0000
 2889.2480     9.1328  2530.0000      .0078     7.8008     8.4961     2.6133  3524.0000
 2889.4004     9.1406  2530.0000      .0010     7.8242     9.4238     2.5937  3560.0000
 2889.5528     9.1484  2532.0000      .0024     7.8672    10.3027     2.6016  3524.0000
 2889.7052     9.1406  2534.0000     -.0034     7.9102    10.1563     2.6035  3530.0000
 2889.8576     9.1406  2538.0000      .0020     7.8789     9.3750     2.6016  3514.0000
 2890.0100     9.1719  2536.0000     -.0010     7.8242     9.3750     2.5977  3510.0000
 2890.1624     9.1719  2536.0000     -.0044     8.3984     9.8145     2.5859  3524.0000
 2890.3148     9.1797  2534.0000     -.0083     8.3906    10.5469     2.5879  3490.0000
 2890.4672     9.1797  2534.0000     -.0088     7.4687    10.5957     2.5996  3444.0000
 2890.6196     9.1562  2538.0000     -.0015     6.8437    10.0586     2.6211  3404.0000
 2890.7720     9.1484  2534.0000     -.0073     7.1562     9.1309     2.6094  3430.0000
 2890.9244     9.1484  2528.0000     -.0029     8.3984     8.2031     2.6191  3484.0000
 2891.0768     9.1484  2526.0000      .0034     9.0312     8.9355     2.6250  3550.0000
 2891.2292     9.1484  2524.0000      .0239     8.7344     9.8145     2.6602  3560.0000
 2891.3816     9.1484  2526.0000      .0337     8.4219     9.1797     2.6758  3550.0000
 2891.5340     9.1484  2524.0000      .0063     8.4062     7.8613     2.6289  3504.0000
 2891.6864     9.1406  2528.0000     -.0034     9.3359     7.2754     2.6289  3500.0000
 2891.8388     9.1484  2524.0000     -.0176     8.4062     7.9590     2.6348  3460.0000
 2891.9912     9.1406  2528.0000     -.0132     7.8086     7.3730     2.6836  3460.0000
 2892.1436     9.1250  2526.0000     -.0024     7.8242     6.7871     2.6875  3460.0000
 2892.2960     9.1250  2528.0000      .0308     9.6953     6.6895     2.6973  3494.0000
 2892.4484     9.1328  2528.0000      .0420    11.3125     9.0332     2.6738  3464.0000
 2892.6008     9.1406  2530.0000      .0112    11.3594    10.1074     2.6309  3494.0000
 2892.7532     9.1484  2528.0000     -.0024    10.4531    10.2051     2.5937  3494.0000
 2892.9056     9.1484  2534.0000     -.0132     9.4609     9.7656     2.5742  3530.0000
 2893.0580     9.1484  2534.0000     -.0039     8.7812     9.3750     2.5918  3524.0000
 2893.2104     9.1406  2536.0000      .0029     8.4219     9.6191     2.6035  3514.0000
 2893.3628     9.1484  2534.0000      .0176     7.4766     8.9844     2.6348  3484.0000
 2893.5152     9.1406  2538.0000      .0059     7.4648     8.7891     2.6113  3474.0000
 2893.6676     9.1484  2540.0000     -.0078     8.0859     8.5449     2.6191  3510.0000
 2893.8200     9.1562  2538.0000     -.0078     8.4062     8.6426     2.6270  3530.0000
 2893.9724     9.1797  2530.0000     -.0063     9.0234     8.2520     2.6270  3544.0000
 2894.1248     9.1797  2526.0000     -.0039     8.7187     8.6426     2.6094  3524.0000
 2894.2772     9.1719  2528.0000     -.0107     8.1016     8.8867     2.5879  3514.0000
 2894.4296     9.1328  2526.0000     -.0093     7.4805     9.4238     2.5957  3464.0000
 2894.5820     9.0937  2528.0000     -.0039     7.1641     8.4961     2.6074  3484.0000
 2894.7344     9.0703  2530.0000     -.0015     8.4141     7.7637     2.6133  3450.0000
