~VERSION INFORMATION
VERS.                                                 2.0:   CWLS Log ASCII Standard-VERSION 2.0
WRAP.                                                  NO:   One line per depth step
~Well Information Block
STRT.M                                           398.5748:   Top Depth
STOP.M                                          3794.8088:   Bottom Depth
STEP.M                                             .15240:   Depth Increment
NULL.                                            -999.250:   Null Value
FLD .                                             WILDCAT:   Field Name
WELL.                                              15/9-7:   NAME
WBN .                                              15/9-7:   WELLBORE
NATI.                                                 NOR:   COUNTRY
BHT1.DEGF                                            78.0:   BH TEMP 1
BHT2.DEGF                                            90.0:   BH TEMP 2
BHT3.DEGF                                            91.0:   BH TEMP 3
BS1 .IN                                             17.50:   BIT SIZE 1
CTRY.                                                 NOR:   COUNTRY
CBD1.M                                              181.0:   CSG 1 DRILL DEP
CBL1.M                                              181.0:   CSG 1 LOG DEP
CS1 .IN                                              30.0:   CSG 1 SIZE
COMP.                                             STATOIL:   OPERATOR
PDAT.                                                 MSL:   PERM DATUM
PROV.                                            OFFSHORE:   PROVINCE
COUN.                                    NEPTUNO NORDRAUG:   RIG NAME
SPUD.                                          1980/12/26:   SPUD DATE
LATI.                                       58 22 56.07 N:   SURF. LATITUDE
LONG.                                        1 42 45.99 E:   SURF. LONGITUDE
BTD1.                                             465.0 M:   TOTAL DEPTH 1
BTD2.                                            1185.0 M:   TOTAL DEPTH 2
BTD3.                                            1185.0 M:   TOTAL DEPTH 3
PBWE.                                              15/9-7:   PB WELL ID
APIN.                                              15/9-7:   PB WELLBORE ID
PBWS.                                                 all:   PB WELL NAME SET
~PARAMETER INFORMATION (log)
LNAM.                              FDC/CNL/GR  COMPOSITED:   NAME
LTYP.                                         DEPTH MATCH:   LOG TYPE
LSRV.                                            DEN/NEUT:   LOG SERVICE
LSOU.                                             SPT/NPD:   LOG SOURCE
LVSN.                                                   1:   LOG VERSION
BHIS.                                                   R:   BRIEF HISTORY
FHIS.                                             RAW-LIS:   FULL HISTORY
LCNM.                                        SCHLUMBERGER:   LOGGING CONTRACTOR
TOOL.                             FDC/CNL/GR (COMPOSITED):   TOOL STRING
~Curve Information Block
#MNEM.UNIT                                        API CODE    No Description
#=========                                        ========    == ===========
DEPT.M                                       00 001 00 00:     1  DEPTH
CALI.IN                                                  :     2  Caliper
CS.                                                      :     3  Cable Speed
DRHO.G/CC                                                :     4  Bulk density correction
GR.GAPI                                                  :     5  Gamma Ray
NPHI.%                                                   :     6  Neutron porosity
RHOB.G/CC                                                :     7  Bulk density
TENS.LB                                                  :     8  Cable Tension
~ASCII
# ...
 2659.1240    13.0375  2298.0000      .1050    51.0937  -999.2500     2.2715  3994.0000
 2659.2764    12.8891  2296.0000      .0864    51.5312  -999.2500     2.2129  4044.0000
 2659.4288    12.9203  2294.0000      .0977    51.9063  -999.2500     2.1504  4034.0000
 2659.5812    13.4281  2294.0000      .0449    52.1875  -999.2500     2.0723  4030.0000
 2659.7336    13.9750  2294.0000      .0493    51.5625  -999.2500     2.1172  3934.0000
 2659.8860    12.1078  2294.0000      .0142    51.4688  -999.2500     2.1660  3954.0000
 2660.0384    12.1859  2294.0000      .0796    52.0312  -999.2500     2.2539  3980.0000
 2660.1908    12.7250  2296.0000      .1035    53.2188  -999.2500     2.2520  4024.0000
 2660.3432    13.1547  2296.0000      .1504    53.8125  -999.2500     2.2187  3990.0000
 2660.4956    13.4281  2296.0000      .1045    54.0938  -999.2500     2.1523  3930.0000
 2660.6480    13.3266  2298.0000      .1255    57.2500  -999.2500     2.1465  3990.0000
 2660.8004    13.1859  2298.0000      .1074    58.5625  -999.2500     2.1152  4020.0000
 2660.9528    13.3734  2300.0000      .1162    57.0000  -999.2500     2.1133  4030.0000
 2661.1052    14.5141  2302.0000      .1528    55.4063  -999.2500     2.0605  3990.0000
 2661.2576    13.3500  2304.0000      .1128    53.1563  -999.2500     1.9404  3990.0000
 2661.4100    14.0453  2306.0000      .0928    53.2812  -999.2500     1.8848  4014.0000
 2661.5624    13.7250  2306.0000      .0269    48.8438  -999.2500     1.8809  4004.0000
 2661.7148    12.3656  2308.0000      .0156    47.6250  -999.2500     1.9863  3930.0000
 2661.8672    12.0219  2310.0000      .0142    43.1250  -999.2500     2.0820  3934.0000
 2662.0196    12.0219  2312.0000     -.0010    37.9375  -999.2500     2.1270  4004.0000
 2662.1720    12.0375  2310.0000      .0029    31.2500  -999.2500     2.1582  4064.0000
 2662.3244    12.0219  2310.0000      .0044    29.0312  -999.2500     2.1562  4060.0000
 2662.4768    12.0375  2310.0000      .0352    31.2969  -999.2500     2.1426  3994.0000
 2662.6292    12.7484  2310.0000      .1460    37.3125  -999.2500     2.1934  3950.0000
 2662.7816    14.0922  2308.0000      .2275    45.0313  -999.2500     2.1816  3960.0000
 2662.9340    15.6156  2310.0000      .2212    51.7187  -999.2500     2.0312  3930.0000
 2663.0864    14.4438  2308.0000      .0957    53.4062  -999.2500     1.8467  3914.0000
 2663.2388    12.2797  2308.0000      .0151    51.3750  -999.2500     1.8145  3954.0000
 2663.3912    12.0141  2308.0000      .0093    50.3750  -999.2500     1.9570  4000.0000
 2663.5436    12.7484  2308.0000      .1152    47.7812  -999.2500     2.1387  4030.0000
 2663.6960    13.3266  2308.0000      .1895    48.0937  -999.2500     2.1074  4054.0000
 2663.8484    14.3734  2308.0000      .1821    48.1563  -999.2500     1.9668  3970.0000
 2664.0008    14.8578  2308.0000      .0786    52.5938  -999.2500     1.7861  3964.0000
 2664.1532    13.8031  2310.0000      .0078    51.9063  -999.2500     1.7461  3954.0000
 2664.3056    13.0922  2310.0000      .0278    51.2500  -999.2500     1.8652  4010.0000
 2664.4580    14.3813  2312.0000      .0801    49.3750  -999.2500     2.0371  4014.0000
 2664.6104    13.2797  2312.0000      .1001    53.2812  -999.2500     2.0625  4080.0000
 2664.7628    13.1547  2310.0000      .0132    51.4062  -999.2500     2.0059  3970.0000
 2664.9152    12.7563  2312.0000     -.0020    51.7187  -999.2500     2.0703  3980.0000
 2665.0676    12.5453  2312.0000      .0015    45.6875  -999.2500     2.1797  4030.0000
 2665.2200    12.1078  2312.0000      .0000    43.8438  -999.2500     2.2148  4050.0000
 2665.3724    11.9984  2310.0000      .0034    40.3438  -999.2500     2.2207  4030.0000
 2665.5248    11.9984  2308.0000      .0098    40.9688  -999.2500     2.2227  3970.0000
 2665.6772    12.0141  2308.0000      .0723    46.9063  -999.2500     2.2129  3980.0000
 2665.8296    12.5609  2306.0000      .1416    50.4063  -999.2500     2.1465  3934.0000
 2665.9820    14.0609  2306.0000      .1860    53.8438  -999.2500     2.0469  3940.0000
 2666.1344    14.4047  2306.0000      .1753    57.0000  -999.2500     1.9590  3960.0000
 2666.2868    14.1625  2306.0000      .1235    62.6250  -999.2500     1.8984  3960.0000
 2666.4392    14.6547  2308.0000      .1133    68.3750  -999.2500     1.9170  3970.0000
 2666.5916    14.4750  2308.0000      .1133    67.1250  -999.2500     1.9180  4014.0000
 2666.7440    13.9750  2308.0000      .0708    65.3125  -999.2500     1.8877  4040.0000
 2666.8964    12.4906  2310.0000      .0117    60.0000  -999.2500     1.8779  4050.0000
 2667.0488    12.0453  2312.0000     -.0044    51.0625  -999.2500     1.9971  4044.0000
 2667.2012    12.0219  2312.0000      .0098    41.7187  -999.2500     2.1348  4050.0000
 2667.3536    11.9672  2314.0000      .0312    35.9062  -999.2500     2.2266  3960.0000
 2667.5060    11.9672  2314.0000      .0078    36.3125  -999.2500     2.2109  3950.0000
 2667.6584    12.0141  2312.0000      .0083    35.7188  -999.2500     2.1973  3960.0000
 2667.8108    12.1391  2314.0000      .0879    39.0625  -999.2500     2.2148  4000.0000
 2667.9632    13.3500  2312.0000      .1592    43.5313  -999.2500     2.1758  4004.0000
 2668.1156    13.9750  2312.0000      .2158    52.6250  -999.2500     2.0859  3990.0000
 2668.2680    13.2563  2312.0000      .1147    53.2812  -999.2500     1.9287  3940.0000
 2668.4204    12.6156  2310.0000      .0269    49.7188  -999.2500     1.8652  3924.0000
 2668.5728    11.9516  2310.0000     -.0068    43.5937  -999.2500     1.9717  3980.0000
 2668.7252    11.9281  2310.0000      .0054    41.5312  -999.2500     2.1191  4004.0000
 2668.8776    11.9438  2308.0000      .0264    42.1250  -999.2500     2.2129  3990.0000
 2669.0300    12.0453  2308.0000      .0054    42.6562  -999.2500     2.1934  4010.0000
 2669.1824    12.0844  2308.0000      .0117    42.6562  -999.2500     2.2012  4014.0000
 2669.3348    12.3031  2308.0000      .0137    45.2188  -999.2500     2.2246  3974.0000
 2669.4872    12.5141  2308.0000      .0015    45.8750  -999.2500     2.2578  3960.0000
 2669.6396    12.4672  2308.0000      .0122    45.8438  -999.2500     2.3320  3964.0000
 2669.7920    12.0219  2308.0000      .0352    42.6875  -999.2500     2.2930  4034.0000
 2669.9444    12.4672  2308.0000      .1001    41.3750  -999.2500     2.1445  4050.0000
 2670.0968    14.3813  2310.0000      .0801    42.6250  -999.2500     1.9619  4034.0000
 2670.2492    14.2719  2310.0000      .1392    47.0625  -999.2500     1.9600  3940.0000
 2670.4016    15.7484  2312.0000      .1030    53.5000  -999.2500     1.9160  3960.0000
 2670.5540    13.8500  2312.0000      .1191    57.4687  -999.2500     1.9717  3980.0000
 2670.7064    14.1547  2312.0000      .1050    58.4688  -999.2500     1.9912  4014.0000
 2670.8588    14.5141  2312.0000      .1133    56.8437  -999.2500     2.0391  4020.0000
 2671.0112    13.8500  2312.0000      .1597    59.3750  -999.2500     2.1191  4034.0000
 2671.1636    13.6859  2312.0000      .1523    58.8750  -999.2500     2.1191  4000.0000
 2671.3160    15.4516  2308.0000      .1641    55.7812  -999.2500     2.1582  4014.0000
 2671.4684    15.8734  2308.0000      .1641    50.4063  -999.2500     2.1387  3984.0000
 2671.6208    14.5375  2306.0000      .1641    47.5313  -999.2500     2.1133  3974.0000
 2671.7732    15.1625  2306.0000      .1528    44.9375  -999.2500     2.0762  3990.0000
 2671.9256    15.7953  2306.0000      .1182    44.5312  -999.2500     2.0293  3990.0000
 2672.0780    13.9516  2306.0000      .0898    43.4688  -999.2500     2.0391  4044.0000
 2672.2304    13.5141  2308.0000      .1792    44.3125  -999.2500     2.1191  4024.0000
 2672.3828    14.5609  2310.0000      .1743    43.6250  -999.2500     2.0723  4070.0000
 2672.5352    15.7484  2312.0000      .1572    46.4688  -999.2500     2.0312  4050.0000
 2672.6876    16.2719  2312.0000      .1372    49.2813  -999.2500     2.0215  4040.0000
 2672.8400    16.4437  2312.0000      .1738    49.6562  -999.2500     2.0645  4014.0000
