~VERSION INFORMATION
VERS.                                                 2.0:   CWLS Log ASCII Standard-VERSION 2.0
WRAP.                                                  NO:   One line per depth step
~Well Information Block
STRT.M                                           398.5748:   Top Depth
STOP.M                                          3794.8088:   Bottom Depth
STEP.M                                             .15240:   Depth Increment
NULL.                                            -999.250:   Null Value
FLD .                                             WILDCAT:   Field Name
WELL.                                              15/9-7:   NAME
WBN .                                              15/9-7:   WELLBORE
NATI.                                                 NOR:   COUNTRY
BHT1.DEGF                                            78.0:   BH TEMP 1
BHT2.DEGF                                            90.0:   BH TEMP 2
BHT3.DEGF                                            91.0:   BH TEMP 3
BS1 .IN                                             17.50:   BIT SIZE 1
CTRY.                                                 NOR:   COUNTRY
CBD1.M                                              181.0:   CSG 1 DRILL DEP
CBL1.M                                              181.0:   CSG 1 LOG DEP
CS1 .IN                                              30.0:   CSG 1 SIZE
COMP.                                             STATOIL:   OPERATOR
PDAT.                                                 MSL:   PERM DATUM
PROV.                                            OFFSHORE:   PROVINCE
COUN.                                    NEPTUNO NORDRAUG:   RIG NAME
SPUD.                                          1980/12/26:   SPUD DATE
LATI.                                       58 22 56.07 N:   SURF. LATITUDE
LONG.                                        1 42 45.99 E:   SURF. LONGITUDE
BTD1.                                             465.0 M:   TOTAL DEPTH 1
BTD2.                                            1185.0 M:   TOTAL DEPTH 2
BTD3.                                            1185.0 M:   TOTAL DEPTH 3
PBWE.                                              15/9-7:   PB WELL ID
APIN.                                              15/9-7:   PB WELLBORE ID
PBWS.                                                 all:   PB WELL NAME SET
~PARAMETER INFORMATION (log)
LNAM.                              FDC/CNL/GR  COMPOSITED:   NAME
LTYP.                                         DEPTH MATCH:   LOG TYPE
LSRV.                                            DEN/NEUT:   LOG SERVICE
LSOU.                                             SPT/NPD:   LOG SOURCE
LVSN.                                                   1:   LOG VERSION
BHIS.                                                   R:   BRIEF HISTORY
FHIS.                                             RAW-LIS:   FULL HISTORY
LCNM.                                        SCHLUMBERGER:   LOGGING CONTRACTOR
TOOL.                             FDC/CNL/GR (COMPOSITED):   TOOL STRING
~Curve Information Block
#MNEM.UNIT                                        API CODE    No Description
#=========                                        ========    == ===========
DEPT.M                                       00 001 00 00:     1  DEPTH
CALI.IN                                                  :     2  Caliper
CS.                                                      :     3  Cable Speed
DRHO.G/CC                                                :     4  Bulk density correction
GR.GAPI                                                  :     5  Gamma Ray
NPHI.%                                                   :     6  Neutron porosity
RHOB.G/CC                                                :     7  Bulk density
TENS.LB                                                  :     8  Cable Tension
~ASCII
# ...
  856.2320    18.3906  1791.0000      .0361    55.5625  -999.2500     2.1270  1220.0000
  856.3844    18.3594  1793.0000      .0420    48.5313  -999.2500     2.1211  1220.0000
  856.5368    18.1719  1794.0000      .0229    42.2500  -999.2500     2.0977  1230.0000
  856.6892    18.1406  1795.0000      .0117    35.9375  -999.2500     2.0762  1220.0000
  856.8416    18.0313  1796.0000      .0078    28.8281  -999.2500     2.0586  1225.0000
  856.9940    17.7500  1797.0000      .0229    26.4375  -999.2500     2.0625  1220.0000
  857.1464    17.7031  1798.0000      .0171    26.1719  -999.2500     2.0566  1220.0000
  857.2988    17.7188  1797.0000      .0151    27.1875  -999.2500     2.0566  1210.0000
  857.4512    17.7188  1796.0000      .0044    26.6406  -999.2500     2.0527  1210.0000
  857.6036    17.7344  1792.0000      .0186    24.5313  -999.2500     2.0781  1225.0000
  857.7560    17.7344  1789.0000      .0122    25.3594  -999.2500     2.0723  1195.0000
  857.9084    17.7500  1788.0000      .0142    25.4219  -999.2500     2.0703  1220.0000
  858.0608    17.7500  1787.0000     -.0005    25.7656  -999.2500     2.0508  1210.0000
  858.2132    17.7500  1787.0000      .0034    26.1250  -999.2500     2.0605  1215.0000
  858.3656    17.7500  1788.0000      .0015    24.1094  -999.2500     2.0586  1225.0000
  858.5180    17.7500  1788.0000      .0015    25.2812  -999.2500     2.0566  1215.0000
  858.6704    17.7500  1788.0000     -.0024    24.5000  -999.2500     2.0391  1205.0000
  858.8228    17.7500  1791.0000     -.0024    24.7188  -999.2500     2.0352  1180.0000
  858.9752    17.7500  1792.0000     -.0034    23.2344  -999.2500     2.0254  1230.0000
  859.1276    17.7500  1792.0000      .0024    20.7813  -999.2500     2.0332  1195.0000
  859.2800    17.7500  1794.0000      .0112    21.5156  -999.2500     2.0371  1225.0000
  859.4324    17.7500  1795.0000      .0244    24.4063  -999.2500     2.0469  1230.0000
  859.5848    17.7500  1796.0000      .0181    25.9531  -999.2500     2.0371  1225.0000
  859.7372    17.7344  1797.0000      .0186    25.6875  -999.2500     2.0352  1195.0000
  859.8896    17.7188  1797.0000      .0132    23.0313  -999.2500     2.0352  1205.0000
  860.0420    17.6875  1796.0000      .0137    23.0625  -999.2500     2.0352  1210.0000
  860.1944    17.6875  1797.0000      .0098    22.8125  -999.2500     2.0352  1225.0000
  860.3468    17.6875  1797.0000      .0137    23.0937  -999.2500     2.0430  1210.0000
  860.4992    17.6875  1798.0000      .0200    23.3438  -999.2500     2.0469  1225.0000
  860.6516    17.6875  1797.0000      .0186    23.6094  -999.2500     2.0430  1195.0000
  860.8040    17.7188  1796.0000      .0103    23.1094  -999.2500     2.0234  1210.0000
  860.9564    17.7188  1793.0000      .0010    22.6250  -999.2500     2.0156  1215.0000
  861.1088    17.7188  1790.0000      .0000    23.4375  -999.2500     2.0195  1200.0000
  861.2612    17.7188  1787.0000      .0024    24.2500  -999.2500     2.0391  1215.0000
  861.4136    17.7188  1786.0000      .0107    25.3125  -999.2500     2.0547  1210.0000
  861.5660    17.7188  1785.0000      .0234    25.9375  -999.2500     2.0742  1200.0000
  861.7184    17.7344  1785.0000      .0269    26.8125  -999.2500     2.0781  1215.0000
  861.8708    17.7500  1785.0000      .0186    27.4531  -999.2500     2.0703  1225.0000
  862.0232    17.7500  1785.0000     -.0010    25.8281  -999.2500     2.0488  1195.0000
  862.1756    17.7500  1786.0000     -.0034    23.9375  -999.2500     2.0430  1210.0000
  862.3280    17.7813  1786.0000     -.0034    21.9688  -999.2500     2.0488  1235.0000
  862.4804    17.7813  1786.0000      .0049    21.6250  -999.2500     2.0547  1220.0000
  862.6328    17.7813  1786.0000      .0034    22.3594  -999.2500     2.0566  1220.0000
  862.7852    17.7813  1786.0000      .0063    24.1875  -999.2500     2.0469  1220.0000
  862.9376    17.7813  1787.0000      .0112    25.7500  -999.2500     2.0527  1210.0000
  863.0900    17.7813  1788.0000      .0127    26.5312  -999.2500     2.0527  1210.0000
  863.2424    17.7813  1789.0000      .0195    26.2969  -999.2500     2.0664  1225.0000
  863.3948    17.7813  1791.0000      .0068    25.7969  -999.2500     2.0488  1215.0000
  863.5472    17.7813  1793.0000      .0005    24.2188  -999.2500     2.0391  1205.0000
  863.6996    17.7813  1795.0000      .0000    22.9063  -999.2500     2.0312  1240.0000
  863.8520    17.7813  1796.0000     -.0005    22.6406  -999.2500     2.0273  1200.0000
  864.0044    17.7813  1798.0000      .0083    24.2031  -999.2500     2.0332  1220.0000
  864.1568    17.7500  1797.0000      .0039    24.4375  -999.2500     2.0352  1210.0000
  864.3092    17.7500  1797.0000      .0112    24.7188  -999.2500     2.0469  1210.0000
  864.4616    17.7500  1795.0000      .0000    25.0156  -999.2500     2.0371  1215.0000
  864.6140    17.7656  1791.0000     -.0029    24.2656  -999.2500     2.0332  1210.0000
  864.7664    17.7500  1789.0000     -.0073    24.0312  -999.2500     2.0234  1245.0000
  864.9188    17.7500  1787.0000      .0020    24.0469  -999.2500     2.0293  1190.0000
  865.0712    17.7188  1788.0000      .0132    25.9844  -999.2500     2.0293  1220.0000
  865.2236    17.7188  1788.0000      .0215    26.0781  -999.2500     2.0391  1230.0000
  865.3760    17.7344  1788.0000      .0117    25.9531  -999.2500     2.0293  1200.0000
  865.5284    17.7500  1788.0000      .0190    24.5938  -999.2500     2.0430  1225.0000
  865.6808    17.7656  1790.0000      .0132    25.0781  -999.2500     2.0352  1220.0000
  865.8332    17.7656  1791.0000      .0049    23.8594  -999.2500     2.0156  1210.0000
  865.9856    17.7500  1792.0000     -.0010    23.7344  -999.2500     2.0039  1225.0000
  866.1380    17.7656  1793.0000      .0142    25.2344  -999.2500     2.0117  1220.0000
  866.2904    17.7500  1794.0000      .0234    26.7969  -999.2500     2.0176  1215.0000
  866.4428    17.7500  1795.0000      .0161    27.8594  -999.2500     2.0137  1205.0000
  866.5952    17.7500  1797.0000     -.0029    25.1719  -999.2500     2.0059  1230.0000
  866.7476    17.7500  1798.0000     -.0020    23.0625  -999.2500     2.0254  1205.0000
  866.9000    17.7500  1799.0000     -.0010    21.2187  -999.2500     2.0254  1205.0000
  867.0524    17.7656  1800.0000      .0044    21.5469  -999.2500     2.0293  1220.0000
  867.2048    17.7500  1801.0000      .0044    20.4844  -999.2500     2.0234  1220.0000
  867.3572    17.7500  1801.0000      .0034    22.3594  -999.2500     2.0234  1220.0000
  867.5096    17.7656  1802.0000      .0010    22.5938  -999.2500     2.0137  1210.0000
  867.6620    17.7500  1800.0000      .0029    25.2656  -999.2500     2.0156  1230.0000
  867.8144    17.7500  1798.0000     -.0010    25.5313  -999.2500     2.0098  1210.0000
  867.9668    17.7500  1796.0000      .0029    27.6875  -999.2500     2.0215  1210.0000
  868.1192    17.7500  1794.0000      .0083    26.8906  -999.2500     2.0195  1235.0000
  868.2716    17.7500  1792.0000      .0103    27.4375  -999.2500     2.0195  1215.0000
  868.4240    17.7500  1792.0000      .0020    25.0938  -999.2500     2.0098  1210.0000
  868.5764    17.7500  1793.0000     -.0024    25.7031  -999.2500     2.0078  1235.0000
  868.7288    17.7188  1793.0000     -.0039    25.2656  -999.2500     2.0215  1210.0000
  868.8812    17.7188  1794.0000      .0034    26.6406  -999.2500     2.0352  1210.0000
  869.0336    17.7344  1795.0000      .0029    25.7813  -999.2500     2.0508  1230.0000
  869.1860    17.7344  1795.0000      .0107    23.8594  -999.2500     2.0605  1205.0000
  869.3384    17.7188  1796.0000      .0039    21.8906  -999.2500     2.0469  1235.0000
  869.4908    17.7188  1796.0000      .0088    20.7656  -999.2500     2.0430  1225.0000
  869.6432    17.7344  1796.0000      .0020    20.9844  -999.2500     2.0371  1220.0000
  869.7956    17.7344  1797.0000      .0010    23.0625  -999.2500     2.0371  1205.0000
  869.9480    17.7344  1798.0000     -.0005    24.9063  -999.2500     2.0449  1225.0000
