~VERSION INFORMATION
VERS.                                                 2.0:   CWLS Log ASCII Standard-VERSION 2.0
WRAP.                                                  NO:   One line per depth step
~Well Information Block
STRT.M                                           398.5748:   Top Depth
STOP.M                                          3794.8088:   Bottom Depth
STEP.M                                             .15240:   Depth Increment
NULL.                                            -999.250:   Null Value
FLD .                                             WILDCAT:   Field Name
WELL.                                              15/9-7:   NAME
WBN .                                              15/9-7:   WELLBORE
NATI.                                                 NOR:   COUNTRY
BHT1.DEGF                                            78.0:   BH TEMP 1
BHT2.DEGF                                            90.0:   BH TEMP 2
BHT3.DEGF                                            91.0:   BH TEMP 3
BS1 .IN                                             17.50:   BIT SIZE 1
CTRY.                                                 NOR:   COUNTRY
CBD1.M                                              181.0:   CSG 1 DRILL DEP
CBL1.M                                              181.0:   CSG 1 LOG DEP
CS1 .IN                                              30.0:   CSG 1 SIZE
COMP.                                             STATOIL:   OPERATOR
PDAT.                                                 MSL:   PERM DATUM
PROV.                                            OFFSHORE:   PROVINCE
COUN.                                    NEPTUNO NORDRAUG:   RIG NAME
SPUD.                                          1980/12/26:   SPUD DATE
LATI.                                       58 22 56.07 N:   SURF. LATITUDE
LONG.                                        1 42 45.99 E:   SURF. LONGITUDE
BTD1.                                             465.0 M:   TOTAL DEPTH 1
BTD2.                                            1185.0 M:   TOTAL DEPTH 2
BTD3.                                            1185.0 M:   TOTAL DEPTH 3
PBWE.                                              15/9-7:   PB WELL ID
APIN.                                              15/9-7:   PB WELLBORE ID
PBWS.                                                 all:   PB WELL NAME SET
~PARAMETER INFORMATION (log)
LNAM.                              FDC/CNL/GR  COMPOSITED:   NAME
LTYP.                                         DEPTH MATCH:   LOG TYPE
LSRV.                                            DEN/NEUT:   LOG SERVICE
LSOU.                                             SPT/NPD:   LOG SOURCE
LVSN.                                                   1:   LOG VERSION
BHIS.                                                   R:   BRIEF HISTORY
FHIS.                                             RAW-LIS:   FULL HISTORY
LCNM.                                        SCHLUMBERGER:   LOGGING CONTRACTOR
TOOL.                             FDC/CNL/GR (COMPOSITED):   TOOL STRING
~Curve Information Block
#MNEM.UNIT                                        API CODE    No Description
#=========                                        ========    == ===========
DEPT.M                                       00 001 00 00:     1  DEPTH
CALI.IN                                                  :     2  Caliper
CS.                                                      :     3  Cable Speed
DRHO.G/CC                                                :     4  Bulk density correction
GR.GAPI                                                  :     5  Gamma Ray
NPHI.%                                                   :     6  Neutron porosity
RHOB.G/CC                                                :     7  Bulk density
TENS.LB                                                  :     8  Cable Tension
~ASCII
# ...
 3782.4644     8.0469  2308.0000     -.0825    22.3281    13.1836     2.2168  3754.0000
 3782.6168     8.0469  2310.0000     -.0708    20.8438    13.4766     2.2363  3714.0000
 3782.7692     8.0469  2310.0000     -.0757    20.8281    13.9648     2.2266  3740.0000
 3782.9216     8.0469  2312.0000     -.0796    20.5469    13.1348     2.2324  3754.0000
 3783.0740     8.0469  2314.0000     -.0933    21.1406    12.9883     2.2148  3780.0000
 3783.2264     8.0391  2314.0000     -.0850    21.4375    12.1094     2.2344  3730.0000
 3783.3788     8.0391  2314.0000     -.0757    22.0156    12.6465     2.2441  3720.0000
 3783.5312     8.0391  2312.0000     -.0684    21.4375    12.4512     2.2559  3704.0000
 3783.6836     8.0391  2312.0000     -.0640    22.2813    12.6953     2.2617  3714.0000
 3783.8360     8.0391  2310.0000     -.0688    22.8438    12.4512     2.2461  3704.0000
 3783.9884     8.0391  2310.0000     -.0723    23.1406    12.3535     2.2363  3724.0000
 3784.1408     8.0391  2308.0000     -.0811    23.1250    11.7676     2.2246  3754.0000
 3784.2932     8.0391  2306.0000     -.0728    22.2969    12.0117     2.2578  3760.0000
 3784.4456     8.0391  2306.0000     -.0649    23.2344    12.1094     2.2676  3734.0000
 3784.5980     8.0234  2306.0000     -.0630    23.5938    12.6465     2.2734  3714.0000
 3784.7504     8.0234  2310.0000     -.0713    23.6250    12.5000     2.2559  3664.0000
 3784.9028     8.0234  2308.0000     -.0742    22.1562    12.9883     2.2422  3660.0000
 3785.0552     8.0234  2310.0000     -.0781    21.5625    13.5742     2.2383  3674.0000
 3785.2076     8.0234  2310.0000     -.0684    21.8125    13.7207     2.2480  3654.0000
 3785.3600     8.0234  2310.0000     -.0576    24.0781    13.4277     2.2676  3684.0000
 3785.5124     8.0234  2310.0000     -.0435    23.7813    12.7930     2.2773  3670.0000
 3785.6648     8.0234  2308.0000     -.0557    23.6719    12.9395     2.2617  3724.0000
 3785.8172     8.0234  2310.0000     -.0674    23.0469    12.6465     2.2559  3730.0000
 3785.9696     8.0234  2310.0000     -.0732    22.7500    12.9883     2.2578  3770.0000
 3786.1220     8.0234  2312.0000     -.0737    23.1094    13.4277     2.2559  3744.0000
 3786.2744     8.0234  2314.0000     -.0645    20.3438    12.9883     2.2656  3690.0000
 3786.4268     8.0234  2314.0000     -.0610    21.8125    12.8418     2.2617  3610.0000
 3786.5792     8.0234  2314.0000     -.0532    22.3594    12.4512     2.2734  3590.0000
 3786.7316     8.0234  2312.0000     -.0518    22.6094    13.0859     2.2773  3550.0000
 3786.8840     8.0234  2312.0000     -.0591    19.7344    13.3789     2.2812  3570.0000
 3787.0364     8.0234  2310.0000     -.0552    17.2188    12.9883     2.2852  3600.0000
 3787.1888     8.0234  2310.0000     -.0635    17.2188    12.6465     2.2734  3680.0000
 3787.3412     8.0234  2308.0000     -.0552    17.2188    12.5488     2.2734  3700.0000
 3787.4936     8.0234  2310.0000     -.0596    17.2188    12.5488     2.2695  3764.0000
 3787.6460     8.0234  2312.0000     -.0576    17.2188    12.7441     2.2715  3704.0000
 3787.7984     8.0234  2314.0000     -.0601    17.2188    12.9395     2.2676  3700.0000
 3787.9508     8.0234  2312.0000     -.0615    17.2188    13.5254     2.2598  3650.0000
 3788.1032     8.0234  2312.0000     -.0586    17.2188    14.1113     2.2520  3634.0000
 3788.2556     8.0156  2314.0000     -.0605    17.2188    13.8672     2.2500  3550.0000
 3788.4080     8.0156  2314.0000     -.0688    17.2188    14.2090     2.2441  3544.0000
 3788.5604     8.0156  2314.0000     -.0771    17.2188    13.8672     2.2500  3544.0000
 3788.7128     8.0156  2314.0000     -.0757    17.2188    13.2813     2.2598  3614.0000
 3788.8652     8.0156  2314.0000     -.0645    17.2188    12.7930     2.2852  3650.0000
 3789.0176     8.0156  2314.0000     -.0562    17.2188    12.5977     2.2754  3644.0000
 3789.1700     8.0156  2314.0000     -.0596    17.2188    12.9883     2.2617  3620.0000
 3789.3224     8.0156  2314.0000     -.0601    17.2188    12.7930     2.2480  3584.0000
 3789.4748     8.0000  2312.0000     -.0640    17.2188    13.0859     2.2578  3574.0000
 3789.6272     8.0000  2312.0000     -.0781    17.2188    13.1836     2.2402  3560.0000
 3789.7796     8.0000  2310.0000     -.0776    17.2188    13.1836     2.2422  3564.0000
 3789.9320     8.0000  2312.0000     -.0859    17.2188    13.1836     2.2305  3594.0000
 3790.0844     8.0000  2314.0000     -.0801    17.2188    13.1836     2.2441  3600.0000
 3790.2368     8.0000  2314.0000     -.0850    17.2188    13.1836     2.2422  3580.0000
 3790.3892     8.0000  2314.0000     -.0703    17.2188    13.1836     2.2578  3584.0000
 3790.5416     8.0000  2316.0000     -.0625    17.2188    13.1836     2.2559  3570.0000
 3790.6940     8.0000  2318.0000     -.0669    17.2188    13.1836     2.2480  3594.0000
 3790.8464     8.0000  2318.0000     -.0811    17.2188    13.1836     2.2285  3594.0000
 3790.9988     8.0000  2320.0000     -.0908    17.2188    13.1836     2.2285  3580.0000
 3791.1512     8.0000  2324.0000     -.0894    17.2188    13.1836     2.2305  3530.0000
 3791.3036     8.0000  2326.0000     -.0757    17.2188    13.1836     2.2480  3500.0000
 3791.4560     8.0000  2328.0000     -.0640    17.2188    13.1836     2.2578  3504.0000
 3791.6084     8.0000  2330.0000     -.0679    17.2188    13.1836     2.2598  3570.0000
 3791.7608     8.0000  2330.0000     -.0723    17.2188    13.1836     2.2617  3574.0000
 3791.9132     8.0000  2332.0000     -.0801    17.2188    13.1836     2.2461  3554.0000
 3792.0656     8.0000  2334.0000     -.0596    17.2188    13.1836     2.2617  3550.0000
 3792.2180     8.0000  2334.0000     -.0664    17.2188    13.1836     2.2461  3540.0000
 3792.3704     7.9805  2334.0000     -.0571    17.2188    13.2324     2.2695  3540.0000
 3792.5228     7.9883  2334.0000     -.0625    17.2188    13.1836     2.2598  3480.0000
 3792.6752     7.9727  2336.0000     -.0586    17.2188    13.2324     2.2617  3480.0000
 3792.8276     7.9727  2340.0000     -.0557    17.2188    13.2324     2.2617  3484.0000
 3792.9800     7.9727  2344.0000     -.0649    17.2188    13.2324     2.2637  3470.0000
 3793.1324     7.9727  2348.0000     -.0532    17.2188    13.2324     2.2734  3434.0000
 3793.2848     7.9727  2352.0000     -.0625    17.2188    13.2324     2.2656  3424.0000
 3793.4372     7.9727  2358.0000     -.0547    17.2188    13.2324     2.2617  3460.0000
 3793.5896     7.9727  2364.0000     -.0566    17.2188    13.2324     2.2676  3534.0000
 3793.7420     7.9727  2370.0000     -.0503    17.2188    13.2324     2.2598  3574.0000
 3793.8944     7.9727  2378.0000     -.0557    17.2188    13.2324     2.2520  3554.0000
 3794.0468     7.9648  2386.0000     -.0654    17.2188    13.2324     2.2383  3540.0000
 3794.1992     7.9648  2398.0000     -.0718    17.2188    13.2324     2.2344  3564.0000
 3794.3516     7.9648  2408.0000     -.0718    17.2188    13.2324     2.2344  3534.0000
 3794.5040     7.9648  2422.0000     -.0718    17.2188    13.2324     2.2344  3510.0000
 3794.6564     7.9648  2438.0000     -.0718    17.2188    13.2324     2.2344  3444.0000
 3794.8088  -999.2500  2452.0000     -.0718    17.2188    13.2324     2.2344  3344.0000
