~VERSION INFORMATION
VERS.                                                 2.0:   CWLS Log ASCII Standard-VERSION 2.0
WRAP.                                                  NO:   One line per depth step
~Well Information Block
STRT.M                                           398.5748:   Top Depth
STOP.M                                          3794.8088:   Bottom Depth
STEP.M                                             .15240:   Depth Increment
NULL.                                            -999.250:   Null Value
FLD .                                             WILDCAT:   Field Name
WELL.                                              15/9-7:   NAME
WBN .                                              15/9-7:   WELLBORE
NATI.                                                 NOR:   COUNTRY
BHT1.DEGF                                            78.0:   BH TEMP 1
BHT2.DEGF                                            90.0:   BH TEMP 2
BHT3.DEGF                                            91.0:   BH TEMP 3
BS1 .IN                                             17.50:   BIT SIZE 1
CTRY.                                                 NOR:   COUNTRY
CBD1.M                                              181.0:   CSG 1 DRILL DEP
CBL1.M                                              181.0:   CSG 1 LOG DEP
CS1 .IN                                              30.0:   CSG 1 SIZE
COMP.                                             STATOIL:   OPERATOR
PDAT.                                                 MSL:   PERM DATUM
PROV.                                            OFFSHORE:   PROVINCE
COUN.                                    NEPTUNO NORDRAUG:   RIG NAME
SPUD.                                          1980/12/26:   SPUD DATE
LATI.                                       58 22 56.07 N:   SURF. LATITUDE
LONG.                                        1 42 45.99 E:   SURF. LONGITUDE
BTD1.                                             465.0 M:   TOTAL DEPTH 1
BTD2.                                            1185.0 M:   TOTAL DEPTH 2
BTD3.                                            1185.0 M:   TOTAL DEPTH 3
PBWE.                                              15/9-7:   PB WELL ID
APIN.                                              15/9-7:   PB WELLBORE ID
PBWS.                                                 all:   PB WELL NAME SET
~PARAMETER INFORMATION (log)
LNAM.                              FDC/CNL/GR  COMPOSITED:   NAME
LTYP.                                         DEPTH MATCH:   LOG TYPE
LSRV.                                            DEN/NEUT:   LOG SERVICE
LSOU.                                             SPT/NPD:   LOG SOURCE
LVSN.                                                   1:   LOG VERSION
BHIS.                                                   R:   BRIEF HISTORY
FHIS.                                             RAW-LIS:   FULL HISTORY
LCNM.                                        SCHLUMBERGER:   LOGGING CONTRACTOR
TOOL.                             FDC/CNL/GR (COMPOSITED):   TOOL STRING
~Curve Information Block
#MNEM.UNIT                                        API CODE    No Description
#=========                                        ========    == ===========
DEPT.M                                       00 001 00 00:     1  DEPTH
CALI.IN                                                  :     2  Caliper
CS.                                                      :     3  Cable Speed
DRHO.G/CC                                                :     4  Bulk density correction
GR.GAPI                                                  :     5  Gamma Ray
NPHI.%                                                   :     6  Neutron porosity
RHOB.G/CC                                                :     7  Bulk density
TENS.LB                                                  :     8  Cable Tension
~ASCII
# ...
 2201.4668    12.7563  2980.0000      .0645    44.5312  -999.2500     2.6152  3424.0000
 2201.6192    12.8969  2980.0000      .0889    55.6563  -999.2500     2.4570  3440.0000
 2201.7716    13.0375  2982.0000      .0342    61.5312  -999.2500     2.2676  3440.0000
 2201.9240    13.2328  2982.0000      .0400    62.3750  -999.2500     2.2305  3440.0000
 2202.0764    12.7094  2984.0000      .0562    54.9687  -999.2500     2.2129  3430.0000
 2202.2288    12.6078  2984.0000      .0669    43.7813  -999.2500     2.1953  3454.0000
 2202.3812    12.7797  2984.0000      .0571    37.2188  -999.2500     2.1445  3504.0000
 2202.5336    12.8734  2984.0000      .0391    32.6563  -999.2500     2.0918  3504.0000
 2202.6860    12.6859  2984.0000      .0098    30.2188  -999.2500     2.0469  3470.0000
 2202.8384    12.6078  2984.0000      .0024    26.9219  -999.2500     2.0508  3404.0000
 2202.9908    12.5219  2984.0000      .0029    26.5625  -999.2500     2.0859  3430.0000
 2203.1432    12.4750  2980.0000      .0264    28.2188  -999.2500     2.1504  3460.0000
 2203.2956    12.6078  2978.0000      .0747    32.8750  -999.2500     2.2363  3480.0000
 2203.4480    12.8891  2976.0000      .1157    42.1562  -999.2500     2.2910  3480.0000
 2203.6004    12.9672  2976.0000      .1025    53.5937  -999.2500     2.2656  3440.0000
 2203.7528    12.9984  2974.0000      .0293    60.3438  -999.2500     2.1641  3414.0000
 2203.9052    13.1625  2976.0000      .0010    61.0313  -999.2500     2.1094  3394.0000
 2204.0576    13.0453  2976.0000      .0068    61.1563  -999.2500     2.1152  3404.0000
 2204.2100    13.6156  2978.0000      .0303    59.3437  -999.2500     2.1387  3414.0000
 2204.3624    13.3813  2976.0000      .0278    62.5625  -999.2500     2.1504  3454.0000
 2204.5148    13.2797  2978.0000      .0342    61.3438  -999.2500     2.1660  3490.0000
 2204.6672    13.3031  2978.0000      .0146    63.6875  -999.2500     2.1445  3440.0000
 2204.8196    13.2953  2980.0000      .0342    57.9687  -999.2500     2.1660  3490.0000
 2204.9720    13.7094  2980.0000      .0303    58.2812  -999.2500     2.1797  3470.0000
 2205.1244    13.4516  2982.0000      .0430    56.7500  -999.2500     2.2227  3490.0000
 2205.2768    13.2563  2982.0000      .0327    59.9063  -999.2500     2.2168  3470.0000
 2205.4292    13.2719  2984.0000      .0254    59.6562  -999.2500     2.1934  3480.0000
 2205.5816    13.4516  2984.0000      .0347    57.0938  -999.2500     2.1934  3450.0000
 2205.7340    13.1859  2984.0000      .0225    59.3437  -999.2500     2.1797  3440.0000
 2205.8864    13.1859  2984.0000      .0166    55.5625  -999.2500     2.1680  3470.0000
 2206.0388    13.3031  2984.0000      .0137    60.6563  -999.2500     2.1387  3500.0000
 2206.1912    13.2094  2982.0000      .0410    60.2500  -999.2500     2.1602  3480.0000
 2206.3436    13.2250  2980.0000      .0400    65.3750  -999.2500     2.1562  3460.0000
 2206.4960    13.2250  2976.0000      .0435    61.3750  -999.2500     2.1621  3440.0000
 2206.6484    13.2484  2972.0000      .0176    54.8750  -999.2500     2.1328  3450.0000
 2206.8008    13.2328  2974.0000      .0239    53.2188  -999.2500     2.1465  3434.0000
 2206.9532    13.1547  2974.0000      .0156    54.2813  -999.2500     2.1465  3414.0000
 2207.1056    13.1391  2976.0000      .0225    56.9063  -999.2500     2.1504  3430.0000
 2207.2580    13.1391  2976.0000      .0029    55.9688  -999.2500     2.1270  3450.0000
 2207.4104    13.2953  2978.0000      .0269    54.6250  -999.2500     2.1465  3480.0000
 2207.5628    13.3188  2980.0000     -.0146    49.6562  -999.2500     2.1914  3480.0000
 2207.7152    13.5453  2982.0000     -.0156    40.8750  -999.2500     2.3555  3450.0000
 2207.8676    13.5141  2982.0000      .0215    35.1250  -999.2500     2.6270  3450.0000
 2208.0200    13.7563  2984.0000      .1479    40.0313  -999.2500     2.6406  3464.0000
 2208.1724    14.0844  2986.0000      .1196    50.0313  -999.2500     2.4043  3480.0000
 2208.3248    13.8813  2986.0000      .0068    54.5312  -999.2500     2.2480  3490.0000
 2208.4772    13.5453  2988.0000     -.0327    50.8750  -999.2500     2.3027  3454.0000
 2208.6296    13.4516  2990.0000      .0063    46.7187  -999.2500     2.5410  3470.0000
 2208.7820    13.4984  2992.0000      .1338    46.8750  -999.2500     2.6113  3490.0000
 2208.9344    13.6859  2992.0000      .1514    50.5937  -999.2500     2.4180  3514.0000
 2209.0868    13.7953  2992.0000      .0928    55.6875  -999.2500     2.2148  3494.0000
 2209.2392    13.7563  2994.0000      .0439    59.4063  -999.2500     2.1055  3480.0000
 2209.3916    13.8578  2994.0000      .0381    60.3438  -999.2500     2.1055  3450.0000
 2209.5440    14.0609  2990.0000      .0498    56.1875  -999.2500     2.1113  3440.0000
 2209.6964    14.0453  2986.0000      .0381    54.1875  -999.2500     2.0957  3444.0000
 2209.8488    14.2563  2982.0000      .0200    53.0000  -999.2500     2.0605  3434.0000
 2210.0012    14.4750  2982.0000      .0112    53.8438  -999.2500     2.0664  3440.0000
 2210.1536    14.5844  2982.0000      .0161    52.9375  -999.2500     2.0684  3454.0000
 2210.3060    14.7250  2982.0000      .0352    51.9063  -999.2500     2.0879  3464.0000
 2210.4584    14.7719  2982.0000      .0244    55.5625  -999.2500     2.0703  3484.0000
 2210.6108    14.9047  2982.0000      .0156    58.7500  -999.2500     2.0625  3484.0000
 2210.7632    14.9672  2984.0000      .0098    62.9375  -999.2500     2.0645  3500.0000
 2210.9156    14.9750  2984.0000      .0239    60.7812  -999.2500     2.0840  3510.0000
 2211.0680    14.9438  2986.0000      .0161    58.7813  -999.2500     2.0703  3480.0000
 2211.2204    14.9984  2986.0000      .0127    57.5313  -999.2500     2.0645  3480.0000
 2211.3728    14.9203  2990.0000      .0117    54.6562  -999.2500     2.0566  3474.0000
 2211.5252    14.8344  2990.0000      .0352    54.2187  -999.2500     2.0840  3464.0000
 2211.6776    14.7953  2992.0000      .0225    54.2187  -999.2500     2.0605  3470.0000
 2211.8300    14.7250  2990.0000      .0264    55.4687  -999.2500     2.0781  3484.0000
 2211.9824    14.7328  2992.0000      .0244    53.4375  -999.2500     2.0801  3470.0000
 2212.1348    14.7328  2992.0000      .0371    50.5937  -999.2500     2.1094  3464.0000
 2212.2872    14.3500  2992.0000      .0264    50.2812  -999.2500     2.0957  3434.0000
 2212.4396    14.3031  2992.0000      .0186    53.5937  -999.2500     2.0840  3430.0000
 2212.5920    14.4984  2988.0000      .0220    52.9375  -999.2500     2.0762  3400.0000
 2212.7444    14.5453  2982.0000      .0352    51.2813  -999.2500     2.0703  3420.0000
 2212.8968    14.4516  2978.0000      .0293    50.3125  -999.2500     2.0586  3470.0000
 2213.0492    14.6859  2978.0000      .0361    51.0937  -999.2500     2.0625  3500.0000
 2213.2016    14.4984  2978.0000      .0254    52.8750  -999.2500     2.0625  3470.0000
 2213.3540    14.3734  2978.0000      .0327    50.8750  -999.2500     2.0742  3460.0000
 2213.5064    14.2328  2978.0000      .0249    50.8125  -999.2500     2.0801  3450.0000
 2213.6588    14.3031  2980.0000      .0244    50.9688  -999.2500     2.0820  3500.0000
 2213.8112    14.0922  2982.0000      .0479    53.8750  -999.2500     2.0996  3530.0000
 2213.9636    14.2484  2982.0000      .0361    52.0625  -999.2500     2.0840  3500.0000
 2214.1160    14.4984  2984.0000      .0327    51.7813  -999.2500     2.0645  3450.0000
 2214.2684    14.7563  2984.0000      .0205    45.9375  -999.2500     2.0547  3424.0000
 2214.4208    14.5375  2988.0000      .0498    49.3125  -999.2500     2.0762  3430.0000
 2214.5732    14.0922  2988.0000      .0518    49.1875  -999.2500     2.0840  3464.0000
 2214.7256    13.9047  2990.0000      .0405    54.2813  -999.2500     2.0664  3510.0000
 2214.8780    14.0609  2990.0000      .0264    52.6250  -999.2500     2.0703  3510.0000
 2215.0304    14.4438  2990.0000      .0371    50.6563  -999.2500     2.0859  3484.0000
 2215.1828    14.5844  2990.0000      .0547    48.9062  -999.2500     2.1211  3440.0000
