~VERSION INFORMATION
VERS.                                                 2.0:   CWLS Log ASCII Standard-VERSION 2.0
WRAP.                                                  NO:   One line per depth step
~Well Information Block
STRT.M                                           398.5748:   Top Depth
STOP.M                                          3794.8088:   Bottom Depth
STEP.M                                             .15240:   Depth Increment
NULL.                                            -999.250:   Null Value
FLD .                                             WILDCAT:   Field Name
WELL.                                              15/9-7:   NAME
WBN .                                              15/9-7:   WELLBORE
NATI.                                                 NOR:   COUNTRY
BHT1.DEGF                                            78.0:   BH TEMP 1
BHT2.DEGF                                            90.0:   BH TEMP 2
BHT3.DEGF                                            91.0:   BH TEMP 3
BS1 .IN                                             17.50:   BIT SIZE 1
CTRY.                                                 NOR:   COUNTRY
CBD1.M                                              181.0:   CSG 1 DRILL DEP
CBL1.M                                              181.0:   CSG 1 LOG DEP
CS1 .IN                                              30.0:   CSG 1 SIZE
COMP.                                             STATOIL:   OPERATOR
PDAT.                                                 MSL:   PERM DATUM
PROV.                                            OFFSHORE:   PROVINCE
COUN.                                    NEPTUNO NORDRAUG:   RIG NAME
SPUD.                                          1980/12/26:   SPUD DATE
LATI.                                       58 22 56.07 N:   SURF. LATITUDE
LONG.                                        1 42 45.99 E:   SURF. LONGITUDE
BTD1.                                             465.0 M:   TOTAL DEPTH 1
BTD2.                                            1185.0 M:   TOTAL DEPTH 2
BTD3.                                            1185.0 M:   TOTAL DEPTH 3
PBWE.                                              15/9-7:   PB WELL ID
APIN.                                              15/9-7:   PB WELLBORE ID
PBWS.                                                 all:   PB WELL NAME SET
~PARAMETER INFORMATION (log)
LNAM.                              FDC/CNL/GR  COMPOSITED:   NAME
LTYP.                                         DEPTH MATCH:   LOG TYPE
LSRV.                                            DEN/NEUT:   LOG SERVICE
LSOU.                                             SPT/NPD:   LOG SOURCE
LVSN.                                                   1:   LOG VERSION
BHIS.                                                   R:   BRIEF HISTORY
FHIS.                                             RAW-LIS:   FULL HISTORY
LCNM.                                        SCHLUMBERGER:   LOGGING CONTRACTOR
TOOL.                             FDC/CNL/GR (COMPOSITED):   TOOL STRING
~Curve Information Block
#MNEM.UNIT                                        API CODE    No Description
#=========                                        ========    == ===========
DEPT.M                                       00 001 00 00:     1  DEPTH
CALI.IN                                                  :     2  Caliper
CS.                                                      :     3  Cable Speed
DRHO.G/CC                                                :     4  Bulk density correction
GR.GAPI                                                  :     5  Gamma Ray
NPHI.%                                                   :     6  Neutron porosity
RHOB.G/CC                                                :     7  Bulk density
TENS.LB                                                  :     8  Cable Tension
~ASCII
# ...
 2423.3612    15.6156  2886.0000      .1558    54.0625  -999.2500     2.1426  3760.0000
 2423.5136    15.5453  2886.0000      .2109    53.3438  -999.2500     2.1699  3690.0000
 2423.6660    15.9047  2886.0000      .1274    51.2187  -999.2500     2.0449  3660.0000
 2423.8184    15.8344  2886.0000      .1167    50.1250  -999.2500     2.0234  3654.0000
 2423.9708    16.2094  2888.0000      .1147    51.5938  -999.2500     2.0547  3740.0000
 2424.1232    15.9672  2888.0000      .1318    51.1875  -999.2500     2.0664  3764.0000
 2424.2756    15.8188  2890.0000      .1152    53.2188  -999.2500     2.0547  3774.0000
 2424.4280    15.3734  2890.0000      .1362    50.3438  -999.2500     2.0937  3730.0000
 2424.5804    15.5609  2892.0000      .1465    51.2500  -999.2500     2.1289  3690.0000
 2424.7328    15.5375  2894.0000      .1616    48.7813  -999.2500     2.1348  3700.0000
 2424.8852    15.5609  2892.0000      .1436    50.8125  -999.2500     2.1152  3680.0000
 2425.0376    15.6313  2894.0000      .1377    48.3750  -999.2500     2.1289  3674.0000
 2425.1900    16.1937  2894.0000      .1694    48.4062  -999.2500     2.1758  3724.0000
 2425.3424    16.0844  2892.0000      .1763    49.0312  -999.2500     2.1523  3740.0000
 2425.4948    16.5531  2892.0000      .1855    49.0625  -999.2500     2.1035  3720.0000
 2425.6472    16.3500  2890.0000      .1641    49.5625  -999.2500     2.0449  3700.0000
 2425.7996    15.4906  2890.0000      .1460    47.8750  -999.2500     2.0449  3710.0000
 2425.9520    15.5922  2886.0000      .1611    48.3750  -999.2500     2.1094  3734.0000
 2426.1044    15.7250  2886.0000      .1841    51.5312  -999.2500     2.1719  3770.0000
 2426.2568    15.7563  2886.0000      .2236    51.8125  -999.2500     2.1797  3760.0000
 2426.4092    15.9906  2888.0000      .1562    51.6563  -999.2500     2.0898  3714.0000
 2426.5616    15.7484  2886.0000      .1509    49.1875  -999.2500     2.0898  3694.0000
 2426.7140    15.4438  2888.0000      .1431    46.8125  -999.2500     2.1113  3720.0000
 2426.8664    15.5453  2888.0000      .1968    46.0000  -999.2500     2.1621  3724.0000
 2427.0188    15.5219  2888.0000      .1768    42.8438  -999.2500     2.1270  3754.0000
 2427.1712    16.2406  2888.0000      .1670    46.0000  -999.2500     2.1191  3750.0000
 2427.3236    16.3812  2886.0000      .1890    47.2813  -999.2500     2.1504  3730.0000
 2427.4760    15.8344  2886.0000      .2036    47.9687  -999.2500     2.1523  3740.0000
 2427.6284    16.0375  2886.0000      .1763    44.9063  -999.2500     2.0957  3704.0000
 2427.7808    16.3187  2886.0000      .1289    45.1875  -999.2500     2.0469  3700.0000
 2427.9332    15.9516  2886.0000      .1396    46.0000  -999.2500     2.0762  3680.0000
 2428.0856    15.3734  2888.0000      .1626    50.7812  -999.2500     2.0918  3750.0000
 2428.2380    15.4516  2886.0000      .1357    52.4063  -999.2500     2.0664  3770.0000
 2428.3904    15.3578  2886.0000      .0991    53.4062  -999.2500     2.0488  3744.0000
 2428.5428    15.8344  2888.0000      .1172    51.3438  -999.2500     2.0957  3694.0000
 2428.6952    16.2719  2886.0000      .1851    50.2500  -999.2500     2.1582  3700.0000
 2428.8476    16.2250  2884.0000      .2231    50.5937  -999.2500     2.1582  3770.0000
 2429.0000    16.2250  2882.0000      .1938    49.0938  -999.2500     2.0957  3774.0000
 2429.1524    16.5844  2880.0000      .1572    47.1562  -999.2500     2.0781  3794.0000
 2429.3048    15.8188  2880.0000      .1416    47.0312  -999.2500     2.0918  3710.0000
 2429.4572    16.3500  2882.0000      .1289    45.4063  -999.2500     2.0898  3670.0000
 2429.6096    15.7328  2880.0000      .1187    46.9063  -999.2500     2.0605  3700.0000
 2429.7620    16.5219  2882.0000      .1172    46.6250  -999.2500     2.0781  3760.0000
 2429.9144    16.1469  2880.0000      .1421    50.5937  -999.2500     2.1738  3764.0000
 2430.0668    16.2406  2880.0000      .1855    52.5938  -999.2500     2.2344  3774.0000
 2430.2192    16.3344  2882.0000      .1533    54.5000  -999.2500     2.1348  3730.0000
 2430.3716    16.7719  2882.0000      .1309    53.6875  -999.2500     2.0039  3730.0000
 2430.5240    16.0219  2884.0000      .1250    52.0625  -999.2500     1.9600  3700.0000
 2430.6764    15.9750  2884.0000      .1313    54.0938  -999.2500     1.9629  3694.0000
 2430.8288    16.0922  2886.0000      .1304    57.2500  -999.2500     2.0215  3720.0000
 2430.9812    15.9672  2888.0000      .1353    58.7500  -999.2500     2.0801  3740.0000
 2431.1336    15.7719  2888.0000      .1162    55.1875  -999.2500     2.1074  3730.0000
 2431.2860    15.5609  2890.0000      .1270    51.6563  -999.2500     2.1484  3690.0000
 2431.4384    15.7250  2886.0000      .0967    51.7813  -999.2500     2.1289  3720.0000
 2431.5908    16.0375  2888.0000      .1479    54.1875  -999.2500     2.1895  3750.0000
 2431.7432    16.3187  2886.0000      .1401    52.6250  -999.2500     2.1738  3800.0000
 2431.8956    16.4750  2884.0000      .1440    52.3125  -999.2500     2.1641  3770.0000
 2432.0480    16.3187  2882.0000      .1274    48.7187  -999.2500     2.1348  3724.0000
 2432.2004    16.1000  2880.0000      .1060    49.2500  -999.2500     2.1113  3664.0000
 2432.3528    16.4906  2880.0000      .1523    50.2500  -999.2500     2.1523  3684.0000
 2432.5052    16.3500  2882.0000      .1475    53.4688  -999.2500     2.1328  3744.0000
 2432.6576    16.1000  2882.0000      .1543    54.4375  -999.2500     2.1191  3804.0000
 2432.8100    15.8266  2882.0000      .1411    54.8125  -999.2500     2.1113  3754.0000
 2432.9624    15.8578  2882.0000      .1426    53.5937  -999.2500     2.1074  3760.0000
 2433.1148    16.2719  2882.0000      .1274    53.1875  -999.2500     2.1094  3704.0000
 2433.2672    16.1625  2884.0000      .1431    51.2813  -999.2500     2.1230  3710.0000
 2433.4196    16.4125  2882.0000      .1685    52.0312  -999.2500     2.1211  3680.0000
 2433.5720    16.2719  2884.0000      .1836    52.5000  -999.2500     2.0898  3690.0000
 2433.7244    15.9672  2884.0000      .0952    49.7188  -999.2500     1.9990  3740.0000
 2433.8768    15.5219  2886.0000      .0112    46.8750  -999.2500     1.9854  3730.0000
 2434.0292    15.5922  2888.0000     -.0137    44.4688  -999.2500     2.1152  3730.0000
 2434.1816    15.3578  2888.0000      .0679    41.6563  -999.2500     2.3242  3730.0000
 2434.3340    14.7719  2890.0000      .1611    41.3125  -999.2500     2.4062  3734.0000
 2434.4864    16.0453  2888.0000      .2534    40.9062  -999.2500     2.3340  3764.0000
 2434.6388    15.3578  2890.0000      .1880    44.6562  -999.2500     2.1758  3770.0000
 2434.7912    15.1625  2888.0000      .1738    45.8125  -999.2500     2.1133  3764.0000
 2434.9436    15.4516  2888.0000      .1167    47.1562  -999.2500     2.0898  3690.0000
 2435.0960    15.4047  2888.0000      .0767    47.4687  -999.2500     2.0977  3704.0000
 2435.2484    15.3188  2884.0000      .1104    45.9375  -999.2500     2.1875  3714.0000
 2435.4008    15.0688  2886.0000      .1162    46.0937  -999.2500     2.1914  3770.0000
 2435.5532    15.4984  2884.0000      .1260    46.7813  -999.2500     2.1602  3760.0000
 2435.7056    15.2484  2884.0000      .1196    47.0625  -999.2500     2.1289  3764.0000
 2435.8580    16.0375  2884.0000      .1313    45.1250  -999.2500     2.1309  3730.0000
 2436.0104    15.4203  2884.0000      .2026    44.4375  -999.2500     2.2168  3724.0000
 2436.1628    16.1000  2882.0000      .1626    45.2188  -999.2500     2.1426  3740.0000
 2436.3152    15.8578  2884.0000      .1445    48.9062  -999.2500     2.1094  3680.0000
 2436.4676    15.8031  2884.0000      .1182    48.8438  -999.2500     2.0820  3704.0000
 2436.6200    15.9281  2884.0000      .1006    49.2813  -999.2500     2.0820  3710.0000
 2436.7724    16.6312  2884.0000      .0986    48.0625  -999.2500     2.0645  3740.0000
 2436.9248    15.5375  2886.0000      .1152    46.7813  -999.2500     2.0684  3724.0000
 2437.0772    16.1937  2888.0000      .1396    46.8125  -999.2500     2.1055  3734.0000
