~VERSION INFORMATION
VERS.                                                 2.0:   CWLS Log ASCII Standard-VERSION 2.0
WRAP.                                                  NO:   One line per depth step
~Well Information Block
STRT.M                                           398.5748:   Top Depth
STOP.M                                          3794.8088:   Bottom Depth
STEP.M                                             .15240:   Depth Increment
NULL.                                            -999.250:   Null Value
FLD .                                             WILDCAT:   Field Name
WELL.                                              15/9-7:   NAME
WBN .                                              15/9-7:   WELLBORE
NATI.                                                 NOR:   COUNTRY
BHT1.DEGF                                            78.0:   BH TEMP 1
BHT2.DEGF                                            90.0:   BH TEMP 2
BHT3.DEGF                                            91.0:   BH TEMP 3
BS1 .IN                                             17.50:   BIT SIZE 1
CTRY.                                                 NOR:   COUNTRY
CBD1.M                                              181.0:   CSG 1 DRILL DEP
CBL1.M                                              181.0:   CSG 1 LOG DEP
CS1 .IN                                              30.0:   CSG 1 SIZE
COMP.                                             STATOIL:   OPERATOR
PDAT.                                                 MSL:   PERM DATUM
PROV.                                            OFFSHORE:   PROVINCE
COUN.                                    NEPTUNO NORDRAUG:   RIG NAME
SPUD.                                          1980/12/26:   SPUD DATE
LATI.                                       58 22 56.07 N:   SURF. LATITUDE
LONG.                                        1 42 45.99 E:   SURF. LONGITUDE
BTD1.                                             465.0 M:   TOTAL DEPTH 1
BTD2.                                            1185.0 M:   TOTAL DEPTH 2
BTD3.                                            1185.0 M:   TOTAL DEPTH 3
PBWE.                                              15/9-7:   PB WELL ID
APIN.                                              15/9-7:   PB WELLBORE ID
PBWS.                                                 all:   PB WELL NAME SET
~PARAMETER INFORMATION (log)
LNAM.                              FDC/CNL/GR  COMPOSITED:   NAME
LTYP.                                         DEPTH MATCH:   LOG TYPE
LSRV.                                            DEN/NEUT:   LOG SERVICE
LSOU.                                             SPT/NPD:   LOG SOURCE
LVSN.                                                   1:   LOG VERSION
BHIS.                                                   R:   BRIEF HISTORY
FHIS.                                             RAW-LIS:   FULL HISTORY
LCNM.                                        SCHLUMBERGER:   LOGGING CONTRACTOR
TOOL.                             FDC/CNL/GR (COMPOSITED):   TOOL STRING
~Curve Information Block
#MNEM.UNIT                                        API CODE    No Description
#=========                                        ========    == ===========
DEPT.M                                       00 001 00 00:     1  DEPTH
CALI.IN                                                  :     2  Caliper
CS.                                                      :     3  Cable Speed
DRHO.G/CC                                                :     4  Bulk density correction
GR.GAPI                                                  :     5  Gamma Ray
NPHI.%                                                   :     6  Neutron porosity
RHOB.G/CC                                                :     7  Bulk density
TENS.LB                                                  :     8  Cable Tension
~ASCII
# ...
 1078.1264    17.6847  1853.8184      .0171    26.0485  -999.2500     2.0575  1412.2759
 1078.2788    17.6614  1854.8340      .0114    25.2362  -999.2500     2.0521  1410.8298
 1078.4312    17.6563  1855.8503      .0090    24.7812  -999.2500     2.0524  1397.2456
 1078.5836    17.6563  1856.8657      .0024    24.4774  -999.2500     2.0460  1399.3286
 1078.7360    17.6287  1857.0000      .0032    25.3616  -999.2500     2.0466  1395.5862
 1078.8884    17.6250  1857.8982     -.0023    25.9756  -999.2500     2.0434  1408.4744
 1079.0408    17.6250  1858.0000      .0015    25.7597  -999.2500     2.0519  1405.4270
 1079.1932    17.6395  1858.0000      .0115    25.2544  -999.2500     2.0582  1409.6538
 1079.3456    17.6406  1858.0000      .0099    25.4849  -999.2500     2.0530  1386.3425
 1079.4980    17.6557  1858.9624      .0074    26.8386  -999.2500     2.0490  1409.0642
 1079.6504    17.6563  1858.0220      .0002    26.3099  -999.2500     2.0488  1380.6589
 1079.8028    17.6873  1858.0000     -.0029    25.5039  -999.2500     2.0449  1414.8289
 1079.9552    17.6870  1855.9805     -.0014    26.0552  -999.2500     2.0450  1390.4397
 1080.1076    17.6410  1853.9194      .0024    25.3276  -999.2500     2.0487  1433.5232
 1080.2600    17.6563  1850.9153     -.0002    25.8876  -999.2500     2.0429  1381.6938
 1080.4124    17.6572  1848.9407     -.0049    26.2748  -999.2500     2.0411  1420.0000
 1080.5648    17.6765  1848.0740     -.0056    27.9526  -999.2500     2.0431  1418.1472
 1080.7172    17.7372  1849.0000     -.0028    28.4344  -999.2500     2.0453  1394.5442
 1080.8696    17.7690  1849.1064     -.0010    27.2905  -999.2500     2.0478  1393.1978
 1081.0220    17.7892  1850.0000     -.0016    25.8276  -999.2500     2.0388  1417.5408
 1081.1744    17.7387  1850.1392     -.0018    25.9620  -999.2500     2.0385  1402.0886
 1081.3268    17.7656  1851.0000      .0010    25.5565  -999.2500     2.0472  1414.2229
 1081.4792    17.7710  1851.0000     -.0031    25.9536  -999.2500     2.0512  1408.2832
 1081.6316    17.8027  1851.0000      .0007    24.6535  -999.2500     2.0618  1400.9355
 1081.7840    17.8281  1851.2036     -.0007    24.2916  -999.2500     2.0578  1408.0537
 1081.9364    17.8384  1852.2197     -.0018    24.5843  -999.2500     2.0534  1415.6062
 1082.0888    17.8824  1853.0000     -.0047    24.9535  -999.2500     2.0461  1400.0000
 1082.2412    17.8984  1853.5032     -.0093    25.4184  -999.2500     2.0391  1402.5161
 1082.3936    17.8540  1855.5369     -.0061    25.6693  -999.2500     2.0449  1405.9722
 1082.5460    17.7969  1857.2839     -.0020    25.7153  -999.2500     2.0466  1400.6794
 1082.6984    17.7969  1858.6003      .0049    24.9044  -999.2500     2.0473  1413.4988
 1082.8508    17.7969  1860.0000     -.0004    24.1111  -999.2500     2.0366  1408.4202
 1083.0032    17.8021  1860.3325     -.0070    24.3700  -999.2500     2.0325  1403.3374
 1083.1556    17.8342  1860.6521     -.0102    25.0561  -999.2500     2.0386  1406.9543
 1083.3080    17.8750  1859.2725     -.0019    25.9686  -999.2500     2.0513  1416.3628
 1083.4604    17.8453  1856.4788      .0073    24.5577  -999.2500     2.0618  1411.9014
 1083.6128    17.7721  1853.2080      .0096    23.3588  -999.2500     2.0598  1409.0610
 1083.7652    17.7215  1851.5879      .0061    22.5297  -999.2500     2.0514  1414.4219
 1083.9176    17.6898  1850.5720      .0023    23.7136  -999.2500     2.0419  1413.6003
 1084.0700    17.6511  1850.0000      .0034    24.2848  -999.2500     2.0404  1400.5491
 1084.2224    17.6394  1849.5403      .0018    24.0354  -999.2500     2.0326  1417.7014
 1084.3748    17.6711  1849.4763      .0028    23.8750  -999.2500     2.0273  1412.6179
 1084.5272    17.6875  1850.0000      .0020    24.4975  -999.2500     2.0225  1410.0000
 1084.6796    17.6796  1850.5081      .0005    26.0616  -999.2500     2.0245  1410.0000
 1084.8320    17.6719  1851.5244     -.0001    26.7565  -999.2500     2.0282  1420.4885
 1084.9844    17.6719  1852.5410      .0018    26.2822  -999.2500     2.0328  1405.6509
 1085.1368    17.6719  1853.5564      .0067    25.4138  -999.2500     2.0369  1410.0447
 1085.2892    17.6719  1854.5720      .0182    25.0649  -999.2500     2.0463  1404.2595
 1085.4416    17.6627  1855.5886      .0195    25.4847  -999.2500     2.0455  1396.7751
 1085.5940    17.6563  1857.2080      .0093    26.3921  -999.2500     2.0355  1405.0000
 1085.7464    17.6563  1858.6204     -.0011    27.2122  -999.2500     2.0235  1401.8972
 1085.8988    17.6563  1859.6362     -.0023    27.7954  -999.2500     2.0176  1415.9072
 1086.0512    17.6563  1860.0000      .0049    26.5918  -999.2500     2.0252  1408.6726
 1086.2036    17.6771  1860.6682      .0137    24.2148  -999.2500     2.0384  1420.0488
 1086.3560    17.6875  1861.6848      .0246    21.9402  -999.2500     2.0577  1409.4543
 1086.5084    17.6875  1859.8982      .0222    21.8567  -999.2500     2.0590  1417.5142
 1086.6608    17.6875  1858.2832      .0157    23.1062  -999.2500     2.0524  1403.4946
 1086.8132    17.6875  1857.2676      .0088    24.3010  -999.2500     2.0422  1409.6460
 1086.9656    17.6875  1855.5015      .0145    24.4065  -999.2500     2.0493  1418.7458
 1087.1180    17.6875  1853.4702      .0111    24.3437  -999.2500     2.0438  1423.8242
 1087.2704    17.6875  1853.7803      .0062    23.3074  -999.2500     2.0364  1409.3938
 1087.4228    17.6875  1854.0000      .0030    23.0281  -999.2500     2.0289  1408.9829
 1087.5752    17.6875  1854.8127      .0092    23.3233  -999.2500     2.0369  1401.8728
 1087.7276    17.6875  1854.1709      .0079    24.5048  -999.2500     2.0342  1416.5825
 1087.8800    17.6875  1854.0000      .0020    25.6186  -999.2500     2.0283  1407.3311
 1088.0324    17.7279  1853.1384     -.0037    26.8044  -999.2500     2.0223  1426.5391
 1088.1848    17.7344  1853.0000     -.0031    25.9546  -999.2500     2.0266  1399.3003
 1088.3372    17.7344  1853.8933      .0019    25.0447  -999.2500     2.0413  1399.4670
 1088.4896    17.7344  1854.0000      .0131    24.9957  -999.2500     2.0554  1395.4556
 1088.6420    17.7344  1854.0000      .0069    25.9693  -999.2500     2.0476  1404.2588
 1088.7944    17.7344  1854.9407      .0022    26.5760  -999.2500     2.0340  1419.1096
 1088.9468    17.7344  1855.9568      .0020    25.0246  -999.2500     2.0332  1420.0000
 1089.0992    17.6888  1856.0000      .0267    26.0631  -999.2500     2.0636  1424.8657
 1089.2516    17.6875  1856.9893      .0220    26.3566  -999.2500     2.0587  1400.2646
 1089.4040    17.6875  1858.0000      .0102    27.1809  -999.2500     2.0468  1420.0244
 1089.5564    17.6875  1858.0210     -.0003    25.8334  -999.2500     2.0392  1424.5769
 1089.7088    17.6910  1858.9250      .0093    26.0460  -999.2500     2.0472  1404.2515
 1089.8612    17.7813  1856.9470      .0209    25.2485  -999.2500     2.0557  1386.8511
 1090.0136    17.7845  1855.8616      .0099    25.6709  -999.2500     2.0395  1417.9233
 1090.1660    17.8281  1853.8291      .0108    24.2182  -999.2500     2.0446  1393.8445
 1090.3184    17.8265  1851.7966      .0013    24.5501  -999.2500     2.0422  1431.4402
 1090.4708    17.8088  1850.0000      .0078    24.7210  -999.2500     2.0518  1401.1726
 1090.6232    17.7687  1850.0000      .0009    25.7654  -999.2500     2.0449  1412.6851
 1090.7756    17.6875  1850.1497      .0060    25.5391  -999.2500     2.0440  1426.2571
 1090.9280    17.6875  1851.0000      .0047    25.4424  -999.2500     2.0397  1405.0000
 1091.0804    17.6875  1851.3630      .0089    25.8662  -999.2500     2.0419  1402.2759
 1091.2328    17.6782  1853.3950      .0082    27.0797  -999.2500     2.0367  1398.8901
 1091.3852    17.6373  1855.2134      .0028    27.6238  -999.2500     2.0339  1427.5325
 1091.5376    17.6250  1856.0000      .0014    27.4045  -999.2500     2.0347  1405.7363
 1091.6900    17.6173  1856.2458      .0148    26.0778  -999.2500     2.0556  1422.5408
 1091.8424    17.5733  1857.2617      .0283    25.1976  -999.2500     2.0670  1418.9268
