~VERSION INFORMATION
VERS.                                                 2.0:   CWLS Log ASCII Standard-VERSION 2.0
WRAP.                                                  NO:   One line per depth step
~Well Information Block
STRT.M                                           398.5748:   Top Depth
STOP.M                                          3794.8088:   Bottom Depth
STEP.M                                             .15240:   Depth Increment
NULL.                                            -999.250:   Null Value
FLD .                                             WILDCAT:   Field Name
WELL.                                              15/9-7:   NAME
WBN .                                              15/9-7:   WELLBORE
NATI.                                                 NOR:   COUNTRY
BHT1.DEGF                                            78.0:   BH TEMP 1
BHT2.DEGF                                            90.0:   BH TEMP 2
BHT3.DEGF                                            91.0:   BH TEMP 3
BS1 .IN                                             17.50:   BIT SIZE 1
CTRY.                                                 NOR:   COUNTRY
CBD1.M                                              181.0:   CSG 1 DRILL DEP
CBL1.M                                              181.0:   CSG 1 LOG DEP
CS1 .IN                                              30.0:   CSG 1 SIZE
COMP.                                             STATOIL:   OPERATOR
PDAT.                                                 MSL:   PERM DATUM
PROV.                                            OFFSHORE:   PROVINCE
COUN.                                    NEPTUNO NORDRAUG:   RIG NAME
SPUD.                                          1980/12/26:   SPUD DATE
LATI.                                       58 22 56.07 N:   SURF. LATITUDE
LONG.                                        1 42 45.99 E:   SURF. LONGITUDE
BTD1.                                             465.0 M:   TOTAL DEPTH 1
BTD2.                                            1185.0 M:   TOTAL DEPTH 2
BTD3.                                            1185.0 M:   TOTAL DEPTH 3
PBWE.                                              15/9-7:   PB WELL ID
APIN.                                              15/9-7:   PB WELLBORE ID
PBWS.                                                 all:   PB WELL NAME SET
~PARAMETER INFORMATION (log)
LNAM.                              FDC/CNL/GR  COMPOSITED:   NAME
LTYP.                                         DEPTH MATCH:   LOG TYPE
LSRV.                                            DEN/NEUT:   LOG SERVICE
LSOU.                                             SPT/NPD:   LOG SOURCE
LVSN.                                                   1:   LOG VERSION
BHIS.                                                   R:   BRIEF HISTORY
FHIS.                                             RAW-LIS:   FULL HISTORY
LCNM.                                        SCHLUMBERGER:   LOGGING CONTRACTOR
TOOL.                             FDC/CNL/GR (COMPOSITED):   TOOL STRING
~Curve Information Block
#MNEM.UNIT                                        API CODE    No Description
#=========                                        ========    == ===========
DEPT.M                                       00 001 00 00:     1  DEPTH
CALI.IN                                                  :     2  Caliper
CS.                                                      :     3  Cable Speed
DRHO.G/CC                                                :     4  Bulk density correction
GR.GAPI                                                  :     5  Gamma Ray
NPHI.%                                                   :     6  Neutron porosity
RHOB.G/CC                                                :     7  Bulk density
TENS.LB                                                  :     8  Cable Tension
~ASCII
# ...
 1757.6780    15.3266  3134.0000      .0068    51.4062  -999.2500     2.0723  2970.0000
 1757.8304    15.2797  3134.0000      .0244    52.3125  -999.2500     2.0977  2954.0000
 1757.9828    15.8734  3132.0000      .0381    54.5312  -999.2500     2.1055  2964.0000
 1758.1352    15.8031  3128.0000      .0293    58.0000  -999.2500     2.0996  2900.0000
 1758.2876    15.3969  3122.0000      .0234    61.0937  -999.2500     2.0977  2900.0000
 1758.4400    15.7094  3118.0000      .0093    65.2500  -999.2500     2.0937  2930.0000
 1758.5924    15.2250  3116.0000      .0200    66.8750  -999.2500     2.1016  2930.0000
 1758.7448    15.3188  3116.0000      .0420    67.5625  -999.2500     2.0840  2950.0000
 1758.8972    15.3344  3116.0000      .0376    69.6875  -999.2500     2.0605  2990.0000
 1759.0496    15.0453  3116.0000      .0376    70.8750  -999.2500     2.0469  2954.0000
 1759.2020    14.6625  3116.0000      .0371    72.2500  -999.2500     2.0527  2924.0000
 1759.3544    15.4281  3118.0000      .0581    65.5625  -999.2500     2.0664  2920.0000
 1759.5068    14.9516  3118.0000      .0332    65.1875  -999.2500     2.0547  2904.0000
 1759.6592    14.6391  3122.0000      .0186    62.5625  -999.2500     2.0449  2934.0000
 1759.8116    14.6391  3122.0000      .0327    67.3125  -999.2500     2.0723  2934.0000
 1759.9640    14.4672  3124.0000      .0532    64.8125  -999.2500     2.0820  2950.0000
 1760.1164    14.5609  3126.0000      .0552    65.6875  -999.2500     2.0801  2944.0000
 1760.2688    14.0609  3128.0000      .0244    63.0000  -999.2500     2.0449  2924.0000
 1760.4212    14.0219  3130.0000      .0215    64.7500  -999.2500     2.0566  2920.0000
 1760.5736    14.0219  3132.0000      .0068    66.0625  -999.2500     2.0723  2950.0000
 1760.7260    14.3813  3132.0000      .0259    69.1875  -999.2500     2.1211  2960.0000
 1760.8784    14.3734  3132.0000      .0254    69.1875  -999.2500     2.1348  2950.0000
 1761.0308    14.5141  3132.0000      .0537    72.3125  -999.2500     2.1484  2900.0000
 1761.1832    14.6859  3132.0000      .0415    72.3125  -999.2500     2.1113  2920.0000
 1761.3356    14.5453  3130.0000      .0386    73.6250  -999.2500     2.0937  2930.0000
 1761.4880    14.7719  3126.0000      .0317    68.0625  -999.2500     2.0879  2974.0000
 1761.6404    14.9281  3118.0000      .0298    67.2500  -999.2500     2.0820  2984.0000
 1761.7928    14.7094  3116.0000      .0298    65.7500  -999.2500     2.0742  2960.0000
 1761.9452    14.8500  3116.0000      .0132    70.4375  -999.2500     2.0527  2944.0000
 1762.0976    15.2563  3116.0000      .0059    70.1875  -999.2500     2.0508  2924.0000
 1762.2500    15.1391  3118.0000      .0415    69.7500  -999.2500     2.0645  2894.0000
 1762.4024    14.9438  3116.0000      .0483    66.3125  -999.2500     2.0371  2860.0000
 1762.5548    15.0922  3116.0000      .0674    65.1250  -999.2500     2.0293  2920.0000
 1762.7072    14.5453  3116.0000      .0176    65.3125  -999.2500     1.9863  2984.0000
 1762.8596    15.3969  3116.0000     -.0024    64.4375  -999.2500     1.9990  2950.0000
 1763.0120    15.7016  3116.0000     -.0049    68.7500  -999.2500     2.0352  2930.0000
 1763.1644    15.5141  3118.0000      .0093    65.7500  -999.2500     2.0684  2904.0000
 1763.3168    14.7484  3118.0000     -.0068    60.9688  -999.2500     2.1191  2910.0000
 1763.4692    14.9516  3120.0000     -.0376    49.2500  -999.2500     2.2168  2974.0000
 1763.6216    14.8500  3122.0000      .0156    43.1563  -999.2500     2.4512  3004.0000
 1763.7740    14.2016  3124.0000      .1748    44.5000  -999.2500     2.4922  2960.0000
 1763.9264    14.3734  3126.0000      .2119    50.1562  -999.2500     2.3047  2890.0000
 1764.0788    14.7484  3128.0000      .0879    58.4375  -999.2500     2.0605  2890.0000
 1764.2312    14.4438  3130.0000      .0151    62.7188  -999.2500     1.9717  2930.0000
 1764.3836    14.6859  3130.0000      .0146    64.3750  -999.2500     2.0176  2990.0000
 1764.5360    15.3266  3128.0000      .0312    65.6875  -999.2500     2.0723  2974.0000
 1764.6884    14.7563  3124.0000      .0249    64.4375  -999.2500     2.0859  2964.0000
 1764.8408    14.9672  3118.0000      .0225    65.3750  -999.2500     2.1055  2940.0000
 1764.9932    14.7719  3116.0000      .0225    63.0313  -999.2500     2.1152  2914.0000
 1765.1456    14.7953  3110.0000      .0229    62.0000  -999.2500     2.1211  2924.0000
 1765.2980    14.6859  3112.0000      .0107    61.5000  -999.2500     2.0996  2920.0000
 1765.4504    15.0922  3110.0000      .0229    62.3750  -999.2500     2.1035  2954.0000
 1765.6028    14.8266  3112.0000      .0332    60.8438  -999.2500     2.1133  2940.0000
 1765.7552    14.6859  3114.0000      .0527    58.2812  -999.2500     2.1426  2920.0000
 1765.9076    14.6391  3114.0000      .0405    58.0313  -999.2500     2.1406  2940.0000
 1766.0600    15.1391  3114.0000      .0166    58.3750  -999.2500     2.1328  2940.0000
 1766.2124    14.9438  3116.0000      .0083    57.8438  -999.2500     2.1523  2954.0000
 1766.3648    14.8500  3120.0000      .0332    55.1875  -999.2500     2.1895  2980.0000
 1766.5172    14.6391  3120.0000      .0439    55.1562  -999.2500     2.1719  2964.0000
 1766.6696    14.6781  3122.0000      .0640    55.2188  -999.2500     2.1465  2920.0000
 1766.8220    14.3813  3124.0000      .0244    58.3125  -999.2500     2.0879  2934.0000
 1766.9744    14.3578  3124.0000      .0303    62.6562  -999.2500     2.0996  2950.0000
 1767.1268    14.4047  3126.0000      .0161    66.1875  -999.2500     2.1074  2964.0000
 1767.2792    14.8578  3128.0000      .0166    70.0625  -999.2500     2.1133  2974.0000
 1767.4316    15.0141  3128.0000      .0239    69.1875  -999.2500     2.1309  2964.0000
 1767.5840    14.9984  3130.0000      .0225    73.5625  -999.2500     2.1035  2960.0000
 1767.7364    15.1156  3130.0000      .0288    72.3750  -999.2500     2.1016  2914.0000
 1767.8888    15.0688  3128.0000      .0176    74.1875  -999.2500     2.0703  2900.0000
 1768.0412    15.0922  3122.0000      .0132    71.4375  -999.2500     2.0723  2910.0000
 1768.1936    14.9750  3116.0000      .0161    67.5000  -999.2500     2.0801  2934.0000
 1768.3460    14.8266  3114.0000      .0269    64.6875  -999.2500     2.1172  2960.0000
 1768.4984    15.1547  3112.0000      .0405    63.3125  -999.2500     2.1426  2950.0000
 1768.6508    14.7250  3112.0000      .0498    60.9062  -999.2500     2.1602  2940.0000
 1768.8032    14.7719  3114.0000      .0332    61.7500  -999.2500     2.1348  2950.0000
 1768.9556    15.0141  3114.0000      .0122    63.2500  -999.2500     2.1113  2960.0000
 1769.1080    14.8969  3114.0000      .0029    67.6250  -999.2500     2.0957  2980.0000
 1769.2604    14.2016  3114.0000      .0122    68.8125  -999.2500     2.1035  2990.0000
 1769.4128    14.4203  3114.0000      .0103    70.8750  -999.2500     2.1113  2964.0000
 1769.5652    14.3813  3116.0000      .0156    69.6250  -999.2500     2.1211  2910.0000
 1769.7176    14.2719  3118.0000      .0181    69.1250  -999.2500     2.1113  2914.0000
 1769.8700    14.1781  3120.0000      .0166    67.5000  -999.2500     2.0879  2950.0000
 1770.0224    14.4672  3120.0000      .0327    69.6875  -999.2500     2.1074  2970.0000
 1770.1748    14.5688  3122.0000      .0288    70.5625  -999.2500     2.1035  2970.0000
 1770.3272    14.7016  3122.0000      .0225    69.6250  -999.2500     2.0918  2954.0000
 1770.4796    14.5922  3126.0000      .0034    68.2500  -999.2500     2.0664  2940.0000
 1770.6320    14.8734  3126.0000      .0024    67.0000  -999.2500     2.0879  2954.0000
 1770.7844    15.0688  3128.0000      .0190    68.6875  -999.2500     2.1328  2954.0000
 1770.9368    15.1781  3130.0000      .0234    71.7500  -999.2500     2.1406  2910.0000
 1771.0892    15.1625  3128.0000      .0200    72.1875  -999.2500     2.1270  2910.0000
 1771.2416    15.6625  3124.0000      .0254    69.1875  -999.2500     2.1172  2950.0000
 1771.3940    15.8188  3116.0000      .0210    65.7500  -999.2500     2.1211  2990.0000
