~VERSION INFORMATION
VERS.                                                 2.0:   CWLS Log ASCII Standard-VERSION 2.0
WRAP.                                                  NO:   One line per depth step
~Well Information Block
STRT.M                                           398.5748:   Top Depth
STOP.M                                          3794.8088:   Bottom Depth
STEP.M                                             .15240:   Depth Increment
NULL.                                            -999.250:   Null Value
FLD .                                             WILDCAT:   Field Name
WELL.                                              15/9-7:   NAME
WBN .                                              15/9-7:   WELLBORE
NATI.                                                 NOR:   COUNTRY
BHT1.DEGF                                            78.0:   BH TEMP 1
BHT2.DEGF                                            90.0:   BH TEMP 2
BHT3.DEGF                                            91.0:   BH TEMP 3
BS1 .IN                                             17.50:   BIT SIZE 1
CTRY.                                                 NOR:   COUNTRY
CBD1.M                                              181.0:   CSG 1 DRILL DEP
CBL1.M                                              181.0:   CSG 1 LOG DEP
CS1 .IN                                              30.0:   CSG 1 SIZE
COMP.                                             STATOIL:   OPERATOR
PDAT.                                                 MSL:   PERM DATUM
PROV.                                            OFFSHORE:   PROVINCE
COUN.                                    NEPTUNO NORDRAUG:   RIG NAME
SPUD.                                          1980/12/26:   SPUD DATE
LATI.                                       58 22 56.07 N:   SURF. LATITUDE
LONG.                                        1 42 45.99 E:   SURF. LONGITUDE
BTD1.                                             465.0 M:   TOTAL DEPTH 1
BTD2.                                            1185.0 M:   TOTAL DEPTH 2
BTD3.                                            1185.0 M:   TOTAL DEPTH 3
PBWE.                                              15/9-7:   PB WELL ID
APIN.                                              15/9-7:   PB WELLBORE ID
PBWS.                                                 all:   PB WELL NAME SET
~PARAMETER INFORMATION (log)
LNAM.                              FDC/CNL/GR  COMPOSITED:   NAME
LTYP.                                         DEPTH MATCH:   LOG TYPE
LSRV.                                            DEN/NEUT:   LOG SERVICE
LSOU.                                             SPT/NPD:   LOG SOURCE
LVSN.                                                   1:   LOG VERSION
BHIS.                                                   R:   BRIEF HISTORY
FHIS.                                             RAW-LIS:   FULL HISTORY
LCNM.                                        SCHLUMBERGER:   LOGGING CONTRACTOR
TOOL.                             FDC/CNL/GR (COMPOSITED):   TOOL STRING
~Curve Information Block
#MNEM.UNIT                                        API CODE    No Description
#=========                                        ========    == ===========
DEPT.M                                       00 001 00 00:     1  DEPTH
CALI.IN                                                  :     2  Caliper
CS.                                                      :     3  Cable Speed
DRHO.G/CC                                                :     4  Bulk density correction
GR.GAPI                                                  :     5  Gamma Ray
NPHI.%                                                   :     6  Neutron porosity
RHOB.G/CC                                                :     7  Bulk density
TENS.LB                                                  :     8  Cable Tension
~ASCII
# ...
  620.4692    19.6825  1827.0000      .0536    63.1032  -999.2500     2.0229  1010.0000
  620.6216    19.6220  1827.0000      .0498    63.3622  -999.2500     2.0051  1019.5786
  620.7740    19.4394  1827.0000      .0393    64.3712  -999.2500     1.9878  1021.9130
  620.9264    19.3438  1827.5959      .0203    64.5253  -999.2500     1.9774  1014.0399
  621.0788    19.3707  1828.5747      .0112    63.0453  -999.2500     1.9926  1015.7467
  621.2312    19.4598  1829.0000      .0137    61.4152  -999.2500     2.0156  1025.5349
  621.3836    19.4990  1829.5317      .0221    60.9023  -999.2500     2.0203  1016.7064
  621.5360    19.4126  1830.5103      .0228    61.4020  -999.2500     2.0026  1005.0000
  621.6884    19.4202  1831.0000      .0269    63.3440  -999.2500     1.9902  1014.7844
  621.8408    19.4488  1831.9358      .0325    65.0464  -999.2500     1.9794  1027.3394
  621.9932    19.2581  1833.0000      .0285    64.5869  -999.2500     1.9640  1023.3026
  622.1456    19.1137  1832.1494      .0195    64.2723  -999.2500     1.9550  1012.8734
  622.2980    19.1469  1828.9800      .0110    65.7442  -999.2500     1.9574  1012.0199
  622.4504    19.1323  1824.8521      .0175    66.8456  -999.2500     1.9803  1024.5647
  622.6028    19.1050  1822.2771      .0198    65.2380  -999.2500     1.9906  1030.9644
  622.7552    19.1622  1820.3191      .0183    61.6250  -999.2500     1.9967  1016.7019
  622.9076    19.2344  1818.6807      .0146    60.6762  -999.2500     1.9985  1018.4032
  623.0600    19.2018  1818.0000      .0259    60.4115  -999.2500     2.0061  1013.5104
  623.2124    19.1250  1818.0000      .0261    59.7652  -999.2500     2.0009  1014.1454
  623.3648    19.1250  1818.0000      .0242    60.1202  -999.2500     1.9946  1027.5508
  623.5172    19.0775  1818.4673      .0211    60.6939  -999.2500     1.9880  1027.9910
  623.6696    18.8953  1820.2124      .0329    60.9324  -999.2500     1.9948  1006.0623
  623.8220    18.7879  1821.1912      .0233    60.5296  -999.2500     1.9775  1015.7389
  623.9744    18.7739  1822.1702      .0224    61.6683  -999.2500     1.9835  1034.0454
  624.1268    18.8976  1823.1489      .0142    60.6822  -999.2500     1.9790  1006.4896
  624.2792    18.9215  1824.0000      .0378    59.4024  -999.2500     2.0042  1016.2780
  624.4316    18.8075  1824.1064      .0466    55.8266  -999.2500     2.0052  1024.4670
  624.5840    18.7537  1825.0850      .0509    56.4847  -999.2500     1.9984  1020.4253
  624.7364    18.6300  1826.0637      .0316    56.8300  -999.2500     1.9806  1024.3611
  624.8888    18.6898  1827.0427      .0282    59.4751  -999.2500     1.9677  1016.4949
  625.0412    18.3906  1828.0210      .0142    61.7022  -999.2500     1.9452  1049.4707
  625.1936    18.3906  1829.0000      .0151    60.9375  -999.2500     1.9385  1025.0000
  625.3460    18.4231  1831.0154     -.0009    60.1385  -999.2500     1.9311  1015.2318
  625.4984    18.4995  1832.0308      .0018    61.0251  -999.2500     1.9589  1030.4636
  625.6508    18.4814  1832.8596     -.0011    61.7730  -999.2500     1.9872  1043.1277
  625.8032    18.4327  1829.7478      .0062    60.7777  -999.2500     2.0282  1005.9454
  625.9556    18.6134  1825.8430      .0193    58.2000  -999.2500     2.0732  1021.1777
  626.1080    18.8541  1823.8113      .0349    61.3786  -999.2500     2.1096  1035.4719
  626.2604    18.9393  1821.8896      .0454    62.5742  -999.2500     2.1304  1037.7959
  626.4128    18.8379  1821.0000      .0320    64.4950  -999.2500     2.1262  1019.3715
  626.5652    18.9063  1821.0000      .0222    63.0678  -999.2500     2.1205  1015.7079
  626.7176    18.9013  1821.1572      .0129    62.6198  -999.2500     2.1181  1023.1476
  626.8700    18.8750  1822.1729      .0210    63.4990  -999.2500     2.1264  1037.4063
  627.0224    18.8809  1823.3774      .0289    65.4847  -999.2500     2.1404  1025.9434
  627.1748    18.9063  1825.0000      .0214    65.3308  -999.2500     2.1289  1035.0955
  627.3272    18.9063  1825.0000      .0138    63.2647  -999.2500     2.1185  1051.7046
  627.4796    18.9320  1825.0000      .0146    61.1399  -999.2500     2.1177  1036.4680
  627.6320    19.0195  1825.0000      .0358    62.3765  -999.2500     2.1514  1026.2551
  627.7844    19.0313  1825.2668      .0465    63.5417  -999.2500     2.1714  1027.3311
  627.9368    19.0710  1826.0000      .0394    63.3030  -999.2500     2.1622  1025.6526
  628.0892    19.1439  1826.2981      .0272    62.1826  -999.2500     2.1373  1038.5088
  628.2416    19.0830  1827.0000      .0212    61.4501  -999.2500     2.1268  1028.7185
  628.3940    19.1247  1827.9893      .0268    61.3504  -999.2500     2.1379  1016.6490
  628.5464    19.1983  1830.6909      .0361    61.6738  -999.2500     2.1537  1021.7277
  628.6988    19.1961  1832.7234      .0407    60.6210  -999.2500     2.1527  1026.8083
  628.8512    19.1445  1834.7546      .0387    60.2630  -999.2500     2.1435  1024.3391
  629.0036    19.1250  1836.3928      .0426    60.0657  -999.2500     2.1440  1015.0000
  629.1560    19.1250  1836.1831      .0459    60.3222  -999.2500     2.1539  1025.2114
  629.3084    19.1383  1833.3032      .0382    61.1857  -999.2500     2.1538  1037.8792
  629.4608    19.1975  1829.2407      .0257    61.3632  -999.2500     2.1512  1026.2041
  629.6132    19.2856  1825.6323      .0276    61.5704  -999.2500     2.1568  1003.6040
  629.7656    19.3429  1823.5283      .0334    61.8940  -999.2500     2.1603  1027.7388
  629.9180    19.3822  1822.0251      .0323    63.6770  -999.2500     2.1573  1048.0674
  630.0704    19.4377  1821.0000      .0298    64.3652  -999.2500     2.1553  1017.4512
  630.2228    19.4201  1820.4810      .0356    63.7095  -999.2500     2.1604  1020.3782
  630.3752    19.2664  1820.0000      .0355    62.8158  -999.2500     2.1535  1030.0000
  630.5276    19.1461  1820.0000      .0365    63.9177  -999.2500     2.1533  1038.2566
  630.6800    19.1338  1820.0000      .0423    64.5436  -999.2500     2.1632  1050.6609
  630.8324    19.1952  1819.4182      .0513    65.9704  -999.2500     2.1732  1031.7290
  630.9848    19.1877  1819.5969      .0495    66.8629  -999.2500     2.1669  1020.9698
  631.1372    19.1563  1820.0000      .0362    65.8935  -999.2500     2.1510  1037.2539
  631.2896    19.1955  1820.0000      .0165    63.8590  -999.2500     2.1354  1041.8572
  631.4420    19.1583  1820.0000      .0122    61.8924  -999.2500     2.1352  1033.5557
  631.5944    19.1250  1820.0000      .0304    61.5495  -999.2500     2.1567  1036.6028
  631.7468    19.1144  1820.0000      .0425    61.8988  -999.2500     2.1687  1029.8577
  631.8992    19.1202  1820.6917      .0336    64.0320  -999.2500     2.1618  1021.5413
  632.0516    19.0697  1822.4148      .0184    64.8491  -999.2500     2.1485  1051.8369
  632.2040    19.0356  1823.7234      .0251    64.9933  -999.2500     2.1572  1028.8323
  632.3564    19.0428  1824.7388      .0383    64.0696  -999.2500     2.1765  1018.6946
  632.5088    19.0233  1826.5093      .0312    64.3555  -999.2500     2.1728  1023.7733
  632.6612    19.0156  1826.2295      .0173    64.5625  -999.2500     2.1609  1025.0000
  632.8136    18.9911  1822.0696      .0115    63.9975  -999.2500     2.1490  1025.0000
  632.9660    18.9969  1820.1985      .0154    66.2231  -999.2500     2.1480  1033.0146
  633.1184    18.9489  1819.1826      .0142    66.2506  -999.2500     2.1436  1035.0000
  633.2708    19.0676  1818.1670      .0181    67.4784  -999.2500     2.1491  1051.6572
  633.4232    19.1468  1817.1514      .0182    65.8936  -999.2500     2.1554  1042.2700
  633.5756    19.1292  1817.8645      .0189    65.2383  -999.2500     2.1613  1035.6772
  633.7280    19.1250  1818.0000      .0160    63.4274  -999.2500     2.1655  1017.3993
  633.8804    19.1670  1818.8958      .0187    62.6276  -999.2500     2.1695  1032.9170
  634.0328    19.2146  1819.9116      .0355    61.3659  -999.2500     2.1931  1057.7930
  634.1852    19.4361  1819.0728      .0312    59.7143  -999.2500     2.1863  1032.1838
