~VERSION INFORMATION
VERS.                                                 2.0:   CWLS Log ASCII Standard-VERSION 2.0
WRAP.                                                  NO:   One line per depth step
~Well Information Block
STRT.M                                           398.5748:   Top Depth
STOP.M                                          3794.8088:   Bottom Depth
STEP.M                                             .15240:   Depth Increment
NULL.                                            -999.250:   Null Value
FLD .                                             WILDCAT:   Field Name
WELL.                                              15/9-7:   NAME
WBN .                                              15/9-7:   WELLBORE
NATI.                                                 NOR:   COUNTRY
BHT1.DEGF                                            78.0:   BH TEMP 1
BHT2.DEGF                                            90.0:   BH TEMP 2
BHT3.DEGF                                            91.0:   BH TEMP 3
BS1 .IN                                             17.50:   BIT SIZE 1
CTRY.                                                 NOR:   COUNTRY
CBD1.M                                              181.0:   CSG 1 DRILL DEP
CBL1.M                                              181.0:   CSG 1 LOG DEP
CS1 .IN                                              30.0:   CSG 1 SIZE
COMP.                                             STATOIL:   OPERATOR
PDAT.                                                 MSL:   PERM DATUM
PROV.                                            OFFSHORE:   PROVINCE
COUN.                                    NEPTUNO NORDRAUG:   RIG NAME
SPUD.                                          1980/12/26:   SPUD DATE
LATI.                                       58 22 56.07 N:   SURF. LATITUDE
LONG.                                        1 42 45.99 E:   SURF. LONGITUDE
BTD1.                                             465.0 M:   TOTAL DEPTH 1
BTD2.                                            1185.0 M:   TOTAL DEPTH 2
BTD3.                                            1185.0 M:   TOTAL DEPTH 3
PBWE.                                              15/9-7:   PB WELL ID
APIN.                                              15/9-7:   PB WELLBORE ID
PBWS.                                                 all:   PB WELL NAME SET
~PARAMETER INFORMATION (log)
LNAM.                              FDC/CNL/GR  COMPOSITED:   NAME
LTYP.                                         DEPTH MATCH:   LOG TYPE
LSRV.                                            DEN/NEUT:   LOG SERVICE
LSOU.                                             SPT/NPD:   LOG SOURCE
LVSN.                                                   1:   LOG VERSION
BHIS.                                                   R:   BRIEF HISTORY
FHIS.                                             RAW-LIS:   FULL HISTORY
LCNM.                                        SCHLUMBERGER:   LOGGING CONTRACTOR
TOOL.                             FDC/CNL/GR (COMPOSITED):   TOOL STRING
~Curve Information Block
#MNEM.UNIT                                        API CODE    No Description
#=========                                        ========    == ===========
DEPT.M                                       00 001 00 00:     1  DEPTH
CALI.IN                                                  :     2  Caliper
CS.                                                      :     3  Cable Speed
DRHO.G/CC                                                :     4  Bulk density correction
GR.GAPI                                                  :     5  Gamma Ray
NPHI.%                                                   :     6  Neutron porosity
RHOB.G/CC                                                :     7  Bulk density
TENS.LB                                                  :     8  Cable Tension
~ASCII
# ...
 3560.5700     8.0703  2360.0000     -.0288    16.6094    13.3301     2.3125  4180.0000
 3560.7224     8.0703  2364.0000     -.0396    18.3750    13.3789     2.3164  4204.0000
 3560.8748     8.0703  2362.0000     -.0562    18.4063    12.8906     2.2910  4268.0000
 3561.0272     8.0703  2364.0000     -.0493    17.8750    12.1094     2.2949  4220.0000
 3561.1796     8.0703  2364.0000     -.0483    16.1406    12.2559     2.2949  4232.0000
 3561.3320     8.0703  2364.0000     -.0303    15.5234    14.0137     2.3281  4220.0000
 3561.4844     8.0703  2364.0000     -.0322    14.2812    14.7949     2.3242  4172.0000
 3561.6368     8.0703  2364.0000     -.0254    15.1094    13.9648     2.3301  4144.0000
 3561.7892     8.0781  2368.0000     -.0337    14.5469    12.1582     2.2949  4064.0000
 3561.9416     8.1016  2368.0000     -.0410    15.4219    11.2793     2.2773  4074.0000
 3562.0940     8.1016  2368.0000     -.0415    13.6719    12.3047     2.2617  4100.0000
 3562.2464     8.1016  2368.0000     -.0430    13.0859    12.2559     2.2559  4124.0000
 3562.3988     8.1016  2368.0000     -.0308    12.7891    12.6953     2.2656  4152.0000
 3562.5512     8.1016  2368.0000     -.0259    13.6719    12.5488     2.2715  4160.0000
 3562.7036     8.1016  2368.0000     -.0225    14.8437    12.9395     2.2891  4224.0000
 3562.8560     8.1016  2364.0000     -.0200    15.1328    12.9883     2.3027  4228.0000
 3563.0084     8.1016  2362.0000     -.0220    14.2734    12.9883     2.3047  4204.0000
 3563.1608     8.1016  2360.0000     -.0122    13.4062    13.0859     2.3008  4192.0000
 3563.3132     8.1016  2358.0000     -.0127    13.1328    14.2090     2.2969  4152.0000
 3563.4656     8.1016  2360.0000     -.0156    14.6094    14.3066     2.3066  4140.0000
 3563.6180     8.1016  2362.0000     -.0239    14.3281    14.2578     2.3164  4090.0000
 3563.7704     8.1016  2360.0000     -.0352    14.6641    12.8418     2.3184  4104.0000
 3563.9228     8.1016  2360.0000     -.0298    14.3906    12.5488     2.3105  4090.0000
 3564.0752     8.1016  2362.0000     -.0225    15.5625    13.0859     2.3047  4140.0000
 3564.2276     8.1016  2362.0000     -.0137    15.2109    13.4277     2.3027  4204.0000
 3564.3800     8.1094  2364.0000     -.0146    14.8672    13.4766     2.2891  4232.0000
 3564.5324     8.1016  2364.0000     -.0103    14.2266    12.5488     2.3008  4224.0000
 3564.6848     8.1016  2364.0000     -.0107    14.2109    13.2813     2.2969  4220.0000
 3564.8372     8.1094  2366.0000     -.0122    15.3672    13.4277     2.3145  4232.0000
 3564.9896     8.1016  2368.0000     -.0298    15.6563    14.1602     2.2871  4248.0000
 3565.1420     8.1016  2368.0000     -.0376    16.5313    13.8672     2.2852  4188.0000
 3565.2944     8.1016  2368.0000     -.0303    15.6719    14.2578     2.3008  4160.0000
 3565.4468     8.1016  2370.0000     -.0244    15.1094    14.4043     2.3066  4124.0000
 3565.5992     8.1016  2368.0000     -.0332    13.6797    14.7949     2.2891  4112.0000
 3565.7516     8.1094  2366.0000     -.0391    14.8594    14.5020     2.2715  4100.0000
 3565.9040     8.1016  2360.0000     -.0527    16.0313    14.7949     2.2520  4112.0000
 3566.0564     8.1094  2358.0000     -.0376    17.4844    14.4531     2.2754  4168.0000
 3566.2088     8.1094  2362.0000     -.0288    17.7969    14.5996     2.2695  4208.0000
 3566.3612     8.1250  2360.0000     -.0225    16.9219    14.2578     2.2676  4204.0000
 3566.5136     8.1250  2364.0000     -.0171    17.2344    14.3066     2.2617  4160.0000
 3566.6660     8.1250  2364.0000     -.0337    16.3750    14.3066     2.2363  4140.0000
 3566.8184     8.1250  2364.0000     -.0352    16.6719    14.6484     2.2480  4152.0000
 3566.9708     8.1250  2362.0000     -.0381    17.8125    15.7715     2.2441  4192.0000
 3567.1232     8.1250  2362.0000     -.0225    18.0469    16.2109     2.2832  4232.0000
 3567.2756     8.1250  2364.0000     -.0093    19.2031    16.4551     2.2969  4260.0000
 3567.4280     8.1250  2364.0000     -.0146    18.5938    16.1621     2.2988  4228.0000
 3567.5804     8.1250  2364.0000     -.0210    20.3438    16.8457     2.2812  4200.0000
 3567.7328     8.1250  2366.0000     -.0239    22.0625    17.7734     2.2773  4172.0000
 3567.8852     8.1250  2366.0000     -.0200    22.9531    18.6035     2.2812  4140.0000
 3568.0376     8.1094  2370.0000     -.0127    21.7969    19.3848     2.2812  4112.0000
 3568.1900     8.1094  2368.0000     -.0215    19.7656    18.7988     2.2637  4074.0000
 3568.3424     8.1094  2370.0000     -.0303    19.4531    18.5547     2.2520  4094.0000
 3568.4948     8.1016  2366.0000     -.0283    20.2969    17.6758     2.2734  4094.0000
 3568.6472     8.0859  2364.0000     -.0278    21.2187    18.0664     2.2949  4148.0000
 3568.7996     8.0859  2362.0000     -.0264    22.4063    17.6270     2.3145  4212.0000
 3568.9520     8.0859  2360.0000     -.0371    22.9844    17.9688     2.3105  4248.0000
 3569.1044     8.0703  2364.0000     -.0396    22.7031    18.2129     2.3184  4272.0000
 3569.2568     8.0625  2362.0000     -.0400    20.6875    18.4082     2.3301  4260.0000
 3569.4092     8.0625  2362.0000     -.0449    20.7969    18.5547     2.3340  4224.0000
 3569.5616     8.0625  2362.0000     -.0527    20.8281    18.1152     2.3398  4168.0000
 3569.7140     8.0859  2362.0000     -.0342    23.7969    19.3359     2.3691  4094.0000
 3569.8664     8.1094  2366.0000     -.0303    23.0937    19.0430     2.3574  4124.0000
 3570.0188     8.1016  2364.0000     -.0225    23.0156    18.3594     2.3359  4112.0000
 3570.1712     8.1094  2366.0000     -.0352    20.6094    17.2363     2.2871  4148.0000
 3570.3236     8.1094  2366.0000     -.0391    19.4688    16.5039     2.2734  4120.0000
 3570.4760     8.1094  2366.0000     -.0332    19.7813    16.6504     2.2871  4090.0000
 3570.6284     8.1094  2364.0000     -.0293    21.5312    16.0156     2.3086  4152.0000
 3570.7808     8.1094  2368.0000     -.0205    23.0156    15.9180     2.3457  4300.0000
 3570.9332     8.0859  2368.0000     -.0200    25.3438    16.4551     2.3672  4300.0000
 3571.0856     8.1016  2368.0000     -.0225    25.9375    17.0410     2.3926  4280.0000
 3571.2380     8.1484  2368.0000     -.0259    25.6250    17.9688     2.3965  4208.0000
 3571.3904     8.1484  2364.0000     -.0225    20.3750    17.6270     2.3867  4164.0000
 3571.5428     8.1484  2358.0000     -.0371    17.1875    16.9434     2.3418  4124.0000
 3571.6952     8.1562  2358.0000     -.0430    15.4531    16.9434     2.3262  4104.0000
 3571.8476     8.1562  2360.0000     -.0439    20.7188    18.2617     2.3574  4124.0000
 3572.0000     8.2031  2362.0000     -.0264    27.4687    20.1660     2.4375  4164.0000
 3572.1524     8.1562  2362.0000     -.0156    33.0313    20.9961     2.4844  4164.0000
 3572.3048     8.1641  2360.0000     -.0181    36.0625    21.4355     2.4805  4164.0000
 3572.4572     8.1562  2362.0000     -.0225    35.5000    21.0449     2.4355  4152.0000
 3572.6096     8.1562  2362.0000     -.0278    34.6250    21.8750     2.4160  4168.0000
 3572.7620     8.1562  2364.0000     -.0327    34.1875    21.1914     2.4141  4220.0000
 3572.9144     8.1484  2364.0000     -.0317    32.8750    22.1680     2.4316  4260.0000
 3573.0668     8.1953  2364.0000     -.0220    29.3594    21.2891     2.4219  4232.0000
 3573.2192     8.0781  2368.0000     -.0229    21.7969    20.1660     2.3789  4148.0000
 3573.3716     8.0547  2368.0000     -.0327    16.0000    17.1387     2.3437  4168.0000
 3573.5240     8.0469  2368.0000     -.0488    14.5391    16.0645     2.3281  4200.0000
 3573.6764     8.0469  2368.0000     -.0527    14.2422    16.6504     2.3477  4212.0000
 3573.8288     8.0312  2366.0000     -.0459    14.5312    17.3340     2.3516  4188.0000
 3573.9812     8.0547  2368.0000     -.0464    13.9609    16.2109     2.3340  4152.0000
 3574.1336     8.0469  2364.0000     -.0508    13.3750    15.0879     2.3066  4140.0000
 3574.2860     8.0391  2362.0000     -.0659    12.8047    14.5996     2.2949  4120.0000
