~VERSION INFORMATION
VERS.                                                 2.0:   CWLS Log ASCII Standard-VERSION 2.0
WRAP.                                                  NO:   One line per depth step
~Well Information Block
STRT.M                                           398.5748:   Top Depth
STOP.M                                          3794.8088:   Bottom Depth
STEP.M                                             .15240:   Depth Increment
NULL.                                            -999.250:   Null Value
FLD .                                             WILDCAT:   Field Name
WELL.                                              15/9-7:   NAME
WBN .                                              15/9-7:   WELLBORE
NATI.                                                 NOR:   COUNTRY
BHT1.DEGF                                            78.0:   BH TEMP 1
BHT2.DEGF                                            90.0:   BH TEMP 2
BHT3.DEGF                                            91.0:   BH TEMP 3
BS1 .IN                                             17.50:   BIT SIZE 1
CTRY.                                                 NOR:   COUNTRY
CBD1.M                                              181.0:   CSG 1 DRILL DEP
CBL1.M                                              181.0:   CSG 1 LOG DEP
CS1 .IN                                              30.0:   CSG 1 SIZE
COMP.                                             STATOIL:   OPERATOR
PDAT.                                                 MSL:   PERM DATUM
PROV.                                            OFFSHORE:   PROVINCE
COUN.                                    NEPTUNO NORDRAUG:   RIG NAME
SPUD.                                          1980/12/26:   SPUD DATE
LATI.                                       58 22 56.07 N:   SURF. LATITUDE
LONG.                                        1 42 45.99 E:   SURF. LONGITUDE
BTD1.                                             465.0 M:   TOTAL DEPTH 1
BTD2.                                            1185.0 M:   TOTAL DEPTH 2
BTD3.                                            1185.0 M:   TOTAL DEPTH 3
PBWE.                                              15/9-7:   PB WELL ID
APIN.                                              15/9-7:   PB WELLBORE ID
PBWS.                                                 all:   PB WELL NAME SET
~PARAMETER INFORMATION (log)
LNAM.                              FDC/CNL/GR  COMPOSITED:   NAME
LTYP.                                         DEPTH MATCH:   LOG TYPE
LSRV.                                            DEN/NEUT:   LOG SERVICE
LSOU.                                             SPT/NPD:   LOG SOURCE
LVSN.                                                   1:   LOG VERSION
BHIS.                                                   R:   BRIEF HISTORY
FHIS.                                             RAW-LIS:   FULL HISTORY
LCNM.                                        SCHLUMBERGER:   LOGGING CONTRACTOR
TOOL.                             FDC/CNL/GR (COMPOSITED):   TOOL STRING
~Curve Information Block
#MNEM.UNIT                                        API CODE    No Description
#=========                                        ========    == ===========
DEPT.M                                       00 001 00 00:     1  DEPTH
CALI.IN                                                  :     2  Caliper
CS.                                                      :     3  Cable Speed
DRHO.G/CC                                                :     4  Bulk density correction
GR.GAPI                                                  :     5  Gamma Ray
NPHI.%                                                   :     6  Neutron porosity
RHOB.G/CC                                                :     7  Bulk density
TENS.LB                                                  :     8  Cable Tension
~ASCII
# ...
 3102.9128     9.5000  2470.0000     -.0044    13.5391    10.8887     2.6035  3700.0000
 3103.0652     9.5000  2472.0000      .0107    15.3281    11.1816     2.6191  3704.0000
 3103.2176     9.5000  2472.0000      .0103    15.2422    10.8887     2.6055  3730.0000
 3103.3700     9.4922  2474.0000      .0259    16.6875    11.8164     2.6016  3714.0000
 3103.5224     9.4922  2474.0000      .0166    15.7578    13.0371     2.5918  3700.0000
 3103.6748     9.4922  2474.0000      .0220    16.0313    13.4766     2.5820  3670.0000
 3103.8272     9.4844  2474.0000      .0142    15.7578    14.1602     2.5625  3650.0000
 3103.9796     9.4844  2476.0000      .0000    15.1562    14.1602     2.5332  3664.0000
 3104.1320     9.4453  2474.0000     -.0020    13.0547    14.3066     2.5273  3654.0000
 3104.2844     9.4219  2466.0000     -.0015    13.0625    12.4512     2.5508  3650.0000
 3104.4368     9.4219  2462.0000      .0210    14.3125    12.0117     2.5742  3680.0000
 3104.5892     9.4219  2464.0000      .0278    15.2500    12.5000     2.5918  3754.0000
 3104.7416     9.4219  2468.0000      .0220    14.6484    13.0859     2.5840  3780.0000
 3104.8940     9.4219  2466.0000      .0122    13.4375    12.7441     2.5996  3790.0000
 3105.0464     9.3984  2466.0000      .0107    11.5938    11.8652     2.6074  3774.0000
 3105.1988     9.3984  2468.0000      .0098    13.1172    12.6465     2.6055  3820.0000
 3105.3512     9.3906  2468.0000      .0122    14.3359    12.1094     2.5859  3790.0000
 3105.5036     9.3828  2470.0000      .0156    15.2656    12.5977     2.5859  3734.0000
 3105.6560     9.3828  2474.0000      .0093    14.1016    11.1328     2.5723  3640.0000
 3105.8084     9.3672  2472.0000     -.0024    13.2266    11.3770     2.5781  3620.0000
 3105.9608     9.3672  2472.0000     -.0068    14.4609    10.9863     2.5762  3630.0000
 3106.1132     9.3516  2472.0000      .0059    14.4063    11.8164     2.5918  3694.0000
 3106.2656     9.3516  2474.0000      .0122    14.9766    11.7188     2.5820  3720.0000
 3106.4180     9.3516  2476.0000      .0210    14.9531    12.0117     2.5762  3690.0000
 3106.5704     9.3672  2474.0000      .0078    14.9297    12.3047     2.5547  3670.0000
 3106.7228     9.3750  2476.0000     -.0015    15.2031    12.8906     2.5391  3690.0000
 3106.8752     9.3828  2474.0000     -.0137    14.6094    13.0371     2.5410  3710.0000
 3107.0276     9.3984  2476.0000     -.0015    14.3125    13.7207     2.5684  3720.0000
 3107.1800     9.3984  2472.0000      .0054    13.3906    13.9648     2.5977  3740.0000
 3107.3324     9.3984  2466.0000      .0107    11.8594    14.4043     2.6035  3754.0000
 3107.4848     9.3516  2464.0000     -.0068    10.9453    12.7441     2.5723  3770.0000
 3107.6372     9.3437  2466.0000     -.0059    10.3438    11.4258     2.5508  3750.0000
 3107.7896     9.3437  2466.0000     -.0010    10.0234    10.5469     2.5488  3720.0000
 3107.9420     9.3437  2468.0000     -.0015    10.6406    11.6699     2.5488  3694.0000
 3108.0944     9.3437  2468.0000      .0020    12.1797    12.9883     2.5527  3704.0000
 3108.2468     9.3437  2472.0000     -.0024    14.3437    13.5742     2.5352  3700.0000
 3108.3992     9.3437  2470.0000      .0015    14.3750    13.6719     2.5449  3680.0000
 3108.5516     9.3437  2470.0000     -.0063    11.9687    13.9648     2.5332  3634.0000
 3108.7040     9.3437  2474.0000      .0063     9.8516    13.8672     2.5547  3644.0000
 3108.8564     9.3437  2472.0000      .0024     8.3047    14.0625     2.5332  3684.0000
 3109.0088     9.3203  2472.0000      .0171     8.5781    13.6719     2.5625  3714.0000
 3109.1612     9.3281  2472.0000      .0024     9.1484    13.9160     2.5527  3740.0000
 3109.3136     9.3047  2474.0000      .0088     8.8125    14.2090     2.5781  3750.0000
 3109.4660     9.2969  2478.0000      .0020     9.0859    13.6719     2.5781  3754.0000
 3109.6184     9.2734  2478.0000      .0020     8.1719    13.4277     2.5879  3710.0000
 3109.7708     9.2734  2478.0000     -.0044     9.9844    12.9395     2.5684  3714.0000
 3109.9232     9.2734  2480.0000      .0005    10.0078    12.8418     2.5547  3700.0000
 3110.0756     9.2734  2474.0000     -.0117    11.8359    11.9629     2.5371  3720.0000
 3110.2280     9.2734  2472.0000     -.0034    11.2344    10.5957     2.5664  3710.0000
 3110.3804     9.2344  2468.0000     -.0034    11.2422    10.2051     2.5879  3700.0000
 3110.5328     9.2187  2466.0000     -.0049    10.6328    10.6445     2.5742  3680.0000
 3110.6852     9.2187  2466.0000     -.0093    11.5547    11.8652     2.5684  3650.0000
 3110.8376     9.2187  2468.0000     -.0151    12.4687    12.9883     2.5410  3650.0000
 3110.9900     9.2187  2468.0000      .0063    13.0859    13.1348     2.5684  3664.0000
 3111.1424     9.2187  2468.0000      .0132    12.1875    12.7930     2.5625  3700.0000
 3111.2948     9.2187  2472.0000      .0264    10.9766    12.1094     2.5762  3734.0000
 3111.4472     9.2187  2468.0000      .0269    10.3828    11.7676     2.5801  3760.0000
 3111.5996     9.2187  2470.0000      .0029    10.1094    12.0117     2.5488  3790.0000
 3111.7520     9.2109  2470.0000     -.0044     9.5156    11.4258     2.5488  3810.0000
 3111.9044     9.2187  2474.0000     -.0112     7.6680    11.4746     2.5566  3830.0000
 3112.0568     9.1953  2472.0000      .0024     7.3125    10.6934     2.5957  3794.0000
 3112.2092     9.1953  2472.0000      .0054     8.5000    11.0352     2.5840  3724.0000
 3112.3616     9.1953  2474.0000     -.0044     9.7109    10.8887     2.5547  3674.0000
 3112.5140     9.1953  2474.0000     -.0171     9.7109    11.1816     2.5371  3650.0000
 3112.6664     9.1953  2472.0000     -.0210    10.0156    11.1328     2.5566  3644.0000
 3112.8188     9.1953  2478.0000     -.0151    10.3359    10.9863     2.5762  3644.0000
 3112.9712     9.1953  2474.0000     -.0034    10.9375    10.4492     2.5605  3660.0000
 3113.1236     9.1953  2470.0000     -.0010     9.7187    10.1074     2.5566  3690.0000
 3113.2760     9.1953  2466.0000      .0044    10.3125     9.8633     2.5664  3724.0000
 3113.4284     9.1953  2464.0000     -.0020    10.9219    10.4980     2.5820  3770.0000
 3113.5808     9.1953  2464.0000     -.0044    12.7344    10.7910     2.5859  3770.0000
 3113.7332     9.1719  2464.0000     -.0122    12.1562    10.6445     2.5781  3814.0000
 3113.8856     9.1484  2466.0000     -.0127    12.1875     9.9121     2.5762  3830.0000
 3114.0380     9.1484  2470.0000     -.0054    11.6172    10.5957     2.5781  3830.0000
 3114.1904     9.1484  2470.0000     -.0039    11.9453    10.7422     2.5762  3764.0000
 3114.3428     9.1484  2472.0000      .0010    12.5781    11.0352     2.5703  3670.0000
 3114.4952     9.1484  2474.0000     -.0068    13.5547    10.6934     2.5586  3670.0000
 3114.6476     9.1562  2474.0000      .0000    15.1016    11.3770     2.5566  3660.0000
 3114.8000     9.1484  2478.0000      .0034    14.1875    11.5723     2.5566  3714.0000
 3114.9524     9.1562  2478.0000      .0034    13.1719    10.5957     2.5664  3734.0000
 3115.1048     9.1484  2478.0000     -.0020    10.9609     9.9121     2.5645  3690.0000
 3115.2572     9.1484  2476.0000     -.0005    11.5234     8.7891     2.5879  3700.0000
 3115.4096     9.1484  2476.0000     -.0010    11.2109     8.7402     2.5996  3740.0000
 3115.5620     9.1484  2478.0000      .0010    11.5078     8.6426     2.6113  3774.0000
 3115.7144     9.1328  2480.0000     -.0034     9.3828     9.0332     2.6133  3804.0000
 3115.8668     9.1172  2482.0000      .0142     8.7891     8.3984     2.6309  3834.0000
 3116.0192     9.0859  2478.0000      .0166     7.8867     7.5195     2.6387  3800.0000
 3116.1716     9.0312  2472.0000      .0259     8.5000     6.9336     2.6445  3714.0000
 3116.3240     8.9922  2470.0000      .0034     8.5156     6.8848     2.6172  3694.0000
 3116.4764     8.9922  2470.0000      .0059     9.1250     6.8848     2.6191  3650.0000
 3116.6288     8.9844  2470.0000      .0044     9.7422     6.6406     2.6270  3660.0000
