~VERSION INFORMATION
VERS.                                                 2.0:   CWLS Log ASCII Standard-VERSION 2.0
WRAP.                                                  NO:   One line per depth step
~Well Information Block
STRT.M                                           398.5748:   Top Depth
STOP.M                                          3794.8088:   Bottom Depth
STEP.M                                             .15240:   Depth Increment
NULL.                                            -999.250:   Null Value
FLD .                                             WILDCAT:   Field Name
WELL.                                              15/9-7:   NAME
WBN .                                              15/9-7:   WELLBORE
NATI.                                                 NOR:   COUNTRY
BHT1.DEGF                                            78.0:   BH TEMP 1
BHT2.DEGF                                            90.0:   BH TEMP 2
BHT3.DEGF                                            91.0:   BH TEMP 3
BS1 .IN                                             17.50:   BIT SIZE 1
CTRY.                                                 NOR:   COUNTRY
CBD1.M                                              181.0:   CSG 1 DRILL DEP
CBL1.M                                              181.0:   CSG 1 LOG DEP
CS1 .IN                                              30.0:   CSG 1 SIZE
COMP.                                             STATOIL:   OPERATOR
PDAT.                                                 MSL:   PERM DATUM
PROV.                                            OFFSHORE:   PROVINCE
COUN.                                    NEPTUNO NORDRAUG:   RIG NAME
SPUD.                                          1980/12/26:   SPUD DATE
LATI.                                       58 22 56.07 N:   SURF. LATITUDE
LONG.                                        1 42 45.99 E:   SURF. LONGITUDE
BTD1.                                             465.0 M:   TOTAL DEPTH 1
BTD2.                                            1185.0 M:   TOTAL DEPTH 2
BTD3.                                            1185.0 M:   TOTAL DEPTH 3
PBWE.                                              15/9-7:   PB WELL ID
APIN.                                              15/9-7:   PB WELLBORE ID
PBWS.                                                 all:   PB WELL NAME SET
~PARAMETER INFORMATION (log)
LNAM.                              FDC/CNL/GR  COMPOSITED:   NAME
LTYP.                                         DEPTH MATCH:   LOG TYPE
LSRV.                                            DEN/NEUT:   LOG SERVICE
LSOU.                                             SPT/NPD:   LOG SOURCE
LVSN.                                                   1:   LOG VERSION
BHIS.                                                   R:   BRIEF HISTORY
FHIS.                                             RAW-LIS:   FULL HISTORY
LCNM.                                        SCHLUMBERGER:   LOGGING CONTRACTOR
TOOL.                             FDC/CNL/GR (COMPOSITED):   TOOL STRING
~Curve Information Block
#MNEM.UNIT                                        API CODE    No Description
#=========                                        ========    == ===========
DEPT.M                                       00 001 00 00:     1  DEPTH
CALI.IN                                                  :     2  Caliper
CS.                                                      :     3  Cable Speed
DRHO.G/CC                                                :     4  Bulk density correction
GR.GAPI                                                  :     5  Gamma Ray
NPHI.%                                                   :     6  Neutron porosity
RHOB.G/CC                                                :     7  Bulk density
TENS.LB                                                  :     8  Cable Tension
~ASCII
# ...
 1300.0208    18.2719  3186.0000      .0386    43.3438  -999.2500     1.6738  2410.0000
 1300.1732    18.3344  3186.0000      .0454    48.6563  -999.2500     1.7432  2374.0000
 1300.3256    18.4437  3186.0000      .0576    47.5938  -999.2500     1.7998  2390.0000
 1300.4780    18.4750  3184.0000      .0654    47.5000  -999.2500     1.8271  2410.0000
 1300.6304    18.4281  3184.0000      .0508    46.5625  -999.2500     1.8076  2394.0000
 1300.7828    18.2250  3186.0000      .0684    47.0000  -999.2500     1.8223  2394.0000
 1300.9352    18.2250  3186.0000      .0884    47.8750  -999.2500     1.8379  2420.0000
 1301.0876    18.4437  3188.0000      .0859    48.3125  -999.2500     1.8398  2390.0000
 1301.2400    18.4906  3188.0000      .0820    50.0625  -999.2500     1.8281  2410.0000
 1301.3924    18.7250  3190.0000      .0615    50.5313  -999.2500     1.8008  2444.0000
 1301.5448    19.1000  3192.0000      .0425    49.1250  -999.2500     1.7744  2410.0000
 1301.6972    19.8500  3194.0000      .0254    49.0938  -999.2500     1.7725  2380.0000
 1301.8496    20.8031  3194.0000      .0229    45.5625  -999.2500     1.7246  2444.0000
 1302.0020    18.6312  3196.0000      .0337    44.7500  -999.2500     1.7002  2414.0000
 1302.1544    18.2562  3198.0000      .0176    46.5000  -999.2500     1.6621  2384.0000
 1302.3068    18.3187  3198.0000      .0010    49.5312  -999.2500     1.6934  2370.0000
 1302.4592    18.4594  3196.0000      .0034    47.7500  -999.2500     1.7402  2420.0000
 1302.6116    18.4437  3194.0000      .0308    47.7812  -999.2500     1.7930  2454.0000
 1302.7640    18.7719  3188.0000      .0327    45.6563  -999.2500     1.8076  2424.0000
 1302.9164    18.7875  3186.0000      .0449    44.4063  -999.2500     1.8291  2430.0000
 1303.0688    18.7250  3186.0000      .0459    41.4688  -999.2500     1.8389  2394.0000
 1303.2212    19.1781  3186.0000      .1035    39.8125  -999.2500     1.8613  2360.0000
 1303.3736    19.5062  3186.0000      .0830    42.5313  -999.2500     1.7734  2380.0000
 1303.5260    19.7250  3186.0000      .0488    42.4687  -999.2500     1.6836  2410.0000
 1303.6784    19.4750  3188.0000      .0000    42.7500  -999.2500     1.6436  2384.0000
 1303.8308    19.5687  3190.0000      .0044    40.7812  -999.2500     1.7129  2400.0000
 1303.9832    19.6312  3190.0000      .0366    41.5000  -999.2500     1.8154  2430.0000
 1304.1356    19.7094  3190.0000      .0688    42.8438  -999.2500     1.8604  2430.0000
 1304.2880    19.5219  3192.0000      .0479    43.7500  -999.2500     1.8369  2410.0000
 1304.4404    19.4437  3192.0000      .0405    44.1875  -999.2500     1.8135  2420.0000
 1304.5928    19.5687  3192.0000      .0112    42.8750  -999.2500     1.7822  2440.0000
 1304.7452    20.0844  3194.0000      .0337    44.5938  -999.2500     1.7861  2434.0000
 1304.8976    19.3812  3194.0000      .0288    44.6562  -999.2500     1.7705  2380.0000
 1305.0500    19.2562  3196.0000      .0630    43.7813  -999.2500     1.7715  2370.0000
 1305.2024    18.8344  3198.0000      .0679    44.3125  -999.2500     1.7373  2390.0000
 1305.3548    18.6156  3200.0000      .0762    43.4062  -999.2500     1.7363  2424.0000
 1305.5072    18.3031  3200.0000      .0732    45.1875  -999.2500     1.7441  2434.0000
 1305.6596    18.5531  3198.0000      .0659    46.0937  -999.2500     1.7822  2424.0000
 1305.8120    18.7562  3196.0000      .0684    46.5938  -999.2500     1.8213  2400.0000
 1305.9644    18.8812  3192.0000      .0513    48.7813  -999.2500     1.8506  2384.0000
 1306.1168    19.0062  3190.0000      .0610    47.4375  -999.2500     1.8389  2390.0000
 1306.2692    19.1312  3188.0000      .0610    44.8750  -999.2500     1.7656  2394.0000
 1306.4216    17.8500  3188.0000      .0522    43.2188  -999.2500     1.7119  2390.0000
 1306.5740    18.1625  3188.0000      .0249    44.7813  -999.2500     1.7051  2400.0000
 1306.7264    18.4594  3188.0000      .0078    48.3125  -999.2500     1.7568  2424.0000
 1306.8788    18.4750  3188.0000      .0376    49.1563  -999.2500     1.8135  2410.0000
 1307.0312    18.4906  3188.0000      .0479    48.0000  -999.2500     1.8184  2404.0000
 1307.1836    18.1937  3188.0000      .0576    50.1250  -999.2500     1.8174  2404.0000
 1307.3360    19.1312  3188.0000      .0547    49.1563  -999.2500     1.8340  2430.0000
 1307.4884    19.6000  3188.0000      .0557    50.9375  -999.2500     1.8486  2434.0000
 1307.6408    18.6000  3190.0000      .0513    51.7813  -999.2500     1.8516  2424.0000
 1307.7932    18.5844  3192.0000      .0459    54.8750  -999.2500     1.8184  2380.0000
 1307.9456    18.8656  3190.0000      .0425    54.8125  -999.2500     1.7773  2390.0000
 1308.0980    18.2094  3192.0000      .0371    51.7500  -999.2500     1.7607  2404.0000
 1308.2504    18.3500  3194.0000      .0327    49.5312  -999.2500     1.7793  2430.0000
 1308.4028    18.7875  3196.0000      .0542    48.1875  -999.2500     1.8145  2430.0000
 1308.5552    18.6937  3196.0000      .0454    47.2500  -999.2500     1.7695  2420.0000
 1308.7076    17.9750  3198.0000      .0332    46.3438  -999.2500     1.7393  2390.0000
 1308.8600    18.2094  3198.0000      .0259    45.0625  -999.2500     1.7607  2390.0000
 1309.0124    18.4125  3198.0000      .0688    44.2187  -999.2500     1.8359  2410.0000
 1309.1648    18.4750  3194.0000      .0967    46.9063  -999.2500     1.8750  2400.0000
 1309.3172    18.4594  3190.0000      .0874    47.8438  -999.2500     1.8662  2384.0000
 1309.4696    18.6312  3186.0000      .0918    50.5625  -999.2500     1.9043  2360.0000
 1309.6220    18.5687  3182.0000      .0879    50.2500  -999.2500     1.9053  2410.0000
 1309.7744    18.4594  3182.0000      .0806    52.5938  -999.2500     1.8721  2450.0000
 1309.9268    18.4281  3184.0000      .0542    52.3125  -999.2500     1.8232  2424.0000
 1310.0792    18.3500  3186.0000      .0464    51.7813  -999.2500     1.7803  2414.0000
 1310.2316    18.1781  3186.0000      .0459    49.9375  -999.2500     1.7744  2430.0000
 1310.3840    18.2250  3186.0000      .0771    46.1250  -999.2500     1.7949  2424.0000
 1310.5364    18.8344  3188.0000      .0835    44.7188  -999.2500     1.7881  2430.0000
 1310.6888    18.9594  3190.0000      .0796    42.3437  -999.2500     1.7129  2364.0000
 1310.8412    18.2719  3192.0000      .0566    46.3438  -999.2500     1.6650  2380.0000
 1310.9936    18.4906  3192.0000      .0396    49.0312  -999.2500     1.6406  2410.0000
 1311.1460    17.8812  3194.0000      .0391    52.2188  -999.2500     1.6992  2434.0000
 1311.2984    17.7406  3194.0000      .0386    50.0625  -999.2500     1.7275  2420.0000
 1311.4508    17.9750  3196.0000      .0547    48.7500  -999.2500     1.7744  2420.0000
 1311.6032    18.3500  3196.0000      .0469    46.0313  -999.2500     1.7803  2394.0000
 1311.7556    17.8812  3196.0000      .0576    47.7812  -999.2500     1.8115  2420.0000
 1311.9080    18.8969  3196.0000      .0581    49.1563  -999.2500     1.8359  2374.0000
 1312.0604    19.0844  3198.0000      .0811    50.4375  -999.2500     1.8516  2354.0000
 1312.2128    19.4750  3198.0000      .0986    49.5625  -999.2500     1.8271  2400.0000
 1312.3652    18.6000  3196.0000      .0894    47.7812  -999.2500     1.7715  2440.0000
 1312.5176    18.3187  3194.0000      .0908    49.5938  -999.2500     1.7441  2430.0000
 1312.6700    17.9906  3188.0000      .0669    53.1563  -999.2500     1.7305  2424.0000
 1312.8224    17.9750  3186.0000      .0571    53.5937  -999.2500     1.7676  2400.0000
 1312.9748    18.0375  3184.0000      .0620    50.5937  -999.2500     1.8125  2424.0000
 1313.1272    18.0375  3184.0000      .0459    48.0937  -999.2500     1.8086  2454.0000
 1313.2796    18.3812  3184.0000      .0508    48.2188  -999.2500     1.8076  2434.0000
 1313.4320    18.0687  3184.0000      .0317    47.7188  -999.2500     1.7813  2390.0000
 1313.5844    18.0687  3184.0000      .0366    45.8125  -999.2500     1.7920  2394.0000
 1313.7368    17.8344  3184.0000      .0298    44.7500  -999.2500     1.7822  2420.0000
