~VERSION INFORMATION
VERS.                                                 2.0:   CWLS Log ASCII Standard-VERSION 2.0
WRAP.                                                  NO:   One line per depth step
~Well Information Block
STRT.M                                           398.5748:   Top Depth
STOP.M                                          3794.8088:   Bottom Depth
STEP.M                                             .15240:   Depth Increment
NULL.                                            -999.250:   Null Value
FLD .                                             WILDCAT:   Field Name
WELL.                                              15/9-7:   NAME
WBN .                                              15/9-7:   WELLBORE
NATI.                                                 NOR:   COUNTRY
BHT1.DEGF                                            78.0:   BH TEMP 1
BHT2.DEGF                                            90.0:   BH TEMP 2
BHT3.DEGF                                            91.0:   BH TEMP 3
BS1 .IN                                             17.50:   BIT SIZE 1
CTRY.                                                 NOR:   COUNTRY
CBD1.M                                              181.0:   CSG 1 DRILL DEP
CBL1.M                                              181.0:   CSG 1 LOG DEP
CS1 .IN                                              30.0:   CSG 1 SIZE
COMP.                                             STATOIL:   OPERATOR
PDAT.                                                 MSL:   PERM DATUM
PROV.                                            OFFSHORE:   PROVINCE
COUN.                                    NEPTUNO NORDRAUG:   RIG NAME
SPUD.                                          1980/12/26:   SPUD DATE
LATI.                                       58 22 56.07 N:   SURF. LATITUDE
LONG.                                        1 42 45.99 E:   SURF. LONGITUDE
BTD1.                                             465.0 M:   TOTAL DEPTH 1
BTD2.                                            1185.0 M:   TOTAL DEPTH 2
BTD3.                                            1185.0 M:   TOTAL DEPTH 3
PBWE.                                              15/9-7:   PB WELL ID
APIN.                                              15/9-7:   PB WELLBORE ID
PBWS.                                                 all:   PB WELL NAME SET
~PARAMETER INFORMATION (log)
LNAM.                              FDC/CNL/GR  COMPOSITED:   NAME
LTYP.                                         DEPTH MATCH:   LOG TYPE
LSRV.                                            DEN/NEUT:   LOG SERVICE
LSOU.                                             SPT/NPD:   LOG SOURCE
LVSN.                                                   1:   LOG VERSION
BHIS.                                                   R:   BRIEF HISTORY
FHIS.                                             RAW-LIS:   FULL HISTORY
LCNM.                                        SCHLUMBERGER:   LOGGING CONTRACTOR
TOOL.                             FDC/CNL/GR (COMPOSITED):   TOOL STRING
~Curve Information Block
#MNEM.UNIT                                        API CODE    No Description
#=========                                        ========    == ===========
DEPT.M                                       00 001 00 00:     1  DEPTH
CALI.IN                                                  :     2  Caliper
CS.                                                      :     3  Cable Speed
DRHO.G/CC                                                :     4  Bulk density correction
GR.GAPI                                                  :     5  Gamma Ray
NPHI.%                                                   :     6  Neutron porosity
RHOB.G/CC                                                :     7  Bulk density
TENS.LB                                                  :     8  Cable Tension
~ASCII
  398.5748    19.6563  1826.0000     -.7344    29.8594  -999.2500     1.7744   830.0000
  398.7272    19.6715  1826.0000     -.7525    31.5362  -999.2500     1.7258   859.2675
  398.8796    19.6867  1824.0972     -.8119    32.7822  -999.2500     1.6261   831.4595
  399.0320    19.6875  1824.0000     -.7516    34.3790  -999.2500     1.6736   848.5387
  399.1844    19.6875  1821.2925     -.6924    34.6974  -999.2500     1.7333   854.5125
  399.3368    19.6875  1819.2437     -.6724    35.9261  -999.2500     1.7461   850.6095
  399.4892    19.6875  1817.2925     -.7171    36.1471  -999.2500     1.6945   862.8052
  399.6416    19.6616  1817.0000     -.7490    35.4825  -999.2500     1.6564   873.2926
  399.7940    19.6311  1817.0000     -.7295    35.0168  -999.2500     1.6905   862.9272
  399.9464    19.5884  1817.7805     -.7099    34.3765  -999.2500     1.7269   856.0970
  400.0988    19.5427  1818.0000     -.7718    35.7074  -999.2500     1.6901   832.3153
  400.2512    19.4626  1818.0000     -.9845    35.3642  -999.2500     1.5607   843.2946
  400.4036    19.4596  1818.0000    -1.3048    33.4930  -999.2500     1.3030   850.0000
  400.5560    19.4794  1818.6829    -1.1821    31.1471  -999.2500     1.5347   839.7557
  400.7084    19.5050  1819.0000     -.8813    30.9767  -999.2500     1.8347   848.1705
  400.8608    19.5156  1819.6343     -.6661    32.6149  -999.2500     2.0054   855.0000
  401.0132    19.5156  1820.6096     -.6804    34.1752  -999.2500     1.9086   836.7092
  401.1656    19.5156  1821.5852     -.7380    33.2789  -999.2500     1.7862   851.3423
  401.3180    19.5156  1822.5610     -.7709    31.8605  -999.2500     1.7309   858.7791
  401.4704    19.5156  1823.5366     -.7529    31.5145  -999.2500     1.7488   858.0494
  401.6228    19.5236  1826.0488     -.7323    32.3804  -999.2500     1.7766   862.4390
  401.7752    19.5389  1828.4878     -.7456    33.9658  -999.2500     1.7632   855.1211
  401.9276    19.5469  1829.4636     -.7535    35.0108  -999.2500     1.7545   850.0000
  402.0800    19.5469  1830.4390     -.7625    35.2576  -999.2500     1.7465   845.6105
  402.2324    19.5404  1831.8291     -.7493    34.3324  -999.2500     1.7726   831.7076
  402.3848    19.5313  1832.6096     -.7298    32.7103  -999.2500     1.8162   823.9031
  402.5372    19.5255  1832.0000     -.7239    32.1654  -999.2500     1.8310   839.1472
  402.6896    19.5103  1830.6340     -.7156    32.5145  -999.2500     1.8329   856.7073
  402.8420    19.5050  1826.7314     -.7227    33.0122  -999.2500     1.8114   863.1711
  402.9944    19.5111  1823.4146     -.7382    33.6036  -999.2500     1.7796   868.5367
  403.1468    19.5042  1821.4636     -.7265    34.3826  -999.2500     1.7886   856.9535
  403.2992    19.5156  1820.2439     -.7216    35.0914  -999.2500     1.7995   842.3153
  403.4516    19.5156  1820.7803     -.7148    35.1074  -999.2500     1.8068   857.3148
  403.6040    19.5217  1820.0000     -.7096    34.0831  -999.2500     1.8146   837.8062
  403.7564    19.5522  1820.0000     -.6904    33.5571  -999.2500     1.8191   866.5846
  403.9088    19.5781  1820.0000     -.6699    32.5008  -999.2500     1.8285   852.1976
  404.0612    19.5781  1820.2437     -.7078    32.6418  -999.2500     1.7769   865.6095
  404.2136    19.5781  1821.9023     -.7379    32.5258  -999.2500     1.7620   870.0000
  404.3660    19.5781  1821.1465     -.7360    34.5343  -999.2500     1.7875   868.5348
  404.5184    19.5781  1822.9512     -.6923    35.0679  -999.2500     1.8566   849.5116
  404.6708    19.5781  1822.0488     -.6523    37.0305  -999.2500     1.8981   840.7327
  404.8232    19.5781  1824.0000     -.6489    38.2500  -999.2500     1.8838   870.0000
  404.9756    19.5784  1824.0056     -.6540    39.1298  -999.2500     1.8679   885.0000
  405.1280    19.6250  1825.0110     -.6903    39.9463  -999.2500     1.8243   884.9446
  405.2804    19.6250  1826.0000     -.6809    37.9318  -999.2500     1.8316   880.1671
  405.4328    19.6250  1826.0220     -.6957    37.5342  -999.2500     1.8052   889.7784
  405.5852    19.6254  1827.0000     -.6918    34.9983  -999.2500     1.7845   879.3053
  405.7376    19.6411  1827.0334     -.6883    38.2271  -999.2500     1.7966   855.0000
  405.8900    19.6556  1827.9612     -.6551    38.5574  -999.2500     1.8155   854.2227
  406.0424    19.6399  1826.8665     -.6406    40.6082  -999.2500     1.8148   835.0000
  406.1948    19.6242  1823.9500     -.6739    37.5672  -999.2500     1.7574   835.4994
  406.3472    19.6094  1822.8887     -.7151    37.5781  -999.2500     1.7122   845.0000
  406.4996    19.6075  1820.9387     -.7451    36.1831  -999.2500     1.6991   845.0000
  406.6520    19.5781  1819.9333     -.7646    35.1021  -999.2500     1.6877   843.6666
  406.8044    19.5770  1819.0725     -.7216    34.2871  -999.2500     1.7606   826.4496
  406.9568    19.5613  1820.0000     -.6983    33.6135  -999.2500     1.7875   843.8340
  407.1092    19.5469  1820.0000     -.6637    34.3125  -999.2500     1.8219   829.5833
  407.2616    19.5441  1820.0886     -.7252    35.4797  -999.2500     1.7658   825.8881
  407.4140    19.5156  1821.0000     -.7328    36.7924  -999.2500     1.7769   836.4166
  407.5664    19.5141  1821.1001     -.7463    35.9718  -999.2500     1.7768   850.0000
  407.7188    19.5000  1821.7886     -.7024    35.7221  -999.2500     1.8171   847.8856
  407.8712    19.4983  1820.1111     -.6827    35.7396  -999.2500     1.8334   832.7783
  408.0236    19.4880  1821.1165     -.6713    35.5834  -999.2500     1.8583   852.6681
  408.1760    19.5118  1822.1221     -.6477    34.7639  -999.2500     1.8973   833.7777
  408.3284    19.4884  1823.0000     -.6912    32.9836  -999.2500     1.8651   826.2784
  408.4808    19.5156  1823.1333     -.6705    33.9333  -999.2500     1.8848   833.6669
  408.6332    19.5156  1824.0000     -.6886    34.0235  -999.2500     1.8535   827.7788
  408.7856    19.5179  1824.1443     -.6525    34.7455  -999.2500     1.8825   847.1656
  408.9380    19.5313  1825.1499     -.7183    34.7188  -999.2500     1.8098   858.4998
  409.0904    19.5288  1826.3113     -.7119    34.8355  -999.2500     1.8278   850.0000
  409.2428    19.5181  1828.1611     -.7256    35.2925  -999.2500     1.8107   851.6110
  409.3952    19.5339  1828.6665     -.6757    34.2448  -999.2500     1.8582   858.3330
  409.5476    19.5469  1826.8276     -.6989    33.5884  -999.2500     1.8024   850.8610
  409.7000    19.5441  1825.4658     -.7309    33.4234  -999.2500     1.7478   851.4398
  409.8524    19.5227  1822.4497     -.7419    33.0736  -999.2500     1.7352   838.6682
  410.0048    19.4903  1819.8110     -.7781    34.1920  -999.2500     1.7102   853.1111
  410.1572    19.5126  1818.8054     -.7708    33.5156  -999.2500     1.7285   847.9172
  410.3096    19.5000  1818.2000     -.7946    34.5686  -999.2500     1.7061   855.0010
  410.4620    19.5032  1819.0000     -.7447    37.6048  -999.2500     1.7580   838.0840
  410.6144    19.5156  1819.4224     -.6915    40.5444  -999.2500     1.8066   850.0000
  410.7668    19.5156  1820.5667     -.6524    41.9036  -999.2500     1.7951   848.9166
  410.9192    19.5156  1819.6667     -.6273    39.9583  -999.2500     1.7470   848.3340
  411.0716    19.5156  1822.2278     -.6480    38.0142  -999.2500     1.6688   858.8612
  411.2240    19.5120  1823.4666     -.6769    35.0854  -999.2500     1.6441   850.3331
  411.3764    19.5037  1825.2388     -.7253    32.6445  -999.2500     1.6488   835.0000
  411.5288    19.5118  1826.4890     -.7292    30.6302  -999.2500     1.7097   836.2225
  411.6812    19.5000  1828.0000     -.7515    30.9648  -999.2500     1.7173   842.5024
  411.8336    19.5000  1828.5110     -.7728    31.1778  -999.2500     1.7037   848.7223
  411.9860    19.4918  1829.7388     -.9407    31.9647  -999.2500     1.5922   843.6943
  412.1384    19.4688  1829.0000    -1.0760    31.8865  -999.2500     1.5512   841.3330
  412.2908    19.4517  1829.0000    -1.0249    31.9966  -999.2500     1.7070   845.0000
