~VERSION INFORMATION
VERS.                                                 2.0:   CWLS Log ASCII Standard-VERSION 2.0
WRAP.                                                  NO:   One line per depth step
~Well Information Block
STRT.M                                           398.5748:   Top Depth
STOP.M                                          3794.8088:   Bottom Depth
STEP.M                                             .15240:   Depth Increment
NULL.                                            -999.250:   Null Value
FLD .                                             WILDCAT:   Field Name
WELL.                                              15/9-7:   NAME
WBN .                                              15/9-7:   WELLBORE
NATI.                                                 NOR:   COUNTRY
BHT1.DEGF                                            78.0:   BH TEMP 1
BHT2.DEGF                                            90.0:   BH TEMP 2
BHT3.DEGF                                            91.0:   BH TEMP 3
BS1 .IN                                             17.50:   BIT SIZE 1
CTRY.                                                 NOR:   COUNTRY
CBD1.M                                              181.0:   CSG 1 DRILL DEP
CBL1.M                                              181.0:   CSG 1 LOG DEP
CS1 .IN                                              30.0:   CSG 1 SIZE
COMP.                                             STATOIL:   OPERATOR
PDAT.                                                 MSL:   PERM DATUM
PROV.                                            OFFSHORE:   PROVINCE
COUN.                                    NEPTUNO NORDRAUG:   RIG NAME
SPUD.                                          1980/12/26:   SPUD DATE
LATI.                                       58 22 56.07 N:   SURF. LATITUDE
LONG.                                        1 42 45.99 E:   SURF. LONGITUDE
BTD1.                                             465.0 M:   TOTAL DEPTH 1
BTD2.                                            1185.0 M:   TOTAL DEPTH 2
BTD3.                                            1185.0 M:   TOTAL DEPTH 3
PBWE.                                              15/9-7:   PB WELL ID
APIN.                                              15/9-7:   PB WELLBORE ID
PBWS.                                                 all:   PB WELL NAME SET
~PARAMETER INFORMATION (log)
LNAM.                              FDC/CNL/GR  COMPOSITED:   NAME
LTYP.                                         DEPTH MATCH:   LOG TYPE
LSRV.                                            DEN/NEUT:   LOG SERVICE
LSOU.                                             SPT/NPD:   LOG SOURCE
LVSN.                                                   1:   LOG VERSION
BHIS.                                                   R:   BRIEF HISTORY
FHIS.                                             RAW-LIS:   FULL HISTORY
LCNM.                                        SCHLUMBERGER:   LOGGING CONTRACTOR
TOOL.                             FDC/CNL/GR (COMPOSITED):   TOOL STRING
~Curve Information Block
#MNEM.UNIT                                        API CODE    No Description
#=========                                        ========    == ===========
DEPT.M                                       00 001 00 00:     1  DEPTH
CALI.IN                                                  :     2  Caliper
CS.                                                      :     3  Cable Speed
DRHO.G/CC                                                :     4  Bulk density correction
GR.GAPI                                                  :     5  Gamma Ray
NPHI.%                                                   :     6  Neutron porosity
RHOB.G/CC                                                :     7  Bulk density
TENS.LB                                                  :     8  Cable Tension
~ASCII
# ...
 1521.9152    13.9984  3184.0000      .0386    96.5000  -999.2500     2.0625  2664.0000
 1522.0676    13.9984  3186.0000      .0166    96.0625  -999.2500     2.0371  2640.0000
 1522.2200    14.1078  3184.0000      .0010    93.4375  -999.2500     2.0293  2624.0000
 1522.3724    14.2328  3180.0000      .0425    95.3125  -999.2500     2.0840  2654.0000
 1522.5248    14.2094  3172.0000      .0620    97.6250  -999.2500     2.0937  2650.0000
 1522.6772    14.2484  3164.0000      .0591    97.1875  -999.2500     2.0820  2630.0000
 1522.8296    14.3266  3160.0000      .0405    92.9375  -999.2500     2.0703  2660.0000
 1522.9820    14.4672  3162.0000      .0527    90.0625  -999.2500     2.1094  2634.0000
 1523.1344    14.4984  3160.0000      .0933    93.8125  -999.2500     2.1719  2634.0000
 1523.2868    14.6078  3160.0000      .1152    99.8125  -999.2500     2.2012  2644.0000
 1523.4392    14.4438  3162.0000      .0903   104.6875  -999.2500     2.1602  2674.0000
 1523.5916    14.4750  3162.0000      .0562   105.9375  -999.2500     2.1055  2660.0000
 1523.7440    14.5609  3164.0000      .0303   103.6875  -999.2500     2.0645  2660.0000
 1523.8964    14.6313  3166.0000      .0376    99.3125  -999.2500     2.0820  2620.0000
 1524.0488    14.5922  3168.0000      .0601    93.2500  -999.2500     2.1191  2620.0000
 1524.2012    14.6781  3170.0000      .0630    88.8125  -999.2500     2.1289  2620.0000
 1524.3536    14.6547  3170.0000      .0737    85.8125  -999.2500     2.1367  2620.0000
 1524.5060    14.6156  3172.0000      .0562    87.5625  -999.2500     2.1113  2640.0000
 1524.6584    14.6078  3172.0000      .0522    88.9375  -999.2500     2.1133  2664.0000
 1524.8108    14.7328  3176.0000      .0503    92.3750  -999.2500     2.1270  2660.0000
 1524.9632    14.7719  3178.0000      .0591    93.7500  -999.2500     2.1504  2670.0000
 1525.1156    14.7563  3178.0000      .0732    93.7500  -999.2500     2.1602  2654.0000
 1525.2680    14.6859  3178.0000      .0581    93.3750  -999.2500     2.1289  2644.0000
 1525.4204    14.7953  3180.0000      .0503    93.0625  -999.2500     2.1152  2640.0000
 1525.5728    14.6625  3180.0000      .0430    94.5625  -999.2500     2.1074  2660.0000
 1525.7252    14.9672  3174.0000      .0542    99.8125  -999.2500     2.1133  2650.0000
 1525.8776    14.9750  3168.0000      .0371   101.4375  -999.2500     2.0801  2610.0000
 1526.0300    14.6078  3164.0000      .0371   103.3125  -999.2500     2.0801  2630.0000
 1526.1824    14.8344  3160.0000      .0293    95.6875  -999.2500     2.0820  2670.0000
 1526.3348    15.4047  3160.0000      .0410    92.8125  -999.2500     2.1094  2694.0000
 1526.4872    15.8344  3160.0000      .0444    93.6250  -999.2500     2.1211  2694.0000
 1526.6396    15.8500  3162.0000      .0410    91.3750  -999.2500     2.1270  2660.0000
 1526.7920    15.9281  3162.0000      .0371    87.4375  -999.2500     2.1367  2634.0000
 1526.9444    15.0688  3164.0000      .0244    83.6875  -999.2500     2.1387  2654.0000
 1527.0968    14.7328  3164.0000      .0303    84.2500  -999.2500     2.1602  2620.0000
 1527.2492    14.6391  3164.0000      .0376    87.1250  -999.2500     2.1562  2610.0000
 1527.4016    14.7250  3162.0000      .0376    86.6250  -999.2500     2.1543  2644.0000
 1527.5540    15.2250  3164.0000      .0449    84.8750  -999.2500     2.1426  2690.0000
 1527.7064    15.4672  3166.0000      .0386    83.6875  -999.2500     2.1367  2674.0000
 1527.8588    14.8734  3168.0000      .0645    84.0625  -999.2500     2.1426  2660.0000
 1528.0112    14.5609  3170.0000      .0435    85.5000  -999.2500     2.1211  2630.0000
 1528.1636    14.9906  3172.0000      .0518    85.3750  -999.2500     2.1250  2670.0000
 1528.3160    15.6313  3174.0000      .0469    84.6250  -999.2500     2.1230  2700.0000
 1528.4684    14.9984  3176.0000      .0542    82.0625  -999.2500     2.1191  2664.0000
 1528.6208    14.9984  3176.0000      .0527    83.8750  -999.2500     2.1172  2604.0000
 1528.7732    14.6625  3178.0000      .0620    80.5000  -999.2500     2.1348  2630.0000
 1528.9256    14.4203  3178.0000      .0566    82.3750  -999.2500     2.1328  2660.0000
 1529.0780    14.3813  3172.0000      .0874    79.1250  -999.2500     2.1621  2640.0000
 1529.2304    14.3969  3164.0000      .0845    77.3750  -999.2500     2.1504  2674.0000
 1529.3828    14.2953  3158.0000      .0361    76.5625  -999.2500     2.1562  2670.0000
 1529.5352    14.3813  3154.0000     -.0068    68.2500  -999.2500     2.2090  2674.0000
 1529.6876    14.6547  3156.0000     -.0039    63.7813  -999.2500     2.3555  2654.0000
 1529.8400    14.8344  3156.0000      .1133    57.9063  -999.2500     2.4707  2654.0000
 1529.9924    15.3188  3156.0000      .1338    65.3125  -999.2500     2.3750  2610.0000
 1530.1448    15.2953  3158.0000      .1045    71.5625  -999.2500     2.2617  2630.0000
 1530.2972    15.3344  3160.0000      .0498    75.6250  -999.2500     2.1699  2684.0000
 1530.4496    15.2328  3160.0000      .0391    79.0000  -999.2500     2.1758  2690.0000
 1530.6020    15.1859  3162.0000      .0376    83.8125  -999.2500     2.1680  2670.0000
 1530.7544    15.3188  3164.0000      .0469    89.0625  -999.2500     2.1680  2650.0000
 1530.9068    15.2953  3166.0000      .0591    89.8125  -999.2500     2.1582  2670.0000
 1531.0592    15.2953  3166.0000      .0786    87.4375  -999.2500     2.1797  2710.0000
 1531.2116    15.2484  3170.0000      .0967    89.1875  -999.2500     2.1992  2684.0000
 1531.3640    15.3734  3172.0000      .1064    87.6250  -999.2500     2.2129  2670.0000
 1531.5164    15.1625  3172.0000      .0620    90.4375  -999.2500     2.1562  2630.0000
 1531.6688    15.1156  3172.0000      .0332    90.5000  -999.2500     2.1328  2650.0000
 1531.8212    15.6391  3174.0000      .0259    91.7500  -999.2500     2.1230  2680.0000
 1531.9736    15.2953  3178.0000      .0356    90.5625  -999.2500     2.1211  2670.0000
 1532.1260    15.0609  3176.0000      .0405    86.2500  -999.2500     2.1094  2660.0000
 1532.2784    15.0844  3176.0000      .0303    83.5000  -999.2500     2.0957  2680.0000
 1532.4308    15.2016  3170.0000      .0581    80.9375  -999.2500     2.1309  2710.0000
 1532.5832    15.2797  3162.0000      .0576    82.7500  -999.2500     2.1270  2654.0000
 1532.7356    15.2484  3160.0000      .0669    86.1250  -999.2500     2.1250  2624.0000
 1532.8880    14.7094  3158.0000      .0264    89.3125  -999.2500     2.0684  2620.0000
 1533.0404    14.9203  3160.0000      .0229    91.6250  -999.2500     2.0527  2634.0000
 1533.1928    15.2250  3160.0000      .0215    94.1250  -999.2500     2.0391  2640.0000
 1533.3452    15.1781  3162.0000      .0303    94.1250  -999.2500     2.0410  2674.0000
 1533.4976    15.6547  3164.0000      .0361    89.5625  -999.2500     2.0527  2674.0000
 1533.6500    15.3500  3168.0000      .0273    83.6250  -999.2500     2.0527  2684.0000
 1533.8024    15.2719  3168.0000      .0347    81.5000  -999.2500     2.0742  2660.0000
 1533.9548    14.8266  3172.0000      .0215    80.5000  -999.2500     2.0898  2670.0000
 1534.1072    15.7953  3174.0000      .0435    80.1250  -999.2500     2.1445  2684.0000
 1534.2596    14.7563  3176.0000      .0615    80.7500  -999.2500     2.1855  2680.0000
 1534.4120    14.4750  3180.0000      .0635    80.6875  -999.2500     2.1680  2644.0000
 1534.5644    14.8266  3182.0000      .0474    80.2500  -999.2500     2.1250  2674.0000
 1534.7168    14.9047  3186.0000      .0327    80.5625  -999.2500     2.0918  2670.0000
 1534.8692    14.8266  3186.0000      .0352    81.5000  -999.2500     2.0918  2650.0000
 1535.0216    15.4203  3188.0000      .0347    81.5000  -999.2500     2.0918  2670.0000
 1535.1740    15.0141  3188.0000      .0195    84.0000  -999.2500     2.0703  2694.0000
 1535.3264    14.8734  3190.0000      .0347    85.3125  -999.2500     2.0918  2670.0000
 1535.4788    15.1391  3192.0000      .0220    87.6250  -999.2500     2.0762  2670.0000
 1535.6312    15.3031  3188.0000      .0361    89.4375  -999.2500     2.0977  2640.0000
