~VERSION INFORMATION
VERS.                                                 2.0:   CWLS Log ASCII Standard-VERSION 2.0
WRAP.                                                  NO:   One line per depth step
~Well Information Block
STRT.M                                           398.5748:   Top Depth
STOP.M                                          3794.8088:   Bottom Depth
STEP.M                                             .15240:   Depth Increment
NULL.                                            -999.250:   Null Value
FLD .                                             WILDCAT:   Field Name
WELL.                                              15/9-7:   NAME
WBN .                                              15/9-7:   WELLBORE
NATI.                                                 NOR:   COUNTRY
BHT1.DEGF                                            78.0:   BH TEMP 1
BHT2.DEGF                                            90.0:   BH TEMP 2
BHT3.DEGF                                            91.0:   BH TEMP 3
BS1 .IN                                             17.50:   BIT SIZE 1
CTRY.                                                 NOR:   COUNTRY
CBD1.M                                              181.0:   CSG 1 DRILL DEP
CBL1.M                                              181.0:   CSG 1 LOG DEP
CS1 .IN                                              30.0:   CSG 1 SIZE
COMP.                                             STATOIL:   OPERATOR
PDAT.                                                 MSL:   PERM DATUM
PROV.                                            OFFSHORE:   PROVINCE
COUN.                                    NEPTUNO NORDRAUG:   RIG NAME
SPUD.                                          1980/12/26:   SPUD DATE
LATI.                                       58 22 56.07 N:   SURF. LATITUDE
LONG.                                        1 42 45.99 E:   SURF. LONGITUDE
BTD1.                                             465.0 M:   TOTAL DEPTH 1
BTD2.                                            1185.0 M:   TOTAL DEPTH 2
BTD3.                                            1185.0 M:   TOTAL DEPTH 3
PBWE.                                              15/9-7:   PB WELL ID
APIN.                                              15/9-7:   PB WELLBORE ID
PBWS.                                                 all:   PB WELL NAME SET
~PARAMETER INFORMATION (log)
LNAM.                              FDC/CNL/GR  COMPOSITED:   NAME
LTYP.                                         DEPTH MATCH:   LOG TYPE
LSRV.                                            DEN/NEUT:   LOG SERVICE
LSOU.                                             SPT/NPD:   LOG SOURCE
LVSN.                                                   1:   LOG VERSION
BHIS.                                                   R:   BRIEF HISTORY
FHIS.                                             RAW-LIS:   FULL HISTORY
LCNM.                                        SCHLUMBERGER:   LOGGING CONTRACTOR
TOOL.                             FDC/CNL/GR (COMPOSITED):   TOOL STRING
~Curve Information Block
#MNEM.UNIT                                        API CODE    No Description
#=========                                        ========    == ===========
DEPT.M                                       00 001 00 00:     1  DEPTH
CALI.IN                                                  :     2  Caliper
CS.                                                      :     3  Cable Speed
DRHO.G/CC                                                :     4  Bulk density correction
GR.GAPI                                                  :     5  Gamma Ray
NPHI.%                                                   :     6  Neutron porosity
RHOB.G/CC                                                :     7  Bulk density
TENS.LB                                                  :     8  Cable Tension
~ASCII
# ...
 1979.5724    12.8656  3056.0000      .0483    46.1563  -999.2500     2.1621  3180.0000
 1979.7248    12.7953  3056.0000      .0337    44.9063  -999.2500     2.1367  3150.0000
 1979.8772    12.8422  3056.0000      .0327    43.3125  -999.2500     2.1035  3180.0000
 1980.0296    12.8188  3058.0000      .0234    41.6250  -999.2500     2.0957  3174.0000
 1980.1820    12.6781  3056.0000      .0298    42.4687  -999.2500     2.1094  3164.0000
 1980.3344    12.7484  3058.0000      .0386    42.0312  -999.2500     2.1367  3140.0000
 1980.4868    12.9203  3058.0000      .0410    42.9063  -999.2500     2.1152  3150.0000
 1980.6392    13.0844  3058.0000      .0361    45.5313  -999.2500     2.0957  3160.0000
 1980.7916    13.3266  3056.0000      .0288    48.9062  -999.2500     2.0937  3170.0000
 1980.9440    13.5141  3052.0000      .0205    51.1563  -999.2500     2.1035  3170.0000
 1981.0964    13.3500  3050.0000      .0166    50.8125  -999.2500     2.0977  3180.0000
 1981.2488    13.3500  3052.0000      .0146    48.8125  -999.2500     2.0801  3200.0000
 1981.4012    13.3969  3054.0000      .0171    47.9687  -999.2500     2.0801  3240.0000
 1981.5536    13.4203  3056.0000      .0063    46.5938  -999.2500     2.0723  3230.0000
 1981.7060    13.4203  3056.0000      .0132    48.0313  -999.2500     2.0781  3204.0000
 1981.8584    13.4203  3056.0000      .0171    46.5312  -999.2500     2.0742  3160.0000
 1982.0108    13.4516  3058.0000      .0317    46.5000  -999.2500     2.0820  3160.0000
 1982.1632    13.5609  3058.0000      .0215    44.8437  -999.2500     2.0664  3170.0000
 1982.3156    13.7094  3058.0000      .0176    45.6875  -999.2500     2.0723  3190.0000
 1982.4680    13.7953  3058.0000      .0234    47.4063  -999.2500     2.0879  3194.0000
 1982.6204    13.8266  3062.0000      .0215    49.5000  -999.2500     2.0898  3194.0000
 1982.7728    13.8031  3062.0000      .0293    49.1250  -999.2500     2.0957  3150.0000
 1982.9252    13.8031  3062.0000      .0366    46.5000  -999.2500     2.1016  3170.0000
 1983.0776    13.9047  3064.0000      .0532    45.7188  -999.2500     2.1289  3160.0000
 1983.2300    13.8578  3062.0000      .0674    47.3750  -999.2500     2.1406  3180.0000
 1983.3824    13.8578  3064.0000      .0532    52.0625  -999.2500     2.1133  3180.0000
 1983.5348    13.9281  3064.0000      .0308    53.4375  -999.2500     2.0840  3180.0000
 1983.6872    13.9984  3064.0000      .0244    53.8438  -999.2500     2.0703  3170.0000
 1983.8396    14.0219  3062.0000      .0264    52.1562  -999.2500     2.0684  3180.0000
 1983.9920    13.9906  3060.0000      .0327    50.9062  -999.2500     2.0840  3204.0000
 1984.1444    13.9516  3056.0000      .0283    49.3437  -999.2500     2.0742  3234.0000
 1984.2968    13.9047  3050.0000      .0356    49.1563  -999.2500     2.0664  3234.0000
 1984.4492    13.7563  3052.0000      .0400    49.6562  -999.2500     2.0547  3210.0000
 1984.6016    13.6781  3050.0000      .0420    50.1562  -999.2500     2.0605  3190.0000
 1984.7540    13.3266  3052.0000      .0254    46.5625  -999.2500     2.0586  3150.0000
 1984.9064    13.4047  3052.0000      .0303    44.2500  -999.2500     2.0762  3190.0000
 1985.0588    13.6391  3052.0000      .0220    46.6563  -999.2500     2.0703  3210.0000
 1985.2112    14.0688  3054.0000      .0210    50.7500  -999.2500     2.0781  3214.0000
 1985.3636    13.9984  3056.0000      .0093    52.0000  -999.2500     2.0586  3164.0000
 1985.5160    13.7484  3058.0000      .0171    49.8125  -999.2500     2.0723  3190.0000
 1985.6684    13.5922  3058.0000      .0322    47.7500  -999.2500     2.0879  3180.0000
 1985.8208    13.4984  3060.0000      .0361    48.6250  -999.2500     2.0879  3164.0000
 1985.9732    13.4984  3060.0000      .0283    49.5000  -999.2500     2.0723  3160.0000
 1986.1256    13.5922  3060.0000      .0068    48.6875  -999.2500     2.0547  3150.0000
 1986.2780    13.6391  3060.0000      .0220    48.6875  -999.2500     2.0723  3170.0000
 1986.4304    13.6391  3060.0000      .0239    47.8750  -999.2500     2.0664  3184.0000
 1986.5828    13.6781  3062.0000      .0146    49.1563  -999.2500     2.0488  3210.0000
 1986.7352    13.9047  3060.0000      .0146    46.2500  -999.2500     2.0430  3204.0000
 1986.8876    14.0141  3062.0000      .0181    46.2187  -999.2500     2.0508  3160.0000
 1987.0400    13.8266  3058.0000      .0283    44.5000  -999.2500     2.0664  3174.0000
 1987.1924    13.8344  3056.0000      .0166    44.9375  -999.2500     2.0508  3214.0000
 1987.3448    13.9047  3052.0000      .0239    44.2187  -999.2500     2.0645  3244.0000
 1987.4972    13.8813  3046.0000      .0454    46.5625  -999.2500     2.0723  3234.0000
 1987.6496    13.8500  3046.0000      .0444    45.8125  -999.2500     2.0781  3170.0000
 1987.8020    13.8031  3048.0000      .0337    45.0625  -999.2500     2.0645  3190.0000
 1987.9544    13.8188  3048.0000      .0195    41.9063  -999.2500     2.0684  3200.0000
 1988.1068    13.8344  3048.0000      .0376    42.1562  -999.2500     2.0957  3214.0000
 1988.2592    13.8344  3050.0000      .0479    40.6875  -999.2500     2.1094  3210.0000
 1988.4116    13.8500  3050.0000      .0405    43.6250  -999.2500     2.0977  3210.0000
 1988.5640    13.8969  3050.0000      .0249    43.6563  -999.2500     2.0723  3180.0000
 1988.7164    13.8500  3052.0000      .0156    47.4687  -999.2500     2.0605  3160.0000
 1988.8688    13.8266  3052.0000      .0376    47.0312  -999.2500     2.0781  3130.0000
 1989.0212    13.8578  3054.0000      .0586    48.3125  -999.2500     2.0977  3154.0000
 1989.1736    13.9438  3054.0000      .0610    46.5312  -999.2500     2.0937  3200.0000
 1989.3260    13.9984  3056.0000      .0347    45.7500  -999.2500     2.0664  3210.0000
 1989.4784    14.0844  3058.0000     -.0024    44.8437  -999.2500     2.0312  3200.0000
 1989.6308    14.3813  3058.0000     -.0093    44.9375  -999.2500     2.0254  3204.0000
 1989.7832    14.8188  3060.0000      .0024    43.5937  -999.2500     2.0391  3174.0000
 1989.9356    14.6391  3062.0000      .0225    44.4063  -999.2500     2.0566  3180.0000
 1990.0880    14.5219  3060.0000      .0327    44.8437  -999.2500     2.0703  3250.0000
 1990.2404    14.0922  3060.0000      .0259    46.9688  -999.2500     2.0781  3260.0000
 1990.3928    13.9984  3054.0000      .0112    46.2813  -999.2500     2.0703  3220.0000
 1990.5452    13.9516  3052.0000      .0137    43.8125  -999.2500     2.0762  3174.0000
 1990.6976    13.8344  3048.0000      .0073    41.8750  -999.2500     2.0527  3170.0000
 1990.8500    13.7016  3046.0000      .0122    41.9688  -999.2500     2.0566  3190.0000
 1991.0024    13.6156  3046.0000      .0044    42.0000  -999.2500     2.0449  3214.0000
 1991.1548    13.6078  3046.0000      .0063    42.3125  -999.2500     2.0625  3200.0000
 1991.3072    13.6313  3048.0000      .0112    44.5625  -999.2500     2.0898  3190.0000
 1991.4596    13.6313  3048.0000      .0361    46.5312  -999.2500     2.1387  3140.0000
 1991.6120    13.6391  3050.0000      .0430    47.3125  -999.2500     2.1406  3150.0000
 1991.7644    13.8578  3052.0000      .0303    47.2813  -999.2500     2.0977  3150.0000
 1991.9168    14.0141  3052.0000      .0132    46.5312  -999.2500     2.0508  3164.0000
 1992.0692    13.7250  3054.0000      .0020    48.1875  -999.2500     2.0332  3180.0000
 1992.2216    13.7797  3054.0000      .0229    44.5000  -999.2500     2.0645  3210.0000
 1992.3740    13.9281  3056.0000      .0566    43.1875  -999.2500     2.0781  3214.0000
 1992.5264    13.8344  3056.0000      .1016    39.8438  -999.2500     2.0508  3210.0000
 1992.6788    12.9672  3058.0000      .0830    39.4063  -999.2500     1.9824  3174.0000
 1992.8312    12.7953  3058.0000      .0518    40.7500  -999.2500     1.9541  3194.0000
 1992.9836    12.9672  3060.0000      .0400    39.5313  -999.2500     2.0000  3220.0000
 1993.1360    13.0609  3062.0000      .0581    38.2813  -999.2500     2.0703  3264.0000
 1993.2884    13.2484  3062.0000      .0361    36.2187  -999.2500     2.0840  3190.0000
