~VERSION INFORMATION
VERS.                                                 2.0:   CWLS Log ASCII Standard-VERSION 2.0
WRAP.                                                  NO:   One line per depth step
~Well Information Block
STRT.M                                           398.5748:   Top Depth
STOP.M                                          3794.8088:   Bottom Depth
STEP.M                                             .15240:   Depth Increment
NULL.                                            -999.250:   Null Value
FLD .                                             WILDCAT:   Field Name
WELL.                                              15/9-7:   NAME
WBN .                                              15/9-7:   WELLBORE
NATI.                                                 NOR:   COUNTRY
BHT1.DEGF                                            78.0:   BH TEMP 1
BHT2.DEGF                                            90.0:   BH TEMP 2
BHT3.DEGF                                            91.0:   BH TEMP 3
BS1 .IN                                             17.50:   BIT SIZE 1
CTRY.                                                 NOR:   COUNTRY
CBD1.M                                              181.0:   CSG 1 DRILL DEP
CBL1.M                                              181.0:   CSG 1 LOG DEP
CS1 .IN                                              30.0:   CSG 1 SIZE
COMP.                                             STATOIL:   OPERATOR
PDAT.                                                 MSL:   PERM DATUM
PROV.                                            OFFSHORE:   PROVINCE
COUN.                                    NEPTUNO NORDRAUG:   RIG NAME
SPUD.                                          1980/12/26:   SPUD DATE
LATI.                                       58 22 56.07 N:   SURF. LATITUDE
LONG.                                        1 42 45.99 E:   SURF. LONGITUDE
BTD1.                                             465.0 M:   TOTAL DEPTH 1
BTD2.                                            1185.0 M:   TOTAL DEPTH 2
BTD3.                                            1185.0 M:   TOTAL DEPTH 3
PBWE.                                              15/9-7:   PB WELL ID
APIN.                                              15/9-7:   PB WELLBORE ID
PBWS.                                                 all:   PB WELL NAME SET
~PARAMETER INFORMATION (log)
LNAM.                              FDC/CNL/GR  COMPOSITED:   NAME
LTYP.                                         DEPTH MATCH:   LOG TYPE
LSRV.                                            DEN/NEUT:   LOG SERVICE
LSOU.                                             SPT/NPD:   LOG SOURCE
LVSN.                                                   1:   LOG VERSION
BHIS.                                                   R:   BRIEF HISTORY
FHIS.                                             RAW-LIS:   FULL HISTORY
LCNM.                                        SCHLUMBERGER:   LOGGING CONTRACTOR
TOOL.                             FDC/CNL/GR (COMPOSITED):   TOOL STRING
~Curve Information Block
#MNEM.UNIT                                        API CODE    No Description
#=========                                        ========    == ===========
DEPT.M                                       00 001 00 00:     1  DEPTH
CALI.IN                                                  :     2  Caliper
CS.                                                      :     3  Cable Speed
DRHO.G/CC                                                :     4  Bulk density correction
GR.GAPI                                                  :     5  Gamma Ray
NPHI.%                                                   :     6  Neutron porosity
RHOB.G/CC                                                :     7  Bulk density
TENS.LB                                                  :     8  Cable Tension
~ASCII
# ...
 3324.8072    12.0703  2406.0000     -.0156    27.6250    35.7910     2.3086  4020.0000
 3324.9596    10.4531  2408.0000     -.0112    29.4063    33.1055     2.3047  3904.0000
 3325.1120    10.5000  2410.0000     -.0068    31.4688    27.8809     2.2637  3864.0000
 3325.2644    10.7656  2408.0000     -.0186    31.7500    25.0000     2.1875  3824.0000
 3325.4168    11.0703  2412.0000     -.0293    31.1563    22.9492     2.1777  3840.0000
 3325.5692    11.2891  2410.0000     -.0317    30.5781    26.7578     2.1621  3900.0000
 3325.7216    11.8281  2410.0000     -.0381    29.7500    31.7871     2.1465  4024.0000
 3325.8740    11.9531  2406.0000     -.0239    29.7500    36.6699     2.1445  4300.0000
 3326.0264    11.0938  2406.0000     -.0200    30.0625    37.1582     2.1543  4252.0000
 3326.1788    11.8437  2410.0000     -.0283    30.9531    35.6445     2.1211  4200.0000
 3326.3312    12.9375  2412.0000     -.0371    31.0000    36.3770     2.1230  4090.0000
 3326.4836    12.0625  2416.0000     -.0361    31.0469    38.1836     2.1445  3964.0000
 3326.6360    12.7187  2416.0000     -.0249    31.6719    41.5527     2.2187  3874.0000
 3326.7884    12.9297  2416.0000     -.0127    32.0313    43.3594     2.2891  3874.0000
 3326.9408    12.9844  2416.0000     -.0239    32.0938    40.4785     2.2891  3850.0000
 3327.0932    13.0234  2416.0000     -.0161    31.5312    37.5000     2.3066  3900.0000
 3327.2456    13.2891  2416.0000     -.0093    31.3906    31.9336     2.3047  4024.0000
 3327.3980    13.3203  2416.0000     -.0015    33.9063    35.4004     2.3105  4300.0000
 3327.5504    13.6641  2414.0000      .0024    34.3750    36.3770     2.3125  4224.0000
 3327.7028    13.2187  2414.0000     -.0342    35.8750    41.4062     2.1973  4148.0000
 3327.8552    13.0547  2416.0000     -.0308    32.9688    38.8184     2.1777  4034.0000
 3328.0076    11.3437  2420.0000     -.0522    32.7188    36.0840     2.0801  3944.0000
 3328.1600    10.8281  2420.0000     -.0474    32.4687    33.8867     2.0879  3980.0000
 3328.3124    12.2578  2422.0000     -.0503    33.0937    34.4727     2.0566  3910.0000
 3328.4648    11.1562  2416.0000     -.0439    33.7187    37.2070     2.1035  3904.0000
 3328.6172    11.7188  2418.0000     -.0303    33.4375    36.6211     2.1582  3924.0000
 3328.7696    12.2812  2412.0000     -.0303    34.0000    34.4727     2.1855  3970.0000
 3328.9220    11.9609  2412.0000     -.0244    33.0625    33.8379     2.1738  4104.0000
 3329.0744    12.6094  2410.0000     -.0166    32.1250    33.3008     2.1895  4070.0000
 3329.2268    10.9688  2412.0000     -.0156    32.1250    33.0566     2.2012  4080.0000
 3329.3792    12.0781  2412.0000     -.0142    32.4687    30.4199     2.1934  3994.0000
 3329.5316    12.1406  2416.0000     -.0366    34.6250    30.1758     2.1348  3900.0000
 3329.6840    12.6328  2416.0000     -.0381    35.0313    32.1777     2.1289  3900.0000
 3329.8364    11.6875  2418.0000     -.0425    34.1875    35.9375     2.1504  3900.0000
 3329.9888    12.3047  2418.0000     -.0332    31.8594    35.9375     2.1582  3974.0000
 3330.1412    11.4297  2420.0000     -.0493    31.1563    35.5957     2.1191  4010.0000
 3330.2936    11.7109  2422.0000     -.0376    30.7188    30.8594     2.1582  4010.0000
 3330.4460    10.2891  2422.0000     -.0327    30.8906    32.6172     2.1875  3950.0000
 3330.5984    10.5000  2422.0000     -.0225    30.8281    35.6934     2.1758  3944.0000
 3330.7508    10.7813  2424.0000     -.0269    30.2812    37.9883     2.1445  3914.0000
 3330.9032    10.6797  2422.0000     -.0220    30.9062    35.9375     2.1621  3950.0000
 3331.0556    10.6484  2424.0000     -.0078    30.9688    33.0566     2.2187  3980.0000
 3331.2080    11.7891  2428.0000     -.0103    30.9531    29.7852     2.2383  3970.0000
 3331.3604    12.1328  2424.0000     -.0098    30.6406    29.4922     2.2383  3994.0000
 3331.5128    11.6250  2422.0000     -.0229    30.0625    28.6133     2.1875  3994.0000
 3331.6652    11.8047  2416.0000     -.0161    32.4687    29.8340     2.1680  3990.0000
 3331.8176    12.0391  2418.0000     -.0195    34.6250    32.8613     2.1582  4010.0000
 3331.9700    12.2422  2416.0000     -.0190    36.1250    34.8145     2.1875  4000.0000
 3332.1224    13.0000  2420.0000     -.0254    35.2812    37.3047     2.1875  3954.0000
 3332.2748    12.7109  2418.0000     -.0234    32.5938    38.9160     2.1699  3924.0000
 3332.4272    13.2344  2418.0000     -.0220    29.3281    41.5527     2.1758  3910.0000
 3332.5796    13.6016  2420.0000     -.0098    27.8906    42.1387     2.2031  3940.0000
 3332.7320    13.9141  2418.0000     -.0078    27.9219    39.3066     2.2227  3984.0000
 3332.8844    14.2578  2418.0000     -.0107    30.0625    37.4512     2.2090  4014.0000
 3333.0368    14.0703  2418.0000     -.0493    30.8281    35.8398     2.1035  3990.0000
 3333.1892    12.0078  2420.0000     -.0576    32.5000    36.0352     2.0898  3984.0000
 3333.3416    11.0703  2420.0000     -.0649    32.4063    34.4727     2.0879  3940.0000
 3333.4940    10.6406  2422.0000     -.0386    32.1250    36.6699     2.1484  3944.0000
 3333.6464    11.4844  2424.0000     -.0527    30.3750    38.2324     2.1328  3910.0000
 3333.7988    11.9687  2424.0000     -.0381    29.1719    37.6953     2.1680  3914.0000
 3333.9512    11.0859  2424.0000     -.0332    29.5000    36.1328     2.2090  3964.0000
 3334.1036    10.8516  2422.0000     -.0220    29.2031    35.9863     2.2480  3980.0000
 3334.2560    10.4062  2420.0000     -.0166    30.6875    36.6699     2.2617  4030.0000
 3334.4084    10.3984  2416.0000     -.0283    30.9219    36.9141     2.2090  3964.0000
 3334.5608    10.5234  2412.0000     -.0303    31.5000    36.7676     2.2012  3950.0000
 3334.7132    10.5547  2412.0000     -.0444    30.0156    37.9883     2.2266  3940.0000
 3334.8656    10.0469  2410.0000     -.0283    30.3594    36.1816     2.3789  3930.0000
 3335.0180    10.0156  2412.0000     -.0137    29.5313    30.5176     2.5098  3894.0000
 3335.1704     9.7187  2412.0000      .0288    29.8594    24.4141     2.5645  3870.0000
 3335.3228     9.7109  2412.0000      .0342    30.2344    23.0957     2.5547  3884.0000
 3335.4752     9.7422  2414.0000      .0327    30.9219    23.5352     2.4902  3964.0000
 3335.6276     9.8359  2414.0000     -.0137    33.0937    26.6113     2.4277  4004.0000
 3335.7800     9.7969  2416.0000     -.0181    33.1250    28.2715     2.3848  4034.0000
 3335.9324     9.7969  2418.0000     -.0264    34.1250    29.6387     2.3633  4034.0000
 3336.0848     9.6953  2418.0000     -.0190    35.7500    28.5156     2.3652  3994.0000
 3336.2372     9.7891  2418.0000     -.0190    36.4688    27.5879     2.4082  3970.0000
 3336.3896     9.7187  2418.0000     -.0127    34.6875    26.8555     2.4727  3914.0000
 3336.5420     9.6953  2422.0000     -.0137    29.9687    26.3672     2.5078  3924.0000
 3336.6944     9.6875  2422.0000     -.0020    28.7813    23.3887     2.4961  3920.0000
 3336.8468     9.6875  2420.0000     -.0015    26.4219    21.9238     2.4707  3934.0000
 3336.9992     9.7031  2422.0000     -.0054    25.8438    24.2676     2.4590  3900.0000
 3337.1516     9.7031  2420.0000     -.0137    22.6250    25.2930     2.4980  3964.0000
 3337.3040     9.6016  2418.0000     -.0103    25.3281    24.6582     2.5508  3974.0000
 3337.4564     9.6250  2412.0000      .0059    26.7656    21.0449     2.5762  4014.0000
 3337.6088     9.6094  2412.0000     -.0039    29.1250    20.3125     2.5117  4034.0000
 3337.7612     9.5859  2414.0000     -.0073    26.4688    21.3867     2.4863  4030.0000
 3337.9136     9.6250  2416.0000     -.0146    23.8438    21.5820     2.4668  3954.0000
 3338.0660     9.6094  2416.0000     -.0112    21.1875    22.5586     2.4863  3900.0000
 3338.2184     9.6328  2418.0000     -.0024    23.2656    20.0195     2.5137  3900.0000
 3338.3708     9.6641  2418.0000      .0078    25.4219    20.6055     2.5371  3990.0000
 3338.5232     9.7109  2420.0000      .0200    27.5781    22.4121     2.5234  4000.0000
