~VERSION INFORMATION
VERS.                                                 2.0:   CWLS Log ASCII Standard-VERSION 2.0
WRAP.                                                  NO:   One line per depth step
~Well Information Block
STRT.M                                          2892.9818:   Top Depth
STOP.M                                          3308.8052:   Bottom Depth
STEP.M                                             .07620:   Depth Increment
NULL.                                            -999.250:   Null Value
FLD .                                                 Q15:   Field Name
WELL.                                            15/12-21:   NAME
WBN .                                            15/12-21:   WELLBORE
NATI.                                                 NOR:   COUNTRY
APD .M                                               42.1:   ABOVE PERM DATUM
CTRY.                                                 NOR:   COUNTRY
COMP.                            TALISMAN ENERGY NORGE AS:   OPERATOR
PDAT.                                                 MSL:   PERM DATUM
COUN.                                     MAERSK GUARDIAN:   RIG NAME
LATI.                            058 13' 40.470" N    DMS:   SURF. LATITUDE
LONG.                            001 52' 56.820" E    DMS:   SURF. LONGITUDE
PBWE.                                            15/12-21:   PB WELL ID
APIN.                                            15/12-21:   PB WELLBORE ID
PBWS.                                                 ALL:   PB WELL NAME SET
CNTY.                                     MAERSK GUARDIAN:   COUNTY
~PARAMETER INFORMATION (log)
LNAM.                                 WLC_PETRO_COMPOSITE:   NAME
LTYP.                                                PAP.:   LOG TYPE
LSRV.                                          WL.PET.LOG:   LOG SERVICE
LVSN.                                                   1:   LOG VERSION
LRUN.                                                 1.2:   LOG RUN
BHIS.                                                   R:   BRIEF HISTORY
R1  .                                Composite data incl.:   COMMENT  1
R2  .                                 EWL ZDL/CN, run 1.2:   COMMENT  2
R3  .       For more details, please see WLC_PETROPHYSICA:   COMMENT  3
R5  .            EWL data plotted and verified to prints.:   COMMENT  5
R7  .                             Depth units are meters.:   COMMENT  7
R9  .                                    Quality comments:   COMMENT  9
R10 .                                 EWL ZDL/CN, run 1.2:   COMMENT 10
R11 . Data above 2959.7 m logged in casing (depth from lo:   COMMENT 11
R12 .                                    Logger s remarks:   COMMENT 12
R13 .                                       Depth control:   COMMENT 13
R14 . * Depth correlated to run w1.1 XMAC/HDIL/GR dated 2:   COMMENT 14
R15 .                                             General:   COMMENT 15
R16 .   * Last circulation stopped at 1035 on 19-APR-2009:   COMMENT 16
R17 .  * Toolstring reached TD at 1950 hrs on 20-APR-2009:   COMMENT 17
R18 . * Motorized releasable cablehead (MRCH) was run wit:   COMMENT 18
R19 .   * Maximum reading from cablehead thermometers 118:   COMMENT 19
R20 . * Maximum reading from TTRM was 114 degC at 3236 m.:   COMMENT 20
R21 .                                            Mud data:   COMMENT 21
R22 .                           * Oil/water ratio = 76/24:   COMMENT 22
R23 .                       * Cacl2 WPS Brine = 135 kg/m3:   COMMENT 23
R24 .                                              ZDL/CN:   COMMENT 24
R25 .        * ZDL/CN data presented on limestone scales.:   COMMENT 25
R26 .    * CNCF curve has no salinity correction applied.:   COMMENT 26
R27 . * Total borehole volume from TD to casing shoe = 12:   COMMENT 27
R29 .       Editing on WLC_PETROPHYSICAL_COMPOSITE_1.DLIS:   COMMENT 29
R30 .                                 EWL ZDL/CN, run 1.2:   COMMENT 30
DMF .                                                  KB:   DRILL MEAS FROM
EDF .M                                               42.1:   ELEV DRILL FLOOR
ELZ .M                                               42.1:   ELEVATION LOG ZERO
FHIS.                                            RAW-DLIS:   FULL HISTORY
EKB .M                                               42.1:   KB ELEVATION
LMF .                                                  KB:   LOGS MEAS FROM
EPD .M                                                  0:   ELEV PERM DATUM
EGL .M                                              -85.6:   GROUND LEVEL
~Curve Information Block
#MNEM.UNIT                                        API CODE    No Description
#=========                                        ========    == ===========
DEPT.M                                       00 001 00 00:     1  DEPTH
CALX.IN                                                  :     2  Caliper
CHT.LB                                                   :     3  Cable Tension
CN.%                                                     :     4  Neutron Porosity
CNCF.%                                                   :     5  Neutron Porosity
GR.GAPI                                                  :     6  Gamma Ray
PE.B/E                                                   :     7  Photoelectic Factor
PORZ.%                                                   :     8  Porosity
SPD.M/MN                                                 :     9  Cable Speed
TTEN.LB                                                  :    10  Cable Tension
WTBH.DEGC                                                :    11  Temperature
ZCOR.G/CC                                                :    12  Density Correction
ZDEN.G/CC                                                :    13  Bulk Density
ZDNC.G/CC                                                :    14  Bulk Density
~ASCII
# ...
 3241.6730     8.4331  1840.6910    17.0227    16.5781    45.4041     3.5046    20.0797     9.9957  5395.8208   113.3156      .0027     2.3666     2.3593
 3241.7492     8.4347  1818.7889    17.1372    16.6894    44.9381     3.7461    19.9722     9.9925  5394.4258   113.4187      .0022     2.3685     2.3611
 3241.8254     8.4428  1805.4620    17.2456    16.7897    44.6319     3.9736    19.4746     9.9946  5392.5151   113.5449      .0027     2.3770     2.3696
 3241.9016     8.4578  1799.0920    17.4217    16.9511    44.2197     4.1558    18.6161    10.0028  5390.6528   113.6614      .0045     2.3917     2.3842
 3241.9778     8.4803  1784.3170    17.6960    17.2029    43.6395     4.2745    17.5563    10.0164  5390.3848   113.7334      .0072     2.4098     2.4022
 3242.0540     8.5102  1748.6541    18.0310    17.5083    43.0634     4.3346    16.5560    10.0323  5393.0830   113.7477      .0099     2.4269     2.4192
 3242.1302     8.5478  1696.3140    18.3630    17.8043    42.8587     4.3615    15.8766    10.0462  5398.5322   113.7176      .0117     2.4385     2.4307
 3242.2064     8.5935  1647.5820    18.6249    18.0247    43.3677     4.3835    15.6592    10.0531  5405.0879   113.6630      .0123     2.4422     2.4344
 3242.2826     8.6465  1628.5551    18.7488    18.1045    44.6085     4.4106    15.8766    10.0499  5410.3071   113.6068      .0120     2.4385     2.4306
 3242.3588     8.7047  1656.1360    18.7575    18.0680    46.1491     4.4268    16.3965    10.0371  5412.2148   113.5691      .0116     2.4296     2.4218
 3242.4350     8.7646  1721.2970    18.7767    18.0407    47.3450     4.4045    17.0926    10.0178  5410.4209   113.5588      .0117     2.4177     2.4099
 3242.5112     8.8206  1793.2690    18.9533    18.1696    47.6487     4.3320    17.9075     9.9966  5406.0391   113.5695      .0121     2.4038     2.3960
 3242.5874     8.8671  1843.8120    19.3408    18.5102    46.8608     4.2299    18.8338     9.9778  5400.4932   113.5785      .0123     2.3879     2.3802
 3242.6636     8.9007  1860.8361    19.8964    19.0228    45.1711     4.1410    19.8516     9.9634  5394.7368   113.5619      .0118     2.3705     2.3629
 3242.7398     8.9213  1853.9030    20.5360    19.6263    43.0451     4.1063    20.8865     9.9537  5389.1738   113.5099      .0106     2.3528     2.3453
 3242.8160     8.9300  1842.8750    21.1791    20.2420    40.9972     4.1499    21.8211     9.9494  5384.0752   113.4407      .0090     2.3369     2.3294
 3242.8922     8.9303  1843.5190    21.7464    20.7913    39.4068     4.2733    22.5438     9.9507  5380.1382   113.3898      .0073     2.3245     2.3171
 3242.9684     8.9262  1857.3409    22.1088    21.1457    38.4681     4.4535    22.9869     9.9574  5378.6230   113.3846      .0056     2.3169     2.3096
 3243.0446     8.9208  1877.3929    22.2051    21.2436    38.2495     4.6408    23.1326     9.9694  5380.3008   113.4268      .0040     2.3144     2.3071
 3243.1208     8.9152  1892.5210    22.1388    21.1840    38.7383     4.7657    22.9900     9.9836  5385.1050   113.4943      .0026     2.3169     2.3096
 3243.1970     8.9101  1889.0530    22.0119    21.0653    39.8679     4.7637    22.5690     9.9954  5392.3330   113.5442      .0015     2.3241     2.3167
 3243.2732     8.9050  1861.0050    21.8544    20.9168    41.4202     4.6108    21.8737    10.0024  5400.4780   113.5503      .0012     2.3360     2.3285
 3243.3494     8.8998  1813.9630    21.6549    20.7277    43.0700     4.3438    20.9243    10.0071  5407.7051   113.5161      .0019     2.3522     2.3447
 3243.4256     8.8948  1758.7400    21.4060    20.4906    44.4861     4.0465    19.7978    10.0131  5412.8208   113.4715      .0037     2.3715     2.3638
 3243.5018     8.8910  1715.0291    21.0646    20.1627    45.4381     3.8050    18.6562    10.0241  5415.9590   113.4455      .0060     2.3910     2.3832
 3243.5780     8.8869  1700.9760    20.5817    19.6978    45.8955     3.6653    17.7265    10.0401  5418.0962   113.4501      .0081     2.4069     2.3990
 3243.6542     8.8794  1719.9740    20.0147    19.1541    45.9887     3.6215    17.2236    10.0574  5420.2979   113.4777      .0088     2.4155     2.4076
 3243.7304     8.8649  1753.7050    19.5170    18.6827    45.9080     3.6360    17.2555    10.0705  5423.2100   113.5193      .0079     2.4149     2.4071
 3243.8066     8.8420  1776.4301    19.2723    18.4630    45.8349     3.6716    17.7760    10.0748  5426.6362   113.5814      .0055     2.4060     2.3982
 3243.8828     8.8133  1772.1260    19.4063    18.6152    45.8044     3.7154    18.6147    10.0686  5429.6792   113.6768      .0025     2.3917     2.3840
 3243.9590     8.7846  1742.8530    19.9392    19.1555    45.7693     3.7807    19.5475    10.0546  5431.2979   113.7976     -.0002     2.3757     2.3681
 3244.0352     8.7623  1704.2510    20.8253    20.0354    45.7572     3.8899    20.3576    10.0382  5430.3252   113.9137     -.0016     2.3619     2.3544
 3244.1114     8.7508  1678.2290    21.9221    21.1125    45.9362     4.0539    20.9479    10.0230  5426.3281   113.9876     -.0020     2.3518     2.3444
 3244.1876     8.7506  1677.9230    22.9847    22.1475    46.5185     4.2638    21.2343    10.0113  5419.7622   114.0035     -.0015     2.3469     2.3395
 3244.2638     8.7582  1706.3430    23.7864    22.9216    47.4989     4.4955    21.1762    10.0042  5411.8750   113.9857     -.0001     2.3479     2.3405
 3244.3400     8.7674  1751.9240    24.2198    23.3353    48.6523     4.7200    20.7269    10.0016  5404.3892   113.9648      .0029     2.3556     2.3481
 3244.4162     8.7741  1796.8180    24.3067    23.4138    49.6554     4.9067    19.9647    10.0024  5398.9248   113.9626      .0067     2.3686     2.3611
 3244.4924     8.7766  1824.5330    24.1094    23.2194    50.2831     5.0185    19.0069    10.0058  5396.2729   113.9708      .0111     2.3850     2.3773
 3244.5686     8.7752  1831.7510    23.6846    22.8071    50.4690     5.0081    18.0334    10.0091  5396.2158   113.9637      .0154     2.4016     2.3939
 3244.6448     8.7705  1823.7500    23.0795    22.2223    50.3458     4.8412    17.2594    10.0108  5397.6279   113.9134      .0188     2.4149     2.4070
 3244.7210     8.7633  1809.0880    22.4309    21.5971    50.1575     4.5342    16.8709    10.0111  5399.2471   113.8130      .0206     2.4215     2.4137
 3244.7972     8.7550  1798.6040    21.8979    21.0855    50.1102     4.1639    16.9494    10.0122  5399.7588   113.6832      .0206     2.4202     2.4123
 3244.8734     8.7468  1800.3979    21.5586    20.7621    50.1653     3.8292    17.4377    10.0160  5398.6509   113.5585      .0192     2.4118     2.4040
 3244.9496     8.7396  1807.2990    21.3780    20.5923    50.1332     3.6032    18.1810    10.0236  5396.4170   113.4611      .0169     2.3991     2.3914
 3245.0258     8.7339  1809.7990    21.2604    20.4825    49.8078     3.5120    19.0086    10.0323  5393.8462   113.4053      .0146     2.3850     2.3773
 3245.1020     8.7290  1804.0959    21.1273    20.3570    49.1001     3.5365    19.7953    10.0386  5391.5908   113.3944      .0125     2.3715     2.3640
 3245.1782     8.7233  1795.0760    20.9432    20.1824    47.9067     3.6266    20.4743    10.0406  5390.0801   113.4371      .0106     2.3599     2.3524
 3245.2544     8.7154  1792.8130    20.7128    19.9645    46.1468     3.7215    21.0187    10.0391  5389.9082   113.5241      .0088     2.3506     2.3432
 3245.3306     8.7057  1804.2100    20.4281    19.6950    43.9105     3.7742    21.4194    10.0365  5391.7549   113.6152      .0069     2.3437     2.3364
 3245.4068     8.6979  1820.4060    20.0441    19.3270    41.5737     3.7701    21.6691    10.0344  5395.7671   113.6672      .0048     2.3395     2.3321
 3245.4830     8.6973  1830.3101    19.5357    18.8320    39.6332     3.7278    21.7545    10.0336  5401.6748   113.6615      .0028     2.3380     2.3307
 3245.5592     8.7067  1829.1720    18.9353    18.2395    38.4805     3.6827    21.6606    10.0317  5408.8979   113.6162      .0010     2.3396     2.3323
