~VERSION INFORMATION
VERS.                                                 2.0:   CWLS Log ASCII Standard-VERSION 2.0
WRAP.                                                  NO:   One line per depth step
~Well Information Block
STRT.M                                          2892.9818:   Top Depth
STOP.M                                          3308.8052:   Bottom Depth
STEP.M                                             .07620:   Depth Increment
NULL.                                            -999.250:   Null Value
FLD .                                                 Q15:   Field Name
WELL.                                            15/12-21:   NAME
WBN .                                            15/12-21:   WELLBORE
NATI.                                                 NOR:   COUNTRY
APD .M                                               42.1:   ABOVE PERM DATUM
CTRY.                                                 NOR:   COUNTRY
COMP.                            TALISMAN ENERGY NORGE AS:   OPERATOR
PDAT.                                                 MSL:   PERM DATUM
COUN.                                     MAERSK GUARDIAN:   RIG NAME
LATI.                            058 13' 40.470" N    DMS:   SURF. LATITUDE
LONG.                            001 52' 56.820" E    DMS:   SURF. LONGITUDE
PBWE.                                            15/12-21:   PB WELL ID
APIN.                                            15/12-21:   PB WELLBORE ID
PBWS.                                                 ALL:   PB WELL NAME SET
CNTY.                                     MAERSK GUARDIAN:   COUNTY
~PARAMETER INFORMATION (log)
LNAM.                                 WLC_PETRO_COMPOSITE:   NAME
LTYP.                                                PAP.:   LOG TYPE
LSRV.                                          WL.PET.LOG:   LOG SERVICE
LVSN.                                                   1:   LOG VERSION
LRUN.                                                 1.2:   LOG RUN
BHIS.                                                   R:   BRIEF HISTORY
R1  .                                Composite data incl.:   COMMENT  1
R2  .                                 EWL ZDL/CN, run 1.2:   COMMENT  2
R3  .       For more details, please see WLC_PETROPHYSICA:   COMMENT  3
R5  .            EWL data plotted and verified to prints.:   COMMENT  5
R7  .                             Depth units are meters.:   COMMENT  7
R9  .                                    Quality comments:   COMMENT  9
R10 .                                 EWL ZDL/CN, run 1.2:   COMMENT 10
R11 . Data above 2959.7 m logged in casing (depth from lo:   COMMENT 11
R12 .                                    Logger s remarks:   COMMENT 12
R13 .                                       Depth control:   COMMENT 13
R14 . * Depth correlated to run w1.1 XMAC/HDIL/GR dated 2:   COMMENT 14
R15 .                                             General:   COMMENT 15
R16 .   * Last circulation stopped at 1035 on 19-APR-2009:   COMMENT 16
R17 .  * Toolstring reached TD at 1950 hrs on 20-APR-2009:   COMMENT 17
R18 . * Motorized releasable cablehead (MRCH) was run wit:   COMMENT 18
R19 .   * Maximum reading from cablehead thermometers 118:   COMMENT 19
R20 . * Maximum reading from TTRM was 114 degC at 3236 m.:   COMMENT 20
R21 .                                            Mud data:   COMMENT 21
R22 .                           * Oil/water ratio = 76/24:   COMMENT 22
R23 .                       * Cacl2 WPS Brine = 135 kg/m3:   COMMENT 23
R24 .                                              ZDL/CN:   COMMENT 24
R25 .        * ZDL/CN data presented on limestone scales.:   COMMENT 25
R26 .    * CNCF curve has no salinity correction applied.:   COMMENT 26
R27 . * Total borehole volume from TD to casing shoe = 12:   COMMENT 27
R29 .       Editing on WLC_PETROPHYSICAL_COMPOSITE_1.DLIS:   COMMENT 29
R30 .                                 EWL ZDL/CN, run 1.2:   COMMENT 30
DMF .                                                  KB:   DRILL MEAS FROM
EDF .M                                               42.1:   ELEV DRILL FLOOR
ELZ .M                                               42.1:   ELEVATION LOG ZERO
FHIS.                                            RAW-DLIS:   FULL HISTORY
EKB .M                                               42.1:   KB ELEVATION
LMF .                                                  KB:   LOGS MEAS FROM
EPD .M                                                  0:   ELEV PERM DATUM
EGL .M                                              -85.6:   GROUND LEVEL
~Curve Information Block
#MNEM.UNIT                                        API CODE    No Description
#=========                                        ========    == ===========
DEPT.M                                       00 001 00 00:     1  DEPTH
CALX.IN                                                  :     2  Caliper
CHT.LB                                                   :     3  Cable Tension
CN.%                                                     :     4  Neutron Porosity
CNCF.%                                                   :     5  Neutron Porosity
GR.GAPI                                                  :     6  Gamma Ray
PE.B/E                                                   :     7  Photoelectic Factor
PORZ.%                                                   :     8  Porosity
SPD.M/MN                                                 :     9  Cable Speed
TTEN.LB                                                  :    10  Cable Tension
WTBH.DEGC                                                :    11  Temperature
ZCOR.G/CC                                                :    12  Density Correction
ZDEN.G/CC                                                :    13  Bulk Density
ZDNC.G/CC                                                :    14  Bulk Density
~ASCII
# ...
 2956.3802     8.6582  2042.8101    41.0135    39.6833    54.7930    11.5517    28.5521     8.6721  5154.8042   107.9004     -.7950     2.2218     2.2153
 2956.4564     8.6517  2042.1390    40.9397    39.6262    54.9150    11.2069    28.5439     8.6817  5153.8628   107.9838     -.7981     2.2219     2.2155
 2956.5326     8.6520  2041.3630    41.1589    39.8181    54.7841    10.8544    28.4967     8.6935  5153.4341   108.0551     -.8016     2.2227     2.2163
 2956.6088     8.6580  2040.9230    41.6632    40.2484    54.3603    10.6341    28.4519     8.7031  5154.0269   108.1196     -.8057     2.2235     2.2170
 2956.6850     8.6669  2040.9910    42.3008    40.7821    53.5166    10.6115    28.4637     8.7085  5155.8340   108.1737     -.8101     2.2233     2.2168
 2956.7612     8.6757  2041.4270    42.8720    41.2507    52.2502    10.7606    28.5607     8.7109  5158.8330   108.1953     -.8145     2.2216     2.2152
 2956.8374     8.6829  2041.9830    43.1616    41.4823    50.8066    11.0037    28.7219     8.7125  5162.3208   108.1712     -.8184     2.2189     2.2124
 2956.9136     8.6876  2042.5370    43.1891    41.4995    49.6609    11.2718    28.8867     8.7154  5165.4629   108.1025     -.8211     2.2160     2.2096
 2956.9898     8.6901  2043.1160    43.0789    41.4057    49.2724    11.5442    28.9942     8.7192  5167.8838   108.0018     -.8223     2.2142     2.2078
 2957.0660     8.6918  2043.6320    42.9935    41.3330    49.7452    11.8431    29.0332     8.7209  5169.5420   107.8964     -.8220     2.2135     2.2071
 2957.1422     8.6931  2043.9130    43.0058    41.3417    50.8467    12.1854    29.0762     8.7169  5170.4341   107.8158     -.8209     2.2128     2.2064
 2957.2184     8.6939  2043.6210    43.0665    41.3911    52.1777    12.5340    29.2491     8.7031  5170.2871   107.7766     -.8200     2.2098     2.2035
 2957.2946     8.6933  2042.5699    43.1205    41.4364    53.3370    12.7989    29.6400     8.6757  5168.8018   107.7735     -.8200     2.2032     2.1969
 2957.3708     8.6909  2040.8240    42.9198    41.2729    54.0075    12.8869    30.2236     8.6316  5166.0591   107.7859     -.8212     2.1932     2.1870
 2957.4470     8.6876  2038.6689    42.3318    40.7840    54.1645    12.7473    30.8674     8.5683  5162.3208   107.7913     -.8231     2.1822     2.1760
 2957.5232     8.6855  2036.6190    41.5682    40.1338    54.0715    12.3899    31.4046     8.4860  5157.7979   107.7870     -.8251     2.1730     2.1669
 2957.5994     8.6849  2035.2250    40.9728    39.6155    53.9654    11.8890    31.7145     8.3901  5152.6958   107.7836     -.8264     2.1677     2.1617
 2957.6756     8.6846  2034.6591    40.8138    39.4757    54.0086    11.3648    31.7666     8.2903  5147.8091   107.7859     -.8269     2.1668     2.1608
 2957.7518     8.6833  2034.7050    41.2183    39.8326    54.2109    10.9346    31.6136     8.1986  5143.8589   107.8032     -.8265     2.1694     2.1634
 2957.8280     8.6804  2035.0720    42.1881    40.6707    54.4506    10.6623    31.3432     8.1253  5141.1782   107.8357     -.8256     2.1740     2.1680
 2957.9042     8.6765  2035.5280    43.4023    41.6875    54.5911    10.5474    31.0186     8.0734  5139.7798   107.8633     -.8242     2.1796     2.1735
 2957.9804     8.6731  2036.1210    44.1711    42.3137    54.5723    10.5568    30.6473     8.0366  5139.5498   107.8563     -.8223     2.1859     2.1798
 2958.0566     8.6717  2037.1760    44.2112    42.3473    54.4487    10.6642    30.2041     8.0033  5140.3560   107.8004     -.8198     2.1935     2.1873
 2958.1328     8.6725  2038.8960    43.7689    41.9906    54.2776    10.8628    29.6898     7.9630  5142.1191   107.7081     -.8168     2.2023     2.1960
 2958.2090     8.6735  2041.0909    43.2452    41.5620    54.1640    11.1494    29.1653     7.9107  5144.2891   107.6109     -.8140     2.2113     2.2049
 2958.2852     8.6721  2043.1770    42.9596    41.3277    54.2486    11.5116    28.7194     7.8497  5146.2021   107.5434     -.8121     2.2189     2.2125
 2958.3614     8.6672  2044.2061    43.0584    41.4153    54.6375    11.9396    28.3899     7.7878  5147.4170   107.5315     -.8125     2.2245     2.2181
 2958.4376     8.6602  2043.5220    43.4542    41.7487    55.3064    12.4332    28.1208     7.7334  5148.0098   107.5797     -.8162     2.2291     2.2226
 2958.5138     8.6546  2041.1680    44.0973    42.2755    56.0188    12.9902    27.7996     7.6915  5148.1729   107.6693     -.8246     2.2346     2.2281
 2958.5900     8.6532  2037.8781    45.0200    43.0068    56.3349    13.5867    27.3254     7.6629  5148.1709   107.7601     -.8391     2.2427     2.2361
 2958.6662     8.6570  2034.6650    46.2188    43.9212    55.8419    14.1563    26.6410     7.6433  5148.1729   107.8189     -.8603     2.2544     2.2478
 2958.7424     8.6652  2032.3960    47.5625    44.9040    54.4063    14.5461    25.7195     7.6281  5148.1558   107.8398     -.8868     2.2702     2.2634
 2958.8186     8.6757  2031.5090    48.8624    45.8157    52.4571    14.5021    24.5345     7.6155  5148.1558   107.8307     -.9127     2.2905     2.2835
 2958.8948     8.6863  2032.1310    49.5212    46.2591    50.9422    13.8024    23.0513     7.6051  5148.1729   107.8048     -.9246     2.3158     2.3087
 2958.9710     8.6957  2034.1470    49.0516    45.9265    50.9781    12.4773    21.3121     7.5965  5148.4639   107.7751     -.9029     2.3456     2.3382
 2959.0472     8.7041  2037.0980    47.7474    44.9962    53.2262    10.8409    19.6709     7.5871  5149.7988   107.7540     -.8332     2.3736     2.3661
 2959.1234     8.7131  2040.3040    46.1305    43.7932    57.4411     9.2611    18.8185     7.5698  5152.3979   107.7441     -.7201     2.3882     2.3806
 2959.1996     8.7244  2043.1750    44.4476    42.4762    62.5717     7.9481    19.1837     7.5340  5155.3799   107.7384     -.5845     2.3820     2.3744
 2959.2758     8.7385  2045.3990    42.9132    41.2125    67.2670     6.9467    20.5208     7.4647  5157.3579   107.7308     -.4476     2.3591     2.3516
 2959.3520     8.7541  2047.2690    41.6304    40.1068    70.5152     6.2204    22.2497     7.3407  5157.4868   107.7080     -.3224     2.3295     2.3222
 2959.4282     8.7692  2049.2581    40.5698    39.1583    72.0952     5.7141    23.8783     7.1448  5155.5962   107.6578     -.2148     2.3017     2.2946
 2959.5044     8.7822  2051.4341    39.6606    38.3214    72.4495     5.3759    25.1222     6.8783  5151.4551   107.5851     -.1262     2.2804     2.2734
 2959.5806     8.7932  2053.2871    38.9297    37.6321    72.3487     5.1619    25.8687     6.5666  5144.4751   107.5015     -.0562     2.2676     2.2608
 2959.6568     8.8028  2054.0229    38.3409    37.0652    72.4217     5.0342    26.1290     6.2510  5134.8701   107.4249     -.0031     2.2632     2.2563
 2959.7330     8.8118  2053.1851    37.9189    36.6504    72.9830     4.9592    25.1672     5.9757  5123.9868   107.3789      .0496     2.2796     2.2727
 2959.8092     8.8199  2051.2510    37.6535    36.3839    73.9503     4.9118    24.1610     5.7704  5114.2422   107.3728      .0870     2.2968     2.2897
 2959.8854     8.8256  2049.3081    37.5829    36.3085    75.1280     4.8853    23.4244     5.6422  5107.8589   107.3893      .1097     2.3094     2.3022
 2959.9616     8.8272  2048.3330    37.7496    36.4682    76.2730     4.8993    23.1082     5.5766  5105.7051   107.4072      .1204     2.3149     2.3076
 2960.0378     8.8237  2048.4050    38.0629    36.7741    77.0718     4.9943    23.2283     5.5479  5106.3872   107.4065      .1223     2.3128     2.3056
 2960.1140     8.8157  2048.4990    38.2061    36.9210    77.2281     5.2160    23.6853     5.5338  5106.8940   107.3872      .1185     2.3050     2.2978
 2960.1902     8.8059  2047.0410    37.9855    36.7217    76.6645     5.6024    24.3292     5.5294  5104.4360   107.3737      .1113     2.2940     2.2869
 2960.2664     8.7983  2042.8600    37.4022    36.1660    75.5972     6.1720    25.0102     5.5450  5098.8091   107.3993      .1023     2.2823     2.2753
