~VERSION INFORMATION
VERS.                                                 2.0:   CWLS Log ASCII Standard-VERSION 2.0
WRAP.                                                  NO:   One line per depth step
~Well Information Block
STRT.M                                          2892.9818:   Top Depth
STOP.M                                          3308.8052:   Bottom Depth
STEP.M                                             .07620:   Depth Increment
NULL.                                            -999.250:   Null Value
FLD .                                                 Q15:   Field Name
WELL.                                            15/12-21:   NAME
WBN .                                            15/12-21:   WELLBORE
NATI.                                                 NOR:   COUNTRY
APD .M                                               42.1:   ABOVE PERM DATUM
CTRY.                                                 NOR:   COUNTRY
COMP.                            TALISMAN ENERGY NORGE AS:   OPERATOR
PDAT.                                                 MSL:   PERM DATUM
COUN.                                     MAERSK GUARDIAN:   RIG NAME
LATI.                            058 13' 40.470" N    DMS:   SURF. LATITUDE
LONG.                            001 52' 56.820" E    DMS:   SURF. LONGITUDE
PBWE.                                            15/12-21:   PB WELL ID
APIN.                                            15/12-21:   PB WELLBORE ID
PBWS.                                                 ALL:   PB WELL NAME SET
CNTY.                                     MAERSK GUARDIAN:   COUNTY
~PARAMETER INFORMATION (log)
LNAM.                                 WLC_PETRO_COMPOSITE:   NAME
LTYP.                                                PAP.:   LOG TYPE
LSRV.                                          WL.PET.LOG:   LOG SERVICE
LVSN.                                                   1:   LOG VERSION
LRUN.                                                 1.2:   LOG RUN
BHIS.                                                   R:   BRIEF HISTORY
R1  .                                Composite data incl.:   COMMENT  1
R2  .                                 EWL ZDL/CN, run 1.2:   COMMENT  2
R3  .       For more details, please see WLC_PETROPHYSICA:   COMMENT  3
R5  .            EWL data plotted and verified to prints.:   COMMENT  5
R7  .                             Depth units are meters.:   COMMENT  7
R9  .                                    Quality comments:   COMMENT  9
R10 .                                 EWL ZDL/CN, run 1.2:   COMMENT 10
R11 . Data above 2959.7 m logged in casing (depth from lo:   COMMENT 11
R12 .                                    Logger s remarks:   COMMENT 12
R13 .                                       Depth control:   COMMENT 13
R14 . * Depth correlated to run w1.1 XMAC/HDIL/GR dated 2:   COMMENT 14
R15 .                                             General:   COMMENT 15
R16 .   * Last circulation stopped at 1035 on 19-APR-2009:   COMMENT 16
R17 .  * Toolstring reached TD at 1950 hrs on 20-APR-2009:   COMMENT 17
R18 . * Motorized releasable cablehead (MRCH) was run wit:   COMMENT 18
R19 .   * Maximum reading from cablehead thermometers 118:   COMMENT 19
R20 . * Maximum reading from TTRM was 114 degC at 3236 m.:   COMMENT 20
R21 .                                            Mud data:   COMMENT 21
R22 .                           * Oil/water ratio = 76/24:   COMMENT 22
R23 .                       * Cacl2 WPS Brine = 135 kg/m3:   COMMENT 23
R24 .                                              ZDL/CN:   COMMENT 24
R25 .        * ZDL/CN data presented on limestone scales.:   COMMENT 25
R26 .    * CNCF curve has no salinity correction applied.:   COMMENT 26
R27 . * Total borehole volume from TD to casing shoe = 12:   COMMENT 27
R29 .       Editing on WLC_PETROPHYSICAL_COMPOSITE_1.DLIS:   COMMENT 29
R30 .                                 EWL ZDL/CN, run 1.2:   COMMENT 30
DMF .                                                  KB:   DRILL MEAS FROM
EDF .M                                               42.1:   ELEV DRILL FLOOR
ELZ .M                                               42.1:   ELEVATION LOG ZERO
FHIS.                                            RAW-DLIS:   FULL HISTORY
EKB .M                                               42.1:   KB ELEVATION
LMF .                                                  KB:   LOGS MEAS FROM
EPD .M                                                  0:   ELEV PERM DATUM
EGL .M                                              -85.6:   GROUND LEVEL
~Curve Information Block
#MNEM.UNIT                                        API CODE    No Description
#=========                                        ========    == ===========
DEPT.M                                       00 001 00 00:     1  DEPTH
CALX.IN                                                  :     2  Caliper
CHT.LB                                                   :     3  Cable Tension
CN.%                                                     :     4  Neutron Porosity
CNCF.%                                                   :     5  Neutron Porosity
GR.GAPI                                                  :     6  Gamma Ray
PE.B/E                                                   :     7  Photoelectic Factor
PORZ.%                                                   :     8  Porosity
SPD.M/MN                                                 :     9  Cable Speed
TTEN.LB                                                  :    10  Cable Tension
WTBH.DEGC                                                :    11  Temperature
ZCOR.G/CC                                                :    12  Density Correction
ZDEN.G/CC                                                :    13  Bulk Density
ZDNC.G/CC                                                :    14  Bulk Density
~ASCII
# ...
 3035.6282     8.5342  1802.4120    12.8277    12.3963    28.1700     3.5740     5.3686    10.1137  5219.9282   112.4942      .0102     2.6182     2.6096
 3035.7044     8.5385  1784.7810    11.8472    11.4344    28.0707     3.5742     4.2737    10.1268  5215.7202   112.5192      .0112     2.6369     2.6283
 3035.7806     8.5354  1782.4760    10.1776     9.8025    27.6990     3.6259     1.4604    10.1407  5212.3442   112.5620      .0144     2.6850     2.6762
 3035.8568     8.5287  1794.9180     9.6322     9.2722    27.1478     3.6905      .3513    10.1551  5210.0732   112.6175      .0146     2.7040     2.6952
 3035.9330     8.5204  1816.7140     9.3755     9.0252    26.5595     3.7710     -.2220    10.1712  5209.0229   112.6653      .0124     2.7138     2.7049
 3036.0092     8.5134  1835.6740     9.4121     9.0645    26.0998     3.8533     -.2950    10.1880  5209.4302   112.6828      .0081     2.7150     2.7062
 3036.0854     8.5099  1836.0420     9.6688     9.3177    25.8451     3.9259     -.1464    10.2030  5211.3262   112.6631      .0032     2.7125     2.7037
 3036.1616     8.5102  1806.4380    10.0165     9.6580    25.8410     3.9799     -.1381    10.2134  5213.7959   112.6165     -.0006     2.7124     2.7035
 3036.2378     8.5126  1752.6250    10.3179     9.9519    26.1314     4.0097     -.5314    10.2170  5215.5439   112.5564     -.0024     2.7191     2.7102
 3036.3140     8.5143  1689.9170    10.4899    10.1194    26.7155     4.0217    -1.3657    10.2132  5215.3130   112.4890     -.0028     2.7334     2.7245
 3036.3902     8.5136  1638.6240    10.5483    10.1770    27.4471     4.0439    -2.5987    10.2027  5212.9922   112.4195     -.0020     2.7544     2.7455
 3036.4664     8.5107  1617.2190    10.5962    10.2254    28.1174     4.1183    -4.0870    10.1863  5209.7129   112.3546     -.0004     2.7799     2.7709
 3036.5426     8.5065  1632.2300    10.7484    10.3768    28.5038     4.2753    -5.6525    10.1646  5206.9648   112.3122      .0025     2.8067     2.7977
 3036.6188     8.5025  1669.8760    11.0257    10.6506    28.4663     4.5063    -7.0030    10.1407  5205.7930   112.3020      .0055     2.8298     2.8207
 3036.6950     8.4990  1706.6050    11.3448    10.9651    28.0870     4.7505    -7.8577    10.1190  5206.9619   112.3279      .0078     2.8444     2.8353
 3036.7712     8.4957  1719.7220    11.6276    11.2441    27.5848     4.9128    -7.9825    10.1040  5210.4521   112.3832      .0086     2.8465     2.8375
 3036.8474     8.4911  1700.5280    11.8741    11.4883    27.2265     4.9209    -7.2113    10.0994  5215.1118   112.4613      .0075     2.8333     2.8243
 3036.9236     8.4851  1657.4821    12.1959    11.8072    27.1845     4.7824    -5.4886    10.1055  5219.1948   112.5485      .0042     2.8039     2.7949
 3036.9998     8.4804  1607.6689    12.7563    12.3594    27.4921     4.5713    -2.9156    10.1162  5221.4492   112.6345     -.0004     2.7599     2.7509
 3037.0760     8.4793  1568.3051    13.6898    13.2752    28.0198     4.3609      .2174    10.1249  5221.5962   112.7066     -.0042     2.7063     2.6975
 3037.1522     8.4820  1553.6219    15.0422    14.5994    28.6840     4.1835     3.6946    10.1285  5220.0820   112.7491     -.0074     2.6468     2.6382
 3037.2284     8.4863  1569.8800    16.7361    16.2571    29.4888     4.0393     7.2187    10.1288  5217.5298   112.7419     -.0094     2.5866     2.5781
 3037.3046     8.4902  1610.7280    18.5426    18.0255    30.5468     3.9187    10.5369    10.1299  5214.5342   112.6814     -.0101     2.5298     2.5216
 3037.3808     8.4917  1661.5480    20.1364    19.5874    31.9439     3.8149    13.4819    10.1351  5211.9170   112.5871     -.0096     2.4795     2.4715
 3037.4570     8.4906  1709.9570    21.2927    20.7225    33.6222     3.7274    15.9811    10.1446  5210.4521   112.4917     -.0084     2.4367     2.4290
 3037.5332     8.4892  1740.7410    22.0292    21.4466    35.3355     3.6606    18.0420    10.1567  5210.4502   112.4194     -.0071     2.4015     2.3939
 3037.6094     8.4892  1744.4860    22.4585    21.8678    36.7872     3.6193    19.7233    10.1698  5212.0811   112.3667     -.0063     2.3727     2.3653
 3037.6856     8.4914  1729.0699    22.7659    22.1674    37.7649     3.6013    21.0994    10.1829  5215.4199   112.3199     -.0064     2.3492     2.3420
 3037.7618     8.4943  1715.5090    23.1182    22.5104    38.2284     3.5954    22.2248    10.1956  5220.2231   112.2715     -.0072     2.3300     2.3228
 3037.8380     8.4948  1720.7570    23.6151    22.9976    38.2946     3.5880    23.1110    10.2069  5226.0840   112.2272     -.0084     2.3148     2.3078
 3037.9142     8.4911  1751.0601    24.2691    23.6431    38.1301     3.5729    23.7340    10.2148  5232.5630   112.2101     -.0094     2.3041     2.2972
 3037.9904     8.4843  1799.5970    25.0518    24.4182    37.8518     3.5565    24.0691    10.2149  5239.2109   112.2495     -.0096     2.2984     2.2915
 3038.0666     8.4765  1852.8110    25.8359    25.1961    37.4953     3.5540    24.1294    10.2048  5245.6460   112.3562     -.0088     2.2974     2.2905
 3038.1428     8.4691  1897.5490    26.4041    25.7619    37.0726     3.5782    23.9811    10.1862  5251.3872   112.5203     -.0071     2.2999     2.2930
 3038.2190     8.4632  1927.9821    26.6099    25.9702    36.6335     3.6288    23.7292    10.1642  5255.3252   112.7017     -.0047     2.3042     2.2973
 3038.2952     8.4584  1941.5360    26.5221    25.8888    36.2349     3.6884    23.4833    10.1439  5256.0498   112.8508     -.0020     2.3084     2.3015
 3038.3714     8.4540  1945.1940    26.2754    25.6509    35.8582     3.7291    23.3122    10.1297  5253.0532   112.9326      .0007     2.3114     2.3044
 3038.4476     8.4508  1946.1930    25.9299    25.3144    35.4309     3.7274    23.2185    10.1235  5247.1602   112.9519      .0037     2.3130     2.3060
 3038.5238     8.4508  1943.2240    25.3994    24.7929    34.9136     3.6773    23.2259    10.1240  5240.2441   112.9273      .0060     2.3128     2.3059
 3038.6000     8.4556  1938.2629    24.5829    23.9857    34.3811     3.5926    23.2721    10.1289  5234.3530   112.8757      .0075     2.3120     2.3051
 3038.6762     8.4643  1934.1300    23.5662    22.9785    33.9819     3.4988    23.2792    10.1354  5230.7642   112.8179      .0085     2.3119     2.3050
 3038.7524     8.4736  1933.6200    22.5927    22.0137    33.8270     3.4236    23.1801    10.1416  5230.1079   112.7619      .0092     2.3136     2.3066
 3038.8286     8.4790  1937.4000    21.8661    21.2955    33.9372     3.3902    22.9454    10.1463  5232.4268   112.7016      .0098     2.3176     2.3106
 3038.9048     8.4781  1944.8190    21.4891    20.9264    34.2715     3.4123    22.6094    10.1489  5237.4790   112.6410      .0104     2.3234     2.3163
 3038.9810     8.4715  1952.6060    21.4545    20.8982    34.7457     3.4893    22.2756    10.1484  5244.7842   112.5942      .0110     2.3291     2.3220
 3039.0572     8.4626  1958.4850    21.6673    21.1151    35.2653     3.6042    22.0820    10.1455  5253.6040   112.5837      .0112     2.3324     2.3253
 3039.1334     8.4551  1961.0909    21.9698    21.4189    35.7405     3.7275    22.1351    10.1409  5262.5591   112.6226      .0107     2.3315     2.3244
 3039.2096     8.4523  1961.1260    22.2073    21.6547    36.0861     3.8251    22.4492    10.1365  5269.7051   112.6966      .0095     2.3261     2.3191
 3039.2858     8.4554  1960.2190    22.3288    21.7712    36.2196     3.8712    22.9319    10.1344  5272.8159   112.7586      .0078     2.3179     2.3109
 3039.3620     8.4641  1961.5520    22.4359    21.8686    36.1660     3.8580    23.4357    10.1377  5270.4971   112.7680      .0065     2.3092     2.3023
 3039.4382     8.4755  1959.0520    22.6812    22.0988    35.9717     3.7959    23.8403    10.1483  5262.9902   112.7174      .0056     2.3023     2.2954
 3039.5144     8.4865  1942.3051    23.1808    22.5792    35.6894     3.7048    24.1056    10.1651  5252.1270   112.6237      .0053     2.2978     2.2909
