~VERSION INFORMATION
VERS.                                                 2.0:   CWLS Log ASCII Standard-VERSION 2.0
WRAP.                                                  NO:   One line per depth step
~Well Information Block
STRT.M                                          2892.9818:   Top Depth
STOP.M                                          3308.8052:   Bottom Depth
STEP.M                                             .07620:   Depth Increment
NULL.                                            -999.250:   Null Value
FLD .                                                 Q15:   Field Name
WELL.                                            15/12-21:   NAME
WBN .                                            15/12-21:   WELLBORE
NATI.                                                 NOR:   COUNTRY
APD .M                                               42.1:   ABOVE PERM DATUM
CTRY.                                                 NOR:   COUNTRY
COMP.                            TALISMAN ENERGY NORGE AS:   OPERATOR
PDAT.                                                 MSL:   PERM DATUM
COUN.                                     MAERSK GUARDIAN:   RIG NAME
LATI.                            058 13' 40.470" N    DMS:   SURF. LATITUDE
LONG.                            001 52' 56.820" E    DMS:   SURF. LONGITUDE
PBWE.                                            15/12-21:   PB WELL ID
APIN.                                            15/12-21:   PB WELLBORE ID
PBWS.                                                 ALL:   PB WELL NAME SET
CNTY.                                     MAERSK GUARDIAN:   COUNTY
~PARAMETER INFORMATION (log)
LNAM.                                 WLC_PETRO_COMPOSITE:   NAME
LTYP.                                                PAP.:   LOG TYPE
LSRV.                                          WL.PET.LOG:   LOG SERVICE
LVSN.                                                   1:   LOG VERSION
LRUN.                                                 1.2:   LOG RUN
BHIS.                                                   R:   BRIEF HISTORY
R1  .                                Composite data incl.:   COMMENT  1
R2  .                                 EWL ZDL/CN, run 1.2:   COMMENT  2
R3  .       For more details, please see WLC_PETROPHYSICA:   COMMENT  3
R5  .            EWL data plotted and verified to prints.:   COMMENT  5
R7  .                             Depth units are meters.:   COMMENT  7
R9  .                                    Quality comments:   COMMENT  9
R10 .                                 EWL ZDL/CN, run 1.2:   COMMENT 10
R11 . Data above 2959.7 m logged in casing (depth from lo:   COMMENT 11
R12 .                                    Logger s remarks:   COMMENT 12
R13 .                                       Depth control:   COMMENT 13
R14 . * Depth correlated to run w1.1 XMAC/HDIL/GR dated 2:   COMMENT 14
R15 .                                             General:   COMMENT 15
R16 .   * Last circulation stopped at 1035 on 19-APR-2009:   COMMENT 16
R17 .  * Toolstring reached TD at 1950 hrs on 20-APR-2009:   COMMENT 17
R18 . * Motorized releasable cablehead (MRCH) was run wit:   COMMENT 18
R19 .   * Maximum reading from cablehead thermometers 118:   COMMENT 19
R20 . * Maximum reading from TTRM was 114 degC at 3236 m.:   COMMENT 20
R21 .                                            Mud data:   COMMENT 21
R22 .                           * Oil/water ratio = 76/24:   COMMENT 22
R23 .                       * Cacl2 WPS Brine = 135 kg/m3:   COMMENT 23
R24 .                                              ZDL/CN:   COMMENT 24
R25 .        * ZDL/CN data presented on limestone scales.:   COMMENT 25
R26 .    * CNCF curve has no salinity correction applied.:   COMMENT 26
R27 . * Total borehole volume from TD to casing shoe = 12:   COMMENT 27
R29 .       Editing on WLC_PETROPHYSICAL_COMPOSITE_1.DLIS:   COMMENT 29
R30 .                                 EWL ZDL/CN, run 1.2:   COMMENT 30
DMF .                                                  KB:   DRILL MEAS FROM
EDF .M                                               42.1:   ELEV DRILL FLOOR
ELZ .M                                               42.1:   ELEVATION LOG ZERO
FHIS.                                            RAW-DLIS:   FULL HISTORY
EKB .M                                               42.1:   KB ELEVATION
LMF .                                                  KB:   LOGS MEAS FROM
EPD .M                                                  0:   ELEV PERM DATUM
EGL .M                                              -85.6:   GROUND LEVEL
~Curve Information Block
#MNEM.UNIT                                        API CODE    No Description
#=========                                        ========    == ===========
DEPT.M                                       00 001 00 00:     1  DEPTH
CALX.IN                                                  :     2  Caliper
CHT.LB                                                   :     3  Cable Tension
CN.%                                                     :     4  Neutron Porosity
CNCF.%                                                   :     5  Neutron Porosity
GR.GAPI                                                  :     6  Gamma Ray
PE.B/E                                                   :     7  Photoelectic Factor
PORZ.%                                                   :     8  Porosity
SPD.M/MN                                                 :     9  Cable Speed
TTEN.LB                                                  :    10  Cable Tension
WTBH.DEGC                                                :    11  Temperature
ZCOR.G/CC                                                :    12  Density Correction
ZDEN.G/CC                                                :    13  Bulk Density
ZDNC.G/CC                                                :    14  Bulk Density
~ASCII
# ...
 3059.4026     8.5468  1907.0280    63.6241    54.2548    30.0761     1.9446    63.3095    10.1166  5218.1460   112.6174     -.0776     1.6274     1.6279
 3059.4788     8.5627  1905.6281    72.7128    57.8804    23.7597     1.9921    70.1383    10.1335  5209.1118   112.6510     -.0846     1.5106     1.5130
 3059.5550     8.5904  1903.0800    81.2230    60.5756    18.6637     2.1061    75.2633    10.1494  5197.8218   112.6977     -.0866     1.4230     1.4269
 3059.6312     8.6235  1900.6610    86.4283    61.9662    14.9062     2.2414    78.7839    10.1648  5186.5122   112.7388     -.0846     1.3628     1.3678
 3059.7074     8.6537  1898.5100    86.1777    61.8940    12.2884     2.3404    80.9688    10.1813  5177.7739   112.7603     -.0802     1.3254     1.3311
 3059.7836     8.6760  1896.4139    81.9722    60.7577    10.5318     2.3534    82.1727    10.2002  5173.6899   112.7570     -.0750     1.3048     1.3110
 3059.8598     8.6898  1891.5260    76.5374    59.1108     9.4346     2.2742    82.7689    10.2200  5175.3682   112.7485     -.0704     1.2947     1.3010
 3059.9360     8.6985  1878.1331    71.7814    57.4733     8.8265     2.1549    83.0804    10.2370  5182.7412   112.7604     -.0676     1.2893     1.2957
 3060.0122     8.7078  1856.3051    68.7873    56.3306     8.5929     2.0775    83.3172    10.2449  5194.7710   112.8077     -.0675     1.2853     1.2918
 3060.0884     8.7227  1832.4310    67.8354    55.9403     8.6385     2.1187    83.5561    10.2392  5209.5659   112.8797     -.0707     1.2812     1.2878
 3060.1646     8.7460  1816.4110    68.5393    56.2093     8.8832     2.3450    83.7817    10.2191  5224.7388   112.9463     -.0771     1.2773     1.2840
 3060.2408     8.7749  1816.5460    70.5287    56.9657     9.2472     2.8243    83.9507    10.1891  5237.8730   112.9822     -.0864     1.2744     1.2812
 3060.3170     8.8034  1835.4940    72.6512    57.7330     9.6273     3.6142    84.0264    10.1551  5246.7578   112.9789     -.0976     1.2731     1.2799
 3060.3932     8.8242  1864.7590    73.7638    58.1164     9.9315     4.6776    83.9761    10.1250  5249.9028   112.9429     -.1090     1.2740     1.2808
 3060.4694     8.8326  1888.2190    73.7839    58.1193    10.1326     5.7267    83.7681    10.1047  5247.0542   112.8931     -.1183     1.2776     1.2843
 3060.5456     8.8281  1894.0940    73.9267    58.1713    10.3111     6.2207    83.3980    10.0974  5239.3330   112.8613     -.1233     1.2839     1.2905
 3060.6218     8.8145  1881.4060    75.2057    58.6151    10.5764     5.7916    82.9264    10.1017  5228.7012   112.8658     -.1226     1.2920     1.2984
 3060.6980     8.7983  1860.2540    77.4450    59.3543    10.9788     4.6643    82.4772    10.1139  5217.4761   112.8928     -.1159     1.2996     1.3059
 3060.7742     8.7848  1846.1021    78.4525    59.6759    11.5088     3.4033    82.1797    10.1292  5207.6201   112.9116     -.1046     1.3047     1.3109
 3060.8504     8.7763  1846.8990    75.8256    58.8394    12.0748     2.4004    82.0995    10.1453  5200.1680   112.8985     -.0909     1.3061     1.3122
 3060.9266     8.7711  1860.4871    70.0019    56.7669    12.5894     1.7432    82.2041    10.1618  5195.2651   112.8509     -.0771     1.3043     1.3105
 3061.0028     8.7648  1879.7720    63.9101    54.2299    13.1261     1.3646    82.3621    10.1781  5193.0928   112.7899     -.0651     1.3016     1.3078
 3061.0790     8.7545  1896.1460    59.6550    52.1927    13.9496     1.1777    82.3618    10.1925  5194.3389   112.7453     -.0562     1.3016     1.3078
 3061.1552     8.7392  1905.0300    57.9057    51.2908    15.5037     1.1230    81.9421    10.2022  5199.8989   112.7412     -.0506     1.3088     1.3148
 3061.2314     8.7202  1907.6700    58.3925    51.5654    18.2763     1.1731    80.8263    10.2046  5209.6748   112.7751     -.0476     1.3279     1.3335
 3061.3076     8.6998  1910.1440    60.0463    52.4339    22.6099     1.3283    78.7537    10.1979  5221.9058   112.8194     -.0457     1.3633     1.3683
 3061.3838     8.6814  1915.5500    61.2323    53.0345    28.3867     1.6114    75.5192    10.1851  5233.4790   112.8251     -.0430     1.4186     1.4226
 3061.4600     8.6683  1923.5811    60.7887    52.8276    35.0037     2.0415    71.0492    10.1722  5241.3472   112.7721     -.0374     1.4951     1.4977
 3061.5362     8.6615  1932.6071    58.8947    51.8761    41.5383     2.5304    65.5558    10.1650  5244.2881   112.6912     -.0275     1.5890     1.5901
 3061.6124     8.6601  1940.3350    56.8952    50.8093    46.8904     2.7753    59.7819    10.1640  5243.2949   112.6319     -.0143     1.6877     1.6873
 3061.6886     8.6615  1944.8860    55.8512    50.2255    50.0232     2.5513    55.1627    10.1649  5240.5420   112.6255     -.0018     1.7667     1.7652
 3061.7648     8.6621  1945.8719    56.2041    50.4239    50.3348     2.0635    53.2915    10.1620  5237.8428   112.6661      .0053     1.7987     1.7968
 3061.8410     8.6601  1944.0820    58.1011    51.4608    47.8203     1.6004    55.1130    10.1527  5235.5620   112.7201      .0000     1.7676     1.7661
 3061.9172     8.6550  1940.4700    61.3808    53.1265    43.0513     1.2606    59.4604    10.1396  5232.6011   112.7614     -.0097     1.6932     1.6928
 3061.9934     8.6474  1935.6400    65.6466    55.0752    36.9758     1.0346    64.8316    10.1270  5228.0298   112.7838     -.0199     1.6014     1.6023
 3062.0696     8.6397  1926.1830    70.6140    57.0737    30.6651      .8937    70.0250    10.1184  5222.0532   112.8013     -.0275     1.5126     1.5149
 3062.1458     8.6348  1902.5081    76.0579    58.9802    24.9868      .8156    74.4424    10.1139  5215.8638   112.8329     -.0320     1.4370     1.4407
 3062.2220     8.6332  1859.3560    80.8557    60.4542    20.4304      .7846    77.8900    10.1118  5210.6162   112.8905     -.0339     1.3781     1.3828
 3062.2982     8.6324  1801.9980    82.6492    60.9622    17.0691      .7875    80.3788    10.1091  5206.8008   112.9599     -.0344     1.3355     1.3410
 3062.3744     8.6283  1743.5150    80.3666    60.3137    14.6452      .8099    82.0157    10.1066  5204.1519   113.0101     -.0340     1.3075     1.3136
 3062.4506     8.6160  1702.0420    75.9681    58.9596    12.8718      .8367    82.9529    10.1055  5202.5732   113.0269     -.0330     1.2915     1.2978
 3062.5268     8.5930  1692.0500    71.9172    57.5797    11.6101      .8562    83.3592    10.1076  5202.9429   113.0228     -.0317     1.2846     1.2910
 3062.6030     8.5626  1716.5610    69.4139    56.6619    10.7812      .8662    83.3891    10.1121  5207.0708   113.0224     -.0301     1.2840     1.2905
 3062.6792     8.5346  1766.4220    68.6896    56.3969    10.3218      .8748    83.1502    10.1172  5216.0381   113.0340     -.0283     1.2881     1.2945
 3062.7554     8.5203  1825.8770    69.8153    56.8409    10.3096      .8942    82.6758    10.1211  5228.9268   113.0468     -.0264     1.2962     1.3024
 3062.8316     8.5266  1878.6390    72.5995    57.8595    11.0732      .9347    81.9179    10.1241  5242.3960   113.0442     -.0248     1.3092     1.3152
 3062.9078     8.5537  1915.6281    76.5886    59.1887    13.1062     1.0011    80.7579    10.1292  5252.1431   113.0149     -.0236     1.3290     1.3346
 3062.9840     8.5933  1938.1830    80.2653    60.2975    16.8911     1.0936    79.0290    10.1403  5254.9072   112.9580     -.0227     1.3586     1.3637
 3063.0602     8.6339  1949.7690    81.7657    60.7143    22.5764     1.2116    76.5476    10.1584  5249.9028   112.8771     -.0217     1.4010     1.4053
 3063.1364     8.6653  1951.1110    79.6447    60.0860    29.6782     1.3591    73.1587    10.1811  5239.0498   112.7828     -.0197     1.4590     1.4623
 3063.2126     8.6818  1945.3540    73.9424    58.2486    37.1587     1.5482    68.8065    10.2034  5225.9502   112.6893     -.0158     1.5334     1.5354
 3063.2888     8.6843  1935.8210    66.6206    55.4638    43.7705     1.7843    63.6413    10.2193  5214.0469   112.6067     -.0089     1.6217     1.6223
