~VERSION INFORMATION
VERS.                                                 2.0:   CWLS Log ASCII Standard-VERSION 2.0
WRAP.                                                  NO:   One line per depth step
~Well Information Block
STRT.M                                          2892.9818:   Top Depth
STOP.M                                          3308.8052:   Bottom Depth
STEP.M                                             .07620:   Depth Increment
NULL.                                            -999.250:   Null Value
FLD .                                                 Q15:   Field Name
WELL.                                            15/12-21:   NAME
WBN .                                            15/12-21:   WELLBORE
NATI.                                                 NOR:   COUNTRY
APD .M                                               42.1:   ABOVE PERM DATUM
CTRY.                                                 NOR:   COUNTRY
COMP.                            TALISMAN ENERGY NORGE AS:   OPERATOR
PDAT.                                                 MSL:   PERM DATUM
COUN.                                     MAERSK GUARDIAN:   RIG NAME
LATI.                            058 13' 40.470" N    DMS:   SURF. LATITUDE
LONG.                            001 52' 56.820" E    DMS:   SURF. LONGITUDE
PBWE.                                            15/12-21:   PB WELL ID
APIN.                                            15/12-21:   PB WELLBORE ID
PBWS.                                                 ALL:   PB WELL NAME SET
CNTY.                                     MAERSK GUARDIAN:   COUNTY
~PARAMETER INFORMATION (log)
LNAM.                                 WLC_PETRO_COMPOSITE:   NAME
LTYP.                                                PAP.:   LOG TYPE
LSRV.                                          WL.PET.LOG:   LOG SERVICE
LVSN.                                                   1:   LOG VERSION
LRUN.                                                 1.2:   LOG RUN
BHIS.                                                   R:   BRIEF HISTORY
R1  .                                Composite data incl.:   COMMENT  1
R2  .                                 EWL ZDL/CN, run 1.2:   COMMENT  2
R3  .       For more details, please see WLC_PETROPHYSICA:   COMMENT  3
R5  .            EWL data plotted and verified to prints.:   COMMENT  5
R7  .                             Depth units are meters.:   COMMENT  7
R9  .                                    Quality comments:   COMMENT  9
R10 .                                 EWL ZDL/CN, run 1.2:   COMMENT 10
R11 . Data above 2959.7 m logged in casing (depth from lo:   COMMENT 11
R12 .                                    Logger s remarks:   COMMENT 12
R13 .                                       Depth control:   COMMENT 13
R14 . * Depth correlated to run w1.1 XMAC/HDIL/GR dated 2:   COMMENT 14
R15 .                                             General:   COMMENT 15
R16 .   * Last circulation stopped at 1035 on 19-APR-2009:   COMMENT 16
R17 .  * Toolstring reached TD at 1950 hrs on 20-APR-2009:   COMMENT 17
R18 . * Motorized releasable cablehead (MRCH) was run wit:   COMMENT 18
R19 .   * Maximum reading from cablehead thermometers 118:   COMMENT 19
R20 . * Maximum reading from TTRM was 114 degC at 3236 m.:   COMMENT 20
R21 .                                            Mud data:   COMMENT 21
R22 .                           * Oil/water ratio = 76/24:   COMMENT 22
R23 .                       * Cacl2 WPS Brine = 135 kg/m3:   COMMENT 23
R24 .                                              ZDL/CN:   COMMENT 24
R25 .        * ZDL/CN data presented on limestone scales.:   COMMENT 25
R26 .    * CNCF curve has no salinity correction applied.:   COMMENT 26
R27 . * Total borehole volume from TD to casing shoe = 12:   COMMENT 27
R29 .       Editing on WLC_PETROPHYSICAL_COMPOSITE_1.DLIS:   COMMENT 29
R30 .                                 EWL ZDL/CN, run 1.2:   COMMENT 30
DMF .                                                  KB:   DRILL MEAS FROM
EDF .M                                               42.1:   ELEV DRILL FLOOR
ELZ .M                                               42.1:   ELEVATION LOG ZERO
FHIS.                                            RAW-DLIS:   FULL HISTORY
EKB .M                                               42.1:   KB ELEVATION
LMF .                                                  KB:   LOGS MEAS FROM
EPD .M                                                  0:   ELEV PERM DATUM
EGL .M                                              -85.6:   GROUND LEVEL
~Curve Information Block
#MNEM.UNIT                                        API CODE    No Description
#=========                                        ========    == ===========
DEPT.M                                       00 001 00 00:     1  DEPTH
CALX.IN                                                  :     2  Caliper
CHT.LB                                                   :     3  Cable Tension
CN.%                                                     :     4  Neutron Porosity
CNCF.%                                                   :     5  Neutron Porosity
GR.GAPI                                                  :     6  Gamma Ray
PE.B/E                                                   :     7  Photoelectic Factor
PORZ.%                                                   :     8  Porosity
SPD.M/MN                                                 :     9  Cable Speed
TTEN.LB                                                  :    10  Cable Tension
WTBH.DEGC                                                :    11  Temperature
ZCOR.G/CC                                                :    12  Density Correction
ZDEN.G/CC                                                :    13  Bulk Density
ZDNC.G/CC                                                :    14  Bulk Density
~ASCII
# ...
 3265.4474     8.9830  1863.2469    23.8968    22.8286    41.3408     4.1694    23.3346    10.0710  5455.6602   113.2723     -.0024     2.3110     2.3037
 3265.5236     8.9773  1853.9590    23.4881    22.4380    40.6673     4.3333    23.2846    10.0655  5464.3979   113.2899     -.0043     2.3118     2.3045
 3265.5998     8.9765  1857.9080    23.1396    22.1013    40.7322     4.5000    22.8867    10.0537  5475.1172   113.2744     -.0056     2.3186     2.3113
 3265.6760     8.9809  1873.9500    22.9019    21.8676    41.5297     4.6302    22.2232    10.0405  5485.1558   113.2255     -.0060     2.3300     2.3225
 3265.7522     8.9887  1893.8680    22.8139    21.7759    42.9562     4.6904    21.4714    10.0289  5492.0049   113.1505     -.0058     2.3428     2.3353
 3265.8284     8.9976  1900.8130    22.8321    21.7860    44.8964     4.6615    20.8738    10.0196  5494.0601   113.0632     -.0052     2.3531     2.3455
 3265.9046     9.0049  1880.5270    22.9000    21.8454    47.1346     4.5416    20.6563    10.0110  5491.2280   112.9824     -.0050     2.3568     2.3492
 3265.9808     9.0082  1835.2700    22.9952    21.9347    49.2089     4.3481    20.9191    10.0028  5484.5952   112.9213     -.0054     2.3523     2.3447
 3266.0570     9.0067  1783.4010    23.0776    22.0157    50.6026     4.1155    21.5710     9.9959  5475.6909   112.8823     -.0065     2.3411     2.3336
 3266.1332     9.0021  1746.5190    23.1094    22.0503    50.9316     3.8882    22.3600     9.9931  5466.0659   112.8635     -.0077     2.3276     2.3202
 3266.2094     8.9969  1739.8600    23.0951    22.0410    50.1045     3.7080    22.9831     9.9981  5456.8672   112.8587     -.0084     2.3170     2.3096
 3266.2856     8.9935  1765.4449    23.0501    22.0003    48.4282     3.6069    23.1968    10.0113  5449.0669   112.8640     -.0084     2.3133     2.3060
 3266.3618     8.9921  1811.3040    22.9430    21.8979    46.4180     3.6056    22.8742    10.0291  5443.8979   112.8818     -.0077     2.3189     2.3115
 3266.4380     8.9904  1859.0861    22.6763    21.6413    44.6297     3.7097    22.0117    10.0459  5442.4341   112.9079     -.0065     2.3336     2.3261
 3266.5142     8.9847  1894.9460    22.1592    21.1459    43.3344     3.9045    20.7103    10.0587  5444.5439   112.9384     -.0051     2.3559     2.3483
 3266.5904     8.9726  1917.0930    21.4055    20.4268    42.4724     4.1507    19.1403    10.0673  5448.7588   112.9730     -.0038     2.3827     2.3749
 3266.6666     8.9546  1932.8350    20.5442    19.6079    41.7463     4.3941    17.4910    10.0743  5453.1250   113.0046     -.0026     2.4109     2.4030
 3266.7428     8.9335  1949.2440    19.7516    18.8573    40.9211     4.5908    15.9201    10.0813  5455.8711   113.0048     -.0016     2.4378     2.4297
 3266.8190     8.9140  1967.2500    19.1412    18.2812    40.1086     4.7270    14.5286    10.0891  5456.4150   112.9594     -.0005     2.4616     2.4534
 3266.8952     8.9003  1987.6830    18.7800    17.9416    39.5604     4.8146    13.3570    10.0949  5455.4072   112.8859      .0010     2.4816     2.4734
 3266.9714     8.8942  2008.9240    18.6696    17.8393    39.3505     4.8702    12.4539    10.0960  5454.1680   112.8226      .0030     2.4970     2.4887
 3267.0476     8.8943  2027.8380    18.7269    17.8946    39.4015     4.8969    11.8965    10.0905  5453.8901   112.7960      .0050     2.5066     2.4982
 3267.1238     8.8985  2040.2111    18.8755    18.0355    39.5123     4.8815    11.7659    10.0790  5455.3350   112.8147      .0066     2.5088     2.5004
 3267.2000     8.9049  2042.4561    19.1197    18.2672    39.4821     4.8069    12.1203    10.0646  5458.6929   112.8628      .0073     2.5027     2.4944
 3267.2762     8.9120  2033.1050    19.5230    18.6524    39.2907     4.6705    12.9433    10.0498  5463.3682   112.9111      .0072     2.4887     2.4804
 3267.3524     8.9176  2014.7469    20.1363    19.2421    39.2838     4.4923    14.1148    10.0363  5468.3198   112.9451      .0065     2.4686     2.4605
 3267.4286     8.9202  1991.7450    20.9885    20.0654    39.9930     4.3091    15.4408    10.0246  5472.5532   112.9725      .0058     2.4460     2.4379
 3267.5048     8.9182  1971.0900    22.0212    21.0675    41.7822     4.1584    16.7273    10.0145  5475.2339   113.0072      .0056     2.4240     2.4160
 3267.5810     8.9117  1958.2310    23.0973    22.1161    44.5530     4.0680    17.8494    10.0056  5475.8921   113.0548      .0058     2.4048     2.3969
 3267.6572     8.9024  1953.3030    24.0546    23.0527    47.6694     4.0510    18.7715     9.9981  5474.6079   113.1037      .0062     2.3890     2.3813
 3267.7334     8.8941  1951.4620    24.7657    23.7503    50.2983     4.1047    19.5254     9.9926  5471.8262   113.1213      .0063     2.3761     2.3684
 3267.8096     8.8906  1950.7900    25.1760    24.1518    51.8235     4.2102    20.1711     9.9896  5468.0249   113.0842      .0056     2.3651     2.3575
 3267.8858     8.8935  1948.8580    25.3966    24.3631    52.0191     4.3327    20.7617     9.9874  5463.5020   112.9959      .0040     2.3550     2.3474
 3267.9620     8.9020  1936.1130    25.5588    24.5128    51.0916     4.4299    21.3261     9.9855  5458.5322   112.8902      .0018     2.3453     2.3378
 3268.0382     8.9128  1901.6740    25.7228    24.6618    49.5608     4.4694    21.8548     9.9850  5453.5771   112.7996     -.0005     2.3363     2.3288
 3268.1144     8.9231  1843.4960    25.8845    24.8091    47.9730     4.4441    22.3199     9.9876  5449.5142   112.7485     -.0023     2.3283     2.3209
 3268.1906     8.9315  1774.1960    26.0497    24.9614    46.7061     4.3720    22.7363     9.9939  5447.0928   112.7472     -.0037     2.3212     2.3139
 3268.2668     8.9370  1715.7410    26.2253    25.1267    45.8557     4.2812    23.0898    10.0029  5446.5020   112.7929     -.0046     2.3152     2.3079
 3268.3430     8.9388  1688.6650    26.4136    25.3076    45.2304     4.1954    23.3689    10.0128  5447.5249   112.8717     -.0050     2.3104     2.3031
 3268.4192     8.9377  1700.8950    26.6073    25.4966    44.5318     4.1263    23.5714    10.0216  5449.6948   112.9567     -.0048     2.3069     2.2997
 3268.4954     8.9339  1744.3621    26.6769    25.5678    43.5117     4.0772    23.7109    10.0281  5452.3491   113.0222     -.0042     2.3045     2.2973
 3268.5716     8.9275  1799.6530    26.4388    25.3428    42.0865     4.0498    23.8093    10.0338  5454.8130   113.0572     -.0033     2.3029     2.2956
 3268.6478     8.9196  1846.5179    25.8681    24.7964    40.4078     4.0462    23.8728    10.0414  5457.0029   113.0658     -.0024     2.3018     2.2946
 3268.7240     8.9131  1874.1210    25.0547    24.0134    38.7705     4.0659    23.8686    10.0512  5459.0410   113.0602     -.0018     2.3018     2.2946
 3268.8002     8.9108  1885.5909    24.0794    23.0693    37.4916     4.1001    23.7229    10.0606  5461.0352   113.0553     -.0014     2.3043     2.2971
 3268.8764     8.9140  1891.3260    23.0168    22.0361    36.7387     4.1318    23.3456    10.0646  5462.5459   113.0614     -.0012     2.3108     2.3035
 3268.9526     8.9211  1898.8760    21.9085    20.9560    36.5189     4.1426    22.6679    10.0605  5463.2891   113.0844     -.0012     2.3224     2.3150
 3269.0288     8.9286  1905.6470    20.7758    19.8527    36.6901     4.1242    21.6686    10.0471  5463.2710   113.1136     -.0011     2.3395     2.3320
 3269.1050     8.9324  1902.5959    19.6526    18.7623    37.0143     4.0889    20.3803    10.0278  5462.6948   113.1348     -.0008     2.3615     2.3539
 3269.1812     8.9283  1886.7321    18.6553    17.8001    37.2558     4.0681    18.8803    10.0074  5461.4609   113.1414     -.0003     2.3871     2.3794
 3269.2574     8.9143  1862.9320    17.9114    17.0903    37.2400     4.0985    17.2682     9.9915  5459.8628   113.1404      .0008     2.4147     2.4068
 3269.3336     8.8923  1841.4220    17.4786    16.6870    36.9387     4.2024    15.6822     9.9834  5458.6929   113.1354      .0026     2.4418     2.4338
