~VERSION INFORMATION
VERS.                                                 2.0:   CWLS Log ASCII Standard-VERSION 2.0
WRAP.                                                  NO:   One line per depth step
~Well Information Block
STRT.M                                          2892.9818:   Top Depth
STOP.M                                          3308.8052:   Bottom Depth
STEP.M                                             .07620:   Depth Increment
NULL.                                            -999.250:   Null Value
FLD .                                                 Q15:   Field Name
WELL.                                            15/12-21:   NAME
WBN .                                            15/12-21:   WELLBORE
NATI.                                                 NOR:   COUNTRY
APD .M                                               42.1:   ABOVE PERM DATUM
CTRY.                                                 NOR:   COUNTRY
COMP.                            TALISMAN ENERGY NORGE AS:   OPERATOR
PDAT.                                                 MSL:   PERM DATUM
COUN.                                     MAERSK GUARDIAN:   RIG NAME
LATI.                            058 13' 40.470" N    DMS:   SURF. LATITUDE
LONG.                            001 52' 56.820" E    DMS:   SURF. LONGITUDE
PBWE.                                            15/12-21:   PB WELL ID
APIN.                                            15/12-21:   PB WELLBORE ID
PBWS.                                                 ALL:   PB WELL NAME SET
CNTY.                                     MAERSK GUARDIAN:   COUNTY
~PARAMETER INFORMATION (log)
LNAM.                                 WLC_PETRO_COMPOSITE:   NAME
LTYP.                                                PAP.:   LOG TYPE
LSRV.                                          WL.PET.LOG:   LOG SERVICE
LVSN.                                                   1:   LOG VERSION
LRUN.                                                 1.2:   LOG RUN
BHIS.                                                   R:   BRIEF HISTORY
R1  .                                Composite data incl.:   COMMENT  1
R2  .                                 EWL ZDL/CN, run 1.2:   COMMENT  2
R3  .       For more details, please see WLC_PETROPHYSICA:   COMMENT  3
R5  .            EWL data plotted and verified to prints.:   COMMENT  5
R7  .                             Depth units are meters.:   COMMENT  7
R9  .                                    Quality comments:   COMMENT  9
R10 .                                 EWL ZDL/CN, run 1.2:   COMMENT 10
R11 . Data above 2959.7 m logged in casing (depth from lo:   COMMENT 11
R12 .                                    Logger s remarks:   COMMENT 12
R13 .                                       Depth control:   COMMENT 13
R14 . * Depth correlated to run w1.1 XMAC/HDIL/GR dated 2:   COMMENT 14
R15 .                                             General:   COMMENT 15
R16 .   * Last circulation stopped at 1035 on 19-APR-2009:   COMMENT 16
R17 .  * Toolstring reached TD at 1950 hrs on 20-APR-2009:   COMMENT 17
R18 . * Motorized releasable cablehead (MRCH) was run wit:   COMMENT 18
R19 .   * Maximum reading from cablehead thermometers 118:   COMMENT 19
R20 . * Maximum reading from TTRM was 114 degC at 3236 m.:   COMMENT 20
R21 .                                            Mud data:   COMMENT 21
R22 .                           * Oil/water ratio = 76/24:   COMMENT 22
R23 .                       * Cacl2 WPS Brine = 135 kg/m3:   COMMENT 23
R24 .                                              ZDL/CN:   COMMENT 24
R25 .        * ZDL/CN data presented on limestone scales.:   COMMENT 25
R26 .    * CNCF curve has no salinity correction applied.:   COMMENT 26
R27 . * Total borehole volume from TD to casing shoe = 12:   COMMENT 27
R29 .       Editing on WLC_PETROPHYSICAL_COMPOSITE_1.DLIS:   COMMENT 29
R30 .                                 EWL ZDL/CN, run 1.2:   COMMENT 30
DMF .                                                  KB:   DRILL MEAS FROM
EDF .M                                               42.1:   ELEV DRILL FLOOR
ELZ .M                                               42.1:   ELEVATION LOG ZERO
FHIS.                                            RAW-DLIS:   FULL HISTORY
EKB .M                                               42.1:   KB ELEVATION
LMF .                                                  KB:   LOGS MEAS FROM
EPD .M                                                  0:   ELEV PERM DATUM
EGL .M                                              -85.6:   GROUND LEVEL
~Curve Information Block
#MNEM.UNIT                                        API CODE    No Description
#=========                                        ========    == ===========
DEPT.M                                       00 001 00 00:     1  DEPTH
CALX.IN                                                  :     2  Caliper
CHT.LB                                                   :     3  Cable Tension
CN.%                                                     :     4  Neutron Porosity
CNCF.%                                                   :     5  Neutron Porosity
GR.GAPI                                                  :     6  Gamma Ray
PE.B/E                                                   :     7  Photoelectic Factor
PORZ.%                                                   :     8  Porosity
SPD.M/MN                                                 :     9  Cable Speed
TTEN.LB                                                  :    10  Cable Tension
WTBH.DEGC                                                :    11  Temperature
ZCOR.G/CC                                                :    12  Density Correction
ZDEN.G/CC                                                :    13  Bulk Density
ZDNC.G/CC                                                :    14  Bulk Density
~ASCII
# ...
 3162.4250     8.3842  1787.4580    16.7469    16.3439    52.1483     4.3210    14.9042    10.0519  5306.9829   113.9951     -.0043     2.4551     2.4473
 3162.5012     8.3780  1764.8000    16.6560    16.2591    53.5123     4.4138    14.6113    10.0453  5309.4658   113.9990     -.0015     2.4601     2.4523
 3162.5774     8.3773  1726.3500    16.2986    15.9080    55.4822     4.5044    14.0178    10.0372  5314.3691   113.9796      .0014     2.4703     2.4624
 3162.6536     8.3816  1688.4480    15.8378    15.4516    57.6353     4.5699    13.2081    10.0271  5321.6572   113.9565      .0042     2.4841     2.4762
 3162.7298     8.3895  1672.4170    15.4535    15.0680    59.3056     4.5907    12.3199    10.0166  5330.6279   113.9413      .0062     2.4993     2.4913
 3162.8060     8.3978  1689.5890    15.2920    14.9033    59.8238     4.5682    11.4705    10.0079  5339.5801   113.9290      .0073     2.5139     2.5057
 3162.8822     8.4034  1736.3600    15.4341    15.0390    58.7719     4.5320    10.7873    10.0017  5346.7422   113.9122      .0074     2.5255     2.5174
 3162.9584     8.4040  1799.3521    15.8622    15.4593    56.1310     4.5265    10.3976     9.9972  5350.8848   113.8934      .0063     2.5322     2.5240
 3163.0346     8.3993  1861.5530    16.4143    16.0055    52.1948     4.5860    10.3979     9.9932  5351.8550   113.8880      .0040     2.5322     2.5240
 3163.1108     8.3918  1910.5780    16.8325    16.4223    47.6139     4.7161    10.8006     9.9880  5350.2568   113.9028      .0007     2.5253     2.5171
 3163.1870     8.3853  1938.8730    16.9297    16.5229    43.1553     4.8891    11.4468     9.9818  5347.1929   113.9277     -.0023     2.5143     2.5062
 3163.2632     8.3831  1948.6570    16.7012    16.2997    39.3843     5.0522    12.1713     9.9782  5343.9170   113.9467     -.0049     2.5019     2.4938
 3163.3394     8.3868  1948.7650    16.2655    15.8684    36.5490     5.1476    12.7593     9.9820  5341.7451   113.9506     -.0068     2.4918     2.4838
 3163.4156     8.3948  1946.6021    15.7508    15.3565    34.7236     5.1390    13.0367     9.9950  5341.5112   113.9422     -.0075     2.4871     2.4791
 3163.4918     8.4032  1945.0120    15.2409    14.8493    33.8717     5.0316    12.9355    10.0146  5343.4229   113.9397     -.0072     2.4888     2.4808
 3163.5680     8.4094  1944.6300    14.7859    14.3977    33.7922     4.8689    12.5061    10.0354  5347.2061   113.9652     -.0060     2.4961     2.4881
 3163.6442     8.4139  1945.7200    14.4438    14.0585    34.2661     4.7063    11.8893    10.0521  5352.4561   114.0223     -.0045     2.5067     2.4986
 3163.7204     8.4199  1948.0179    14.2345    13.8489    35.1852     4.5844    11.2614    10.0631  5358.6572   114.0942     -.0032     2.5174     2.5093
 3163.7966     8.4309  1950.7620    14.1588    13.7672    36.3947     4.5176    10.7794    10.0688  5365.3901   114.1672     -.0023     2.5257     2.5175
 3163.8728     8.4478  1952.8530    14.2235    13.8194    37.7145     4.4998    10.5490    10.0723  5371.6431   114.2421     -.0021     2.5296     2.5214
 3163.9490     8.4687  1953.3320    14.4215    13.9997    38.9502     4.5154    10.6181    10.0765  5375.5000   114.3177     -.0025     2.5284     2.5202
 3164.0252     8.4902  1952.0000    14.6816    14.2402    39.9855     4.5496    10.9806    10.0832  5374.8101   114.3840     -.0032     2.5222     2.5140
 3164.1014     8.5083  1949.1230    14.9302    14.4716    40.8457     4.5920    11.5833    10.0898  5368.6909   114.4257     -.0041     2.5119     2.5038
 3164.1776     8.5218  1945.1520    15.1158    14.6443    41.6633     4.6347    12.3385    10.0932  5357.8262   114.4358     -.0050     2.4990     2.4909
 3164.2538     8.5317  1940.3940    15.2350    14.7541    42.5081     4.6715    13.1375    10.0902  5344.5918   114.4278     -.0056     2.4853     2.4773
 3164.3300     8.5394  1934.9800    15.3404    14.8520    43.4296     4.7004    13.8586    10.0807  5332.0508   114.4270     -.0060     2.4730     2.4650
 3164.4062     8.5455  1929.0060    15.4877    14.9919    44.6240     4.7268    14.3695    10.0665  5322.3301   114.4444     -.0058     2.4643     2.4563
 3164.4824     8.5502  1922.8550    15.6697    15.1667    46.4521     4.7592    14.5285    10.0523  5315.5029   114.4611     -.0050     2.4616     2.4536
 3164.5586     8.5531  1914.9470    15.8841    15.3744    49.1961     4.8013    14.1965    10.0421  5311.0000   114.4433     -.0033     2.4672     2.4593
 3164.6348     8.5549  1902.9969    16.1653    15.6483    52.8623     4.8442    13.2642    10.0370  5308.7241   114.3785     -.0006     2.4832     2.4751
 3164.7110     8.5575  1891.5060    16.5175    15.9910    57.0112     4.8669    11.6210    10.0350  5309.7070   114.2917      .0043     2.5113     2.5031
 3164.7872     8.5616  1887.8020    16.9393    16.4006    60.9513     4.8485     9.3749    10.0326  5315.4312   114.2324      .0106     2.5497     2.5413
 3164.8634     8.5669  1896.5959    17.4216    16.8684    64.2184     4.7824     6.7743    10.0277  5326.4229   114.2372      .0173     2.5942     2.5856
 3164.9396     8.5716  1917.0560    17.9385    17.3705    66.7148     4.6798     4.2079    10.0210  5341.2012   114.3000      .0227     2.6380     2.6294
 3165.0158     8.5735  1943.3330    18.4236    17.8436    68.6663     4.5564     2.1141    10.0152  5357.1211   114.3788      .0251     2.6738     2.6651
 3165.0920     8.5715  1966.2581    18.8082    18.2213    70.5831     4.4159      .7940    10.0126  5371.1709   114.4225      .0236     2.6964     2.6876
 3165.1682     8.5671  1979.0900    19.0016    18.4140    72.9381     4.2483      .2624    10.0131  5380.5220   114.4053      .0187     2.7055     2.6967
 3165.2444     8.5634  1980.2450    18.9858    18.4015    75.8298     4.0465      .2834    10.0143  5383.2212   114.3352      .0122     2.7052     2.6963
 3165.3206     8.5624  1972.0470    18.8089    18.2292    78.9503     3.8230      .5575    10.0146  5378.9741   114.2510      .0061     2.7005     2.6916
 3165.3968     8.5651  1957.6750    18.5614    17.9848    81.7535     3.6114      .8841    10.0151  5368.7710   114.1898      .0013     2.6949     2.6861
 3165.4730     8.5715  1942.0750    18.3259    17.7495    83.8417     3.4471     1.1617    10.0192  5354.8589   114.1574     -.0015     2.6901     2.6813
 3165.5492     8.5797  1925.9990    18.1644    17.5852    85.0832     3.3442     1.4306    10.0293  5340.8828   114.1365     -.0032     2.6855     2.6767
 3165.6254     8.5880  1910.6880    18.1147    17.5303    85.5316     3.2867     1.7216    10.0439  5330.7598   114.1191     -.0042     2.6806     2.6718
 3165.7016     8.5945  1900.8090    18.1805    17.5896    85.3017     3.2402     2.0159    10.0578  5327.0239   114.1080     -.0047     2.6755     2.6667
 3165.7778     8.5979  1900.1420    18.2497    17.6546    84.5829     3.1758     2.2695    10.0645  5330.1538   114.1139     -.0043     2.6712     2.6624
 3165.8540     8.5977  1908.2469    18.1702    17.5771    83.5747     3.0921     2.4510    10.0593  5338.7480   114.1424     -.0030     2.6681     2.6593
 3165.9302     8.5934  1921.5811    17.9212    17.3370    82.3805     3.0182     2.5768    10.0429  5350.2510   114.1907     -.0009     2.6659     2.6572
 3166.0064     8.5867  1935.3000    17.5719    17.0006    81.0379     2.9936     2.6814    10.0209  5362.0850   114.2375      .0020     2.6641     2.6554
 3166.0826     8.5803  1945.9320    17.2060    16.6477    79.6835     3.0405     2.8720     9.9990  5372.2241   114.2566      .0047     2.6609     2.6521
 3166.1588     8.5774  1952.9070    16.8962    16.3469    78.5411     3.1494     3.2469     9.9813  5379.1318   114.2290      .0060     2.6545     2.6458
 3166.2350     8.5800  1958.3420    16.6535    16.1077    77.8325     3.2793     3.8299     9.9679  5382.1431   114.1622      .0055     2.6445     2.6358
 3166.3112     8.5867  1962.6810    16.4058    15.8608    77.5457     3.3734     4.5798     9.9581  5381.9419   114.0902      .0033     2.6317     2.6230
