~VERSION INFORMATION
VERS.                                                 2.0:   CWLS Log ASCII Standard-VERSION 2.0
WRAP.                                                  NO:   One line per depth step
~Well Information Block
STRT.M                                          2892.9818:   Top Depth
STOP.M                                          3308.8052:   Bottom Depth
STEP.M                                             .07620:   Depth Increment
NULL.                                            -999.250:   Null Value
FLD .                                                 Q15:   Field Name
WELL.                                            15/12-21:   NAME
WBN .                                            15/12-21:   WELLBORE
NATI.                                                 NOR:   COUNTRY
APD .M                                               42.1:   ABOVE PERM DATUM
CTRY.                                                 NOR:   COUNTRY
COMP.                            TALISMAN ENERGY NORGE AS:   OPERATOR
PDAT.                                                 MSL:   PERM DATUM
COUN.                                     MAERSK GUARDIAN:   RIG NAME
LATI.                            058 13' 40.470" N    DMS:   SURF. LATITUDE
LONG.                            001 52' 56.820" E    DMS:   SURF. LONGITUDE
PBWE.                                            15/12-21:   PB WELL ID
APIN.                                            15/12-21:   PB WELLBORE ID
PBWS.                                                 ALL:   PB WELL NAME SET
CNTY.                                     MAERSK GUARDIAN:   COUNTY
~PARAMETER INFORMATION (log)
LNAM.                                 WLC_PETRO_COMPOSITE:   NAME
LTYP.                                                PAP.:   LOG TYPE
LSRV.                                          WL.PET.LOG:   LOG SERVICE
LVSN.                                                   1:   LOG VERSION
LRUN.                                                 1.2:   LOG RUN
BHIS.                                                   R:   BRIEF HISTORY
R1  .                                Composite data incl.:   COMMENT  1
R2  .                                 EWL ZDL/CN, run 1.2:   COMMENT  2
R3  .       For more details, please see WLC_PETROPHYSICA:   COMMENT  3
R5  .            EWL data plotted and verified to prints.:   COMMENT  5
R7  .                             Depth units are meters.:   COMMENT  7
R9  .                                    Quality comments:   COMMENT  9
R10 .                                 EWL ZDL/CN, run 1.2:   COMMENT 10
R11 . Data above 2959.7 m logged in casing (depth from lo:   COMMENT 11
R12 .                                    Logger s remarks:   COMMENT 12
R13 .                                       Depth control:   COMMENT 13
R14 . * Depth correlated to run w1.1 XMAC/HDIL/GR dated 2:   COMMENT 14
R15 .                                             General:   COMMENT 15
R16 .   * Last circulation stopped at 1035 on 19-APR-2009:   COMMENT 16
R17 .  * Toolstring reached TD at 1950 hrs on 20-APR-2009:   COMMENT 17
R18 . * Motorized releasable cablehead (MRCH) was run wit:   COMMENT 18
R19 .   * Maximum reading from cablehead thermometers 118:   COMMENT 19
R20 . * Maximum reading from TTRM was 114 degC at 3236 m.:   COMMENT 20
R21 .                                            Mud data:   COMMENT 21
R22 .                           * Oil/water ratio = 76/24:   COMMENT 22
R23 .                       * Cacl2 WPS Brine = 135 kg/m3:   COMMENT 23
R24 .                                              ZDL/CN:   COMMENT 24
R25 .        * ZDL/CN data presented on limestone scales.:   COMMENT 25
R26 .    * CNCF curve has no salinity correction applied.:   COMMENT 26
R27 . * Total borehole volume from TD to casing shoe = 12:   COMMENT 27
R29 .       Editing on WLC_PETROPHYSICAL_COMPOSITE_1.DLIS:   COMMENT 29
R30 .                                 EWL ZDL/CN, run 1.2:   COMMENT 30
DMF .                                                  KB:   DRILL MEAS FROM
EDF .M                                               42.1:   ELEV DRILL FLOOR
ELZ .M                                               42.1:   ELEVATION LOG ZERO
FHIS.                                            RAW-DLIS:   FULL HISTORY
EKB .M                                               42.1:   KB ELEVATION
LMF .                                                  KB:   LOGS MEAS FROM
EPD .M                                                  0:   ELEV PERM DATUM
EGL .M                                              -85.6:   GROUND LEVEL
~Curve Information Block
#MNEM.UNIT                                        API CODE    No Description
#=========                                        ========    == ===========
DEPT.M                                       00 001 00 00:     1  DEPTH
CALX.IN                                                  :     2  Caliper
CHT.LB                                                   :     3  Cable Tension
CN.%                                                     :     4  Neutron Porosity
CNCF.%                                                   :     5  Neutron Porosity
GR.GAPI                                                  :     6  Gamma Ray
PE.B/E                                                   :     7  Photoelectic Factor
PORZ.%                                                   :     8  Porosity
SPD.M/MN                                                 :     9  Cable Speed
TTEN.LB                                                  :    10  Cable Tension
WTBH.DEGC                                                :    11  Temperature
ZCOR.G/CC                                                :    12  Density Correction
ZDEN.G/CC                                                :    13  Bulk Density
ZDNC.G/CC                                                :    14  Bulk Density
~ASCII
# ...
 3293.1842     8.7640  1881.3650    25.0084    24.1066    66.9124     3.8962    19.4336    10.0120  5469.3550  -999.2500      .0080     2.3777     2.3701
 3293.2604     8.7613  1881.2889    25.2576    24.3519    66.6136     3.9339    20.1538    10.0208  5482.1768  -999.2500      .0022     2.3654     2.3578
 3293.3366     8.7592  1885.7390    24.9424    24.0468    66.6898     4.0359    20.6339    10.0284  5492.8892  -999.2500     -.0026     2.3572     2.3497
 3293.4128     8.7506  1897.3000    24.3399    23.4677    67.1957     4.1511    20.7088    10.0343  5499.9160  -999.2500     -.0059     2.3559     2.3484
 3293.4890     8.7263  1915.2660    23.7743    22.9388    68.0327     4.2167    20.3245    10.0399  5502.9722  -999.2500     -.0079     2.3625     2.3550
 3293.5652     8.6802  1935.5060    23.4147    22.6298  -999.2500     4.1890    19.4876    10.0474  5502.6250  -999.2500     -.0084     2.3768     2.3692
 3293.6414     8.6145  1952.0000    23.2636    22.5421  -999.2500     4.0680    18.2871    10.0567  5499.9409  -999.2500     -.0073     2.3973     2.3897
 3293.7176     8.5390  1959.5081    23.1725    22.5223  -999.2500     3.8977    16.8812    10.0648  5496.1382  -999.2500     -.0051     2.4213     2.4136
 3293.7938     8.4676  1955.8160    23.0210    22.4398  -999.2500     3.7397    15.4773    10.0670  5491.9761  -999.2500     -.0024     2.4453     2.4375
 3293.8700     8.4119  1943.2360    22.8387    22.3126  -999.2500     3.6410    14.2904    10.0598  5487.9790  -999.2500     -.0000     2.4656     2.4578
 3293.9462     8.3776  1926.9139    22.7576    22.2649  -999.2500     3.6169    13.4545    10.0446  5484.4561  -999.2500      .0016     2.4799     2.4720
 3294.0224     8.3631  1912.4900    22.8559    22.3754  -999.2500     3.6529    13.0724    10.0264  5481.5439  -999.2500      .0012     2.4865     2.4785
 3294.0986     8.3606  1903.1949    23.0629    22.5816  -999.2500     3.7188    13.0538    10.0116  5479.2920  -999.2500     -.0005     2.4868     2.4788
 3294.1748     8.3620  1898.6440    23.2317    22.7466  -999.2500     3.7840    13.2117    10.0048  5477.5161  -999.2500     -.0023     2.4841     2.4761
 3294.2510     8.3631  1895.5780    23.2492    22.7628  -999.2500     3.8302    13.4121    10.0056  5475.8369  -999.2500     -.0040     2.4807     2.4727
 3294.3272     8.3628  1892.2490    23.1077    22.6236  -999.2500     3.8586    13.5657    10.0076  5474.1792  -999.2500     -.0052     2.4780     2.4701
 3294.4034     8.3608  1888.4810    22.8821    22.4034  -999.2500     3.8857    13.6627    10.0066  5472.5459  -999.2500     -.0059     2.4764     2.4685
 3294.4796     8.3570  1884.3700    22.6663    22.1943  -999.2500     3.9319    13.7418    10.0016  5470.8872  -999.2500     -.0065     2.4750     2.4671
 3294.5558     8.3524  1880.4720    22.4983    22.0331  -999.2500     4.0078    13.8472     9.9966  5469.2090  -999.2500     -.0074     2.4732     2.4653
 3294.6320     8.3475  1877.6350    22.3344    21.8761  -999.2500     4.1073    13.9997     9.9974  5467.7251  -999.2500     -.0086     2.4706     2.4627
 3294.7082     8.3429  1876.5110    22.1449    21.6936  -999.2500     4.2076    14.1880    10.0071  5466.9531  -999.2500     -.0101     2.4674     2.4595
 3294.7844     8.3393  1877.3990    21.9581    21.5128  -999.2500     4.2784    14.3761    10.0228  5467.6899  -999.2500     -.0116     2.4642     2.4563
 3294.8606     8.3384  1880.0150    21.8309    21.3882  -999.2500     4.2962    14.5176    10.0399  5470.4531  -999.2500     -.0129     2.4617     2.4539
 3294.9368     8.3422  1883.3910    21.8297    21.3836  -999.2500     4.2544    14.5734    10.0535  5475.0620  -999.2500     -.0136     2.4608     2.4530
 3295.0130     8.3502  1886.4890    21.9896    21.5338  -999.2500     4.1635    14.5253    10.0607  5480.8071  -999.2500     -.0135     2.4616     2.4538
 3295.0892     8.3590  1888.5320    22.2690    21.8010  -999.2500     4.0426    14.3766    10.0623  5486.4019  -999.2500     -.0127     2.4642     2.4563
 3295.1654     8.3635  1889.2480    22.5801    22.1032  -999.2500     3.9098    14.1458    10.0616  5490.5830  -999.2500     -.0113     2.4681     2.4602
 3295.2416     8.3591  1888.9790    22.8815    22.4044  -999.2500     3.7795    13.8614    10.0615  5493.0000  -999.2500     -.0093     2.4730     2.4651
 3295.3178     8.3441  1888.3190    23.1810    22.7137  -999.2500     3.6650    13.5564    10.0626  5493.9341  -999.2500     -.0072     2.4782     2.4703
 3295.3940     8.3207  1887.6510    23.4867    23.0377  -999.2500     3.5815    13.2662    10.0646  5494.0332  -999.2500     -.0050     2.4831     2.4752
 3295.4702     8.2934  1887.1250    23.8217    23.3950  -999.2500     3.5429    13.0257    10.0655  5494.0332  -999.2500     -.0031     2.4873     2.4793
 3295.5464     8.2667  1886.8090  -999.2500  -999.2500  -999.2500     3.5553    12.8657    10.0635  5494.2271  -999.2500     -.0018     2.4900     2.4821
 3295.6226     8.2442  1886.7490  -999.2500  -999.2500  -999.2500     3.6115    12.8013    10.0582  5494.4800  -999.2500     -.0010     2.4911     2.4832
 3295.6988     8.2272  1887.0360  -999.2500  -999.2500  -999.2500     3.6908    12.8235    10.0511  5494.3779  -999.2500     -.0009     2.4907     2.4828
 3295.7750     8.2155  1887.8450  -999.2500  -999.2500  -999.2500     3.7654    12.9019    10.0444  5493.4268  -999.2500     -.0014     2.4894     2.4815
 3295.8512     8.2084  1889.0470  -999.2500  -999.2500  -999.2500     3.8107    13.0043    10.0404  5490.9448  -999.2500     -.0024     2.4876     2.4798
 3295.9274     8.2048  1890.2500  -999.2500  -999.2500  -999.2500     3.8162    13.1115    10.0394  5486.9258  -999.2500     -.0037     2.4858     2.4779
 3296.0036     8.2038  1890.9950  -999.2500  -999.2500  -999.2500     3.7958    13.2153    10.0398  5482.0581  -999.2500     -.0052     2.4840     2.4762
 3296.0798     8.2046  1890.8101  -999.2500  -999.2500  -999.2500     3.7963    13.3056    10.0406  5477.1680  -999.2500     -.0066     2.4825     2.4746
 3296.1560     8.1937  1889.3760  -999.2500  -999.2500  -999.2500     3.9045    13.3744    10.0419  5473.0049  -999.2500     -.0078     2.4813     2.4735
 3296.2322     8.1363  1886.6400  -999.2500  -999.2500  -999.2500     4.2415    13.4572    10.0448  5470.0952  -999.2500     -.0084     2.4799     2.4721
 3296.3084     7.9958  1882.7209  -999.2500  -999.2500  -999.2500     4.9290    13.6978    10.0500  5468.4639  -999.2500     -.0088     2.4758     2.4681
 3296.3846     7.7565  1877.9850  -999.2500  -999.2500  -999.2500     6.0131    14.3645    10.0574  5467.7441  -999.2500     -.0095     2.4644     2.4569
 3296.4608     7.4381  1873.3550  -999.2500  -999.2500  -999.2500     7.3860    15.7369    10.0632  5467.3818  -999.2500     -.0113     2.4409     2.4338
 3296.5370     7.0930  1870.0640  -999.2500  -999.2500  -999.2500     8.8062    17.8914    10.0637  5467.1509  -999.2500     -.0142     2.4041     2.3975
 3296.6132     6.7866  1869.2120  -999.2500  -999.2500  -999.2500    10.0309    20.5707    10.0569  5467.2329  -999.2500     -.0169     2.3582     2.3523
 3296.6894     6.5679  1871.2810  -999.2500  -999.2500  -999.2500    10.9279    23.2906    10.0444  5467.8911  -999.2500     -.0177     2.3117     2.3063
 3296.7656     6.4500  1875.8680  -999.2500  -999.2500  -999.2500    11.4874    25.5817    10.0293  5469.2070  -999.2500     -.0152     2.2726     2.2675
 3296.8418     6.4091  1881.7710  -999.2500  -999.2500  -999.2500    11.7787    27.1648    10.0160  5471.0342  -999.2500     -.0091     2.2455     2.2406
 3296.9180     6.4038  1887.4470  -999.2500  -999.2500  -999.2500    11.9012    27.9927    10.0071  5473.2881  -999.2500     -.0003     2.2313     2.2266
 3296.9942     6.4002  1891.3600  -999.2500  -999.2500  -999.2500    11.9467    27.9855    10.0015  5475.6909  -999.2500      .0132     2.2314     2.2267
 3297.0704     6.3902  1892.5341  -999.2500  -999.2500  -999.2500    11.9769    27.5912     9.9960  5477.6670  -999.2500      .0263     2.2382     2.2334
