~VERSION INFORMATION
VERS.                                                 2.0:   CWLS Log ASCII Standard-VERSION 2.0
WRAP.                                                  NO:   One line per depth step
~Well Information Block
STRT.M                                          2892.9818:   Top Depth
STOP.M                                          3308.8052:   Bottom Depth
STEP.M                                             .07620:   Depth Increment
NULL.                                            -999.250:   Null Value
FLD .                                                 Q15:   Field Name
WELL.                                            15/12-21:   NAME
WBN .                                            15/12-21:   WELLBORE
NATI.                                                 NOR:   COUNTRY
APD .M                                               42.1:   ABOVE PERM DATUM
CTRY.                                                 NOR:   COUNTRY
COMP.                            TALISMAN ENERGY NORGE AS:   OPERATOR
PDAT.                                                 MSL:   PERM DATUM
COUN.                                     MAERSK GUARDIAN:   RIG NAME
LATI.                            058 13' 40.470" N    DMS:   SURF. LATITUDE
LONG.                            001 52' 56.820" E    DMS:   SURF. LONGITUDE
PBWE.                                            15/12-21:   PB WELL ID
APIN.                                            15/12-21:   PB WELLBORE ID
PBWS.                                                 ALL:   PB WELL NAME SET
CNTY.                                     MAERSK GUARDIAN:   COUNTY
~PARAMETER INFORMATION (log)
LNAM.                                 WLC_PETRO_COMPOSITE:   NAME
LTYP.                                                PAP.:   LOG TYPE
LSRV.                                          WL.PET.LOG:   LOG SERVICE
LVSN.                                                   1:   LOG VERSION
LRUN.                                                 1.2:   LOG RUN
BHIS.                                                   R:   BRIEF HISTORY
R1  .                                Composite data incl.:   COMMENT  1
R2  .                                 EWL ZDL/CN, run 1.2:   COMMENT  2
R3  .       For more details, please see WLC_PETROPHYSICA:   COMMENT  3
R5  .            EWL data plotted and verified to prints.:   COMMENT  5
R7  .                             Depth units are meters.:   COMMENT  7
R9  .                                    Quality comments:   COMMENT  9
R10 .                                 EWL ZDL/CN, run 1.2:   COMMENT 10
R11 . Data above 2959.7 m logged in casing (depth from lo:   COMMENT 11
R12 .                                    Logger s remarks:   COMMENT 12
R13 .                                       Depth control:   COMMENT 13
R14 . * Depth correlated to run w1.1 XMAC/HDIL/GR dated 2:   COMMENT 14
R15 .                                             General:   COMMENT 15
R16 .   * Last circulation stopped at 1035 on 19-APR-2009:   COMMENT 16
R17 .  * Toolstring reached TD at 1950 hrs on 20-APR-2009:   COMMENT 17
R18 . * Motorized releasable cablehead (MRCH) was run wit:   COMMENT 18
R19 .   * Maximum reading from cablehead thermometers 118:   COMMENT 19
R20 . * Maximum reading from TTRM was 114 degC at 3236 m.:   COMMENT 20
R21 .                                            Mud data:   COMMENT 21
R22 .                           * Oil/water ratio = 76/24:   COMMENT 22
R23 .                       * Cacl2 WPS Brine = 135 kg/m3:   COMMENT 23
R24 .                                              ZDL/CN:   COMMENT 24
R25 .        * ZDL/CN data presented on limestone scales.:   COMMENT 25
R26 .    * CNCF curve has no salinity correction applied.:   COMMENT 26
R27 . * Total borehole volume from TD to casing shoe = 12:   COMMENT 27
R29 .       Editing on WLC_PETROPHYSICAL_COMPOSITE_1.DLIS:   COMMENT 29
R30 .                                 EWL ZDL/CN, run 1.2:   COMMENT 30
DMF .                                                  KB:   DRILL MEAS FROM
EDF .M                                               42.1:   ELEV DRILL FLOOR
ELZ .M                                               42.1:   ELEVATION LOG ZERO
FHIS.                                            RAW-DLIS:   FULL HISTORY
EKB .M                                               42.1:   KB ELEVATION
LMF .                                                  KB:   LOGS MEAS FROM
EPD .M                                                  0:   ELEV PERM DATUM
EGL .M                                              -85.6:   GROUND LEVEL
~Curve Information Block
#MNEM.UNIT                                        API CODE    No Description
#=========                                        ========    == ===========
DEPT.M                                       00 001 00 00:     1  DEPTH
CALX.IN                                                  :     2  Caliper
CHT.LB                                                   :     3  Cable Tension
CN.%                                                     :     4  Neutron Porosity
CNCF.%                                                   :     5  Neutron Porosity
GR.GAPI                                                  :     6  Gamma Ray
PE.B/E                                                   :     7  Photoelectic Factor
PORZ.%                                                   :     8  Porosity
SPD.M/MN                                                 :     9  Cable Speed
TTEN.LB                                                  :    10  Cable Tension
WTBH.DEGC                                                :    11  Temperature
ZCOR.G/CC                                                :    12  Density Correction
ZDEN.G/CC                                                :    13  Bulk Density
ZDNC.G/CC                                                :    14  Bulk Density
~ASCII
# ...
 3087.1394     8.4817  1993.5590    18.8947    18.3777    38.3374     2.1516    11.1269     9.9767  5316.4390   113.7170      .0019     2.5197     2.5115
 3087.2156     8.4719  1989.6390    19.2120    18.6969    38.4328     2.2926    12.1980     9.9582  5308.5430   113.7657      .0015     2.5014     2.4933
 3087.2918     8.4631  1983.4130    19.2789    18.7698    38.7815     2.4345    13.3149     9.9481  5297.3018   113.8165      .0015     2.4823     2.4743
 3087.3680     8.4548  1975.5470    19.1916    18.6909    39.2101     2.5422    14.3039     9.9536  5284.7119   113.8416      .0020     2.4654     2.4575
 3087.4442     8.4456  1967.7230    19.1877    18.6946    39.4784     2.5926    15.0546     9.9748  5274.0718   113.8125      .0029     2.4526     2.4447
 3087.5204     8.4346  1962.0410    19.4561    18.9672    39.3365     2.5876    15.5105    10.0065  5269.3750   113.7259      .0041     2.4448     2.4370
 3087.5966     8.4240  1960.4449    20.0287    19.5389    38.5497     2.5550    15.6599    10.0406  5274.2900   113.6035      .0053     2.4422     2.4345
 3087.6728     8.4174  1963.9690    20.7319    20.2358    37.1308     2.5332    15.5342    10.0692  5290.3159   113.4818      .0067     2.4444     2.4366
 3087.7490     8.4169  1972.2430    21.2408    20.7366    35.4082     2.5507    15.2039    10.0863  5315.2549   113.3984      .0080     2.4500     2.4422
 3087.8252     8.4224  1983.7209    21.2621    20.7527    33.7806     2.6113    14.7665    10.0918  5343.6641   113.3750      .0092     2.4575     2.4497
 3087.9014     8.4310  1996.4390    20.7323    20.2244    32.5039     2.6915    14.3291    10.0889  5369.1748   113.4009      .0100     2.4650     2.4571
 3087.9776     8.4390  2008.3420    19.8611    19.3614    31.6671     2.7527    13.9846    10.0832  5386.6021   113.4574      .0104     2.4709     2.4629
 3088.0538     8.4437  2017.8580    18.9778    18.4900    31.1407     2.7617    13.7858    10.0794  5393.5601   113.5214      .0102     2.4743     2.4663
 3088.1300     8.4440  2023.7770    18.3036    17.8276    30.7083     2.7067    13.7312    10.0795  5390.3599   113.5720      .0096     2.4752     2.4672
 3088.2062     8.4407  2025.5699    17.9195    17.4530    30.2987     2.6020    13.7706    10.0844  5379.5288   113.6095      .0091     2.4745     2.4666
 3088.2824     8.4348  2023.4330    17.7682    17.3090    29.9270     2.4800    13.8273    10.0956  5364.7119   113.6502      .0089     2.4736     2.4656
 3088.3586     8.4269  2018.3010    17.7171    17.2649    29.6107     2.3778    13.8334    10.1129  5349.7061   113.7033      .0093     2.4734     2.4655
 3088.4348     8.4178  2011.1960    17.6649    17.2208    29.3810     2.3255    13.7678    10.1332  5337.0000   113.7570      .0102     2.4746     2.4666
 3088.5110     8.4089  2003.0940    17.5867    17.1508    29.1996     2.3396    13.6782    10.1514  5327.7412   113.7876      .0113     2.4761     2.4682
 3088.5872     8.4032  1995.0280    17.4956    17.0656    28.9833     2.4194    13.6598    10.1623  5322.0962   113.7720      .0120     2.4764     2.4685
 3088.6634     8.4032  1988.1620    17.4099    16.9814    28.7432     2.5470    13.7895    10.1622  5320.2080   113.7012      .0118     2.4742     2.4663
 3088.7396     8.4089  1983.4010    17.3493    16.9174    28.5874     2.6938    14.0547    10.1501  5321.9502   113.5935      .0107     2.4697     2.4618
 3088.8158     8.4176  1981.2700    17.3699    16.9310    28.6888     2.8291    14.3393    10.1298  5326.8550   113.4801      .0093     2.4648     2.4569
 3088.8920     8.4255  1981.7600    17.5538    17.1056    29.3038     2.9290    14.4826    10.1062  5333.8501   113.4001      .0086     2.4623     2.4545
 3088.9682     8.4293  1984.2400    18.0054    17.5464    30.7982     2.9846    14.3636    10.0851  5341.1929   113.3765      .0091     2.4644     2.4565
 3089.0444     8.4282  1987.7000    18.7671    18.2956    33.5326     3.0035    13.9580    10.0686  5346.4961   113.3984      .0111     2.4713     2.4634
 3089.1206     8.4244  1991.1071    19.7989    19.3127    37.7123     3.0052    13.3512    10.0558  5347.6670   113.4236      .0140     2.4817     2.4737
 3089.1968     8.4212  1993.6680    20.9896    20.4858    43.0580     3.0105    12.7084    10.0458  5343.9438   113.4184      .0172     2.4927     2.4847
 3089.2730     8.4208  1995.2140    22.1287    21.6061    48.7489     3.0329    12.2102    10.0396  5336.6831   113.3760      .0196     2.5012     2.4931
 3089.3492     8.4229  1996.0760    22.9515    22.4133    53.6060     3.0714    11.9780    10.0394  5328.9751   113.3162      .0205     2.5052     2.4971
 3089.4254     8.4259  1996.5220    23.2549    22.7088    56.5030     3.1121    12.0234    10.0454  5324.4590   113.2737      .0197     2.5044     2.4963
 3089.5016     8.4271  1996.6310    22.9651    22.4227    56.8261     3.1364    12.2488    10.0557  5325.7920   113.2770      .0177     2.5005     2.4925
 3089.5778     8.4253  1996.7170    22.1856    21.6580    54.7656     3.1341    12.4943    10.0670  5333.2168   113.3271      .0151     2.4963     2.4883
 3089.6540     8.4208  1997.6790    21.0844    20.5794    51.1424     3.1111    12.6112    10.0766  5344.0532   113.4117      .0128     2.4943     2.4863
 3089.7302     8.4159  2000.5210    19.8993    19.4185    47.0590     3.0851    12.5330    10.0842  5353.7222   113.5057      .0112     2.4957     2.4877
 3089.8064     8.4145  2005.1840    18.8957    18.4331    43.4378     3.0709    12.3107    10.0918  5357.9219   113.5888      .0104     2.4995     2.4914
 3089.8826     8.4183  2010.0770    18.2511    17.7964    40.7980     3.0682    12.0907    10.1007  5354.4971   113.6658      .0098     2.5032     2.4952
 3089.9588     8.4255  2012.3250    17.9897    17.5340    39.2698     3.0651    12.0250    10.1132  5344.4878   113.7413      .0089     2.5044     2.4963
 3090.0350     8.4323  2009.7100    18.0045    17.5431    38.7562     3.0508    12.1673    10.1293  5331.4448   113.8049      .0075     2.5019     2.4939
 3090.1112     8.4358  1998.7321    18.1066    17.6406    39.0967     3.0238    12.4377    10.1481  5319.6440   113.8363      .0060     2.4973     2.4893
 3090.1874     8.4359  1974.4210    18.1398    17.6732    40.1039     2.9912    12.6880    10.1674  5311.9780   113.8179      .0050     2.4930     2.4850
 3090.2636     8.4334  1938.2939    18.0282    17.5655    41.3903     2.9630    12.8043    10.1839  5309.1011   113.7466      .0048     2.4910     2.4830
 3090.3398     8.4305  1898.5940    17.7952    17.3389    42.4251     2.9470    12.7703    10.1940  5309.7490   113.6408      .0055     2.4916     2.4836
 3090.4160     8.4292  1867.0460    17.4831    17.0333    42.6851     2.9472    12.6667    10.1949  5312.0049   113.5283      .0066     2.4934     2.4854
 3090.4922     8.4303  1853.3420    17.1033    16.6594    41.8301     2.9641    12.6191    10.1854  5314.2622   113.4320      .0079     2.4942     2.4862
 3090.5684     8.4339  1860.9880    16.6680    16.2292    39.7634     2.9934    12.7287    10.1677  5315.0562   113.3698      .0089     2.4923     2.4843
 3090.6446     8.4393  1885.2490    16.2133    15.7786    36.6811     3.0251    13.0221    10.1473  5313.2119   113.3563      .0099     2.4873     2.4793
 3090.7208     8.4448  1916.4630    15.8076    15.3764    33.0375     3.0433    13.4416    10.1296  5308.5571   113.3904      .0111     2.4801     2.4722
 3090.7970     8.4485  1943.7750    15.5307    15.1019    29.4183     3.0322    13.8796    10.1187  5302.0679   113.4686      .0129     2.4727     2.4647
 3090.8732     8.4481  1960.2240    15.4037    14.9776    26.4917     2.9865    14.2332    10.1139  5295.7461   113.5820      .0155     2.4666     2.4587
 3090.9494     8.4414  1965.4830    15.3543    14.9338    24.9029     2.9212    14.4374    10.1128  5291.6821   113.7052      .0186     2.4631     2.4552
 3091.0256     8.4279  1965.7070    15.2663    14.8568    24.9308     2.8693    14.4627    10.1109  5290.7759   113.8069      .0218     2.4627     2.4548
