~VERSION INFORMATION
VERS.                                                 2.0:   CWLS Log ASCII Standard-VERSION 2.0
WRAP.                                                  NO:   One line per depth step
~Well Information Block
STRT.M                                          2892.9818:   Top Depth
STOP.M                                          3308.8052:   Bottom Depth
STEP.M                                             .07620:   Depth Increment
NULL.                                            -999.250:   Null Value
FLD .                                                 Q15:   Field Name
WELL.                                            15/12-21:   NAME
WBN .                                            15/12-21:   WELLBORE
NATI.                                                 NOR:   COUNTRY
APD .M                                               42.1:   ABOVE PERM DATUM
CTRY.                                                 NOR:   COUNTRY
COMP.                            TALISMAN ENERGY NORGE AS:   OPERATOR
PDAT.                                                 MSL:   PERM DATUM
COUN.                                     MAERSK GUARDIAN:   RIG NAME
LATI.                            058 13' 40.470" N    DMS:   SURF. LATITUDE
LONG.                            001 52' 56.820" E    DMS:   SURF. LONGITUDE
PBWE.                                            15/12-21:   PB WELL ID
APIN.                                            15/12-21:   PB WELLBORE ID
PBWS.                                                 ALL:   PB WELL NAME SET
CNTY.                                     MAERSK GUARDIAN:   COUNTY
~PARAMETER INFORMATION (log)
LNAM.                                 WLC_PETRO_COMPOSITE:   NAME
LTYP.                                                PAP.:   LOG TYPE
LSRV.                                          WL.PET.LOG:   LOG SERVICE
LVSN.                                                   1:   LOG VERSION
LRUN.                                                 1.2:   LOG RUN
BHIS.                                                   R:   BRIEF HISTORY
R1  .                                Composite data incl.:   COMMENT  1
R2  .                                 EWL ZDL/CN, run 1.2:   COMMENT  2
R3  .       For more details, please see WLC_PETROPHYSICA:   COMMENT  3
R5  .            EWL data plotted and verified to prints.:   COMMENT  5
R7  .                             Depth units are meters.:   COMMENT  7
R9  .                                    Quality comments:   COMMENT  9
R10 .                                 EWL ZDL/CN, run 1.2:   COMMENT 10
R11 . Data above 2959.7 m logged in casing (depth from lo:   COMMENT 11
R12 .                                    Logger s remarks:   COMMENT 12
R13 .                                       Depth control:   COMMENT 13
R14 . * Depth correlated to run w1.1 XMAC/HDIL/GR dated 2:   COMMENT 14
R15 .                                             General:   COMMENT 15
R16 .   * Last circulation stopped at 1035 on 19-APR-2009:   COMMENT 16
R17 .  * Toolstring reached TD at 1950 hrs on 20-APR-2009:   COMMENT 17
R18 . * Motorized releasable cablehead (MRCH) was run wit:   COMMENT 18
R19 .   * Maximum reading from cablehead thermometers 118:   COMMENT 19
R20 . * Maximum reading from TTRM was 114 degC at 3236 m.:   COMMENT 20
R21 .                                            Mud data:   COMMENT 21
R22 .                           * Oil/water ratio = 76/24:   COMMENT 22
R23 .                       * Cacl2 WPS Brine = 135 kg/m3:   COMMENT 23
R24 .                                              ZDL/CN:   COMMENT 24
R25 .        * ZDL/CN data presented on limestone scales.:   COMMENT 25
R26 .    * CNCF curve has no salinity correction applied.:   COMMENT 26
R27 . * Total borehole volume from TD to casing shoe = 12:   COMMENT 27
R29 .       Editing on WLC_PETROPHYSICAL_COMPOSITE_1.DLIS:   COMMENT 29
R30 .                                 EWL ZDL/CN, run 1.2:   COMMENT 30
DMF .                                                  KB:   DRILL MEAS FROM
EDF .M                                               42.1:   ELEV DRILL FLOOR
ELZ .M                                               42.1:   ELEVATION LOG ZERO
FHIS.                                            RAW-DLIS:   FULL HISTORY
EKB .M                                               42.1:   KB ELEVATION
LMF .                                                  KB:   LOGS MEAS FROM
EPD .M                                                  0:   ELEV PERM DATUM
EGL .M                                              -85.6:   GROUND LEVEL
~Curve Information Block
#MNEM.UNIT                                        API CODE    No Description
#=========                                        ========    == ===========
DEPT.M                                       00 001 00 00:     1  DEPTH
CALX.IN                                                  :     2  Caliper
CHT.LB                                                   :     3  Cable Tension
CN.%                                                     :     4  Neutron Porosity
CNCF.%                                                   :     5  Neutron Porosity
GR.GAPI                                                  :     6  Gamma Ray
PE.B/E                                                   :     7  Photoelectic Factor
PORZ.%                                                   :     8  Porosity
SPD.M/MN                                                 :     9  Cable Speed
TTEN.LB                                                  :    10  Cable Tension
WTBH.DEGC                                                :    11  Temperature
ZCOR.G/CC                                                :    12  Density Correction
ZDEN.G/CC                                                :    13  Bulk Density
ZDNC.G/CC                                                :    14  Bulk Density
~ASCII
# ...
 3110.9138     8.3756  1814.4020    14.8637    14.4977    71.6037     4.1073    17.8718    10.2116  5285.2061   113.7071     -.0052     2.4044     2.3969
 3110.9900     8.3803  1851.7841    15.1731    14.7987    73.6089     4.1546    16.9802    10.1865  5284.2031   113.8089     -.0051     2.4196     2.4120
 3111.0662     8.3829  1878.2570    15.4129    15.0326    75.0418     4.3104    15.8358    10.1618  5283.8398   113.8746     -.0050     2.4392     2.4315
 3111.1424     8.3821  1880.8510    15.5911    15.2085    74.8121     4.5810    14.6212    10.1430  5284.0391   113.8680     -.0053     2.4600     2.4521
 3111.2186     8.3788  1861.9580    15.7242    15.3419    72.4594     4.9246    13.5351    10.1306  5284.4678   113.7896     -.0061     2.4785     2.4706
 3111.2948     8.3766  1832.4240    15.8261    15.4437    68.3619     5.2632    12.7402    10.1229  5284.7642   113.6852     -.0076     2.4921     2.4841
 3111.3710     8.3779  1807.9600    15.8958    15.5114    63.6355     5.5220    12.3098    10.1193  5284.7808   113.6110     -.0094     2.4995     2.4915
 3111.4472     8.3834  1800.3260    15.9261    15.5371    59.6879     5.6644    12.2162    10.1199  5284.4829   113.5983     -.0109     2.5011     2.4931
 3111.5234     8.3910  1812.8590    15.9083    15.5141    57.6487     5.6956    12.3780    10.1251  5283.8931   113.6449     -.0116     2.4983     2.4903
 3111.5996     8.3974  1839.5610    15.8371    15.4394    57.9186     5.6446    12.7280    10.1343  5282.7920   113.7255     -.0112     2.4924     2.4843
 3111.6758     8.4007  1869.3810    15.7231    15.3249    59.9708     5.5481    13.2496    10.1457  5280.5879   113.8095     -.0101     2.4834     2.4755
 3111.7520     8.4011  1891.4709    15.5940    15.1978    62.6557     5.4388    13.9632    10.1572  5276.9512   113.8841     -.0089     2.4712     2.4633
 3111.8282     8.3998  1900.6290    15.4839    15.0905    64.7557     5.3356    14.8828    10.1664  5272.2949   113.9476     -.0081     2.4555     2.4477
 3111.9044     8.3979  1899.1340    15.4291    15.0380    65.5381     5.2368    15.9773    10.1733  5267.4722   113.9901     -.0080     2.4368     2.4291
 3111.9806     8.3961  1895.1840    15.4945    15.1035    64.9631     5.1191    17.1637    10.1805  5263.3901   114.0074     -.0084     2.4165     2.4089
 3112.0568     8.3945  1892.8730    15.7370    15.3431    63.6204     4.9472    18.3367    10.1905  5260.9868   114.0035     -.0090     2.3964     2.3890
 3112.1330     8.3931  1892.2350    16.1573    15.7575    62.4222     4.6975    19.4119    10.2055  5261.1309   113.9917     -.0095     2.3781     2.3707
 3112.2092     8.3924  1893.0150    16.7250    16.3162    62.3935     4.3850    20.3560    10.2234  5264.4399   113.9905     -.0099     2.3619     2.3547
 3112.2854     8.3926  1894.9410    17.3778    16.9580    64.3324     4.0700    21.1854    10.2392  5270.9219   114.0141     -.0109     2.3477     2.3406
 3112.3616     8.3938  1897.7440    18.0347    17.6032    68.4408     3.8326    21.9376    10.2453  5279.6621   114.0499     -.0131     2.3349     2.3278
 3112.4378     8.3965  1900.8210    18.6393    18.1956    74.1113     3.7410    22.6267    10.2366  5288.5542   114.0682     -.0175     2.3231     2.3161
 3112.5140     8.4007  1903.2020    19.1441    18.6887    80.0596     3.8372    23.2069    10.2129  5294.5820   114.0485     -.0240     2.3132     2.3062
 3112.5902     8.4057  1904.2111    19.5426    19.0763    84.7371     4.1366    23.5643    10.1814  5294.9292   113.9810     -.0322     2.3070     2.3001
 3112.6664     8.4105  1903.5560    19.8972    19.4210    86.8117     4.6170    23.5502    10.1537  5288.5288   113.8785     -.0405     2.3073     2.3004
 3112.7426     8.4142  1901.2960    20.2444    19.7592    85.6829     5.1821    23.0566    10.1383  5276.7061   113.7778     -.0470     2.3157     2.3088
 3112.8188     8.4160  1897.6720    20.5287    20.0372    81.7173     5.6396    22.1073    10.1357  5262.7500   113.7060     -.0501     2.3320     2.3249
 3112.8950     8.4150  1893.1510    20.5893    20.0977    76.1406     5.7798    20.9047    10.1403  5250.2061   113.6674     -.0493     2.3525     2.3453
 3112.9712     8.4116  1888.5070    20.2705    19.7872    70.7063     5.5354    19.7576    10.1454  5241.8120   113.6553     -.0452     2.3721     2.3648
 3113.0474     8.4074  1884.8860    19.4451    18.9791    67.0987     5.0283    18.8921    10.1462  5238.7388   113.6491     -.0388     2.3869     2.3795
 3113.1236     8.4043  1883.3550    18.1537    17.7118    66.5503     4.4467    18.2835    10.1429  5240.6191   113.6388     -.0313     2.3974     2.3899
 3113.1998     8.4026  1884.5170    16.6404    16.2254    69.7748     3.9295    17.6738    10.1382  5245.7051   113.6330     -.0229     2.4078     2.4002
 3113.2760     8.4020  1888.3000    15.1791    14.7893    76.5832     3.5441    16.7591    10.1350  5251.9312   113.6530     -.0138     2.4234     2.4158
 3113.3522     8.4018  1891.8640    13.9608    13.5920    85.8010     3.3102    15.3903    10.1328  5257.5889   113.6981     -.0044     2.4468     2.4391
 3113.4284     8.4026  1889.2240    13.0903    12.7359    95.5381     3.2148    13.5752    10.1306  5261.7539   113.7482      .0063     2.4779     2.4699
 3113.5046     8.4054  1878.0179    12.5677    12.2205   103.5048     3.2150    11.7131    10.1279  5264.0220   113.7797      .0163     2.5097     2.5016
 3113.5808     8.4102  1860.9530    12.3166    11.9709   107.5168     3.2463    10.4025    10.1270  5264.6138   113.7769      .0219     2.5321     2.5239
 3113.6570     8.4163  1844.6700    12.2392    11.8911   106.1935     3.2495     9.9962    10.1315  5264.1821   113.7469      .0223     2.5391     2.5308
 3113.7332     8.4223  1836.1140    12.2327    11.8812    99.5079     3.1978    10.4878    10.1435  5263.8369   113.7241      .0184     2.5307     2.5225
 3113.8094     8.4255  1839.1620    12.2045    11.8515    88.6660     3.1019    11.5423    10.1615  5264.3281   113.7364      .0125     2.5126     2.5045
 3113.8856     8.4246  1852.0710    12.0918    11.7414    75.8073     2.9925    12.7185    10.1825  5265.6460   113.7927      .0070     2.4925     2.4845
 3113.9618     8.4200  1869.4449    11.8777    11.5339    63.3631     2.9023    13.6587    10.2026  5267.4741   113.8718      .0033     2.4764     2.4685
 3114.0380     8.4137  1884.9860    11.5686    11.2340    53.2370     2.8545    14.1539    10.2177  5269.5781   113.9324      .0022     2.4680     2.4601
 3114.1142     8.4076  1894.9510    11.2100    10.8853    46.5625     2.8564    14.1401    10.2250  5271.7012   113.9401      .0035     2.4682     2.4603
 3114.1904     8.4022  1899.5040    10.8855    10.5694    43.5956     2.8966    13.6914    10.2235  5273.7588   113.8927      .0068     2.4759     2.4680
 3114.2666     8.3967  1902.2750    10.7045    10.3946    43.6855     2.9499    13.0166    10.2141  5275.7788   113.8212      .0111     2.4874     2.4794
 3114.3428     8.3906  1904.9659    10.7627    10.4553    45.7786     2.9946    12.4292    10.1981  5277.8379   113.7629      .0154     2.4975     2.4894
 3114.4190     8.3851  1907.6970    11.1165    10.8063    48.8153     3.0300    12.2646    10.1780  5279.9600   113.7518      .0182     2.5003     2.4922
 3114.4952     8.3824  1910.5129    11.7517    11.4324    51.7663     3.0755    12.7553    10.1558  5281.9189   113.8059      .0184     2.4919     2.4839
 3114.5714     8.3846  1913.4840    12.6010    12.2662    53.5884     3.1538    13.9300    10.1337  5283.0059   113.9008      .0160     2.4718     2.4639
 3114.6476     8.3914  1917.0070    13.5643    13.2090    53.5616     3.2748    15.6072    10.1145  5282.3540   113.9939      .0118     2.4431     2.4354
 3114.7238     8.4003  1920.9189    14.5372    14.1595    51.5157     3.4312    17.4960    10.1011  5279.1089   114.0495      .0071     2.4108     2.4033
 3114.8000     8.4075  1924.2670    15.4218    15.0240    47.9118     3.6011    19.3235    10.0953  5273.3032   114.0570      .0026     2.3796     2.3722
