~VERSION INFORMATION
VERS.                                                 2.0:   CWLS Log ASCII Standard-VERSION 2.0
WRAP.                                                  NO:   One line per depth step
~Well Information Block
STRT.M                                          2892.9818:   Top Depth
STOP.M                                          3308.8052:   Bottom Depth
STEP.M                                             .07620:   Depth Increment
NULL.                                            -999.250:   Null Value
FLD .                                                 Q15:   Field Name
WELL.                                            15/12-21:   NAME
WBN .                                            15/12-21:   WELLBORE
NATI.                                                 NOR:   COUNTRY
APD .M                                               42.1:   ABOVE PERM DATUM
CTRY.                                                 NOR:   COUNTRY
COMP.                            TALISMAN ENERGY NORGE AS:   OPERATOR
PDAT.                                                 MSL:   PERM DATUM
COUN.                                     MAERSK GUARDIAN:   RIG NAME
LATI.                            058 13' 40.470" N    DMS:   SURF. LATITUDE
LONG.                            001 52' 56.820" E    DMS:   SURF. LONGITUDE
PBWE.                                            15/12-21:   PB WELL ID
APIN.                                            15/12-21:   PB WELLBORE ID
PBWS.                                                 ALL:   PB WELL NAME SET
CNTY.                                     MAERSK GUARDIAN:   COUNTY
~PARAMETER INFORMATION (log)
LNAM.                                 WLC_PETRO_COMPOSITE:   NAME
LTYP.                                                PAP.:   LOG TYPE
LSRV.                                          WL.PET.LOG:   LOG SERVICE
LVSN.                                                   1:   LOG VERSION
LRUN.                                                 1.2:   LOG RUN
BHIS.                                                   R:   BRIEF HISTORY
R1  .                                Composite data incl.:   COMMENT  1
R2  .                                 EWL ZDL/CN, run 1.2:   COMMENT  2
R3  .       For more details, please see WLC_PETROPHYSICA:   COMMENT  3
R5  .            EWL data plotted and verified to prints.:   COMMENT  5
R7  .                             Depth units are meters.:   COMMENT  7
R9  .                                    Quality comments:   COMMENT  9
R10 .                                 EWL ZDL/CN, run 1.2:   COMMENT 10
R11 . Data above 2959.7 m logged in casing (depth from lo:   COMMENT 11
R12 .                                    Logger s remarks:   COMMENT 12
R13 .                                       Depth control:   COMMENT 13
R14 . * Depth correlated to run w1.1 XMAC/HDIL/GR dated 2:   COMMENT 14
R15 .                                             General:   COMMENT 15
R16 .   * Last circulation stopped at 1035 on 19-APR-2009:   COMMENT 16
R17 .  * Toolstring reached TD at 1950 hrs on 20-APR-2009:   COMMENT 17
R18 . * Motorized releasable cablehead (MRCH) was run wit:   COMMENT 18
R19 .   * Maximum reading from cablehead thermometers 118:   COMMENT 19
R20 . * Maximum reading from TTRM was 114 degC at 3236 m.:   COMMENT 20
R21 .                                            Mud data:   COMMENT 21
R22 .                           * Oil/water ratio = 76/24:   COMMENT 22
R23 .                       * Cacl2 WPS Brine = 135 kg/m3:   COMMENT 23
R24 .                                              ZDL/CN:   COMMENT 24
R25 .        * ZDL/CN data presented on limestone scales.:   COMMENT 25
R26 .    * CNCF curve has no salinity correction applied.:   COMMENT 26
R27 . * Total borehole volume from TD to casing shoe = 12:   COMMENT 27
R29 .       Editing on WLC_PETROPHYSICAL_COMPOSITE_1.DLIS:   COMMENT 29
R30 .                                 EWL ZDL/CN, run 1.2:   COMMENT 30
DMF .                                                  KB:   DRILL MEAS FROM
EDF .M                                               42.1:   ELEV DRILL FLOOR
ELZ .M                                               42.1:   ELEVATION LOG ZERO
FHIS.                                            RAW-DLIS:   FULL HISTORY
EKB .M                                               42.1:   KB ELEVATION
LMF .                                                  KB:   LOGS MEAS FROM
EPD .M                                                  0:   ELEV PERM DATUM
EGL .M                                              -85.6:   GROUND LEVEL
~Curve Information Block
#MNEM.UNIT                                        API CODE    No Description
#=========                                        ========    == ===========
DEPT.M                                       00 001 00 00:     1  DEPTH
CALX.IN                                                  :     2  Caliper
CHT.LB                                                   :     3  Cable Tension
CN.%                                                     :     4  Neutron Porosity
CNCF.%                                                   :     5  Neutron Porosity
GR.GAPI                                                  :     6  Gamma Ray
PE.B/E                                                   :     7  Photoelectic Factor
PORZ.%                                                   :     8  Porosity
SPD.M/MN                                                 :     9  Cable Speed
TTEN.LB                                                  :    10  Cable Tension
WTBH.DEGC                                                :    11  Temperature
ZCOR.G/CC                                                :    12  Density Correction
ZDEN.G/CC                                                :    13  Bulk Density
ZDNC.G/CC                                                :    14  Bulk Density
~ASCII
# ...
 2932.6058     8.6476  2061.5249    38.6682    37.5654    49.7410    10.9423    30.8713     9.8239  5156.4668   108.6948     -.7976     2.1821     2.1760
 2932.6820     8.6528  2057.6841    39.0261    37.8936    48.1292    11.3218    31.0392     9.8355  5151.1519   108.6541     -.8017     2.1792     2.1732
 2932.7582     8.6656  2054.4800    39.6433    38.4469    46.8228    11.6570    31.0074     9.8524  5145.1768   108.6067     -.8076     2.1798     2.1737
 2932.8344     8.6830  2052.2351    40.4695    39.1720    45.9279    11.8488    30.6793     9.8700  5140.0059   108.5775     -.8169     2.1854     2.1792
 2932.9106     8.6991  2050.8889    41.1379    39.7434    45.4171    11.7891    29.9865     9.8833  5137.3232   108.5764     -.8314     2.1972     2.1910
 2932.9868     8.7088  2050.3350    41.3161    39.8875    45.0603    11.4169    28.9140     9.8898  5138.3428   108.5934     -.8526     2.2156     2.2092
 2933.0630     8.7102  2050.6609    40.9177    39.5369    44.6733    10.8060    27.5037     9.8905  5142.9180   108.6100     -.8806     2.2397     2.2331
 2933.1392     8.7043  2051.9431    40.2639    38.9622    44.1246    10.2240    25.8503     9.8889  5149.6382   108.6162     -.9135     2.2680     2.2611
 2933.2154     8.6949  2054.0730    39.5807    38.3539    43.4650    10.0452    24.1236     9.8870  5156.4668   108.6088     -.9471     2.2975     2.2905
 2933.2916     8.6853  2056.8049    39.0281    37.8554    43.0057    10.4559    22.6535     9.8867  5161.7168   108.5901     -.9753     2.3226     2.3154
 2933.3678     8.6767  2059.5530    38.7438    37.6004    43.1816    11.2054    21.9876     9.8869  5164.5801   108.5678     -.9925     2.3340     2.3267
 2933.4440     8.6684  2061.5029    38.7804    37.6449    44.2374    11.8277    22.6356     9.8856  5165.4629   108.5506     -.9952     2.3229     2.3157
 2933.5202     8.6598  2062.0569    39.1532    38.0030    46.0590    12.0756    24.5391     9.8806  5165.4780   108.5372     -.9834     2.2904     2.2834
 2933.5964     8.6507  2061.1450    39.8718    38.6732    48.3335    11.9896    27.0117     9.8714  5165.6250   108.5219     -.9595     2.2481     2.2415
 2933.6726     8.6424  2059.2219    40.7988    39.5132    50.6228    11.7210    29.2964     9.8597  5166.3501   108.5000     -.9282     2.2090     2.2027
 2933.7488     8.6368  2057.0779    41.8357    40.4218    52.4930    11.4101    30.9722     9.8489  5167.2910   108.4732     -.8951     2.1804     2.1743
 2933.8250     8.6346  2055.4651    42.8013    41.2398    53.7108    11.1558    31.9547     9.8414  5167.5708   108.4529     -.8645     2.1636     2.1576
 2933.9012     8.6350  2054.5220    43.4870    41.8045    54.2175    11.0208    32.3679     9.8381  5166.4038   108.4564     -.8393     2.1565     2.1506
 2933.9774     8.6373  2053.8630    43.8907    42.1292    54.0853    11.0341    32.4589     9.8386  5163.4922   108.4920     -.8206     2.1550     2.1491
 2934.0536     8.6415  2052.8230    44.2032    42.3753    53.5147    11.1914    32.5326     9.8421  5159.0308   108.5569     -.8086     2.1537     2.1478
 2934.1298     8.6472  2050.9099    44.4099    42.5334    52.6888    11.4640    32.8520     9.8486  5153.7158   108.6396     -.8027     2.1482     2.1424
 2934.2060     8.6541  2048.2141    44.2984    42.4369    51.7791    11.8128    33.5267     9.8581  5148.4658   108.7185     -.8014     2.1367     2.1310
 2934.2822     8.6616  2045.4449    43.6871    41.9368    50.9466    12.1918    34.4732     9.8711  5144.2358   108.7750     -.8031     2.1205     2.1150
 2934.3584     8.6687  2043.6670    42.6233    41.0513    50.4141    12.5440    35.4812     9.8855  5141.8340   108.7993     -.8060     2.1033     2.0979
 2934.4346     8.6751  2043.7950    41.4838    40.0732    50.3705    12.8041    36.3181     9.8991  5141.8340   108.7818     -.8085     2.0890     2.0837
 2934.5108     8.6808  2046.1420    40.6317    39.3190    50.8027    12.9146    36.8021     9.9092  5144.2358   108.7153     -.8099     2.0807     2.0755
 2934.5870     8.6856  2050.3630    40.1639    38.8948    51.5388    12.8470    36.8286     9.9152  5148.1729   108.6062     -.8095     2.0802     2.0750
 2934.6632     8.6884  2055.5171    40.0032    38.7464    52.2864    12.6122    36.3661     9.9175  5151.9438   108.4871     -.8071     2.0881     2.0829
 2934.7394     8.6877  2060.3799    40.0921    38.8276    52.7365    12.2501    35.4452     9.9178  5153.6099   108.4003     -.8027     2.1039     2.0985
 2934.8156     8.6830  2063.8000    40.3565    39.0709    52.8036    11.8146    34.1600     9.9172  5151.9321   108.3693     -.7966     2.1259     2.1202
 2934.8918     8.6752  2065.1741    40.8430    39.5128    52.6243    11.3674    32.6820     9.9155  5146.9771   108.3963     -.7895     2.1511     2.1453
 2934.9680     8.6670  2064.6909    41.7916    40.3482    52.4026    10.9802    31.2537     9.9112  5140.0610   108.4625     -.7826     2.1756     2.1695
 2935.0442     8.6613  2063.1631    43.4338    41.7307    52.3333    10.7311    30.1299     9.9024  5133.6709   108.5432     -.7772     2.1948     2.1886
 2935.1204     8.6590  2061.3770    45.6988    43.5245    52.4367    10.6861    29.4893     9.8891  5130.5430   108.6173     -.7743     2.2057     2.1994
 2935.1966     8.6596  2059.7581    48.1122    45.3044    52.5871    10.8657    29.3778     9.8734  5132.0552   108.6702     -.7742     2.2076     2.2013
 2935.2728     8.6618  2058.5659    49.8542    46.5104    52.6237    11.2183    29.7117     9.8590  5137.7549   108.6925     -.7767     2.2019     2.1957
 2935.3490     8.6648  2058.1379    50.3720    46.8546    52.4824    11.6261    30.3189     9.8474  5145.9019   108.6876     -.7810     2.1915     2.1854
 2935.4252     8.6691  2058.6641    49.6327    46.3528    52.1767    11.9474    30.9944     9.8397  5154.3452   108.6654     -.7863     2.1800     2.1739
 2935.5014     8.6757  2060.1340    48.0395    45.2356    51.7723    12.0823    31.5544     9.8336  5161.2900   108.6436     -.7915     2.1704     2.1644
 2935.5776     8.6845  2062.2820    46.2127    43.8865    51.3876    12.0218    31.8704     9.8274  5165.8960   108.6387     -.7959     2.1650     2.1590
 2935.6538     8.6926  2064.6060    44.4775    42.5357    51.0531    11.8343    31.8835     9.8202  5168.0820   108.6591     -.7989     2.1648     2.1588
 2935.7300     8.6969  2066.4980    42.9242    41.2697    50.7556    11.5961    31.6103     9.8142  5168.1641   108.6824     -.8001     2.1695     2.1634
 2935.8062     8.6953  2067.5830    41.4767    40.0431    50.4991    11.3314    31.1299     9.8123  5166.6968   108.6702     -.7993     2.1777     2.1716
 2935.8824     8.6880  2067.8650    40.1180    38.8507    50.2970    11.0186    30.5421     9.8162  5164.2319   108.6038     -.7968     2.1877     2.1816
 2935.9586     8.6779  2067.6350    38.9799    37.8196    50.1474    10.6510    29.9221     9.8240  5161.0020   108.4890     -.7928     2.1983     2.1921
 2936.0348     8.6690  2067.3101    38.3556    37.2438    50.0100    10.2921    29.3160     9.8322  5157.7461   108.3600     -.7876     2.2087     2.2024
 2936.1110     8.6630  2066.8740    38.4340    37.3256    49.7558    10.0618    28.7861     9.8380  5155.2612   108.2778     -.7819     2.2178     2.2114
 2936.1872     8.6594  2065.9070    39.1974    38.0445    49.3842    10.0515    28.4535     9.8407  5153.8608   108.2918     -.7768     2.2234     2.2170
 2936.2634     8.6566  2064.0271    40.4224    39.1617    49.0566    10.2439    28.4644     9.8416  5153.4360   108.4069     -.7734     2.2233     2.2168
 2936.3396     8.6540  2061.3601    41.7771    40.3511    48.9753    10.5080    28.8807     9.8434  5153.8628   108.5905     -.7723     2.2161     2.2098
 2936.4158     8.6524  2058.5210    42.8075    41.2243    49.2334    10.6683    29.5964     9.8482  5154.9482   108.7894     -.7733     2.2039     2.1976
 2936.4920     8.6532  2056.2600    43.0512    41.4254    49.7371    10.6043    30.3675     9.8549  5156.4331   108.9418     -.7751     2.1907     2.1845
