~VERSION INFORMATION
VERS.                                                 2.0:   CWLS Log ASCII Standard-VERSION 2.0
WRAP.                                                  NO:   One line per depth step
~Well Information Block
STRT.M                                          2892.9818:   Top Depth
STOP.M                                          3308.8052:   Bottom Depth
STEP.M                                             .07620:   Depth Increment
NULL.                                            -999.250:   Null Value
FLD .                                                 Q15:   Field Name
WELL.                                            15/12-21:   NAME
WBN .                                            15/12-21:   WELLBORE
NATI.                                                 NOR:   COUNTRY
APD .M                                               42.1:   ABOVE PERM DATUM
CTRY.                                                 NOR:   COUNTRY
COMP.                            TALISMAN ENERGY NORGE AS:   OPERATOR
PDAT.                                                 MSL:   PERM DATUM
COUN.                                     MAERSK GUARDIAN:   RIG NAME
LATI.                            058 13' 40.470" N    DMS:   SURF. LATITUDE
LONG.                            001 52' 56.820" E    DMS:   SURF. LONGITUDE
PBWE.                                            15/12-21:   PB WELL ID
APIN.                                            15/12-21:   PB WELLBORE ID
PBWS.                                                 ALL:   PB WELL NAME SET
CNTY.                                     MAERSK GUARDIAN:   COUNTY
~PARAMETER INFORMATION (log)
LNAM.                                 WLC_PETRO_COMPOSITE:   NAME
LTYP.                                                PAP.:   LOG TYPE
LSRV.                                          WL.PET.LOG:   LOG SERVICE
LVSN.                                                   1:   LOG VERSION
LRUN.                                                 1.2:   LOG RUN
BHIS.                                                   R:   BRIEF HISTORY
R1  .                                Composite data incl.:   COMMENT  1
R2  .                                 EWL ZDL/CN, run 1.2:   COMMENT  2
R3  .       For more details, please see WLC_PETROPHYSICA:   COMMENT  3
R5  .            EWL data plotted and verified to prints.:   COMMENT  5
R7  .                             Depth units are meters.:   COMMENT  7
R9  .                                    Quality comments:   COMMENT  9
R10 .                                 EWL ZDL/CN, run 1.2:   COMMENT 10
R11 . Data above 2959.7 m logged in casing (depth from lo:   COMMENT 11
R12 .                                    Logger s remarks:   COMMENT 12
R13 .                                       Depth control:   COMMENT 13
R14 . * Depth correlated to run w1.1 XMAC/HDIL/GR dated 2:   COMMENT 14
R15 .                                             General:   COMMENT 15
R16 .   * Last circulation stopped at 1035 on 19-APR-2009:   COMMENT 16
R17 .  * Toolstring reached TD at 1950 hrs on 20-APR-2009:   COMMENT 17
R18 . * Motorized releasable cablehead (MRCH) was run wit:   COMMENT 18
R19 .   * Maximum reading from cablehead thermometers 118:   COMMENT 19
R20 . * Maximum reading from TTRM was 114 degC at 3236 m.:   COMMENT 20
R21 .                                            Mud data:   COMMENT 21
R22 .                           * Oil/water ratio = 76/24:   COMMENT 22
R23 .                       * Cacl2 WPS Brine = 135 kg/m3:   COMMENT 23
R24 .                                              ZDL/CN:   COMMENT 24
R25 .        * ZDL/CN data presented on limestone scales.:   COMMENT 25
R26 .    * CNCF curve has no salinity correction applied.:   COMMENT 26
R27 . * Total borehole volume from TD to casing shoe = 12:   COMMENT 27
R29 .       Editing on WLC_PETROPHYSICAL_COMPOSITE_1.DLIS:   COMMENT 29
R30 .                                 EWL ZDL/CN, run 1.2:   COMMENT 30
DMF .                                                  KB:   DRILL MEAS FROM
EDF .M                                               42.1:   ELEV DRILL FLOOR
ELZ .M                                               42.1:   ELEVATION LOG ZERO
FHIS.                                            RAW-DLIS:   FULL HISTORY
EKB .M                                               42.1:   KB ELEVATION
LMF .                                                  KB:   LOGS MEAS FROM
EPD .M                                                  0:   ELEV PERM DATUM
EGL .M                                              -85.6:   GROUND LEVEL
~Curve Information Block
#MNEM.UNIT                                        API CODE    No Description
#=========                                        ========    == ===========
DEPT.M                                       00 001 00 00:     1  DEPTH
CALX.IN                                                  :     2  Caliper
CHT.LB                                                   :     3  Cable Tension
CN.%                                                     :     4  Neutron Porosity
CNCF.%                                                   :     5  Neutron Porosity
GR.GAPI                                                  :     6  Gamma Ray
PE.B/E                                                   :     7  Photoelectic Factor
PORZ.%                                                   :     8  Porosity
SPD.M/MN                                                 :     9  Cable Speed
TTEN.LB                                                  :    10  Cable Tension
WTBH.DEGC                                                :    11  Temperature
ZCOR.G/CC                                                :    12  Density Correction
ZDEN.G/CC                                                :    13  Bulk Density
ZDNC.G/CC                                                :    14  Bulk Density
~ASCII
# ...
 3190.1618     8.5791  1911.7970    19.3941    18.7883    91.9112     3.3264     8.7994    10.0510  5344.3491   114.0916     -.0009     2.5595     2.5511
 3190.2380     8.5720  1909.7400    18.8298    18.2420    87.7863     3.3637     9.8135    10.0592  5339.5400   113.9997     -.0007     2.5422     2.5339
 3190.3142     8.5608  1906.9630    18.2402    17.6740    82.8226     3.3874    10.9153    10.0631  5336.1968   113.8844     -.0011     2.5233     2.5151
 3190.3904     8.5499  1903.9659    17.6264    17.0816    77.6020     3.3896    11.9614    10.0640  5335.7700   113.7835     -.0019     2.5055     2.4973
 3190.4666     8.5435  1901.4150    17.0226    16.4955    72.6484     3.3758    12.8261    10.0641  5338.8921   113.7366     -.0025     2.4907     2.4826
 3190.5428     8.5436  1899.8350    16.4825    15.9668    68.3260     3.3621    13.4302    10.0637  5345.1030   113.7777     -.0027     2.4803     2.4723
 3190.6190     8.5490  1899.2970    16.0742    15.5634    64.8277     3.3672    13.7469    10.0633  5352.5078   113.9095     -.0024     2.4749     2.4669
 3190.6952     8.5575  1899.7240    15.8332    15.3216    62.1849     3.4017    13.7952    10.0608  5358.6348   114.1002     -.0017     2.4741     2.4661
 3190.7714     8.5676  1900.8900    15.7168    15.2007    60.3181     3.4605    13.6241    10.0554  5361.6958   114.2866     -.0007     2.4770     2.4690
 3190.8476     8.5780  1902.5820    15.6265    15.1051    59.0780     3.5233    13.2875    10.0469  5361.6240   114.4003      .0007     2.4828     2.4747
 3190.9238     8.5876  1904.6260    15.4920    14.9671    58.1961     3.5654    12.8490    10.0359  5359.9082   114.3953      .0022     2.4903     2.4822
 3191.0000     8.5949  1904.1670    15.2745    14.7495    57.3306     3.5723    12.3898    10.0243  5358.7041   114.2708      .0035     2.4981     2.4900
 3191.0762     8.5998  1894.1510    14.9736    14.4524    56.1629     3.5497    11.9599    10.0132  5359.3281   114.0758      .0042     2.5055     2.4973
 3191.1524     8.6024  1868.3040    14.6227    14.1078    54.5124     3.5171    11.5909    10.0039  5361.5889   113.8862      .0043     2.5118     2.5036
 3191.2286     8.6034  1821.8330    14.2476    13.7409    52.5445     3.4909    11.2975     9.9970  5363.9600   113.7604      .0038     2.5168     2.5086
 3191.3048     8.6040  1757.8470    13.8799    13.3814    50.7196     3.4703    11.0813     9.9928  5364.9180   113.7173      .0026     2.5205     2.5123
 3191.3810     8.6047  1692.1940    13.5735    13.0817    49.5490     3.4404    10.9300     9.9905  5363.8252   113.7402      .0010     2.5231     2.5148
 3191.4572     8.6052  1646.9030    13.3894    12.9017    49.2655     3.3899    10.8044     9.9901  5362.0449   113.8050     -.0004     2.5252     2.5170
 3191.5334     8.6033  1636.3990    13.3570    12.8712    49.6770     3.3262    10.6642     9.9908  5361.5322   113.8970     -.0012     2.5276     2.5194
 3191.6096     8.5975  1660.1650    13.4551    12.9706    50.3297     3.2708    10.5168     9.9922  5363.2769   113.9932     -.0015     2.5302     2.5219
 3191.6858     8.5881  1706.4230    13.6229    13.1405    50.7856     3.2392    10.4051     9.9938  5366.9160   114.0765     -.0010     2.5321     2.5238
 3191.7620     8.5780  1758.2280    13.7937    13.3137    50.9079     3.2294    10.4193     9.9963  5371.4268   114.1406     -.0002     2.5318     2.5235
 3191.8382     8.5716  1802.6801    13.9218    13.4430    50.8355     3.2284    10.6296    10.0001  5375.6538   114.1888      .0008     2.5282     2.5200
 3191.9144     8.5719  1836.6121    14.0036    13.5228    50.8829     3.2280    11.0613    10.0065  5379.1099   114.2210      .0014     2.5209     2.5126
 3191.9906     8.5796  1862.8220    14.0463    13.5595    51.4759     3.2344    11.6370    10.0152  5382.2480   114.2437      .0015     2.5110     2.5028
 3192.0668     8.5922  1886.0780    14.0823    13.5866    52.9384     3.2649    12.2092    10.0246  5386.0459   114.2658      .0014     2.5012     2.4931
 3192.1430     8.6046  1909.4840    14.1674    13.6618    55.2998     3.3378    12.6265    10.0335  5391.2461   114.2946      .0014     2.4941     2.4860
 3192.2192     8.6113  1929.5040    14.3559    13.8415    58.3408     3.4617    12.7777    10.0410  5397.6460   114.3239      .0015     2.4915     2.4834
 3192.2954     8.6098  1942.5031    14.6900    14.1687    61.7535     3.6265    12.6076    10.0461  5404.2139   114.3406      .0018     2.4944     2.4863
 3192.3716     8.6011  1949.2440    15.1857    14.6586    65.2306     3.8001    12.1174    10.0476  5409.8242   114.3372      .0025     2.5028     2.4946
 3192.4478     8.5890  1953.8160    15.8193    15.2860    68.3817     3.9369    11.3639    10.0444  5413.9878   114.3259      .0035     2.5157     2.5075
 3192.5240     8.5786  1957.7380    16.5359    15.9937    70.7748     3.9976    10.4533    10.0357  5416.4702   114.3216      .0049     2.5312     2.5230
 3192.6002     8.5731  1960.6050    17.2697    16.7153    72.0641     3.9713     9.5264    10.0223  5417.2939   114.3260      .0063     2.5471     2.5387
 3192.6764     8.5741  1962.3960    17.9804    17.4096    72.1834     3.8821     8.7260    10.0056  5416.6162   114.3326      .0073     2.5608     2.5524
 3192.7526     8.5801  1963.2159    18.6451    18.0550    71.4405     3.7764     8.1457     9.9888  5415.0210   114.3341      .0075     2.5707     2.5623
 3192.8288     8.5876  1963.1390    19.2246    18.6157    70.3934     3.6965     7.7930     9.9748  5413.1289   114.3253      .0069     2.5767     2.5683
 3192.9050     8.5926  1962.2679    19.6127    18.9911    69.7172     3.6591     7.6084     9.9657  5411.1519   114.3063      .0059     2.5799     2.5714
 3192.9812     8.5931  1960.3380    19.7262    19.1017    69.8021     3.6501     7.5285     9.9619  5408.7549   114.2776      .0047     2.5813     2.5728
 3193.0574     8.5883  1956.3820    19.5737    18.9565    70.4647     3.6377     7.5415     9.9629  5405.3018   114.2521      .0035     2.5810     2.5725
 3193.1336     8.5795  1949.1639    19.2629    18.6597    71.1493     3.5964     7.6919     9.9681  5400.1680   114.2462      .0021     2.5785     2.5700
 3193.2098     8.5695  1935.6180    18.9335    18.3454    71.4278     3.5271     8.0197     9.9774  5392.9668   114.2533      .0004     2.5729     2.5644
 3193.2860     8.5616  1909.6080    18.6413    18.0658    71.2255     3.4559     8.4569     9.9905  5383.9111   114.2538     -.0011     2.5654     2.5570
 3193.3622     8.5570  1869.7710    18.3454    17.7799    70.8704     3.4164     8.8796    10.0061  5374.3008   114.2307     -.0023     2.5582     2.5498
 3193.4384     8.5551  1823.3740    17.9735    17.4174    70.8588     3.4352     9.1139    10.0230  5365.8442   114.1760     -.0027     2.5542     2.5458
 3193.5146     8.5545  1779.2860    17.5307    16.9846    71.4833     3.5251     9.0266    10.0396  5359.5410   114.0960     -.0020     2.5556     2.5473
 3193.5908     8.5545  1741.4730    17.1234    16.5859    72.6955     3.6821     8.6084    10.0552  5355.1719   114.0148     -.0002     2.5628     2.5544
 3193.6670     8.5562  1715.3000    16.8998    16.3659    74.2029     3.8827     7.9563    10.0692  5351.7158   113.9644      .0026     2.5739     2.5655
 3193.7432     8.5608  1704.5490    16.9403    16.4022    75.5071     4.0845     7.3662    10.0823  5348.5742   113.9564      .0048     2.5840     2.5755
 3193.8194     8.5674  1711.1510    17.1823    16.6340    76.1597     4.2376     7.1103    10.0927  5345.9751   113.9702      .0050     2.5884     2.5799
 3193.8956     8.5734  1734.1219    17.4336    16.8753    75.9984     4.3047     7.3407    10.0976  5344.6538   113.9697      .0030     2.5845     2.5760
 3193.9718     8.5764  1766.9200    17.4687    16.9074    75.0712     4.2751     8.0257    10.0943  5345.2471   113.9391     -.0005     2.5728     2.5643
 3194.0480     8.5764  1792.9360    17.1586    16.6042    73.5385     4.1617     8.9625    10.0818  5347.7988   113.8968     -.0037     2.5567     2.5483
