~VERSION INFORMATION
VERS.                                                 2.0:   CWLS Log ASCII Standard-VERSION 2.0
WRAP.                                                  NO:   One line per depth step
~Well Information Block
STRT.M                                          2892.9818:   Top Depth
STOP.M                                          3308.8052:   Bottom Depth
STEP.M                                             .07620:   Depth Increment
NULL.                                            -999.250:   Null Value
FLD .                                                 Q15:   Field Name
WELL.                                            15/12-21:   NAME
WBN .                                            15/12-21:   WELLBORE
NATI.                                                 NOR:   COUNTRY
APD .M                                               42.1:   ABOVE PERM DATUM
CTRY.                                                 NOR:   COUNTRY
COMP.                            TALISMAN ENERGY NORGE AS:   OPERATOR
PDAT.                                                 MSL:   PERM DATUM
COUN.                                     MAERSK GUARDIAN:   RIG NAME
LATI.                            058 13' 40.470" N    DMS:   SURF. LATITUDE
LONG.                            001 52' 56.820" E    DMS:   SURF. LONGITUDE
PBWE.                                            15/12-21:   PB WELL ID
APIN.                                            15/12-21:   PB WELLBORE ID
PBWS.                                                 ALL:   PB WELL NAME SET
CNTY.                                     MAERSK GUARDIAN:   COUNTY
~PARAMETER INFORMATION (log)
LNAM.                                 WLC_PETRO_COMPOSITE:   NAME
LTYP.                                                PAP.:   LOG TYPE
LSRV.                                          WL.PET.LOG:   LOG SERVICE
LVSN.                                                   1:   LOG VERSION
LRUN.                                                 1.2:   LOG RUN
BHIS.                                                   R:   BRIEF HISTORY
R1  .                                Composite data incl.:   COMMENT  1
R2  .                                 EWL ZDL/CN, run 1.2:   COMMENT  2
R3  .       For more details, please see WLC_PETROPHYSICA:   COMMENT  3
R5  .            EWL data plotted and verified to prints.:   COMMENT  5
R7  .                             Depth units are meters.:   COMMENT  7
R9  .                                    Quality comments:   COMMENT  9
R10 .                                 EWL ZDL/CN, run 1.2:   COMMENT 10
R11 . Data above 2959.7 m logged in casing (depth from lo:   COMMENT 11
R12 .                                    Logger s remarks:   COMMENT 12
R13 .                                       Depth control:   COMMENT 13
R14 . * Depth correlated to run w1.1 XMAC/HDIL/GR dated 2:   COMMENT 14
R15 .                                             General:   COMMENT 15
R16 .   * Last circulation stopped at 1035 on 19-APR-2009:   COMMENT 16
R17 .  * Toolstring reached TD at 1950 hrs on 20-APR-2009:   COMMENT 17
R18 . * Motorized releasable cablehead (MRCH) was run wit:   COMMENT 18
R19 .   * Maximum reading from cablehead thermometers 118:   COMMENT 19
R20 . * Maximum reading from TTRM was 114 degC at 3236 m.:   COMMENT 20
R21 .                                            Mud data:   COMMENT 21
R22 .                           * Oil/water ratio = 76/24:   COMMENT 22
R23 .                       * Cacl2 WPS Brine = 135 kg/m3:   COMMENT 23
R24 .                                              ZDL/CN:   COMMENT 24
R25 .        * ZDL/CN data presented on limestone scales.:   COMMENT 25
R26 .    * CNCF curve has no salinity correction applied.:   COMMENT 26
R27 . * Total borehole volume from TD to casing shoe = 12:   COMMENT 27
R29 .       Editing on WLC_PETROPHYSICAL_COMPOSITE_1.DLIS:   COMMENT 29
R30 .                                 EWL ZDL/CN, run 1.2:   COMMENT 30
DMF .                                                  KB:   DRILL MEAS FROM
EDF .M                                               42.1:   ELEV DRILL FLOOR
ELZ .M                                               42.1:   ELEVATION LOG ZERO
FHIS.                                            RAW-DLIS:   FULL HISTORY
EKB .M                                               42.1:   KB ELEVATION
LMF .                                                  KB:   LOGS MEAS FROM
EPD .M                                                  0:   ELEV PERM DATUM
EGL .M                                              -85.6:   GROUND LEVEL
~Curve Information Block
#MNEM.UNIT                                        API CODE    No Description
#=========                                        ========    == ===========
DEPT.M                                       00 001 00 00:     1  DEPTH
CALX.IN                                                  :     2  Caliper
CHT.LB                                                   :     3  Cable Tension
CN.%                                                     :     4  Neutron Porosity
CNCF.%                                                   :     5  Neutron Porosity
GR.GAPI                                                  :     6  Gamma Ray
PE.B/E                                                   :     7  Photoelectic Factor
PORZ.%                                                   :     8  Porosity
SPD.M/MN                                                 :     9  Cable Speed
TTEN.LB                                                  :    10  Cable Tension
WTBH.DEGC                                                :    11  Temperature
ZCOR.G/CC                                                :    12  Density Correction
ZDEN.G/CC                                                :    13  Bulk Density
ZDNC.G/CC                                                :    14  Bulk Density
~ASCII
# ...
 3007.8914     8.6293  2207.9189    22.9607    22.2325    62.2300     2.7699    10.8658    10.0590  5397.9409   108.5698      .0031     2.5242     2.5159
 3007.9676     8.6275  2168.3750    22.6947    21.9742    61.8102     2.8065    10.7767    10.0672  5350.1460   108.7479      .0037     2.5257     2.5174
 3008.0438     8.6272  2128.6450    22.3109    21.5993    62.0276     2.8992    10.7963    10.0756  5306.7231   108.9203      .0037     2.5254     2.5171
 3008.1200     8.6303  2090.7849    22.0031    21.2958    62.9931     3.0178    10.9377    10.0828  5270.6929   109.0833      .0028     2.5230     2.5147
 3008.1962     8.6367  2055.9541    21.9485    21.2369    64.4811     3.1205    11.1491    10.0892  5244.1040   109.2570      .0012     2.5194     2.5111
 3008.2724     8.6436  2025.7220    22.2159    21.4921    66.1033     3.1722    11.3139    10.0967  5227.6748   109.4642     -.0006     2.5165     2.5083
 3008.3486     8.6481  2001.5310    22.7664    22.0258    67.4497     3.1627    11.3004    10.1072  5220.1958   109.7207     -.0020     2.5168     2.5085
 3008.4248     8.6485  1984.2710    23.4171    22.6611    68.0419     3.1142    11.0215    10.1197  5218.8550   110.0222     -.0031     2.5215     2.5132
 3008.5010     8.6438  1974.1940    23.8964    23.1337    67.4200     3.0731    10.4107    10.1320  5220.0820   110.3413     -.0037     2.5320     2.5237
 3008.5772     8.6398  1970.0380    23.9361    23.1763    65.4690     3.0822     9.9416    10.1427  5220.7100   110.6399     -.0037     2.5400     2.5316
 3008.6534     8.6357  1969.2820    23.9758    23.2190    62.5627     3.0913     9.4725    10.1527  5219.0308   110.8786     -.0036     2.5480     2.5396
 3008.7296     8.6280  1969.2729    23.6224    22.8806    59.3857     3.2039     8.3074    10.1643  5215.1138   111.0436     -.0029     2.5679     2.5595
 3008.8058     8.6242  1968.4250    22.9771    22.2532    56.7336     3.4058     7.1175    10.1794  5210.3042   111.1593     -.0019     2.5883     2.5798
 3008.8820     8.6249  1966.0330    22.2959    21.5867    55.2682     3.6369     6.1741    10.1986  5206.2402   111.2689     -.0011     2.6044     2.5958
 3008.9582     8.6297  1962.2290    21.7560    21.0550    55.4594     3.8007     5.7316    10.2191  5203.9678   111.3844     -.0009     2.6120     2.6034
 3009.0344     8.6371  1957.7990    21.4633    20.7626    57.3583     3.8234     5.9100    10.2355  5203.6582   111.4771     -.0016     2.6089     2.6003
 3009.1106     8.6455  1953.8840    21.4578    20.7500    60.6760     3.7015     6.6260    10.2426  5204.5991   111.5012     -.0028     2.5967     2.5881
 3009.1868     8.6524  1951.4430    21.7301    21.0100    64.7660     3.4924     7.6434    10.2387  5205.9150   111.4406     -.0037     2.5793     2.5708
 3009.2630     8.6551  1950.9351    22.1943    21.4608    69.0072     3.2736     8.7060    10.2246  5207.1660   111.3181     -.0037     2.5611     2.5527
 3009.3392     8.6520  1952.0880    22.7098    21.9670    72.8317     3.1080     9.6444    10.2043  5208.1860   111.1959     -.0027     2.5451     2.5367
 3009.4154     8.6445  1954.4910    23.1425    22.3965    75.7405     3.0275    10.3984    10.1812  5208.6802   111.1513     -.0011     2.5322     2.5239
 3009.4916     8.6352  1957.6940    23.3857    22.6426    77.4026     3.0296    10.9589    10.1580  5208.1738   111.2255      .0008     2.5226     2.5143
 3009.5678     8.6263  1960.9120    23.4137    22.6781    77.8476     3.0835    11.3209    10.1358  5206.1162   111.3949      .0031     2.5164     2.5082
 3009.6440     8.6196  1963.1150    23.2736    22.5473    77.3071     3.1453    11.4739    10.1160  5202.4790   111.5888      .0052     2.5138     2.5056
 3009.7202     8.6168  1963.4709    23.0431    22.3244    76.0794     3.1780    11.3444    10.1010  5197.9678   111.7355      .0076     2.5160     2.5078
 3009.7964     8.6184  1961.6880    22.8549    22.1389    74.4064     3.1673    10.8775    10.0936  5193.8848   111.7948      .0106     2.5240     2.5157
 3009.8726     8.6232  1958.1851    22.7639    22.0457    72.5902     3.1252    10.1051    10.0956  5191.4819   111.7729      .0141     2.5372     2.5289
 3009.9488     8.6292  1953.9900    22.6728    21.9513    70.8426     3.0793     9.1827    10.1054  5191.4819   111.6990      .0175     2.5530     2.5446
 3010.0250     8.6342  1950.3080    22.4906    21.7687    69.2391     3.0526     8.3605    10.1187  5194.0308   111.6062      .0198     2.5670     2.5586
 3010.1012     8.6358  1948.2120    22.1792    21.4630    67.8373     3.0496     7.8847    10.1309  5198.8540   111.5243      .0200     2.5752     2.5667
 3010.1774     8.6325  1948.4240    21.7797    21.0756    66.6852     3.0584     7.8757    10.1386  5205.3359   111.4914      .0180     2.5753     2.5668
 3010.2536     8.6243  1951.1379    21.3871    20.6990    65.7591     3.0668     8.2636    10.1404  5212.7090   111.5332      .0145     2.5687     2.5602
 3010.3298     8.6145  1955.8770    21.1267    20.4531    65.0124     3.0746     8.8389    10.1387  5220.0820   111.6464      .0108     2.5589     2.5504
 3010.4060     8.6076  1961.6610    21.0490    20.3830    64.3981     3.0872     9.3804    10.1360  5226.2710   111.7993      .0081     2.5496     2.5412
 3010.4822     8.6073  1967.1300    21.1149    20.4476    63.8947     3.1012     9.7574    10.1349  5229.9072   111.9337      .0069     2.5431     2.5348
 3010.5584     8.6132  1971.0640    21.2426    20.5674    63.4979     3.1004     9.9451    10.1357  5230.4341   111.9930      .0071     2.5399     2.5316
 3010.6346     8.6217  1972.8370    21.3097    20.6257    63.3455     3.0673     9.9783    10.1384  5228.3901   111.9582      .0080     2.5394     2.5310
 3010.7108     8.6291  1972.4060    21.2267    20.5383    63.5958     3.0035     9.9012    10.1427  5224.8970   111.8562      .0094     2.5407     2.5323
 3010.7870     8.6326  1970.1880    21.0147    20.3283    64.5208     2.9364     9.7533    10.1496  5221.2778   111.7386      .0109     2.5432     2.5349
 3010.8632     8.6312  1967.0870    20.7864    20.1063    66.3129     2.9054     9.5896    10.1587  5218.5620   111.6573      .0122     2.5460     2.5376
 3010.9394     8.6260  1964.1270    20.7219    20.0477    68.9280     2.9372     9.5041    10.1674  5216.9341   111.6313      .0130     2.5475     2.5391
 3011.0156     8.6188  1961.9570    20.9805    20.3065    72.0991     3.0262     9.6211    10.1734  5216.0010   111.6418      .0126     2.5455     2.5371
 3011.0918     8.6115  1960.7690    21.5727    20.8916    75.4943     3.1348    10.0365    10.1747  5215.4048   111.6510      .0104     2.5384     2.5300
 3011.1680     8.6058  1960.3810    22.3633    21.6696    78.7895     3.2145    10.7411    10.1696  5215.1270   111.6387      .0067     2.5263     2.5180
 3011.2442     8.6034  1960.3110    23.1293    22.4210    81.5757     3.2336    11.5928    10.1582  5215.4199   111.6112      .0023     2.5118     2.5035
 3011.3204     8.6042  1960.1320    23.6973    22.9758    83.4996     3.1922    12.3515    10.1436  5216.7378   111.5889     -.0011     2.4988     2.4906
 3011.3966     8.6070  1959.6880    24.0077    23.2769    84.3780     3.1149    12.8490    10.1294  5218.7642   111.5978     -.0028     2.4903     2.4822
 3011.4728     8.6101  1959.2061    24.1668    23.4295    84.2115     3.0318    13.0557    10.1188  5220.6548   111.6405     -.0032     2.4867     2.4786
 3011.5490     8.6127  1959.1840    24.2946    23.5522    83.2181     2.9634    13.0143    10.1127  5221.9092   111.6994     -.0026     2.4875     2.4793
 3011.6252     8.6155  1959.8560    24.4095    23.6619    81.9495     2.9171    12.8317    10.1114  5222.3330   111.7454     -.0018     2.4906     2.4825
 3011.7014     8.6207  1960.8790    24.4147    23.6621    80.9473     2.8917    12.6185    10.1129  5221.9058   111.7609     -.0013     2.4942     2.4861
 3011.7776     8.6292  1961.5750    24.1808    23.4253    80.5199     2.8852    12.4433    10.1159  5220.8208   111.7432     -.0014     2.4972     2.4891
