~VERSION INFORMATION
VERS.                                                 2.0:   CWLS Log ASCII Standard-VERSION 2.0
WRAP.                                                  NO:   One line per depth step
~Well Information Block
STRT.M                                          2892.9818:   Top Depth
STOP.M                                          3308.8052:   Bottom Depth
STEP.M                                             .07620:   Depth Increment
NULL.                                            -999.250:   Null Value
FLD .                                                 Q15:   Field Name
WELL.                                            15/12-21:   NAME
WBN .                                            15/12-21:   WELLBORE
NATI.                                                 NOR:   COUNTRY
APD .M                                               42.1:   ABOVE PERM DATUM
CTRY.                                                 NOR:   COUNTRY
COMP.                            TALISMAN ENERGY NORGE AS:   OPERATOR
PDAT.                                                 MSL:   PERM DATUM
COUN.                                     MAERSK GUARDIAN:   RIG NAME
LATI.                            058 13' 40.470" N    DMS:   SURF. LATITUDE
LONG.                            001 52' 56.820" E    DMS:   SURF. LONGITUDE
PBWE.                                            15/12-21:   PB WELL ID
APIN.                                            15/12-21:   PB WELLBORE ID
PBWS.                                                 ALL:   PB WELL NAME SET
CNTY.                                     MAERSK GUARDIAN:   COUNTY
~PARAMETER INFORMATION (log)
LNAM.                                 WLC_PETRO_COMPOSITE:   NAME
LTYP.                                                PAP.:   LOG TYPE
LSRV.                                          WL.PET.LOG:   LOG SERVICE
LVSN.                                                   1:   LOG VERSION
LRUN.                                                 1.2:   LOG RUN
BHIS.                                                   R:   BRIEF HISTORY
R1  .                                Composite data incl.:   COMMENT  1
R2  .                                 EWL ZDL/CN, run 1.2:   COMMENT  2
R3  .       For more details, please see WLC_PETROPHYSICA:   COMMENT  3
R5  .            EWL data plotted and verified to prints.:   COMMENT  5
R7  .                             Depth units are meters.:   COMMENT  7
R9  .                                    Quality comments:   COMMENT  9
R10 .                                 EWL ZDL/CN, run 1.2:   COMMENT 10
R11 . Data above 2959.7 m logged in casing (depth from lo:   COMMENT 11
R12 .                                    Logger s remarks:   COMMENT 12
R13 .                                       Depth control:   COMMENT 13
R14 . * Depth correlated to run w1.1 XMAC/HDIL/GR dated 2:   COMMENT 14
R15 .                                             General:   COMMENT 15
R16 .   * Last circulation stopped at 1035 on 19-APR-2009:   COMMENT 16
R17 .  * Toolstring reached TD at 1950 hrs on 20-APR-2009:   COMMENT 17
R18 . * Motorized releasable cablehead (MRCH) was run wit:   COMMENT 18
R19 .   * Maximum reading from cablehead thermometers 118:   COMMENT 19
R20 . * Maximum reading from TTRM was 114 degC at 3236 m.:   COMMENT 20
R21 .                                            Mud data:   COMMENT 21
R22 .                           * Oil/water ratio = 76/24:   COMMENT 22
R23 .                       * Cacl2 WPS Brine = 135 kg/m3:   COMMENT 23
R24 .                                              ZDL/CN:   COMMENT 24
R25 .        * ZDL/CN data presented on limestone scales.:   COMMENT 25
R26 .    * CNCF curve has no salinity correction applied.:   COMMENT 26
R27 . * Total borehole volume from TD to casing shoe = 12:   COMMENT 27
R29 .       Editing on WLC_PETROPHYSICAL_COMPOSITE_1.DLIS:   COMMENT 29
R30 .                                 EWL ZDL/CN, run 1.2:   COMMENT 30
DMF .                                                  KB:   DRILL MEAS FROM
EDF .M                                               42.1:   ELEV DRILL FLOOR
ELZ .M                                               42.1:   ELEVATION LOG ZERO
FHIS.                                            RAW-DLIS:   FULL HISTORY
EKB .M                                               42.1:   KB ELEVATION
LMF .                                                  KB:   LOGS MEAS FROM
EPD .M                                                  0:   ELEV PERM DATUM
EGL .M                                              -85.6:   GROUND LEVEL
~Curve Information Block
#MNEM.UNIT                                        API CODE    No Description
#=========                                        ========    == ===========
DEPT.M                                       00 001 00 00:     1  DEPTH
CALX.IN                                                  :     2  Caliper
CHT.LB                                                   :     3  Cable Tension
CN.%                                                     :     4  Neutron Porosity
CNCF.%                                                   :     5  Neutron Porosity
GR.GAPI                                                  :     6  Gamma Ray
PE.B/E                                                   :     7  Photoelectic Factor
PORZ.%                                                   :     8  Porosity
SPD.M/MN                                                 :     9  Cable Speed
TTEN.LB                                                  :    10  Cable Tension
WTBH.DEGC                                                :    11  Temperature
ZCOR.G/CC                                                :    12  Density Correction
ZDEN.G/CC                                                :    13  Bulk Density
ZDNC.G/CC                                                :    14  Bulk Density
~ASCII
# ...
 2984.1170     8.6243  1956.4170    22.6684    21.9514    66.7119     2.7356    12.6490    10.1833  5184.2612   109.8290      .0036     2.4937     2.4856
 2984.1932     8.6296  1964.0120    22.3285    21.6144    67.8702     2.7363    12.2589    10.1738  5197.6211   109.9501      .0063     2.5004     2.4922
 2984.2694     8.6358  1971.7050    22.0245    21.3120    69.2823     2.7664    11.9228    10.1552  5212.0361   110.0103      .0085     2.5061     2.4979
 2984.3456     8.6411  1978.8390    21.7990    21.0870    70.6848     2.8149    11.6340    10.1319  5224.8779   110.0135      .0102     2.5111     2.5028
 2984.4218     8.6443  1985.0920    21.6368    20.9258    71.7843     2.8742    11.3666    10.1086  5232.9448   109.9879      .0118     2.5156     2.5074
 2984.4980     8.6446  1989.9330    21.5417    20.8327    72.5367     2.9413    11.1151    10.0889  5233.6528   109.9637      .0132     2.5199     2.5117
 2984.5742     8.6420  1992.3660    21.5189    20.8127    73.1163     3.0130    10.9117    10.0741  5226.3120   109.9516      .0144     2.5234     2.5151
 2984.6504     8.6369  1991.3220    21.5926    20.8890    73.8828     3.0818    10.8127    10.0655  5212.9951   109.9452      .0149     2.5251     2.5168
 2984.7266     8.6300  1986.3010    21.7993    21.0970    75.0125     3.1360    10.8629    10.0635  5197.5342   109.9362      .0144     2.5242     2.5160
 2984.8028     8.6229  1978.1050    22.1807    21.4759    76.4164     3.1639    11.0653    10.0690  5184.0742   109.9128      .0129     2.5208     2.5125
 2984.8790     8.6170  1968.6350    22.6331    21.9233    77.8144     3.1577    11.3778    10.0824  5175.5151   109.8685      .0105     2.5154     2.5072
 2984.9552     8.6143  1959.9420    22.9918    22.2766    78.7744     3.1164    11.7325    10.1023  5172.6582   109.8115      .0077     2.5094     2.5012
 2985.0314     8.6160  1953.6750    23.1049    22.3856    78.9460     3.0465    12.0609    10.1247  5174.1768   109.7585      .0049     2.5038     2.4956
 2985.1076     8.6211  1950.5540    22.9212    22.2013    78.1513     2.9606    12.3114    10.1421  5177.9482   109.7254      .0025     2.4995     2.4913
 2985.1838     8.6270  1950.2660    22.5124    21.7965    76.5057     2.8742    12.4585    10.1507  5181.8848   109.7156      .0006     2.4970     2.4888
 2985.2600     8.6319  1951.8510    22.0574    21.3475    74.4301     2.8028    12.4877    10.1519  5184.2881   109.7150     -.0005     2.4965     2.4883
 2985.3362     8.6360  1954.3080    21.6823    20.9775    72.3587     2.7605    12.4237    10.1516  5184.4351   109.7107     -.0010     2.4976     2.4894
 2985.4124     8.6390  1956.7371    21.4471    20.7451    70.6809     2.7578    12.3019    10.1556  5182.7710   109.6982     -.0010     2.4996     2.4915
 2985.4886     8.6403  1958.3910    21.3633    20.6622    69.7137     2.7979    12.1663    10.1666  5180.3662   109.6783     -.0008     2.5020     2.4938
 2985.5648     8.6391  1958.9470    21.4196    20.7181    69.5648     2.8719    12.0703    10.1827  5178.1108   109.6546     -.0005     2.5036     2.4954
 2985.6410     8.6350  1958.6090    21.5570    20.8559    70.1330     2.9573    12.0586    10.1995  5176.2871   109.6385     -.0004     2.5038     2.4956
 2985.7172     8.6292  1957.9150    21.7339    21.0337    71.0597     3.0256    12.1440    10.2118  5174.8052   109.6323     -.0006     2.5023     2.4942
 2985.7934     8.6235  1957.5490    21.9062    21.2071    72.0110     3.0547    12.2972    10.2158  5173.8662   109.6209     -.0009     2.4997     2.4915
 2985.8696     8.6189  1957.7010    21.9989    21.3017    72.7771     3.0385    12.4595    10.2104  5174.3232   109.5916     -.0013     2.4969     2.4888
 2985.9458     8.6159  1958.2770    21.9258    21.2329    73.3082     2.9874    12.5719    10.1975  5177.4790   109.5497     -.0015     2.4950     2.4869
 2986.0220     8.6143  1959.4760    21.6925    21.0063    73.5976     2.9207    12.6049    10.1802  5184.1260   109.5056     -.0017     2.4945     2.4863
 2986.0982     8.6132  1961.7480    21.3492    20.6716    73.6148     2.8552    12.5737    10.1599  5193.7378   109.4723     -.0019     2.4950     2.4868
 2986.1744     8.6125  1965.4200    20.9702    20.3018    73.4091     2.7964    12.5276    10.1374  5204.2910   109.4602     -.0024     2.4958     2.4876
 2986.2506     8.6145  1970.3160    20.6420    19.9793    73.1510     2.7411    12.5134    10.1120  5212.7388   109.4750     -.0032     2.4960     2.4879
 2986.3268     8.6219  1975.7820    20.3878    19.7247    72.8575     2.6887    12.5361    10.0827  5216.3730   109.5192     -.0043     2.4956     2.4875
 2986.4030     8.6343  1980.8550    20.1362    19.4688    72.3849     2.6518    12.5559    10.0500  5214.3672   109.5767     -.0054     2.4953     2.4871
 2986.4792     8.6475  1984.5880    19.8445    19.1732    71.5338     2.6542    12.5257    10.0169  5207.7939   109.6260     -.0060     2.4958     2.4876
 2986.5554     8.6560  1986.4020    19.5312    18.8606    70.1412     2.7141    12.4353     9.9883  5199.2808   109.6512     -.0060     2.4974     2.4892
 2986.6316     8.6567  1986.3940    19.3015    18.6358    68.1755     2.8276    12.3283     9.9692  5191.7939   109.6548     -.0055     2.4992     2.4910
 2986.7078     8.6502  1985.1270    19.2383    18.5793    65.8351     2.9639    12.2821     9.9615  5187.3960   109.6405     -.0049     2.5000     2.4918
 2986.7840     8.6400  1983.3450    19.3637    18.7098    63.6051     3.0775    12.3588     9.9628  5186.8252   109.6087     -.0045     2.4987     2.4905
 2986.8602     8.6308  1981.8810    19.6306    18.9778    62.0324     3.1345    12.5590     9.9674  5189.5112   109.5675     -.0043     2.4952     2.4871
 2986.9364     8.6258  1981.5830    19.9658    19.3093    61.3698     3.1309    12.8166     9.9697  5193.7729   109.5355     -.0044     2.4908     2.4827
 2987.0126     8.6256  1982.7939    20.2779    19.6143    61.4994     3.0913    13.0366     9.9674  5197.3701   109.5143     -.0044     2.4871     2.4790
 2987.0888     8.6287  1985.0360    20.5019    19.8306    62.0634     3.0472    13.1425     9.9612  5198.2891   109.4921     -.0042     2.4853     2.4772
 2987.1650     8.6337  1987.2340    20.6230    19.9447    62.7812     3.0165    13.1029     9.9546  5195.5928   109.4517     -.0036     2.4859     2.4778
 2987.2412     8.6398  1988.1331    20.6876    20.0026    63.6381     2.9950    12.9312     9.9502  5189.4038   109.3931     -.0027     2.4889     2.4807
 2987.3174     8.6498  1987.0330    20.7288    20.0345    64.7000     2.9167    12.3726     9.9493  5181.0908   109.3300      .0002     2.4984     2.4903
 2987.3936     8.6494  1984.1930    20.7037    20.0103    65.9752     2.8464    12.0582     9.9507  5172.7119   109.2747      .0027     2.5038     2.4956
 2987.4698     8.6451  1980.7670    20.6790    19.9898    67.3829     2.7634    11.7907     9.9523  5166.4570   109.2381      .0053     2.5084     2.5002
 2987.5460     8.6386  1978.3040    20.6971    20.0129    68.6965     2.6745    11.5743     9.9518  5164.2651   109.2282      .0082     2.5121     2.5038
 2987.6222     8.6324  1978.0070    20.7585    20.0781    69.5947     2.5815    11.3899     9.9479  5167.3428   109.2480      .0111     2.5152     2.5070
 2987.6984     8.6291  1980.2600    20.7997    20.1212    69.9869     2.4867    11.2051     9.9403  5175.5688   109.2914      .0140     2.5184     2.5101
 2987.7746     8.6295  1984.8640    20.7829    20.1044    70.0477     2.3997    10.9866     9.9300  5187.6841   109.3387      .0169     2.5221     2.5139
 2987.8508     8.6329  1991.2860    20.7272    20.0471    69.9688     2.3364    10.7187     9.9180  5201.4580   109.3643      .0196     2.5267     2.5184
 2987.9270     8.6379  1998.7469    20.6339    19.9518    69.9283     2.3113    10.4208     9.9051  5214.5088   109.3588      .0221     2.5318     2.5235
 2988.0032     8.6427  2006.2460    20.5033    19.8202    70.1067     2.3302    10.1509     9.8931  5224.7930   109.3333      .0239     2.5364     2.5281
