~VERSION INFORMATION
VERS.                                                 2.0:   CWLS Log ASCII Standard-VERSION 2.0
WRAP.                                                  NO:   One line per depth step
~Well Information Block
STRT.M                                          2892.9818:   Top Depth
STOP.M                                          3308.8052:   Bottom Depth
STEP.M                                             .07620:   Depth Increment
NULL.                                            -999.250:   Null Value
FLD .                                                 Q15:   Field Name
WELL.                                            15/12-21:   NAME
WBN .                                            15/12-21:   WELLBORE
NATI.                                                 NOR:   COUNTRY
APD .M                                               42.1:   ABOVE PERM DATUM
CTRY.                                                 NOR:   COUNTRY
COMP.                            TALISMAN ENERGY NORGE AS:   OPERATOR
PDAT.                                                 MSL:   PERM DATUM
COUN.                                     MAERSK GUARDIAN:   RIG NAME
LATI.                            058 13' 40.470" N    DMS:   SURF. LATITUDE
LONG.                            001 52' 56.820" E    DMS:   SURF. LONGITUDE
PBWE.                                            15/12-21:   PB WELL ID
APIN.                                            15/12-21:   PB WELLBORE ID
PBWS.                                                 ALL:   PB WELL NAME SET
CNTY.                                     MAERSK GUARDIAN:   COUNTY
~PARAMETER INFORMATION (log)
LNAM.                                 WLC_PETRO_COMPOSITE:   NAME
LTYP.                                                PAP.:   LOG TYPE
LSRV.                                          WL.PET.LOG:   LOG SERVICE
LVSN.                                                   1:   LOG VERSION
LRUN.                                                 1.2:   LOG RUN
BHIS.                                                   R:   BRIEF HISTORY
R1  .                                Composite data incl.:   COMMENT  1
R2  .                                 EWL ZDL/CN, run 1.2:   COMMENT  2
R3  .       For more details, please see WLC_PETROPHYSICA:   COMMENT  3
R5  .            EWL data plotted and verified to prints.:   COMMENT  5
R7  .                             Depth units are meters.:   COMMENT  7
R9  .                                    Quality comments:   COMMENT  9
R10 .                                 EWL ZDL/CN, run 1.2:   COMMENT 10
R11 . Data above 2959.7 m logged in casing (depth from lo:   COMMENT 11
R12 .                                    Logger s remarks:   COMMENT 12
R13 .                                       Depth control:   COMMENT 13
R14 . * Depth correlated to run w1.1 XMAC/HDIL/GR dated 2:   COMMENT 14
R15 .                                             General:   COMMENT 15
R16 .   * Last circulation stopped at 1035 on 19-APR-2009:   COMMENT 16
R17 .  * Toolstring reached TD at 1950 hrs on 20-APR-2009:   COMMENT 17
R18 . * Motorized releasable cablehead (MRCH) was run wit:   COMMENT 18
R19 .   * Maximum reading from cablehead thermometers 118:   COMMENT 19
R20 . * Maximum reading from TTRM was 114 degC at 3236 m.:   COMMENT 20
R21 .                                            Mud data:   COMMENT 21
R22 .                           * Oil/water ratio = 76/24:   COMMENT 22
R23 .                       * Cacl2 WPS Brine = 135 kg/m3:   COMMENT 23
R24 .                                              ZDL/CN:   COMMENT 24
R25 .        * ZDL/CN data presented on limestone scales.:   COMMENT 25
R26 .    * CNCF curve has no salinity correction applied.:   COMMENT 26
R27 . * Total borehole volume from TD to casing shoe = 12:   COMMENT 27
R29 .       Editing on WLC_PETROPHYSICAL_COMPOSITE_1.DLIS:   COMMENT 29
R30 .                                 EWL ZDL/CN, run 1.2:   COMMENT 30
DMF .                                                  KB:   DRILL MEAS FROM
EDF .M                                               42.1:   ELEV DRILL FLOOR
ELZ .M                                               42.1:   ELEVATION LOG ZERO
FHIS.                                            RAW-DLIS:   FULL HISTORY
EKB .M                                               42.1:   KB ELEVATION
LMF .                                                  KB:   LOGS MEAS FROM
EPD .M                                                  0:   ELEV PERM DATUM
EGL .M                                              -85.6:   GROUND LEVEL
~Curve Information Block
#MNEM.UNIT                                        API CODE    No Description
#=========                                        ========    == ===========
DEPT.M                                       00 001 00 00:     1  DEPTH
CALX.IN                                                  :     2  Caliper
CHT.LB                                                   :     3  Cable Tension
CN.%                                                     :     4  Neutron Porosity
CNCF.%                                                   :     5  Neutron Porosity
GR.GAPI                                                  :     6  Gamma Ray
PE.B/E                                                   :     7  Photoelectic Factor
PORZ.%                                                   :     8  Porosity
SPD.M/MN                                                 :     9  Cable Speed
TTEN.LB                                                  :    10  Cable Tension
WTBH.DEGC                                                :    11  Temperature
ZCOR.G/CC                                                :    12  Density Correction
ZDEN.G/CC                                                :    13  Bulk Density
ZDNC.G/CC                                                :    14  Bulk Density
~ASCII
# ...
 3138.6506     8.4307  1906.4910    17.5965    17.1436    21.3293     4.7698    18.2218     9.9991  5321.2031   114.2935     -.0008     2.3984     2.3909
 3138.7268     8.4306  1887.4260    17.4781    17.0273    19.8074     4.7129    18.8823    10.0097  5318.5991   114.3581     -.0012     2.3871     2.3797
 3138.8030     8.4314  1844.4041    17.2091    16.7625    19.0551     4.6101    19.0807    10.0200  5317.2808   114.3481     -.0006     2.3837     2.3763
 3138.8792     8.4340  1781.0959    16.8298    16.3879    18.8734     4.4755    18.8035    10.0279  5317.8589   114.2856      .0011     2.3885     2.3810
 3138.9554     8.4401  1709.5300    16.3921    15.9536    19.0461     4.3290    18.1413    10.0323  5319.2310   114.2179      .0034     2.3998     2.3923
 3139.0316     8.4495  1654.5940    15.9434    15.5063    19.4501     4.1920    17.2575    10.0338  5319.1201   114.1898      .0054     2.4149     2.4073
 3139.1078     8.4607  1637.9091    15.5038    15.0669    20.0166     4.0813    16.3091    10.0331  5315.4712   114.2142      .0066     2.4311     2.4234
 3139.1840     8.4720  1668.2170    15.1069    14.6697    20.7533     4.0020    15.4302    10.0301  5307.6709   114.2660      .0070     2.4461     2.4383
 3139.2602     8.4810  1734.8340    14.8387    14.4005    21.6276     3.9422    14.7097    10.0241  5296.9521   114.2967      .0067     2.4585     2.4506
 3139.3364     8.4855  1813.8580    14.7552    14.3157    22.4939     3.8756    14.1761    10.0131  5286.2681   114.2701      .0060     2.4676     2.4597
 3139.4126     8.4844  1879.1390    14.8585    14.4176    23.1675     3.7747    13.7970     9.9974  5279.7271   114.1991      .0053     2.4741     2.4661
 3139.4888     8.4781  1917.6730    15.0845    14.6436    23.5604     3.6287    13.4980     9.9791  5281.1191   114.1255      .0051     2.4792     2.4712
 3139.5650     8.4692  1928.6770    15.3126    14.8734    23.6800     3.4530    13.2067     9.9605  5292.2290   114.0917      .0054     2.4842     2.4762
 3139.6412     8.4617  1925.5800    15.4001    14.9645    23.6375     3.2822    12.8991     9.9441  5311.9761   114.1175      .0062     2.4894     2.4814
 3139.7174     8.4587  1925.5800    15.2787    14.8475    23.5476     3.1557    12.6271     9.9321  5336.8301   114.1907      .0070     2.4941     2.4860
 3139.7936     8.4602  1937.0420    15.0001    14.5731    23.4908     3.1020    12.5016     9.9230  5361.8301   114.2771      .0070     2.4962     2.4882
 3139.8698     8.4651  1954.5260    14.7275    14.3024    23.4454     3.1278    12.6285     9.9159  5382.1699   114.3444      .0057     2.4941     2.4860
 3139.9460     8.4710  1971.8250    14.6116    14.1846    23.3612     3.2152    13.0250     9.9097  5394.5112   114.3667      .0031     2.4873     2.4792
 3140.0222     8.4750  1985.9760    14.7019    14.2704    23.1936     3.3297    13.5768     9.9051  5397.8140   114.3424     -.0002     2.4778     2.4699
 3140.0984     8.4761  1994.9320    14.9422    14.5054    23.0235     3.4346    14.0433     9.9032  5393.1528   114.2862     -.0024     2.4699     2.4619
 3140.1746     8.4746  1997.9580    15.2441    14.8024    23.0225     3.5033    14.2851     9.9060  5382.8799   114.2196     -.0036     2.4657     2.4578
 3140.2508     8.4715  1995.5420    15.5157    15.0710    23.3137     3.5263    14.1928     9.9149  5369.7661   114.1593     -.0036     2.4673     2.4594
 3140.3270     8.4678  1990.6040    15.7201    15.2742    23.9764     3.5124    13.7837     9.9294  5356.1050   114.1228     -.0025     2.4743     2.4663
 3140.4032     8.4643  1989.0179    15.8570    15.4109    25.0186     3.4850    13.1969     9.9475  5343.4229   114.1214     -.0008     2.4843     2.4763
 3140.4794     8.4617  1994.4960    15.9489    15.5030    26.2529     3.4709    12.6298     9.9660  5332.4648   114.1506      .0010     2.4940     2.4860
 3140.5556     8.4601  2005.4590    16.0319    15.5855    27.2912     3.4853    12.3186     9.9823  5323.6948   114.1902      .0021     2.4994     2.4913
 3140.6318     8.4598  2016.1460    16.1642    15.7155    27.8032     3.5234    12.4488     9.9964  5317.5762   114.2158      .0018     2.4971     2.4891
 3140.7080     8.4595  2019.6890    16.3770    15.9246    27.5754     3.5665    13.0626    10.0096  5314.6621   114.2094     -.0001     2.4866     2.4786
 3140.7842     8.4567  2010.0179    16.6593    16.2036    26.6333     3.5956    14.0169    10.0219  5315.3188   114.1652     -.0022     2.4703     2.4624
 3140.8604     8.4503  1984.7750    16.9680    16.5115    25.2607     3.6035    15.1434    10.0312  5319.3379   114.0892     -.0044     2.4510     2.4432
 3140.9366     8.4416  1949.3610    17.2283    16.7736    23.8457     3.5949    16.2141    10.0329  5325.5742   113.9876     -.0063     2.4327     2.4250
 3141.0128     8.4336  1914.2939    17.3734    16.9223    22.6933     3.5776    17.0481    10.0240  5332.1479   113.8758     -.0074     2.4185     2.4108
 3141.0890     8.4286  1890.4510    17.4144    16.9663    21.9534     3.5533    17.5596    10.0057  5336.5771   113.7786     -.0076     2.4097     2.4022
 3141.1652     8.4270  1883.6331    17.4092    16.9624    21.4732     3.5167    17.7661     9.9840  5337.0029   113.7234     -.0070     2.4062     2.3986
 3141.2414     8.4277  1891.7980    17.4023    16.9551    20.9589     3.4637    17.7673     9.9669  5333.3818   113.7256     -.0059     2.4062     2.3986
 3141.3176     8.4296  1908.2410    17.4006    16.9520    20.1970     3.4015    17.7036     9.9604  5327.6318   113.7746     -.0047     2.4073     2.3997
 3141.3938     8.4331  1926.3590    17.3738    16.9230    19.2063     3.3499    17.7041     9.9642  5322.5410   113.8387     -.0038     2.4073     2.3997
 3141.4700     8.4379  1940.4180    17.2531    16.8007    18.1491     3.3311    17.8394     9.9726  5320.8281   113.8846     -.0034     2.4049     2.3974
 3141.5462     8.4438  1947.6021    16.9909    16.5388    17.3064     3.3582    18.1031     9.9789  5324.0210   113.8935     -.0035     2.4004     2.3929
 3141.6224     8.4505  1949.2020    16.5983    16.1484    16.9160     3.4270    18.4265     9.9791  5331.2808   113.8701     -.0041     2.3949     2.3874
 3141.6986     8.4572  1949.6281    16.1154    15.6696    17.0119     3.5172    18.7067     9.9744  5339.8130   113.8374     -.0049     2.3901     2.3826
 3141.7748     8.4616  1951.0830    15.6253    15.1855    17.5030     3.6028    18.8327     9.9702  5346.6431   113.8255     -.0056     2.3880     2.3805
 3141.8510     8.4619  1953.4780    15.2129    14.7807    18.2991     3.6682    18.7118     9.9718  5350.0811   113.8530     -.0060     2.3900     2.3825
 3141.9272     8.4578  1956.0680    14.9186    14.4947    19.2351     3.7180    18.3018     9.9800  5349.9639   113.9079     -.0058     2.3970     2.3895
 3142.0034     8.4510  1958.0150    14.7294    14.3138    20.1175     3.7722    17.6418     9.9924  5347.3418   113.9602     -.0049     2.4083     2.4007
 3142.0796     8.4424  1958.7520    14.6043    14.1968    20.7688     3.8461    16.8574    10.0056  5343.6240   113.9896     -.0037     2.4217     2.4141
 3142.1558     8.4326  1958.0940    14.5059    14.1069    21.0897     3.9352    16.1241    10.0172  5339.9702   113.9984     -.0027     2.4343     2.4266
 3142.2320     8.4210  1956.2950    14.4195    14.0298    21.1276     4.0169    15.5896    10.0270  5336.9761   113.9944     -.0024     2.4434     2.4357
 3142.3082     8.4089  1954.2480    14.3670    13.9864    21.0643     4.0674    15.3006    10.0356  5334.5752   113.9831     -.0029     2.4484     2.4406
 3142.3844     8.3992  1953.0880    14.4005    14.0260    21.1149     4.0799    15.1840    10.0426  5332.6001   113.9792     -.0037     2.4504     2.4426
 3142.4606     8.3945  1953.3810    14.5498    14.1759    21.4823     4.0706    15.1003    10.0461  5331.2842   114.0033     -.0043     2.4518     2.4440
 3142.5368     8.3967  1954.8340    14.8160    14.4361    22.3547     4.0678    14.9390    10.0438  5331.0679   114.0666     -.0040     2.4545     2.4467
