~VERSION INFORMATION
VERS.                                                 2.0:   CWLS Log ASCII Standard-VERSION 2.0
WRAP.                                                  NO:   One line per depth step
~Well Information Block
STRT.M                                          2892.9818:   Top Depth
STOP.M                                          3308.8052:   Bottom Depth
STEP.M                                             .07620:   Depth Increment
NULL.                                            -999.250:   Null Value
FLD .                                                 Q15:   Field Name
WELL.                                            15/12-21:   NAME
WBN .                                            15/12-21:   WELLBORE
NATI.                                                 NOR:   COUNTRY
APD .M                                               42.1:   ABOVE PERM DATUM
CTRY.                                                 NOR:   COUNTRY
COMP.                            TALISMAN ENERGY NORGE AS:   OPERATOR
PDAT.                                                 MSL:   PERM DATUM
COUN.                                     MAERSK GUARDIAN:   RIG NAME
LATI.                            058 13' 40.470" N    DMS:   SURF. LATITUDE
LONG.                            001 52' 56.820" E    DMS:   SURF. LONGITUDE
PBWE.                                            15/12-21:   PB WELL ID
APIN.                                            15/12-21:   PB WELLBORE ID
PBWS.                                                 ALL:   PB WELL NAME SET
CNTY.                                     MAERSK GUARDIAN:   COUNTY
~PARAMETER INFORMATION (log)
LNAM.                                 WLC_PETRO_COMPOSITE:   NAME
LTYP.                                                PAP.:   LOG TYPE
LSRV.                                          WL.PET.LOG:   LOG SERVICE
LVSN.                                                   1:   LOG VERSION
LRUN.                                                 1.2:   LOG RUN
BHIS.                                                   R:   BRIEF HISTORY
R1  .                                Composite data incl.:   COMMENT  1
R2  .                                 EWL ZDL/CN, run 1.2:   COMMENT  2
R3  .       For more details, please see WLC_PETROPHYSICA:   COMMENT  3
R5  .            EWL data plotted and verified to prints.:   COMMENT  5
R7  .                             Depth units are meters.:   COMMENT  7
R9  .                                    Quality comments:   COMMENT  9
R10 .                                 EWL ZDL/CN, run 1.2:   COMMENT 10
R11 . Data above 2959.7 m logged in casing (depth from lo:   COMMENT 11
R12 .                                    Logger s remarks:   COMMENT 12
R13 .                                       Depth control:   COMMENT 13
R14 . * Depth correlated to run w1.1 XMAC/HDIL/GR dated 2:   COMMENT 14
R15 .                                             General:   COMMENT 15
R16 .   * Last circulation stopped at 1035 on 19-APR-2009:   COMMENT 16
R17 .  * Toolstring reached TD at 1950 hrs on 20-APR-2009:   COMMENT 17
R18 . * Motorized releasable cablehead (MRCH) was run wit:   COMMENT 18
R19 .   * Maximum reading from cablehead thermometers 118:   COMMENT 19
R20 . * Maximum reading from TTRM was 114 degC at 3236 m.:   COMMENT 20
R21 .                                            Mud data:   COMMENT 21
R22 .                           * Oil/water ratio = 76/24:   COMMENT 22
R23 .                       * Cacl2 WPS Brine = 135 kg/m3:   COMMENT 23
R24 .                                              ZDL/CN:   COMMENT 24
R25 .        * ZDL/CN data presented on limestone scales.:   COMMENT 25
R26 .    * CNCF curve has no salinity correction applied.:   COMMENT 26
R27 . * Total borehole volume from TD to casing shoe = 12:   COMMENT 27
R29 .       Editing on WLC_PETROPHYSICAL_COMPOSITE_1.DLIS:   COMMENT 29
R30 .                                 EWL ZDL/CN, run 1.2:   COMMENT 30
DMF .                                                  KB:   DRILL MEAS FROM
EDF .M                                               42.1:   ELEV DRILL FLOOR
ELZ .M                                               42.1:   ELEVATION LOG ZERO
FHIS.                                            RAW-DLIS:   FULL HISTORY
EKB .M                                               42.1:   KB ELEVATION
LMF .                                                  KB:   LOGS MEAS FROM
EPD .M                                                  0:   ELEV PERM DATUM
EGL .M                                              -85.6:   GROUND LEVEL
~Curve Information Block
#MNEM.UNIT                                        API CODE    No Description
#=========                                        ========    == ===========
DEPT.M                                       00 001 00 00:     1  DEPTH
CALX.IN                                                  :     2  Caliper
CHT.LB                                                   :     3  Cable Tension
CN.%                                                     :     4  Neutron Porosity
CNCF.%                                                   :     5  Neutron Porosity
GR.GAPI                                                  :     6  Gamma Ray
PE.B/E                                                   :     7  Photoelectic Factor
PORZ.%                                                   :     8  Porosity
SPD.M/MN                                                 :     9  Cable Speed
TTEN.LB                                                  :    10  Cable Tension
WTBH.DEGC                                                :    11  Temperature
ZCOR.G/CC                                                :    12  Density Correction
ZDEN.G/CC                                                :    13  Bulk Density
ZDNC.G/CC                                                :    14  Bulk Density
~ASCII
# ...
 3213.9362     8.5876  1882.1080    14.1699    13.6752    58.5489     3.9755     8.6792    10.0405  5388.4238   114.4144      .0052     2.5616     2.5532
 3214.0124     8.5891  1879.3850    14.3619    13.8619    58.3134     3.7268     8.4862    10.0439  5368.7402   114.3563      .0055     2.5649     2.5565
 3214.0886     8.5947  1877.8929    14.5407    14.0328    57.8468     3.4672     8.4113    10.0434  5350.8950   114.2680      .0052     2.5662     2.5577
 3214.1648     8.6046  1880.6490    14.7190    14.2004    57.5486     3.2526     8.4814    10.0407  5340.0591   114.1906      .0042     2.5650     2.5565
 3214.2410     8.6151  1886.3190    14.9271    14.3967    57.7609     3.1084     8.6664    10.0388  5341.5439   114.1589      .0029     2.5618     2.5534
 3214.3172     8.6226  1892.8430    15.2088    14.6667    58.5888     3.0330     8.8979    10.0381  5359.5391   114.1847      .0018     2.5578     2.5494
 3214.3934     8.6256  1900.7810    15.6090    15.0553    59.9469     3.0084     9.0962    10.0362  5395.0000   114.2543      .0010     2.5545     2.5460
 3214.4696     8.6249  1913.5090    16.1011    15.5361    61.7356     3.0103     9.1964    10.0291  5443.9082   114.3332      .0007     2.5527     2.5443
 3214.5458     8.6216  1935.3900    16.5989    16.0244    63.8983     3.0188     9.1660    10.0143  5497.7168   114.3824      .0008     2.5533     2.5449
 3214.6220     8.6174  1966.8230    17.0214    16.4400    66.5162     3.0262     9.0137     9.9924  5545.5781   114.3845      .0011     2.5559     2.5475
 3214.6982     8.6135  2003.2880    17.3567    16.7704    69.6128     3.0370     8.7915     9.9674  5577.7178   114.3449      .0013     2.5597     2.5512
 3214.7744     8.6100  2038.0510    17.5936    17.0043    72.9691     3.0569     8.5879     9.9466  5588.6450   114.2934      .0010     2.5631     2.5547
 3214.8506     8.6076  2063.9399    17.7239    17.1335    76.1967     3.0838     8.4917     9.9356  5578.4419   114.2608     -.0002     2.5648     2.5564
 3214.9268     8.6065  2075.8469    17.7537    17.1633    78.9249     3.1054     8.5199     9.9379  5552.3198   114.2539     -.0017     2.5643     2.5559
 3215.0030     8.6072  2072.5540    17.7162    17.1262    80.8465     3.1077     8.6548     9.9517  5518.1318   114.2729     -.0036     2.5620     2.5536
 3215.0792     8.6101  2057.0569    17.6638    17.0728    81.8039     3.0858     8.7977     9.9731  5484.0620   114.3128     -.0053     2.5596     2.5511
 3215.1554     8.6148  2033.8669    17.6462    17.0521    81.8425     3.0499     8.8244     9.9969  5456.3730   114.3646     -.0064     2.5591     2.5507
 3215.2316     8.6196  2007.9330    17.6868    17.0882    81.2546     3.0207     8.6293    10.0185  5438.3198   114.4126     -.0065     2.5624     2.5540
 3215.3078     8.6228  1983.9800    17.8055    17.2016    80.4290     3.0209     8.1641    10.0349  5430.4961   114.4453     -.0056     2.5704     2.5619
 3215.3840     8.6244  1965.2209    18.0284    17.4181    79.7473     3.0677     7.4624    10.0454  5431.1309   114.4528     -.0036     2.5824     2.5739
 3215.4602     8.6257  1953.1730    18.3678    17.7485    79.5658     3.1671     6.6454    10.0516  5436.9922   114.4310     -.0012     2.5964     2.5878
 3215.5364     8.6280  1947.7030    18.7685    18.1381    79.9640     3.3058     5.8846    10.0551  5444.2930   114.3900      .0018     2.6094     2.6008
 3215.6126     8.6322  1946.9449    19.1484    18.5057    80.6065     3.4512     5.4467    10.0559  5449.5259   114.3510      .0042     2.6169     2.6082
 3215.6888     8.6373  1949.3420    19.3700    18.7181    80.8556     3.5695     5.5782    10.0520  5450.4668   114.3329      .0047     2.6146     2.6060
 3215.7650     8.6416  1952.6060    19.2832    18.6300    80.1327     3.6453     6.3396    10.0417  5446.3862   114.3404      .0029     2.6016     2.5930
 3215.8412     8.6425  1951.3290    18.8631    18.2191    78.1677     3.6850     7.5693    10.0256  5438.0718   114.3540     -.0002     2.5806     2.5720
 3215.9174     8.6381  1942.4720    18.2708    17.6444    75.1022     3.7050     8.9113    10.0067  5427.1470   114.3530     -.0027     2.5576     2.5492
 3215.9936     8.6276  1926.5610    17.7352    17.1294    71.4072     3.7211    10.1015     9.9877  5415.3281   114.3356     -.0044     2.5373     2.5289
 3216.0698     8.6126  1907.6890    17.4098    16.8229    67.6268     3.7430    10.9225     9.9723  5404.3892   114.3171     -.0048     2.5232     2.5150
 3216.1460     8.5966  1891.4790    17.2892    16.7169    64.2357     3.7711    11.2956     9.9615  5395.7651   114.3133     -.0040     2.5168     2.5086
 3216.2222     8.5831  1882.9000    17.2468    16.6854    61.5939     3.7957    11.2654     9.9553  5390.6602   114.3284     -.0024     2.5174     2.5091
 3216.2984     8.5747  1882.8510    17.1188    16.5666    59.7400     3.8038    10.9484     9.9531  5390.3330   114.3576     -.0006     2.5228     2.5145
 3216.3746     8.5730  1885.4659    16.8145    16.2703    58.5788     3.7914    10.4404     9.9541  5395.2012   114.3764      .0018     2.5315     2.5232
 3216.4508     8.5768  1879.2581    16.4059    15.8680    58.2087     3.7724     9.8480     9.9587  5404.0928   114.3660      .0044     2.5416     2.5333
 3216.5270     8.5834  1859.7330    16.0700    15.5349    58.6984     3.7736     9.2358     9.9671  5414.2852   114.3237      .0069     2.5521     2.5437
 3216.6032     8.5898  1829.0750    15.9830    15.4453    59.8594     3.8201     8.6494     9.9790  5422.4819   114.2654      .0095     2.5621     2.5537
 3216.6794     8.5947  1794.7620    16.2051    15.6589    61.2192     3.9219     8.1366     9.9923  5426.2192   114.2170      .0119     2.5709     2.5624
 3216.7556     8.5981  1763.2371    16.7024    16.1424    62.3164     4.0631     7.7268    10.0049  5425.1611   114.1940      .0139     2.5779     2.5694
 3216.8318     8.6003  1736.5450    17.3493    16.7729    62.8452     4.1988     7.4083    10.0150  5421.0898   114.1942      .0153     2.5833     2.5748
 3216.9080     8.6010  1716.9240    18.0022    17.4104    62.9411     4.2663     7.1323    10.0236  5416.4312   114.2061      .0162     2.5880     2.5795
 3216.9842     8.5996  1705.4150    18.5606    17.9571    63.1964     4.2145     6.8471    10.0306  5413.0742   114.2148      .0167     2.5929     2.5844
 3217.0604     8.5966  1704.4340    18.9962    18.3853    64.2189     4.0396     6.5466    10.0368  5411.4482   114.2118      .0170     2.5981     2.5895
 3217.1366     8.5944  1715.5950    19.3095    18.6933    66.2519     3.7967     6.3037    10.0406  5410.2690   114.1909      .0168     2.6022     2.5936
 3217.2128     8.5955  1735.6500    19.5420    18.9197    69.0321     3.5705     6.2574    10.0408  5407.5591   114.1560      .0156     2.6030     2.5944
 3217.2890     8.6004  1761.3781    19.7229    19.0927    71.8653     3.4268     6.5438    10.0368  5401.9980   114.1259      .0132     2.5981     2.5895
 3217.3652     8.6070  1786.5520    19.8956    19.2560    73.9926     3.3851     7.2113    10.0297  5393.6860   114.1281      .0094     2.5867     2.5782
 3217.4414     8.6126  1806.5820    20.1002    19.4514    74.9991     3.4203     8.1828    10.0212  5384.3672   114.1828      .0051     2.5701     2.5616
 3217.5176     8.6156  1824.0660    20.3247    19.6683    74.9626     3.4829     9.2904    10.0138  5376.9580   114.2747      .0011     2.5511     2.5427
 3217.5938     8.6169  1842.6940    20.5551    19.8923    74.2966     3.5247    10.3170    10.0086  5374.2710   114.3696     -.0012     2.5336     2.5253
 3217.6700     8.6190  1862.8790    20.7966    20.1266    73.4259     3.5244    11.1495    10.0049  5377.8442   114.4408     -.0019     2.5193     2.5111
 3217.7462     8.6236  1876.7889    21.0623    20.3823    72.7918     3.4933    11.7238    10.0005  5387.0781   114.4788     -.0012     2.5095     2.5013
 3217.8224     8.6307  1874.4880    21.3460    20.6535    72.6310     3.4595    12.0208     9.9941  5399.5400   114.4823      .0008     2.5044     2.4962
