~VERSION INFORMATION
VERS.                                                 2.0:   CWLS Log ASCII Standard-VERSION 2.0
WRAP.                                                  NO:   One line per depth step
~Well Information Block
STRT.M                                          2892.9818:   Top Depth
STOP.M                                          3308.8052:   Bottom Depth
STEP.M                                             .07620:   Depth Increment
NULL.                                            -999.250:   Null Value
FLD .                                                 Q15:   Field Name
WELL.                                            15/12-21:   NAME
WBN .                                            15/12-21:   WELLBORE
NATI.                                                 NOR:   COUNTRY
APD .M                                               42.1:   ABOVE PERM DATUM
CTRY.                                                 NOR:   COUNTRY
COMP.                            TALISMAN ENERGY NORGE AS:   OPERATOR
PDAT.                                                 MSL:   PERM DATUM
COUN.                                     MAERSK GUARDIAN:   RIG NAME
LATI.                            058 13' 40.470" N    DMS:   SURF. LATITUDE
LONG.                            001 52' 56.820" E    DMS:   SURF. LONGITUDE
PBWE.                                            15/12-21:   PB WELL ID
APIN.                                            15/12-21:   PB WELLBORE ID
PBWS.                                                 ALL:   PB WELL NAME SET
CNTY.                                     MAERSK GUARDIAN:   COUNTY
~PARAMETER INFORMATION (log)
LNAM.                                 WLC_PETRO_COMPOSITE:   NAME
LTYP.                                                PAP.:   LOG TYPE
LSRV.                                          WL.PET.LOG:   LOG SERVICE
LVSN.                                                   1:   LOG VERSION
LRUN.                                                 1.2:   LOG RUN
BHIS.                                                   R:   BRIEF HISTORY
R1  .                                Composite data incl.:   COMMENT  1
R2  .                                 EWL ZDL/CN, run 1.2:   COMMENT  2
R3  .       For more details, please see WLC_PETROPHYSICA:   COMMENT  3
R5  .            EWL data plotted and verified to prints.:   COMMENT  5
R7  .                             Depth units are meters.:   COMMENT  7
R9  .                                    Quality comments:   COMMENT  9
R10 .                                 EWL ZDL/CN, run 1.2:   COMMENT 10
R11 . Data above 2959.7 m logged in casing (depth from lo:   COMMENT 11
R12 .                                    Logger s remarks:   COMMENT 12
R13 .                                       Depth control:   COMMENT 13
R14 . * Depth correlated to run w1.1 XMAC/HDIL/GR dated 2:   COMMENT 14
R15 .                                             General:   COMMENT 15
R16 .   * Last circulation stopped at 1035 on 19-APR-2009:   COMMENT 16
R17 .  * Toolstring reached TD at 1950 hrs on 20-APR-2009:   COMMENT 17
R18 . * Motorized releasable cablehead (MRCH) was run wit:   COMMENT 18
R19 .   * Maximum reading from cablehead thermometers 118:   COMMENT 19
R20 . * Maximum reading from TTRM was 114 degC at 3236 m.:   COMMENT 20
R21 .                                            Mud data:   COMMENT 21
R22 .                           * Oil/water ratio = 76/24:   COMMENT 22
R23 .                       * Cacl2 WPS Brine = 135 kg/m3:   COMMENT 23
R24 .                                              ZDL/CN:   COMMENT 24
R25 .        * ZDL/CN data presented on limestone scales.:   COMMENT 25
R26 .    * CNCF curve has no salinity correction applied.:   COMMENT 26
R27 . * Total borehole volume from TD to casing shoe = 12:   COMMENT 27
R29 .       Editing on WLC_PETROPHYSICAL_COMPOSITE_1.DLIS:   COMMENT 29
R30 .                                 EWL ZDL/CN, run 1.2:   COMMENT 30
DMF .                                                  KB:   DRILL MEAS FROM
EDF .M                                               42.1:   ELEV DRILL FLOOR
ELZ .M                                               42.1:   ELEVATION LOG ZERO
FHIS.                                            RAW-DLIS:   FULL HISTORY
EKB .M                                               42.1:   KB ELEVATION
LMF .                                                  KB:   LOGS MEAS FROM
EPD .M                                                  0:   ELEV PERM DATUM
EGL .M                                              -85.6:   GROUND LEVEL
~Curve Information Block
#MNEM.UNIT                                        API CODE    No Description
#=========                                        ========    == ===========
DEPT.M                                       00 001 00 00:     1  DEPTH
CALX.IN                                                  :     2  Caliper
CHT.LB                                                   :     3  Cable Tension
CN.%                                                     :     4  Neutron Porosity
CNCF.%                                                   :     5  Neutron Porosity
GR.GAPI                                                  :     6  Gamma Ray
PE.B/E                                                   :     7  Photoelectic Factor
PORZ.%                                                   :     8  Porosity
SPD.M/MN                                                 :     9  Cable Speed
TTEN.LB                                                  :    10  Cable Tension
WTBH.DEGC                                                :    11  Temperature
ZCOR.G/CC                                                :    12  Density Correction
ZDEN.G/CC                                                :    13  Bulk Density
ZDNC.G/CC                                                :    14  Bulk Density
~ASCII
# ...
 2904.8690  -999.2500  -999.2500    46.5531  -999.2500   101.7323  -999.2500  -999.2500  -999.2500  -999.2500   108.2503  -999.2500  -999.2500  -999.2500
 2904.9452  -999.2500  -999.2500    46.7450  -999.2500   101.8868  -999.2500  -999.2500  -999.2500  -999.2500   108.2123  -999.2500  -999.2500  -999.2500
 2905.0214  -999.2500  -999.2500    48.1133  -999.2500   100.9654  -999.2500  -999.2500  -999.2500  -999.2500   108.2045  -999.2500  -999.2500  -999.2500
 2905.0976  -999.2500  -999.2500    50.3023  -999.2500    99.3096  -999.2500  -999.2500  -999.2500  -999.2500   108.2243  -999.2500  -999.2500  -999.2500
 2905.1738  -999.2500  -999.2500    52.8363  -999.2500    97.3125  -999.2500  -999.2500  -999.2500  -999.2500   108.2469  -999.2500  -999.2500  -999.2500
 2905.2500  -999.2500  -999.2500    55.2731  -999.2500    95.1530  -999.2500  -999.2500  -999.2500  -999.2500   108.2417  -999.2500  -999.2500  -999.2500
 2905.3262  -999.2500  -999.2500    57.0929  -999.2500    92.8931  -999.2500  -999.2500  -999.2500  -999.2500   108.1904  -999.2500  -999.2500  -999.2500
 2905.4024  -999.2500  -999.2500    57.7926  -999.2500    90.6760  -999.2500  -999.2500  -999.2500  -999.2500   108.1008  -999.2500  -999.2500  -999.2500
 2905.4786  -999.2500  -999.2500    57.3583  -999.2500    88.8204  -999.2500  -999.2500  -999.2500  -999.2500   107.9924  -999.2500  -999.2500  -999.2500
 2905.5548  -999.2500  -999.2500    56.2520  -999.2500    87.6311  -999.2500  -999.2500  -999.2500  -999.2500   107.8904  -999.2500  -999.2500  -999.2500
 2905.6310  -999.2500  -999.2500    54.8875  -999.2500    87.3353  -999.2500  -999.2500  -999.2500  -999.2500   107.8163  -999.2500  -999.2500  -999.2500
 2905.7072  -999.2500  -999.2500    53.6100  -999.2500    88.0267  -999.2500  -999.2500  -999.2500  -999.2500   107.7873  -999.2500  -999.2500  -999.2500
 2905.7834     8.6635  -999.2500    52.6957  -999.2500    89.6126  -999.2500  -999.2500  -999.2500  -999.2500   107.7970  -999.2500  -999.2500  -999.2500
 2905.8596     8.6624  -999.2500    52.4786  -999.2500    91.9254  -999.2500  -999.2500  -999.2500  -999.2500   107.8181  -999.2500  -999.2500  -999.2500
 2905.9358     8.6638  -999.2500    53.3040  -999.2500    94.6499  -999.2500  -999.2500  -999.2500  -999.2500   107.8307  -999.2500  -999.2500  -999.2500
 2906.0120     8.6642  -999.2500    55.4486  -999.2500    97.3510  -999.2500  -999.2500  -999.2500  -999.2500   107.8360  -999.2500  -999.2500  -999.2500
 2906.0882     8.6620  -999.2500    58.7429  -999.2500    99.6325  -999.2500  -999.2500  -999.2500  -999.2500   107.8427  -999.2500  -999.2500  -999.2500
 2906.1644     8.6584  -999.2500    62.7558    53.7759   101.2299  -999.2500  -999.2500  -999.2500  -999.2500   107.8627  -999.2500  -999.2500  -999.2500
 2906.2406     8.6558  -999.2500    66.4240    55.3998   102.0284  -999.2500  -999.2500  -999.2500  -999.2500   107.8915  -999.2500  -999.2500  -999.2500
 2906.3168     8.6567  -999.2500    68.1544    56.1096   102.2633  -999.2500  -999.2500  -999.2500  -999.2500   107.9040  -999.2500  -999.2500  -999.2500
 2906.3930     8.6618  -999.2500    66.7458    55.5306   102.3812  -999.2500  -999.2500  -999.2500  -999.2500   107.8705  -999.2500  -999.2500  -999.2500
 2906.4692     8.6683  -999.2500    63.2856    54.0134   102.9647  -999.2500  -999.2500  -999.2500  -999.2500   107.7778  -999.2500  -999.2500  -999.2500
 2906.5454     8.6734  -999.2500    59.6642    52.2616   104.6015    10.3011  -999.2500  -999.2500  -999.2500   107.6476  -999.2500  -999.2500  -999.2500
 2906.6216     8.6758  -999.2500    57.1641    50.9431   107.6897    10.6396  -999.2500  -999.2500  -999.2500   107.5351  -999.2500  -999.2500  -999.2500
 2906.6978     8.6763  -999.2500    56.4452    50.5462   112.0109    11.0136  -999.2500  -999.2500  -999.2500   107.4951  -999.2500  -999.2500  -999.2500
 2906.7740     8.6777  -999.2500    57.5292    51.1398   116.8205    11.3242  -999.2500  -999.2500  -999.2500   107.5445  -999.2500  -999.2500  -999.2500
 2906.8502     8.6820  -999.2500    59.9925    52.4207   121.0001    11.5353  -999.2500  -999.2500  -999.2500   107.6660  -999.2500  -999.2500  -999.2500
 2906.9264     8.6895  -999.2500    63.1755    53.9477   123.4752    11.6771    33.6865  -999.2500  -999.2500   107.8219     -.8446     2.1340     2.1283
 2907.0026     8.6986  -999.2500    65.8791    55.1409   123.6872    11.8030    34.2307  -999.2500  -999.2500   107.9711     -.8486     2.1247     2.1190
 2907.0788     8.7069  -999.2500    66.4921    55.3953   121.9457    11.9512    34.9537  -999.2500  -999.2500   108.0842     -.8537     2.1123     2.1068
 2907.1550     8.7112  -999.2500    64.7770    54.6540   118.9491    12.1353    35.7071  -999.2500  -999.2500   108.1564     -.8591     2.0994     2.0940
 2907.2312     8.7094  -999.2500    61.9407    53.3545   115.5267    12.3496    36.3386  -999.2500  -999.2500   108.1888     -.8639     2.0886     2.0833
 2907.3074     8.7020  -999.2500    59.2332    52.0183   112.1394    12.5790    36.7715  -999.2500  -999.2500   108.1791     -.8676     2.0812     2.0760
 2907.3836     8.6913  -999.2500    57.2661    50.9856   108.8945    12.8084    37.0305  -999.2500  -999.2500   108.1341     -.8701     2.0768     2.0716
 2907.4598     8.6802  -999.2500    56.1008    50.3500   105.7116    13.0263    37.1997  -999.2500  -999.2500   108.0656     -.8713     2.0739     2.0688
 2907.5360     8.6707  -999.2500    55.1161    49.7962   102.6449    13.2221    37.3385  -999.2500  -999.2500   107.9859     -.8716     2.0715     2.0664
 2907.6122     8.6640  -999.2500    53.8056    49.0289    99.8500    13.3815    37.4185  -999.2500  -999.2500   107.9100     -.8705     2.0701     2.0651
 2907.6884     8.6608  -999.2500    52.1019    47.9810    97.5667    13.4830    37.3394  -999.2500  -999.2500   107.8495     -.8678     2.0715     2.0664
 2907.7646     8.6604  -999.2500    50.3346    46.8342    96.0293    13.4958    37.0234  -999.2500  -999.2500   107.8094     -.8631     2.0769     2.0718
 2907.8408     8.6605  -999.2500    49.0415    45.9558    95.2743    13.3842    36.5200  -999.2500  -999.2500   107.7942     -.8573     2.0855     2.0803
 2907.9170     8.6590  -999.2500    48.5844    45.6387    95.0490    13.1256    36.0288  -999.2500  -999.2500   107.8099     -.8516     2.0939     2.0886
 2907.9932     8.6556  -999.2500    49.0609    45.9743    95.0978    12.7316    35.7953  -999.2500  -999.2500   107.8562     -.8478     2.0979     2.0926
 2908.0694     8.6511  -999.2500    50.5162    46.9641    95.3549    12.2515    35.9403  -999.2500  -999.2500   107.9209     -.8466     2.0954     2.0901
 2908.1456     8.6473  -999.2500    52.9848    48.5450    96.0474    11.7556    36.3628  -999.2500  -999.2500   107.9869     -.8476     2.0882     2.0830
 2908.2218     8.6461  -999.2500    56.3661    50.5285    97.4013    11.3186    36.8065  -999.2500  -999.2500   108.0356     -.8495     2.0806     2.0754
 2908.2980     8.6481  -999.2500    60.5629    52.7319    99.3876    11.0094    37.0248  -999.2500  -999.2500   108.0487     -.8509     2.0769     2.0717
 2908.3742     8.6533  -999.2500    65.7089    55.0980   101.7863    10.8791    36.9116  -999.2500  -999.2500   108.0215     -.8509     2.0788     2.0737
 2908.4504     8.6609  -999.2500    71.2460    57.2971   104.3201    10.9424    36.5287  -999.2500  -999.2500   107.9564     -.8497     2.0854     2.0801
 2908.5266     8.6696  -999.2500    75.6303    58.8239   106.7796    11.1650    36.0446  -999.2500  -999.2500   107.8757     -.8478     2.0936     2.0883
 2908.6028     8.6786  -999.2500    77.7829    59.5116   108.9868    11.4677    35.6361  -999.2500  -999.2500   107.8179     -.8462     2.1006     2.0952
 2908.6790     8.6873  -999.2500    77.3854    59.3829   110.7323    11.7499    35.4017  -999.2500  -999.2500   107.8117     -.8455     2.1046     2.0992
 2908.7552     8.6938  -999.2500    75.1088    58.6392   111.8054    11.9204    35.3310  -999.2500  -999.2500   107.8562     -.8462     2.1058     2.1004
