~VERSION INFORMATION
VERS.                                                 2.0:   CWLS Log ASCII Standard-VERSION 2.0
WRAP.                                                  NO:   One line per depth step
~Well Information Block
STRT.M                                           475.1250:   Top Depth
STOP.M                                          3626.2500:   Bottom Depth
STEP.M                                             .12500:   Depth Increment
NULL.                                            -999.250:   Null Value
FLD .                                               SIGMA:   Field Name
WELL.                                             15/9-18:   NAME
WBN .                                             15/9-18:   WELLBORE
NATI.                                                 NOR:   COUNTRY
BHT1.DEGF                                           100.0:   BH TEMP 1
BHT2.DEGF                                           100.0:   BH TEMP 2
BHT3.DEGF                                           100.0:   BH TEMP 3
BS1 .IN                                            12.250:   BIT SIZE 1
CTRY.                                                 NOR:   COUNTRY
CBD1.M                                              181.0:   CSG 1 DRILL DEP
CBL1.M                                              181.0:   CSG 1 LOG DEP
CS1 .IN                                              30.0:   CSG 1 SIZE
COMP.                                             STATOIL:   OPERATOR
PDAT.                                                 MSL:   PERM DATUM
PROV.                                           NORTH SEA:   PROVINCE
COUN.                                      DEEPSEA BERGEN:   RIG NAME
SON .                                                1334:   SOURCE OPERATOR NAME
SPUD.                                          1983/12/16:   SPUD DATE
LATI.                                        58 21 1.95 N:   SURF. LATITUDE
LONG.                                        1 48 12.27 E:   SURF. LONGITUDE
BTD1.                                             521.0 M:   TOTAL DEPTH 1
BTD2.                                             521.0 M:   TOTAL DEPTH 2
BTD3.                                             521.0 M:   TOTAL DEPTH 3
PBWE.                                             15/9-18:   PB WELL ID
APIN.                                             15/9-18:   PB WELLBORE ID
PBWS.                                                 all:   PB WELL NAME SET
~PARAMETER INFORMATION (log)
LNAM.                              CDL/CNL/GR  COMPOSITED:   NAME
LTYP.                                         DEPTH MATCH:   LOG TYPE
LSRV.                                             CAL/BGT:   LOG SERVICE
LSOU.                                             SPT/NPD:   LOG SOURCE
LVSN.                                                   1:   LOG VERSION
BHIS.                                                   R:   BRIEF HISTORY
FHIS.                                             RAW-LIS:   FULL HISTORY
LCNM.                                                  DA:   LOGGING CONTRACTOR
TOOL.                             CDL/CNL/GR (COMPOSITED):   TOOL STRING
~Curve Information Block
#MNEM.UNIT                                        API CODE    No Description
#=========                                        ========    == ===========
DEPT.M                                       00 001 00 00:     1  DEPTH
CAL.IN                                                   :     2  Caliper
CN.%                                                     :     3  Neutron Porosity
CORR.G/CC                                                :     4  Density Correction
DEN.G/CC                                                 :     5  Bulk Density
GR.GAPI                                                  :     6  Gamma Ray
SPD.                                                     :     7  Cable Speed
TEN.LB                                                   :     8  Cable Tension
~ASCII
# ...
 2363.3750    14.1708    28.3460      .0986     2.3049    77.9095  -999.2500    11.8245
 2363.5000    14.2146    29.0979      .1218     2.3059    77.0646  -999.2500    11.9124
 2363.6250    14.2684    30.0007      .1391     2.3045    76.0186  -999.2500    12.0004
 2363.7500    14.3141    30.9207      .1516     2.3034    75.4348  -999.2500    12.0884
 2363.8750    14.3608    31.8951      .1605     2.3021    74.2796  -999.2500    12.1764
 2364.0000    14.4385    32.9461      .1661     2.2993    73.0116  -999.2500    12.2643
 2364.1250    14.5015    34.0311      .1680     2.2928    72.1755  -999.2500    12.3523
 2364.2500    14.5445    35.1145      .1687     2.2776    72.2195  -999.2500    12.4403
 2364.3750    14.5641    36.1978      .1698     2.2517    73.5334  -999.2500    12.5282
 2364.5000    14.5301    36.6886      .1710     2.2265    76.5172  -999.2500    12.6162
 2364.6250    14.4705    36.2652      .1708     2.2110    79.8326  -999.2500    12.7042
 2364.7500    14.4228    34.9691      .1668     2.2105    82.8366  -999.2500    12.7922
 2364.8750    14.3828    33.6347      .1551     2.2223    83.9813  -999.2500    12.8801
 2365.0000    14.3495    32.3018      .1424     2.2498    83.1756  -999.2500    12.9681
 2365.1250    14.3253    31.1011      .1329     2.2679    81.4965  -999.2500    13.0561
 2365.2500    14.3039    30.6251      .1311     2.2778    79.8157  -999.2500    13.1440
 2365.3750    14.2942    31.2448      .1402     2.2827    78.8286  -999.2500    13.2320
 2365.5000    14.3121    32.8892      .1566     2.2842    78.9230  -999.2500    13.3200
 2365.6250    14.3457    33.9435      .1689     2.2831    80.1859  -999.2500    13.4079
 2365.7500    14.3787    33.8905      .1757     2.2802    82.2996  -999.2500    13.4958
 2365.8750    14.3992    33.3479      .1778     2.2721    84.4349  -999.2500    13.5839
 2366.0000    14.4197    32.8129      .1774     2.2604    84.5544  -999.2500    13.6718
 2366.1250    14.4402    32.6286      .1777     2.2483    84.5097  -999.2500    13.7597
 2366.2500    14.4943    32.8076      .1825     2.2370    84.5862  -999.2500    13.8477
 2366.3750    14.5898    33.0777      .1903     2.2296    84.9819  -999.2500    13.9358
 2366.5000    14.7139    33.3531      .1975     2.2296    85.7013  -999.2500    14.0237
 2366.6250    14.8382    33.6285      .2003     2.2364    86.0950  -999.2500    14.1116
 2366.7500    14.9078    33.8933      .1957     2.2472    85.5220  -999.2500    14.1997
 2366.8750    14.8427    34.0898      .1793     2.2576    84.9892  -999.2500    14.2877
 2367.0000    14.7214    33.7220      .1591     2.2608    84.8953  -999.2500    14.3755
 2367.1250    14.6134    32.9134      .1458     2.2583    85.3308  -999.2500    14.4635
 2367.2500    14.5309    32.4860      .1424     2.2551    86.0700  -999.2500    14.5515
 2367.3750    14.4440    32.4413      .1484     2.2515    86.4809  -999.2500    14.6395
 2367.5000    14.4141    32.4219      .1607     2.2464    86.0563  -999.2500    14.7274
 2367.6250    14.4314    31.8248      .1615     2.2392    85.2366  -999.2500    14.8154
 2367.7500    14.4689    30.9858      .1405     2.2299    84.1993  -999.2500    14.9035
 2367.8750    14.4928    30.4488      .1045     2.2207    82.9605  -999.2500    14.9914
 2368.0000    14.4724    30.4061      .0681     2.2176    81.3825  -999.2500    15.0793
 2368.1250    14.4346    31.1159      .0474     2.2247    80.5720  -999.2500    15.1673
 2368.2500    14.4006    32.7403      .0533     2.2420    80.6551  -999.2500    15.2553
 2368.3750    14.3872    34.6156      .0810     2.2552    82.1043  -999.2500    15.3432
 2368.5000    14.4024    35.7955      .1105     2.2468    84.5092  -999.2500    15.4312
 2368.6250    14.4428    35.4980      .1306     2.2303    86.5199  -999.2500    15.5192
 2368.7500    14.4857    34.3232      .1376     2.2131    86.9677  -999.2500    15.6071
 2368.8750    14.5256    32.9509      .1346     2.2026    86.7708  -999.2500    15.6951
 2369.0000    14.5573    31.6027      .1272     2.2072    86.3267  -999.2500    15.7831
 2369.1250    14.5705    31.1985      .1275     2.2271    85.8095  -999.2500    15.8711
 2369.2500    14.5612    31.3658      .1325     2.2486    85.2926  -999.2500    15.9590
 2369.3750    14.5453    32.1906      .1382     2.2659    84.7756  -999.2500    16.0470
 2369.5000    14.5246    33.5942      .1402     2.2746    84.3204  -999.2500    16.1350
 2369.6250    14.5148    35.1799      .1349     2.2730    84.2234  -999.2500    16.2229
 2369.7500    14.5145    35.4815      .1279     2.2644    84.2277  -999.2500    16.3109
 2369.8750    14.5236    35.2078      .1273     2.2575    84.1512  -999.2500    16.3989
 2370.0000    14.5432    34.4974      .1331     2.2550    83.8751  -999.2500    16.4868
 2370.1250    14.5667    33.7322      .1414     2.2559    82.7836  -999.2500    16.5748
 2370.2500    14.5828    33.3152      .1463     2.2579    81.9113  -999.2500    16.6628
 2370.3750    14.5949    33.5899      .1449     2.2591    81.1485  -999.2500    16.7508
 2370.5000    14.6035    35.3286      .1459     2.2655    80.6490  -999.2500    16.8387
 2370.6250    14.6087    37.0567      .1541     2.2779    80.5984  -999.2500    16.9267
 2370.7500    14.6100    38.0229      .1692     2.2952    81.1110  -999.2500    17.0147
 2370.8750    14.6125    38.0490      .1891     2.3126    82.3754  -999.2500    17.1027
 2371.0000    14.6159    37.2497      .2111     2.3216    83.6771  -999.2500    17.1906
 2371.1250    14.6204    35.7427      .2185     2.3069    85.2310  -999.2500    17.2786
 2371.2500    14.6275    34.2379      .2189     2.2803    86.9922  -999.2500    17.3665
 2371.3750    14.6384    32.7537      .2138     2.2529    88.7162  -999.2500    17.4545
 2371.5000    14.6480    31.7724      .2038     2.2294    90.1344  -999.2500    17.5425
 2371.6250    14.6378    31.4613      .1895     2.2153    89.8931  -999.2500    17.6305
 2371.7500    14.6104    31.5897      .1720     2.2156    88.6705  -999.2500    17.7185
 2371.8750    14.5687    31.8639      .1526     2.2224    87.0646  -999.2500    17.8064
 2372.0000    14.5196    32.9867      .1381     2.2426    85.5392  -999.2500    17.8944
 2372.1250    14.4751    34.4687      .1332     2.2571    84.2828  -999.2500    17.9823
 2372.2500    14.4695    35.6747      .1384     2.2619    84.2746  -999.2500    18.0703
 2372.3750    14.4696    36.1408      .1480     2.2564    84.9678  -999.2500    18.1583
 2372.5000    14.4708    35.9572      .1593     2.2334    86.1121  -999.2500    18.2463
 2372.6250    14.4700    35.3670      .1636     2.2120    87.6036  -999.2500    18.3342
 2372.7500    14.4655    35.7818      .1641     2.1971    89.2966  -999.2500    18.4222
 2372.8750    14.4598    36.5966      .1634     2.1908    90.5153  -999.2500    18.5102
 2373.0000    14.4535    37.4453      .1629     2.1953    91.0765  -999.2500    18.5982
 2373.1250    14.4488    38.2110      .1629     2.2113    91.5207  -999.2500    18.6861
 2373.2500    14.4443    38.1485      .1609     2.2300    91.5048  -999.2500    18.7741
 2373.3750    14.4377    37.4132      .1569     2.2475    90.8022  -999.2500    18.8621
 2373.5000    14.4268    36.2937      .1539     2.2622    89.5116  -999.2500    18.9500
 2373.6250    14.4187    35.3552      .1549     2.2696    88.2133  -999.2500    19.0380
 2373.7500    14.4234    35.0637      .1610     2.2686    87.0799  -999.2500    19.1260
 2373.8750    14.4383    35.5233      .1703     2.2653    86.8393  -999.2500    19.2139
 2374.0000    14.4609    35.7382      .1792     2.2635    87.5490  -999.2500    19.3019
 2374.1250    14.4847    34.9032      .1850     2.2668    88.8458  -999.2500    19.3899
 2374.2500    14.4895    33.4841      .1888     2.2728    90.0135  -999.2500    19.4779
 2374.3750    14.4836    31.9821      .1916     2.2769    90.6497  -999.2500    19.5658
 2374.5000    14.4656    30.8262      .1891     2.2739    90.6454  -999.2500    19.6537
 2374.6250    14.4459    30.2287      .1805     2.2595    90.1217  -999.2500    19.7418
