~VERSION INFORMATION
VERS.                                                 2.0:   CWLS Log ASCII Standard-VERSION 2.0
WRAP.                                                  NO:   One line per depth step
~Well Information Block
STRT.M                                           475.1250:   Top Depth
STOP.M                                          3626.2500:   Bottom Depth
STEP.M                                             .12500:   Depth Increment
NULL.                                            -999.250:   Null Value
FLD .                                               SIGMA:   Field Name
WELL.                                             15/9-18:   NAME
WBN .                                             15/9-18:   WELLBORE
NATI.                                                 NOR:   COUNTRY
BHT1.DEGF                                           100.0:   BH TEMP 1
BHT2.DEGF                                           100.0:   BH TEMP 2
BHT3.DEGF                                           100.0:   BH TEMP 3
BS1 .IN                                            12.250:   BIT SIZE 1
CTRY.                                                 NOR:   COUNTRY
CBD1.M                                              181.0:   CSG 1 DRILL DEP
CBL1.M                                              181.0:   CSG 1 LOG DEP
CS1 .IN                                              30.0:   CSG 1 SIZE
COMP.                                             STATOIL:   OPERATOR
PDAT.                                                 MSL:   PERM DATUM
PROV.                                           NORTH SEA:   PROVINCE
COUN.                                      DEEPSEA BERGEN:   RIG NAME
SON .                                                1334:   SOURCE OPERATOR NAME
SPUD.                                          1983/12/16:   SPUD DATE
LATI.                                        58 21 1.95 N:   SURF. LATITUDE
LONG.                                        1 48 12.27 E:   SURF. LONGITUDE
BTD1.                                             521.0 M:   TOTAL DEPTH 1
BTD2.                                             521.0 M:   TOTAL DEPTH 2
BTD3.                                             521.0 M:   TOTAL DEPTH 3
PBWE.                                             15/9-18:   PB WELL ID
APIN.                                             15/9-18:   PB WELLBORE ID
PBWS.                                                 all:   PB WELL NAME SET
~PARAMETER INFORMATION (log)
LNAM.                              CDL/CNL/GR  COMPOSITED:   NAME
LTYP.                                         DEPTH MATCH:   LOG TYPE
LSRV.                                             CAL/BGT:   LOG SERVICE
LSOU.                                             SPT/NPD:   LOG SOURCE
LVSN.                                                   1:   LOG VERSION
BHIS.                                                   R:   BRIEF HISTORY
FHIS.                                             RAW-LIS:   FULL HISTORY
LCNM.                                                  DA:   LOGGING CONTRACTOR
TOOL.                             CDL/CNL/GR (COMPOSITED):   TOOL STRING
~Curve Information Block
#MNEM.UNIT                                        API CODE    No Description
#=========                                        ========    == ===========
DEPT.M                                       00 001 00 00:     1  DEPTH
CAL.IN                                                   :     2  Caliper
CN.%                                                     :     3  Neutron Porosity
CORR.G/CC                                                :     4  Density Correction
DEN.G/CC                                                 :     5  Bulk Density
GR.GAPI                                                  :     6  Gamma Ray
SPD.                                                     :     7  Cable Speed
TEN.LB                                                   :     8  Cable Tension
~ASCII
# ...
 2568.1250    11.9881    24.6640      .1291     2.4602    46.5291  -999.2500    34.4839
 2568.2500    11.9884    26.5481      .1215     2.4374    46.4075  -999.2500    35.4628
 2568.3750    11.9885    27.9941      .1180     2.4178    46.3082  -999.2500    36.4417
 2568.5000    11.9886    29.3168      .1144     2.4031    46.5116  -999.2500    37.4205
 2568.6250    11.9879    30.4325      .1065     2.3898    47.1014  -999.2500    38.3994
 2568.7500    11.9863    30.6106      .0962     2.3750    48.1146  -999.2500    39.3783
 2568.8750    11.9836    30.5725      .0854     2.3575    49.5745  -999.2500    40.3571
 2569.0000    11.9793    30.9156      .0770     2.3398    51.8521  -999.2500    41.3360
 2569.1250    11.9760    31.9180      .0741     2.3258    54.3575  -999.2500    42.3148
 2569.2500    11.9743    33.2115      .0823     2.3205    56.4376  -999.2500    43.2937
 2569.3750    11.9743    34.8556      .0938     2.3351    58.2656  -999.2500    44.2726
 2569.5000    11.9759    36.1222      .1072     2.3495    60.7508  -999.2500    45.2514
 2569.6250    11.9798    36.5287      .1186     2.3571    66.2005  -999.2500    46.2303
 2569.7500    11.9828    35.8688      .1237     2.3545    70.4196  -999.2500    47.2091
 2569.8750    11.9861    34.3002      .1215     2.3424    74.1147  -999.2500    48.1878
 2570.0000    11.9971    32.8816      .1176     2.3280    76.4510  -999.2500    49.1643
 2570.1250    12.0177    32.0901      .1164     2.3107    76.6459  -999.2500    49.8377
 2570.2500    12.0432    32.4952      .1186     2.3047    74.3626  -999.2500    49.9367
 2570.3750    12.0684    33.6273      .1241     2.3109    71.8788  -999.2500    49.6949
 2570.5000    12.0999    34.7119      .1312     2.3249    70.6907  -999.2500    49.3730
 2570.6250    12.1235    34.9307      .1391     2.3390    72.1470  -999.2500    49.0511
 2570.7500    12.1466    34.0305      .1457     2.3505    75.2887  -999.2500    48.7291
 2570.8750    12.1836    33.4889      .1510     2.3577    78.5291  -999.2500    48.4072
 2571.0000    12.2463    34.2542      .1546     2.3565    81.0126  -999.2500    48.0853
 2571.1250    12.2945    36.1711      .1564     2.3430    83.2132  -999.2500    47.7634
 2571.2500    12.3110    38.2843      .1580     2.3179    85.3233  -999.2500    47.4416
 2571.3750    12.3124    38.9691      .1613     2.3022    87.9454  -999.2500    47.1196
 2571.5000    12.3096    37.7619      .1650     2.2928    91.5938  -999.2500    46.7976
 2571.6250    12.3034    35.4645      .1672     2.2895    96.1290  -999.2500    46.4756
 2571.7500    12.2752    33.6302      .1682     2.2893    96.2061  -999.2500    46.1537
 2571.8750    12.2166    33.0785      .1708     2.2895    95.2598  -999.2500    45.8318
 2572.0000    12.0969    33.4033      .1830     2.2896    93.2439  -999.2500    45.5098
 2572.1250    11.9865    34.9358      .1958     2.2932    90.9827  -999.2500    45.1879
 2572.2500    11.9414    35.2240      .2018     2.2967    89.0510  -999.2500    44.8660
 2572.3750    11.9263    34.6293      .1982     2.2990    86.9375  -999.2500    44.5440
 2572.5000    11.9376    32.8928      .1844     2.2991    83.9095  -999.2500    44.2221
 2572.6250    11.9490    30.0216      .1618     2.2955    81.1218  -999.2500    43.9002
 2572.7500    11.9572    27.7823      .1456     2.2864    78.8168  -999.2500    43.5782
 2572.8750    11.9615    26.7178      .1317     2.2798    76.3543  -999.2500    43.2563
 2573.0000    11.9630    26.6192      .1184     2.2754    72.4555  -999.2500    42.9344
 2573.1250    11.9629    27.2749      .1074     2.2716    65.1813  -999.2500    42.6125
 2573.2500    11.9629    28.2225      .1012     2.2672    59.9691  -999.2500    42.2905
 2573.3750    11.9633    28.8202      .1004     2.2619    55.3623  -999.2500    41.9686
 2573.5000    11.9660    28.7645      .1074     2.2577    52.7492  -999.2500    41.6467
 2573.6250    11.9722    28.6834      .1174     2.2640    52.8168  -999.2500    41.3247
 2573.7500    11.9804    29.0055      .1262     2.2739    54.2298  -999.2500    41.0028
 2573.8750    11.9921    29.6843      .1311     2.2846    56.4756  -999.2500    40.6809
 2574.0000    12.0122    30.5052      .1323     2.2947    62.2762  -999.2500    40.3589
 2574.1250    12.0305    31.2690      .1299     2.3021    69.1478  -999.2500    40.0370
 2574.2500    12.0451    31.0435      .1268     2.3051    76.2262  -999.2500    39.7151
 2574.3750    12.0597    30.4682      .1229     2.3073    83.5348  -999.2500    39.3931
 2574.5000    12.0788    28.8200      .1180     2.3075    90.8435  -999.2500    39.0711
 2574.6250    12.0957    26.4773      .1125     2.3053    92.0265  -999.2500    38.7492
 2574.7500    12.1058    24.6730      .1093     2.3013    89.8580  -999.2500    38.4274
 2574.8750    12.1111    23.7754      .1053     2.2936    85.2682  -999.2500    38.1054
 2575.0000    12.1148    23.4143      .0986     2.2858    77.9707  -999.2500    37.7835
 2575.1250    12.1194    23.4266      .0920     2.2780    66.8511  -999.2500    37.4616
 2575.2500    12.1228    23.5775      .0883     2.2727    62.3137  -999.2500    37.1396
 2575.3750    12.1256    23.6836      .0888     2.2712    59.5118  -999.2500    36.8177
 2575.5000    12.1262    23.7259      .0940     2.2715    58.4984  -999.2500    36.4958
 2575.6250    12.1246    23.9031      .0987     2.2772    58.6183  -999.2500    36.1738
 2575.7500    12.1217    24.1572      .1005     2.2855    58.9272  -999.2500    35.8519
 2575.8750    12.1188    24.5200      .1010     2.2946    58.6340  -999.2500    35.5300
 2576.0000    12.1025    25.3661      .1031     2.3064    57.3869  -999.2500    35.2080
 2576.1250    12.0742    27.0267      .1100     2.3240    56.8619  -999.2500    34.8861
 2576.2500    12.0378    28.4467      .1174     2.3427    57.4884  -999.2500    34.5642
 2576.3750    12.0024    29.5375      .1185     2.3530    59.6937  -999.2500    34.2422
 2576.5000    11.9806    30.0456      .1061     2.3578    63.8530  -999.2500    33.9203
 2576.6250    11.9891    30.0613      .0840     2.3442    69.0495  -999.2500    33.5984
 2576.7500    12.0041    29.8267      .0654     2.3127    74.2320  -999.2500    33.2765
 2576.8750    12.0063    29.6734      .0604     2.2874    78.0021  -999.2500    32.9545
 2577.0000    11.9726    29.6390      .0696     2.2748    78.4402  -999.2500    32.6326
 2577.1250    11.9043    29.3046      .0810     2.2762    75.0128  -999.2500    32.3107
 2577.2500    11.8625    28.6145      .0889     2.2816    70.7242  -999.2500    31.9887
 2577.3750    11.8341    27.7349      .0916     2.2858    66.1031  -999.2500    31.6668
 2577.5000    11.8097    26.9609      .0927     2.2865    60.2076  -999.2500    31.3449
 2577.6250    11.7963    26.6798      .0979     2.2812    55.8521  -999.2500    31.0229
 2577.7500    11.7923    27.1801      .1070     2.2745    53.6906  -999.2500    30.7010
 2577.8750    11.7893    27.9022      .1187     2.2696    52.5373  -999.2500    30.3791
 2578.0000    11.7870    28.7211      .1309     2.2660    52.2025  -999.2500    30.0571
 2578.1250    11.7873    29.4042      .1410     2.2627    52.5233  -999.2500    29.7352
 2578.2500    11.7893    29.5946      .1413     2.2599    52.9698  -999.2500    29.4133
 2578.3750    11.7928    29.5931      .1372     2.2614    53.0623  -999.2500    29.0914
 2578.5000    11.7970    29.3312      .1301     2.2652    52.4227  -999.2500    28.7694
 2578.6250    11.8011    28.9951      .1227     2.2695    50.8711  -999.2500    28.4475
 2578.7500    11.8034    28.7781      .1169     2.2726    47.5742  -999.2500    28.1256
 2578.8750    11.8069    28.8201      .1112     2.2731    45.1917  -999.2500    27.8036
 2579.0000    11.8140    29.1126      .1003     2.2695    43.2638  -999.2500    27.4817
 2579.1250    11.8209    29.7405      .0888     2.2661    41.9138  -999.2500    27.1598
 2579.2500    11.8218    30.1773      .0810     2.2631    41.4910  -999.2500    26.8378
 2579.3750    11.8184    30.5444      .0815     2.2656    41.5691  -999.2500    26.5159
