~VERSION INFORMATION
VERS.                                                 2.0:   CWLS Log ASCII Standard-VERSION 2.0
WRAP.                                                  NO:   One line per depth step
~Well Information Block
STRT.M                                           475.1250:   Top Depth
STOP.M                                          3626.2500:   Bottom Depth
STEP.M                                             .12500:   Depth Increment
NULL.                                            -999.250:   Null Value
FLD .                                               SIGMA:   Field Name
WELL.                                             15/9-18:   NAME
WBN .                                             15/9-18:   WELLBORE
NATI.                                                 NOR:   COUNTRY
BHT1.DEGF                                           100.0:   BH TEMP 1
BHT2.DEGF                                           100.0:   BH TEMP 2
BHT3.DEGF                                           100.0:   BH TEMP 3
BS1 .IN                                            12.250:   BIT SIZE 1
CTRY.                                                 NOR:   COUNTRY
CBD1.M                                              181.0:   CSG 1 DRILL DEP
CBL1.M                                              181.0:   CSG 1 LOG DEP
CS1 .IN                                              30.0:   CSG 1 SIZE
COMP.                                             STATOIL:   OPERATOR
PDAT.                                                 MSL:   PERM DATUM
PROV.                                           NORTH SEA:   PROVINCE
COUN.                                      DEEPSEA BERGEN:   RIG NAME
SON .                                                1334:   SOURCE OPERATOR NAME
SPUD.                                          1983/12/16:   SPUD DATE
LATI.                                        58 21 1.95 N:   SURF. LATITUDE
LONG.                                        1 48 12.27 E:   SURF. LONGITUDE
BTD1.                                             521.0 M:   TOTAL DEPTH 1
BTD2.                                             521.0 M:   TOTAL DEPTH 2
BTD3.                                             521.0 M:   TOTAL DEPTH 3
PBWE.                                             15/9-18:   PB WELL ID
APIN.                                             15/9-18:   PB WELLBORE ID
PBWS.                                                 all:   PB WELL NAME SET
~PARAMETER INFORMATION (log)
LNAM.                              CDL/CNL/GR  COMPOSITED:   NAME
LTYP.                                         DEPTH MATCH:   LOG TYPE
LSRV.                                             CAL/BGT:   LOG SERVICE
LSOU.                                             SPT/NPD:   LOG SOURCE
LVSN.                                                   1:   LOG VERSION
BHIS.                                                   R:   BRIEF HISTORY
FHIS.                                             RAW-LIS:   FULL HISTORY
LCNM.                                                  DA:   LOGGING CONTRACTOR
TOOL.                             CDL/CNL/GR (COMPOSITED):   TOOL STRING
~Curve Information Block
#MNEM.UNIT                                        API CODE    No Description
#=========                                        ========    == ===========
DEPT.M                                       00 001 00 00:     1  DEPTH
CAL.IN                                                   :     2  Caliper
CN.%                                                     :     3  Neutron Porosity
CORR.G/CC                                                :     4  Density Correction
DEN.G/CC                                                 :     5  Bulk Density
GR.GAPI                                                  :     6  Gamma Ray
SPD.                                                     :     7  Cable Speed
TEN.LB                                                   :     8  Cable Tension
~ASCII
# ...
 1316.8750    14.1322    41.2348      .0620     1.9221    88.9039  -999.2500    11.7754
 1317.0000    14.3514    40.8054      .0560     1.9048    87.2805  -999.2500    11.4307
 1317.1250    14.7008    40.3759      .0488     1.8891    86.8078  -999.2500    11.0862
 1317.2500    15.1031    39.9769      .0451     1.8783    87.6816  -999.2500    10.7417
 1317.3750    15.4921    39.8404      .0458     1.8829    89.6902  -999.2500    10.3970
 1317.5000    15.7479    40.0869      .0497     1.8974    94.7302  -999.2500    10.0524
 1317.6250    15.7974    40.7303      .0538     1.9149    97.6912  -999.2500     9.7079
 1317.7500    15.7320    41.6682      .0537     1.9303    99.8206  -999.2500     9.3632
 1317.8750    15.5368    42.6060      .0498     1.9375   101.1975  -999.2500     9.0187
 1318.0000    15.2245    43.2659      .0449     1.9325   101.6369  -999.2500     8.6742
 1318.1250    14.8893    43.7809      .0400     1.9220   100.9122  -999.2500     8.3295
 1318.2500    14.5476    44.0851      .0354     1.9063    99.7273  -999.2500     7.9849
 1318.3750    14.1248    44.0702      .0319     1.8876    98.1684  -999.2500     7.6404
 1318.5000    13.7450    43.6886      .0351     1.8821    96.9526  -999.2500     7.2959
 1318.6250    13.4698    43.1884      .0430     1.8874    96.4257  -999.2500     6.9512
 1318.7500    13.3057    42.4537      .0558     1.9018    96.6390  -999.2500     6.6066
 1318.8750    13.2079    41.8745      .0684     1.9242    97.5301  -999.2500     6.2621
 1319.0000    13.1831    41.7906      .0739     1.9445    99.9165  -999.2500     5.9176
 1319.1250    13.1889    42.3467      .0691     1.9470   101.8070  -999.2500     5.5728
 1319.2500    13.2303    42.8169      .0576     1.9362   103.3388  -999.2500     5.2284
 1319.3750    13.3031    41.8854      .0474     1.9108   104.9687  -999.2500     4.8838
 1319.5000    13.3809    40.5020      .0420     1.8945   107.0454  -999.2500     4.5392
 1319.6250    13.4291    39.2221      .0427     1.8887   107.8141  -999.2500     4.1946
 1319.7500    13.4441    38.5513      .0483     1.8924   107.9770  -999.2500     3.8501
 1319.8750    13.4212    39.0917      .0567     1.9131   107.1566  -999.2500     3.5053
 1320.0000    13.3802    40.1821      .0629     1.9319   105.5678  -999.2500     3.1608
 1320.1250    13.3456    40.7105      .0681     1.9496   103.7406  -999.2500     2.8163
 1320.2500    13.3163    41.1409      .0729     1.9630   102.2717  -999.2500     2.4718
 1320.3750    13.2728    42.3554      .0769     1.9689   100.9505  -999.2500     2.1271
 1320.5000    13.2368    45.0691      .0780     1.9660    99.4376  -999.2500     1.7926
 1320.6250    13.2024    47.5180      .0763     1.9589    97.9935  -999.2500     1.5518
 1320.7500    13.1864    48.8373      .0712     1.9506    96.6692  -999.2500     1.4607
 1320.8750    13.2267    47.7835      .0645     1.9426    95.1370  -999.2500     1.3968
 1321.0000    13.2857    45.4153      .0584     1.9371    91.7425  -999.2500     1.3362
 1321.1250    13.3573    43.0836      .0553     1.9356    89.1604  -999.2500     1.2755
 1321.2500    13.4293    41.6427      .0569     1.9368    87.9109  -999.2500     1.2149
 1321.3750    13.4744    41.7957      .0625     1.9473    88.0067  -999.2500     1.1542
 1321.5000    13.4711    42.5275      .0679     1.9560    89.2580  -999.2500     1.0936
 1321.6250    13.4243    43.2197      .0704     1.9627    91.5808  -999.2500     1.0330
 1321.7500    13.3779    43.3129      .0685     1.9647    93.9036  -999.2500      .9723
 1321.8750    13.3610    42.4666      .0602     1.9587    95.4048  -999.2500      .9117
 1322.0000    13.3688    40.9611      .0496     1.9451    95.9442  -999.2500      .8511
 1322.1250    13.3892    40.1505      .0394     1.9265    95.6461  -999.2500      .7904
 1322.2500    13.4093    39.7569      .0323     1.9063    94.8413  -999.2500      .7298
 1322.3750    13.4476    39.8636      .0303     1.8896    94.0217  -999.2500      .6692
 1322.5000    13.4858    40.2012      .0341     1.8823    93.0056  -999.2500      .6085
 1322.6250    13.5241    40.0343      .0416     1.8901    91.9499  -999.2500      .5479
 1322.7500    13.5623    39.3111      .0498     1.9051    90.9146  -999.2500      .4873
 1322.8750    13.6006    38.2443      .0548     1.9199    90.0954  -999.2500      .4266
 1323.0000    13.6388    37.6867      .0558     1.9242    90.0090  -999.2500      .3660
 1323.1250    13.6702    37.8798      .0532     1.9188    90.2766  -999.2500      .3053
 1323.2500    13.6702    38.7130      .0487     1.9073    90.3199  -999.2500      .2447
 1323.3750    13.6603    39.9002      .0443     1.8857    89.9459  -999.2500      .1840
 1323.5000    13.6505    40.8964      .0433     1.8772    89.2822  -999.2500      .1234
 1323.6250    13.6447    41.4576      .0461     1.8752    88.7031  -999.2500      .0628
 1323.7500    13.6713    41.9281      .0543     1.8800    88.8289  -999.2500      .0022
 1323.8750    13.7146    42.4260      .0689     1.8919    89.9266  -999.2500     -.0585
 1324.0000    13.7698    42.7534      .0808     1.9104    91.4486  -999.2500     -.1191
 1324.1250    13.8362    42.5593      .0864     1.9276    92.7096  -999.2500     -.1798
 1324.2500    13.9103    42.6445      .0833     1.9398    93.3261  -999.2500     -.2404
 1324.3750    13.9845    43.6160      .0750     1.9459    93.4777  -999.2500     -.3010
 1324.5000    14.0585    44.8079      .0663     1.9479    93.2359  -999.2500     -.3617
 1324.6250    14.1326    45.4721      .0608     1.9495    93.1551  -999.2500     -.4223
 1324.7500    14.1756    45.7619      .0605     1.9545    93.0929  -999.2500     -.4829
 1324.8750    14.2000    45.6249      .0627     1.9701    92.7450  -999.2500     -.5436
 1325.0000    14.2310    45.5801      .0649     1.9777    91.9453  -999.2500     -.6042
 1325.1250    14.2450    45.5024      .0655     1.9778    91.4435  -999.2500     -.6648
 1325.2500    14.2620    44.9448      .0633     1.9667    91.5810  -999.2500     -.7255
 1325.3750    14.2930    43.3110      .0573     1.9400    92.5721  -999.2500     -.7861
 1325.5000    14.3236    40.3841      .0512     1.9194    93.8808  -999.2500     -.8468
 1325.6250    14.3464    38.8482      .0458     1.9041    94.9750  -999.2500     -.9074
 1325.7500    14.3675    38.1646      .0427     1.8945    95.5634  -999.2500     -.9680
 1325.8750    14.3936    38.9440      .0424     1.8904    96.5457  -999.2500    -1.0287
 1326.0000    14.4074    41.2087      .0437     1.8902    98.7575  -999.2500    -1.0893
 1326.1250    14.4162    43.4058      .0438     1.8903   100.6138  -999.2500    -1.1499
 1326.2500    14.4246    45.0141      .0430     1.8898   102.0127  -999.2500    -1.2106
 1326.3750    14.4346    45.4652      .0442     1.8963   103.6736  -999.2500    -1.2712
 1326.5000    14.4448    44.6840      .0492     1.9096   106.9852  -999.2500    -1.3318
 1326.6250    14.4519    42.8869      .0584     1.9280   109.5208  -999.2500    -1.3925
 1326.7500    14.4600    40.6229      .0692     1.9494   111.6798  -999.2500    -1.4531
 1326.8750    14.4684    39.3477      .0752     1.9737   112.7867  -999.2500    -1.5138
 1327.0000    14.4756    39.2352      .0753     1.9765   112.5978  -999.2500    -1.5744
 1327.1250    14.4796    39.9642      .0727     1.9744   111.4724  -999.2500    -1.6350
 1327.2500    14.4838    40.9807      .0696     1.9698   110.5078  -999.2500    -1.6957
 1327.3750    14.5128    41.6675      .0665     1.9629   109.7256  -999.2500    -1.7563
 1327.5000    14.5511    41.4808      .0638     1.9538   108.5930  -999.2500    -1.8170
 1327.6250    14.5934    40.9759      .0605     1.9418   106.9077  -999.2500    -1.8776
 1327.7500    14.6352    40.3232      .0565     1.9296   104.4592  -999.2500    -1.9382
 1327.8750    14.6674    38.7822      .0530     1.9232   100.7227  -999.2500    -1.9988
 1328.0000    14.6646    37.1799      .0508     1.9237    96.6171  -999.2500    -2.0595
 1328.1250    14.6473    36.7672      .0496     1.9291    94.6940  -999.2500    -2.1201
