~VERSION INFORMATION
VERS.                                                 2.0:   CWLS Log ASCII Standard-VERSION 2.0
WRAP.                                                  NO:   One line per depth step
~Well Information Block
STRT.M                                           475.1250:   Top Depth
STOP.M                                          3626.2500:   Bottom Depth
STEP.M                                             .12500:   Depth Increment
NULL.                                            -999.250:   Null Value
FLD .                                               SIGMA:   Field Name
WELL.                                             15/9-18:   NAME
WBN .                                             15/9-18:   WELLBORE
NATI.                                                 NOR:   COUNTRY
BHT1.DEGF                                           100.0:   BH TEMP 1
BHT2.DEGF                                           100.0:   BH TEMP 2
BHT3.DEGF                                           100.0:   BH TEMP 3
BS1 .IN                                            12.250:   BIT SIZE 1
CTRY.                                                 NOR:   COUNTRY
CBD1.M                                              181.0:   CSG 1 DRILL DEP
CBL1.M                                              181.0:   CSG 1 LOG DEP
CS1 .IN                                              30.0:   CSG 1 SIZE
COMP.                                             STATOIL:   OPERATOR
PDAT.                                                 MSL:   PERM DATUM
PROV.                                           NORTH SEA:   PROVINCE
COUN.                                      DEEPSEA BERGEN:   RIG NAME
SON .                                                1334:   SOURCE OPERATOR NAME
SPUD.                                          1983/12/16:   SPUD DATE
LATI.                                        58 21 1.95 N:   SURF. LATITUDE
LONG.                                        1 48 12.27 E:   SURF. LONGITUDE
BTD1.                                             521.0 M:   TOTAL DEPTH 1
BTD2.                                             521.0 M:   TOTAL DEPTH 2
BTD3.                                             521.0 M:   TOTAL DEPTH 3
PBWE.                                             15/9-18:   PB WELL ID
APIN.                                             15/9-18:   PB WELLBORE ID
PBWS.                                                 all:   PB WELL NAME SET
~PARAMETER INFORMATION (log)
LNAM.                              CDL/CNL/GR  COMPOSITED:   NAME
LTYP.                                         DEPTH MATCH:   LOG TYPE
LSRV.                                             CAL/BGT:   LOG SERVICE
LSOU.                                             SPT/NPD:   LOG SOURCE
LVSN.                                                   1:   LOG VERSION
BHIS.                                                   R:   BRIEF HISTORY
FHIS.                                             RAW-LIS:   FULL HISTORY
LCNM.                                                  DA:   LOGGING CONTRACTOR
TOOL.                             CDL/CNL/GR (COMPOSITED):   TOOL STRING
~Curve Information Block
#MNEM.UNIT                                        API CODE    No Description
#=========                                        ========    == ===========
DEPT.M                                       00 001 00 00:     1  DEPTH
CAL.IN                                                   :     2  Caliper
CN.%                                                     :     3  Neutron Porosity
CORR.G/CC                                                :     4  Density Correction
DEN.G/CC                                                 :     5  Bulk Density
GR.GAPI                                                  :     6  Gamma Ray
SPD.                                                     :     7  Cable Speed
TEN.LB                                                   :     8  Cable Tension
~ASCII
# ...
 1533.0000    14.0645    42.9149      .1189     2.0707   105.3302  -999.2500     1.8668
 1533.1250    14.2480    42.5772      .1167     2.0811   105.5753  -999.2500     2.0551
 1533.2500    14.4004    41.3198      .1131     2.0831   105.3315  -999.2500     2.2434
 1533.3750    14.4887    40.5750      .1091     2.0810   105.0220  -999.2500     2.4318
 1533.5000    14.4924    41.4671      .1085     2.0810   104.8457  -999.2500     2.6201
 1533.6250    14.4102    43.3587      .1121     2.0844   104.7213  -999.2500     2.8084
 1533.7500    14.3514    45.4325      .1194     2.0890   104.4562  -999.2500     2.9968
 1533.8750    14.3420    47.0029      .1282     2.0922   104.0654  -999.2500     3.1851
 1534.0000    14.3878    47.7869      .1343     2.0912   103.3244  -999.2500     3.3734
 1534.1250    14.4281    47.6105      .1355     2.0864   102.4815  -999.2500     3.5536
 1534.2500    14.4070    47.0718      .1344     2.0831   101.8514  -999.2500     3.6722
 1534.3750    14.3501    46.3409      .1328     2.0829   101.4354  -999.2500     3.7451
 1534.5000    14.2502    45.2355      .1320     2.0845   101.7254  -999.2500     3.7955
 1534.6250    14.1893    43.7343      .1309     2.0847   102.1438  -999.2500     3.8454
 1534.7500    14.1697    43.6216      .1273     2.0793   102.3838  -999.2500     3.8954
 1534.8750    14.1846    44.2304      .1215     2.0686   102.4104  -999.2500     3.9454
 1535.0000    14.2246    44.8113      .1128     2.0525   102.4238  -999.2500     3.9954
 1535.1250    14.2825    44.7849      .1037     2.0409   102.6064  -999.2500     4.0454
 1535.2500    14.3160    44.0732      .0988     2.0382   102.9968  -999.2500     4.0953
 1535.3750    14.3251    43.2620      .0966     2.0396   103.4230  -999.2500     4.1453
 1535.5000    14.3103    43.4061      .0960     2.0514   103.8492  -999.2500     4.1953
 1535.6250    14.2810    44.6075      .0969     2.0595   104.2753  -999.2500     4.2453
 1535.7500    14.2638    45.7231      .0988     2.0657   104.7015  -999.2500     4.2953
 1535.8750    14.2565    46.2234      .1015     2.0727   104.7985  -999.2500     4.3452
 1536.0000    14.2538    45.8455      .1059     2.0825   104.4064  -999.2500     4.3952
 1536.1250    14.2529    44.1263      .1131     2.0931   103.8284  -999.2500     4.4452
 1536.2500    14.2532    42.6533      .1202     2.1036   103.2229  -999.2500     4.4952
 1536.3750    14.2559    41.3086      .1268     2.1137   102.6638  -999.2500     4.5452
 1536.5000    14.2683    40.0461      .1324     2.1222   102.5238  -999.2500     4.5951
 1536.6250    14.2846    39.1284      .1362     2.1276   102.7188  -999.2500     4.6451
 1536.7500    14.2991    39.0695      .1370     2.1290   103.2504  -999.2500     4.6951
 1536.8750    14.3086    39.6932      .1370     2.1285   104.1043  -999.2500     4.7451
 1537.0000    14.3105    41.9767      .1363     2.1216   105.1772  -999.2500     4.7951
 1537.1250    14.3029    44.4418      .1347     2.1141   106.2502  -999.2500     4.8450
 1537.2500    14.2950    46.3524      .1324     2.1083   107.3231  -999.2500     4.8950
 1537.3750    14.2909    47.1944      .1301     2.1069   108.3792  -999.2500     4.9450
 1537.5000    14.2967    46.3323      .1316     2.1171   108.7511  -999.2500     4.9950
 1537.6250    14.3095    43.8319      .1363     2.1315   108.1742  -999.2500     5.0450
 1537.7500    14.3228    42.5578      .1417     2.1410   106.6605  -999.2500     5.0949
 1537.8750    14.3343    42.2391      .1451     2.1417   104.2290  -999.2500     5.1449
 1538.0000    14.3549    42.8316      .1443     2.1339   101.7958  -999.2500     5.1949
 1538.1250    14.3745    44.4675      .1392     2.1221   100.3481  -999.2500     5.2449
 1538.2500    14.3958    45.8250      .1337     2.1127    99.3451  -999.2500     5.2949
 1538.3750    14.4232    47.0171      .1289     2.1049    98.6785  -999.2500     5.3448
 1538.5000    14.4601    47.7079      .1243     2.0959    99.0345  -999.2500     5.3948
 1538.6250    14.4868    47.4813      .1196     2.0867   100.0329  -999.2500     5.4448
 1538.7500    14.4878    46.1348      .1156     2.0787   101.0464  -999.2500     5.4948
 1538.8750    14.4624    43.9029      .1129     2.0724   101.6296  -999.2500     5.5448
 1539.0000    14.3971    41.8892      .1136     2.0766   101.3850  -999.2500     5.5947
 1539.1250    14.2936    40.7793      .1178     2.0859   100.2039  -999.2500     5.6447
 1539.2500    14.2210    40.1686      .1243     2.0969    98.7491  -999.2500     5.6947
 1539.3750    14.1570    39.4891      .1312     2.1076    98.7546  -999.2500     5.7447
 1539.5000    14.1012    38.1969      .1373     2.1172    99.5000  -999.2500     5.7947
 1539.6250    14.0824    36.1779      .1417     2.1225   100.6109  -999.2500     5.8446
 1539.7500    14.1068    35.5964      .1460     2.1281   101.7718  -999.2500     5.8946
 1539.8750    14.1571    35.9675      .1505     2.1320   102.7103  -999.2500     5.9446
 1540.0000    14.2610    38.0100      .1537     2.1312   102.7253  -999.2500     5.9946
 1540.1250    14.3352    41.3546      .1528     2.1244   101.9521  -999.2500     6.0446
 1540.2500    14.3809    43.7569      .1445     2.1146   101.0283  -999.2500     6.0945
 1540.3750    14.4106    45.3178      .1339     2.1066   100.0229  -999.2500     6.1445
 1540.5000    14.4370    46.1041      .1243     2.1025    98.9835  -999.2500     6.1945
 1540.6250    14.4631    46.2847      .1191     2.1020    98.3364  -999.2500     6.2445
 1540.7500    14.4801    46.2991      .1201     2.1037    98.9460  -999.2500     6.2945
 1540.8750    14.4954    46.5447      .1256     2.1061    99.8363  -999.2500     6.3444
 1541.0000    14.5105    46.6934      .1327     2.1107   101.3584  -999.2500     6.3944
 1541.1250    14.5211    45.5621      .1347     2.1101   103.6472  -999.2500     6.4444
 1541.2500    14.5195    43.6573      .1331     2.1065   106.5441  -999.2500     6.4944
 1541.3750    14.5100    41.6590      .1291     2.1003   109.4409  -999.2500     6.5444
 1541.5000    14.4840    40.2165      .1243     2.0938   111.1452  -999.2500     6.5943
 1541.6250    14.4681    39.8070      .1217     2.0911   111.4691  -999.2500     6.6443
 1541.7500    14.4710    40.5110      .1222     2.0926   110.6810  -999.2500     6.6943
 1541.8750    14.5020    40.8715      .1229     2.0953   109.2763  -999.2500     6.7443
 1542.0000    14.5793    39.8831      .1222     2.0985   107.8707  -999.2500     6.7943
 1542.1250    14.6923    38.3354      .1190     2.1020   106.6312  -999.2500     6.8442
 1542.2500    14.7873    37.3385      .1126     2.1077   106.2073  -999.2500     6.8942
 1542.3750    14.8672    36.7471      .0984     2.1238   106.2586  -999.2500     6.9442
 1542.5000    14.9182    35.2446      .0753     2.1464   106.0254  -999.2500     6.9942
 1542.6250    14.9181    33.4197      .0579     2.1693   104.6225  -999.2500     7.0442
 1542.7500    14.8550    31.9305      .0535     2.1923   101.5233  -999.2500     7.0941
 1542.8750    14.7749    31.4226      .0636     2.2120    95.7807  -999.2500     7.1441
 1543.0000    14.7141    32.4480      .0915     2.2215    86.9942  -999.2500     7.1941
 1543.1250    14.7300    35.5847      .1179     2.2025    80.0719  -999.2500     7.2441
 1543.2500    14.8404    38.2150      .1336     2.1798    78.1232  -999.2500     7.2941
 1543.3750    14.9992    40.3263      .1386     2.1565    80.0578  -999.2500     7.3440
 1543.5000    15.1677    42.1735      .1357     2.1386    88.7514  -999.2500     7.3940
 1543.6250    15.1759    43.7884      .1297     2.1292    97.1945  -999.2500     7.4440
 1543.7500    15.0598    44.4676      .1255     2.1219   103.2593  -999.2500     7.4940
 1543.8750    14.8643    45.0398      .1226     2.1146   106.8100  -999.2500     7.5440
 1544.0000    14.6458    45.2509      .1215     2.1073   108.4834  -999.2500     7.5939
 1544.1250    14.4863    44.6799      .1219     2.0999   107.6701  -999.2500     7.6439
 1544.2500    14.4849    43.3152      .1232     2.0931   106.2182  -999.2500     7.6939
