~VERSION INFORMATION
VERS.                                                 2.0:   CWLS Log ASCII Standard-VERSION 2.0
WRAP.                                                  NO:   One line per depth step
~Well Information Block
STRT.M                                           475.1250:   Top Depth
STOP.M                                          3626.2500:   Bottom Depth
STEP.M                                             .12500:   Depth Increment
NULL.                                            -999.250:   Null Value
FLD .                                               SIGMA:   Field Name
WELL.                                             15/9-18:   NAME
WBN .                                             15/9-18:   WELLBORE
NATI.                                                 NOR:   COUNTRY
BHT1.DEGF                                           100.0:   BH TEMP 1
BHT2.DEGF                                           100.0:   BH TEMP 2
BHT3.DEGF                                           100.0:   BH TEMP 3
BS1 .IN                                            12.250:   BIT SIZE 1
CTRY.                                                 NOR:   COUNTRY
CBD1.M                                              181.0:   CSG 1 DRILL DEP
CBL1.M                                              181.0:   CSG 1 LOG DEP
CS1 .IN                                              30.0:   CSG 1 SIZE
COMP.                                             STATOIL:   OPERATOR
PDAT.                                                 MSL:   PERM DATUM
PROV.                                           NORTH SEA:   PROVINCE
COUN.                                      DEEPSEA BERGEN:   RIG NAME
SON .                                                1334:   SOURCE OPERATOR NAME
SPUD.                                          1983/12/16:   SPUD DATE
LATI.                                        58 21 1.95 N:   SURF. LATITUDE
LONG.                                        1 48 12.27 E:   SURF. LONGITUDE
BTD1.                                             521.0 M:   TOTAL DEPTH 1
BTD2.                                             521.0 M:   TOTAL DEPTH 2
BTD3.                                             521.0 M:   TOTAL DEPTH 3
PBWE.                                             15/9-18:   PB WELL ID
APIN.                                             15/9-18:   PB WELLBORE ID
PBWS.                                                 all:   PB WELL NAME SET
~PARAMETER INFORMATION (log)
LNAM.                              CDL/CNL/GR  COMPOSITED:   NAME
LTYP.                                         DEPTH MATCH:   LOG TYPE
LSRV.                                             CAL/BGT:   LOG SERVICE
LSOU.                                             SPT/NPD:   LOG SOURCE
LVSN.                                                   1:   LOG VERSION
BHIS.                                                   R:   BRIEF HISTORY
FHIS.                                             RAW-LIS:   FULL HISTORY
LCNM.                                                  DA:   LOGGING CONTRACTOR
TOOL.                             CDL/CNL/GR (COMPOSITED):   TOOL STRING
~Curve Information Block
#MNEM.UNIT                                        API CODE    No Description
#=========                                        ========    == ===========
DEPT.M                                       00 001 00 00:     1  DEPTH
CAL.IN                                                   :     2  Caliper
CN.%                                                     :     3  Neutron Porosity
CORR.G/CC                                                :     4  Density Correction
DEN.G/CC                                                 :     5  Bulk Density
GR.GAPI                                                  :     6  Gamma Ray
SPD.                                                     :     7  Cable Speed
TEN.LB                                                   :     8  Cable Tension
~ASCII
# ...
  907.3750    17.8994  -999.2500      .0789     2.0583    33.4401  -999.2500    21.0164
  907.5000    17.9033  -999.2500      .0706     2.0569    33.7593  -999.2500    20.9631
  907.6250    17.9053  -999.2500      .0608     2.0556    33.8069  -999.2500    20.9099
  907.7500    17.9041  -999.2500      .0545     2.0559    33.6606  -999.2500    20.8566
  907.8750    17.9005  -999.2500      .0517     2.0581    33.3397  -999.2500    20.8033
  908.0000    17.8964  -999.2500      .0503     2.0637    32.9109  -999.2500    20.7501
  908.1250    17.8884  -999.2500      .0471     2.0715    32.3056  -999.2500    20.6968
  908.2500    17.8799  -999.2500      .0398     2.0776    31.9261  -999.2500    20.6435
  908.3750    17.8715  -999.2500      .0371     2.0823    31.7423  -999.2500    20.5903
  908.5000    17.8633  -999.2500      .0398     2.0847    31.5905  -999.2500    20.5370
  908.6250    17.8560  -999.2500      .0498     2.0834    31.2737  -999.2500    20.4837
  908.7500    17.8554  -999.2500      .0650     2.0780    30.7873  -999.2500    20.4305
  908.8750    17.8541  -999.2500      .0758     2.0681    30.3744  -999.2500    20.3772
  909.0000    17.8471  -999.2500      .0823     2.0521    30.3279  -999.2500    20.3239
  909.1250    17.8343  -999.2500      .0874     2.0419    30.7126  -999.2500    20.2707
  909.2500    17.8192  -999.2500      .0898     2.0407    31.3991  -999.2500    20.2174
  909.3750    17.8056  -999.2500      .0881     2.0475    32.0858  -999.2500    20.1642
  909.5000    17.7947  -999.2500      .0804     2.0615    32.7728  -999.2500    20.1109
  909.6250    17.7879  -999.2500      .0640     2.0808    33.4565  -999.2500    20.0576
  909.7500    17.7859  -999.2500      .0452     2.0867    34.0537  -999.2500    20.0044
  909.8750    17.7870  -999.2500      .0366     2.0858    34.4052  -999.2500    19.9511
  910.0000    17.7869  -999.2500      .0376     2.0760    34.2800  -999.2500    19.8978
  910.1250    17.7723  -999.2500      .0459     2.0625    33.7759  -999.2500    19.8446
  910.2500    17.7548  -999.2500      .0601     2.0516    33.2774  -999.2500    19.7913
  910.3750    17.7349  -999.2500      .0655     2.0453    33.1096  -999.2500    19.7380
  910.5000    17.7118  -999.2500      .0679     2.0514    33.2905  -999.2500    19.6848
  910.6250    17.6882  -999.2500      .0658     2.0591    33.6460  -999.2500    19.6315
  910.7500    17.6839  -999.2500      .0598     2.0636    33.9036  -999.2500    19.5782
  910.8750    17.6926  -999.2500      .0516     2.0618    34.3064  -999.2500    19.5250
  911.0000    17.7094  -999.2500      .0437     2.0542    33.9206  -999.2500    19.4717
  911.1250    17.7276  -999.2500      .0415     2.0507    33.0605  -999.2500    19.4184
  911.2500    17.7409  -999.2500      .0445     2.0573    32.2917  -999.2500    19.3652
  911.3750    17.7450  -999.2500      .0494     2.0726    32.2339  -999.2500    19.3119
  911.5000    17.7470  -999.2500      .0534     2.0945    33.4911  -999.2500    19.2587
  911.6250    17.7515  -999.2500      .0549     2.1154    35.0091  -999.2500    19.2054
  911.7500    17.7545  -999.2500      .0536     2.1193    36.5841  -999.2500    19.1521
  911.8750    17.7543  -999.2500      .0538     2.1107    38.0118  -999.2500    19.0989
  912.0000    17.7485  -999.2500      .0561     2.0891    38.9689  -999.2500    19.0456
  912.1250    17.7292  -999.2500      .0614     2.0722    38.7308  -999.2500    18.9923
  912.2500    17.7126  -999.2500      .0691     2.0651    36.4825  -999.2500    18.9391
  912.3750    17.6968  -999.2500      .0738     2.0639    34.4953  -999.2500    18.8858
  912.5000    17.6860  -999.2500      .0761     2.0617    32.6612  -999.2500    18.8325
  912.6250    17.6830  -999.2500      .0761     2.0568    31.0827  -999.2500    18.7793
  912.7500    17.6879  -999.2500      .0771     2.0530    30.1649  -999.2500    18.7260
  912.8750    17.6950  -999.2500      .0813     2.0542    29.8487  -999.2500    18.6727
  913.0000    17.6974  -999.2500      .0897     2.0628    29.8039  -999.2500    18.6195
  913.1250    17.6950  -999.2500      .0976     2.0785    29.6017  -999.2500    18.5662
  913.2500    17.6905  -999.2500      .0971     2.0835    29.2248  -999.2500    18.5129
  913.3750    17.6867  -999.2500      .0908     2.0803    28.8005  -999.2500    18.4597
  913.5000    17.6847  -999.2500      .0839     2.0723    28.4996  -999.2500    18.4064
  913.6250    17.6839  -999.2500      .0824     2.0658    28.9667  -999.2500    18.3531
  913.7500    17.6826  -999.2500      .0916     2.0662    29.6325  -999.2500    18.2999
  913.8750    17.6802  -999.2500      .1007     2.0697    30.1806  -999.2500    18.2466
  914.0000    17.6747  -999.2500      .1019     2.0704    30.3228  -999.2500    18.1934
  914.1250    17.6644  -999.2500      .0951     2.0673    29.8899  -999.2500    18.1401
  914.2500    17.6555  -999.2500      .0863     2.0627    29.2294  -999.2500    18.0868
  914.3750    17.6492  -999.2500      .0835     2.0588    29.0798  -999.2500    18.0336
  914.5000    17.6453  -999.2500      .0871     2.0574    29.3640  -999.2500    17.9803
  914.6250    17.6446  -999.2500      .0883     2.0585    30.0766  -999.2500    17.9270
  914.7500    17.6473  -999.2500      .0835     2.0600    30.9611  -999.2500    17.8738
  914.8750    17.6529  -999.2500      .0734     2.0630    31.3548  -999.2500    17.8205
  915.0000    17.6644  -999.2500      .0605     2.0676    31.6919  -999.2500    17.7672
  915.1250    17.6799  -999.2500      .0471     2.0729    31.5627  -999.2500    17.7140
  915.2500    17.6913  -999.2500      .0384     2.0766    31.0828  -999.2500    17.6607
  915.3750    17.6978  -999.2500      .0363     2.0779    30.4417  -999.2500    17.6074
  915.5000    17.7026  -999.2500      .0388     2.0760    29.9136  -999.2500    17.5542
  915.6250    17.7081  -999.2500      .0455     2.0735    30.0556  -999.2500    17.5009
  915.7500    17.7064  -999.2500      .0556     2.0717    30.6522  -999.2500    17.4476
  915.8750    17.6988  -999.2500      .0620     2.0707    31.0885  -999.2500    17.3944
  916.0000    17.6818  -999.2500      .0664     2.0707    31.1426  -999.2500    17.3411
  916.1250    17.6594  -999.2500      .0690     2.0717    30.7932  -999.2500    17.2878
  916.2500    17.6462  -999.2500      .0700     2.0740    30.2252  -999.2500    17.2346
  916.3750    17.6472  -999.2500      .0694     2.0779    30.0457  -999.2500    17.1813
  916.5000    17.6565  -999.2500      .0675     2.0823    29.8733  -999.2500    17.1281
  916.6250    17.6681  -999.2500      .0616     2.0828    29.2927  -999.2500    17.0748
  916.7500    17.6765  -999.2500      .0558     2.0789    28.5910  -999.2500    17.0215
  916.8750    17.6782  -999.2500      .0531     2.0749    28.2308  -999.2500    16.9683
  917.0000    17.6764  -999.2500      .0551     2.0735    28.1788  -999.2500    16.9150
  917.1250    17.6682  -999.2500      .0618     2.0752    28.5900  -999.2500    16.8617
  917.2500    17.6616  -999.2500      .0713     2.0784    28.7467  -999.2500    16.8085
  917.3750    17.6557  -999.2500      .0728     2.0790    28.5625  -999.2500    16.7552
  917.5000    17.6495  -999.2500      .0710     2.0739    28.1437  -999.2500    16.7019
  917.6250    17.6428  -999.2500      .0692     2.0713    27.7505  -999.2500    16.6487
  917.7500    17.6404  -999.2500      .0701     2.0727    27.9906  -999.2500    16.5954
  917.8750    17.6390  -999.2500      .0754     2.0787    28.7209  -999.2500    16.5421
  918.0000    17.6376  -999.2500      .0813     2.0910    29.7602  -999.2500    16.4889
  918.1250    17.6365  -999.2500      .0824     2.1012    30.9368  -999.2500    16.4356
  918.2500    17.6365  -999.2500      .0807     2.1138    31.9621  -999.2500    16.3823
  918.3750    17.6392  -999.2500      .0788     2.1266    32.2448  -999.2500    16.3291
  918.5000    17.6496  -999.2500      .0790     2.1334    32.1223  -999.2500    16.2758
  918.6250    17.6692  -999.2500      .0823     2.1287    31.0591  -999.2500    16.2225
