~VERSION INFORMATION
VERS.                                                 2.0:   CWLS Log ASCII Standard-VERSION 2.0
WRAP.                                                  NO:   One line per depth step
~Well Information Block
STRT.M                                           475.1250:   Top Depth
STOP.M                                          3626.2500:   Bottom Depth
STEP.M                                             .12500:   Depth Increment
NULL.                                            -999.250:   Null Value
FLD .                                               SIGMA:   Field Name
WELL.                                             15/9-18:   NAME
WBN .                                             15/9-18:   WELLBORE
NATI.                                                 NOR:   COUNTRY
BHT1.DEGF                                           100.0:   BH TEMP 1
BHT2.DEGF                                           100.0:   BH TEMP 2
BHT3.DEGF                                           100.0:   BH TEMP 3
BS1 .IN                                            12.250:   BIT SIZE 1
CTRY.                                                 NOR:   COUNTRY
CBD1.M                                              181.0:   CSG 1 DRILL DEP
CBL1.M                                              181.0:   CSG 1 LOG DEP
CS1 .IN                                              30.0:   CSG 1 SIZE
COMP.                                             STATOIL:   OPERATOR
PDAT.                                                 MSL:   PERM DATUM
PROV.                                           NORTH SEA:   PROVINCE
COUN.                                      DEEPSEA BERGEN:   RIG NAME
SON .                                                1334:   SOURCE OPERATOR NAME
SPUD.                                          1983/12/16:   SPUD DATE
LATI.                                        58 21 1.95 N:   SURF. LATITUDE
LONG.                                        1 48 12.27 E:   SURF. LONGITUDE
BTD1.                                             521.0 M:   TOTAL DEPTH 1
BTD2.                                             521.0 M:   TOTAL DEPTH 2
BTD3.                                             521.0 M:   TOTAL DEPTH 3
PBWE.                                             15/9-18:   PB WELL ID
APIN.                                             15/9-18:   PB WELLBORE ID
PBWS.                                                 all:   PB WELL NAME SET
~PARAMETER INFORMATION (log)
LNAM.                              CDL/CNL/GR  COMPOSITED:   NAME
LTYP.                                         DEPTH MATCH:   LOG TYPE
LSRV.                                             CAL/BGT:   LOG SERVICE
LSOU.                                             SPT/NPD:   LOG SOURCE
LVSN.                                                   1:   LOG VERSION
BHIS.                                                   R:   BRIEF HISTORY
FHIS.                                             RAW-LIS:   FULL HISTORY
LCNM.                                                  DA:   LOGGING CONTRACTOR
TOOL.                             CDL/CNL/GR (COMPOSITED):   TOOL STRING
~Curve Information Block
#MNEM.UNIT                                        API CODE    No Description
#=========                                        ========    == ===========
DEPT.M                                       00 001 00 00:     1  DEPTH
CAL.IN                                                   :     2  Caliper
CN.%                                                     :     3  Neutron Porosity
CORR.G/CC                                                :     4  Density Correction
DEN.G/CC                                                 :     5  Bulk Density
GR.GAPI                                                  :     6  Gamma Ray
SPD.                                                     :     7  Cable Speed
TEN.LB                                                   :     8  Cable Tension
~ASCII
# ...
  486.5000     9.9614  -999.2500  -999.2500  -999.2500     -.3861  -999.2500     2.8461
  486.6250     9.9612  -999.2500  -999.2500  -999.2500     -.3881  -999.2500     3.1509
  486.7500     9.9610  -999.2500  -999.2500  -999.2500     -.3901  -999.2500     3.4557
  486.8750     9.9608  -999.2500  -999.2500  -999.2500     -.3921  -999.2500     3.7605
  487.0000     9.9606  -999.2500  -999.2500  -999.2500     -.3941  -999.2500     4.0653
  487.1250     9.9604  -999.2500  -999.2500  -999.2500     -.3961  -999.2500     4.3701
  487.2500     9.9602  -999.2500  -999.2500  -999.2500     -.3981  -999.2500     4.6750
  487.3750     9.9600  -999.2500  -999.2500  -999.2500     -.4001  -999.2500     4.9798
  487.5000     9.9598  -999.2500  -999.2500  -999.2500     -.4021  -999.2500     5.2846
  487.6250     9.9596  -999.2500  -999.2500  -999.2500     -.4041  -999.2500     5.5894
  487.7500     9.9595  -999.2500  -999.2500  -999.2500     -.4061  -999.2500     5.8942
  487.8750     9.9597  -999.2500  -999.2500  -999.2500     -.4081  -999.2500     6.1991
  488.0000     9.9610  -999.2500  -999.2500  -999.2500     -.4101  -999.2500     6.5039
  488.1250     9.9623  -999.2500  -999.2500  -999.2500     -.4121  -999.2500     6.8087
  488.2500     9.9635  -999.2500  -999.2500  -999.2500     -.4141  -999.2500     7.1135
  488.3750     9.9648  -999.2500  -999.2500  -999.2500     -.4161  -999.2500     7.4183
  488.5000     9.9661  -999.2500  -999.2500  -999.2500     -.4181  -999.2500     7.7231
  488.6250     9.9674  -999.2500  -999.2500  -999.2500     -.4202  -999.2500     8.0280
  488.7500     9.9687  -999.2500  -999.2500  -999.2500     -.4222  -999.2500     8.3328
  488.8750     9.9700  -999.2500  -999.2500  -999.2500     -.4242  -999.2500     8.6376
  489.0000     9.9713  -999.2500  -999.2500  -999.2500     -.4262  -999.2500     8.9424
  489.1250     9.9726  -999.2500  -999.2500  -999.2500     -.4282  -999.2500     9.2472
  489.2500     9.9738  -999.2500  -999.2500  -999.2500     -.4302  -999.2500     9.5520
  489.3750     9.9751  -999.2500  -999.2500  -999.2500     -.4322  -999.2500     9.8569
  489.5000     9.9767  -999.2500  -999.2500  -999.2500     -.4342  -999.2500    10.1617
  489.6250     9.9866  -999.2500  -999.2500  -999.2500     -.4362  -999.2500    10.4665
  489.7500    10.1809  -999.2500  -999.2500  -999.2500     -.0246  -999.2500    10.7713
  489.8750    13.0917  -999.2500  -999.2500  -999.2500     6.0066  -999.2500    11.0761
  490.0000    19.7691  -999.2500  -999.2500  -999.2500    21.2671  -999.2500    11.3810
  490.1250    19.0871  -999.2500  -999.2500  -999.2500    31.4633  -999.2500    11.6858
  490.2500    18.9770  -999.2500  -999.2500  -999.2500    32.8897  -999.2500    11.9906
  490.3750    18.9702  -999.2500  -999.2500  -999.2500    33.6772  -999.2500    12.2954
  490.5000    18.9778  -999.2500  -999.2500  -999.2500    34.5804  -999.2500    12.6002
  490.6250    18.9783  -999.2500  -999.2500  -999.2500    35.3575  -999.2500    12.9050
  490.7500    18.9788  -999.2500  -999.2500  -999.2500    35.7244  -999.2500    13.2099
  490.8750    18.9795  -999.2500  -999.2500  -999.2500    35.7466  -999.2500    13.5147
  491.0000    18.9976  -999.2500  -999.2500  -999.2500    35.7879  -999.2500    13.8195
  491.1250    19.0297  -999.2500  -999.2500  -999.2500    35.9792  -999.2500    14.1243
  491.2500    19.0748  -999.2500  -999.2500  -999.2500    36.2619  -999.2500    14.4291
  491.3750    19.1296  -999.2500  -999.2500  -999.2500    36.5244  -999.2500    14.7339
  491.5000    19.1817  -999.2500  -999.2500  -999.2500    36.7523  -999.2500    15.0388
  491.6250    19.2086  -999.2500  -999.2500  -999.2500    36.5376  -999.2500    15.3436
  491.7500    19.2263  -999.2500  -999.2500  -999.2500    36.2030  -999.2500    15.6484
  491.8750    19.2294  -999.2500  -999.2500  -999.2500    35.7956  -999.2500    15.9532
  492.0000    19.2114  -999.2500  -999.2500     1.6124    35.2929  -999.2500    16.2580
  492.1250    19.1729  -999.2500  -999.2500     1.6125    34.6306  -999.2500    16.5629
  492.2500    19.1985  -999.2500  -999.2500     1.6126    33.7998  -999.2500    16.7933
  492.3750    19.2264  -999.2500  -999.2500     1.6127    33.0234  -999.2500    16.8770
  492.5000    19.2533  -999.2500  -999.2500     1.6128    32.5690  -999.2500    16.7746
  492.6250    19.2735  -999.2500  -999.2500     1.6129    32.5488  -999.2500    16.6599
  492.7500    19.2838  -999.2500  -999.2500     1.6130    32.8859  -999.2500    16.5451
  492.8750    19.2885  -999.2500  -999.2500     1.6135    33.1956  -999.2500    16.4304
  493.0000    19.2891  -999.2500  -999.2500     1.6149    33.5287  -999.2500    16.3156
  493.1250    19.2896  -999.2500  -999.2500     1.6190    33.7185  -999.2500    16.2009
  493.2500    19.2886  -999.2500  -999.2500     1.6327    33.8211  -999.2500    16.0861
  493.3750    19.2854  -999.2500  -999.2500     1.6472    33.8702  -999.2500    15.9714
  493.5000    19.2803  -999.2500  -999.2500     1.6566    33.8760  -999.2500    15.8566
  493.6250    19.2788  -999.2500  -999.2500     1.6632    33.8899  -999.2500    15.7419
  493.7500    19.3053  -999.2500  -999.2500     1.6663    34.1027  -999.2500    15.6271
  493.8750    19.3183  -999.2500  -999.2500     1.6610    34.0003  -999.2500    15.5124
  494.0000    19.3201  -999.2500  -999.2500     1.6459    33.5788  -999.2500    15.3976
  494.1250    19.3195  -999.2500  -999.2500     1.6189    32.9936  -999.2500    15.2829
  494.2500    19.3186  -999.2500  -999.2500     1.6068    32.4511  -999.2500    15.1681
  494.3750    19.3193  -999.2500  -999.2500     1.6088    32.3480  -999.2500    15.0534
  494.5000    19.3242  -999.2500  -999.2500     1.6120    32.2912  -999.2500    14.9386
  494.6250    19.3313  -999.2500  -999.2500     1.6020    32.1853  -999.2500    14.8239
  494.7500    19.3380  -999.2500  -999.2500     1.5832    32.0805  -999.2500    14.7091
  494.8750    19.3416  -999.2500  -999.2500     1.5704    32.1058  -999.2500    14.5944
  495.0000    19.3411  -999.2500  -999.2500     1.5712    32.3487  -999.2500    14.4796
  495.1250    19.3352  -999.2500  -999.2500     1.5871    33.0308  -999.2500    14.3649
  495.2500    19.3294  -999.2500  -999.2500     1.6119    33.6134  -999.2500    14.2502
  495.3750    19.3245  -999.2500  -999.2500     1.6200    33.6558  -999.2500    14.1354
  495.5000    19.3202  -999.2500  -999.2500     1.6138    33.1171  -999.2500    14.0207
  495.6250    19.3176  -999.2500  -999.2500     1.5917    32.5033  -999.2500    13.9059
  495.7500    19.3211  -999.2500  -999.2500     1.5677    31.8896  -999.2500    13.7912
  495.8750    19.3252  -999.2500  -999.2500     1.5528    31.7480  -999.2500    13.6764
  496.0000    19.3288  -999.2500  -999.2500     1.5409    32.0554  -999.2500    13.5617
  496.1250    19.3303  -999.2500  -999.2500     1.5281    32.6733  -999.2500    13.4469
  496.2500    19.3288  -999.2500  -999.2500     1.5225    33.4169  -999.2500    13.3322
  496.3750    19.3259  -999.2500  -999.2500     1.5214    34.1583  -999.2500    13.2174
  496.5000    19.3231  -999.2500  -999.2500     1.5240    34.1999  -999.2500    13.1027
  496.6250    19.3217  -999.2500  -999.2500     1.5307    33.5005  -999.2500    12.9879
  496.7500    19.3212  -999.2500  -999.2500     1.5382    32.6186  -999.2500    12.8732
  496.8750    19.3160  -999.2500  -999.2500     1.5474    31.8504  -999.2500    12.7584
  497.0000    19.2962  -999.2500  -999.2500     1.5638    31.1044  -999.2500    12.6437
  497.1250    19.2870  -999.2500  -999.2500     1.5874    30.8331  -999.2500    12.5289
  497.2500    19.2778  -999.2500  -999.2500     1.6099    31.0645  -999.2500    12.4142
  497.3750    19.2686  -999.2500  -999.2500     1.6121    31.4735  -999.2500    12.2994
  497.5000    19.2594  -999.2500  -999.2500     1.6021    31.9427  -999.2500    12.1847
  497.6250    19.2501  -999.2500  -999.2500     1.5767    32.4485  -999.2500    12.0699
  497.7500    19.2409  -999.2500  -999.2500     1.5593    33.0288  -999.2500    11.9552
