~VERSION INFORMATION
VERS.                                                 2.0:   CWLS Log ASCII Standard-VERSION 2.0
WRAP.                                                  NO:   One line per depth step
~Well Information Block
STRT.M                                           475.1250:   Top Depth
STOP.M                                          3626.2500:   Bottom Depth
STEP.M                                             .12500:   Depth Increment
NULL.                                            -999.250:   Null Value
FLD .                                               SIGMA:   Field Name
WELL.                                             15/9-18:   NAME
WBN .                                             15/9-18:   WELLBORE
NATI.                                                 NOR:   COUNTRY
BHT1.DEGF                                           100.0:   BH TEMP 1
BHT2.DEGF                                           100.0:   BH TEMP 2
BHT3.DEGF                                           100.0:   BH TEMP 3
BS1 .IN                                            12.250:   BIT SIZE 1
CTRY.                                                 NOR:   COUNTRY
CBD1.M                                              181.0:   CSG 1 DRILL DEP
CBL1.M                                              181.0:   CSG 1 LOG DEP
CS1 .IN                                              30.0:   CSG 1 SIZE
COMP.                                             STATOIL:   OPERATOR
PDAT.                                                 MSL:   PERM DATUM
PROV.                                           NORTH SEA:   PROVINCE
COUN.                                      DEEPSEA BERGEN:   RIG NAME
SON .                                                1334:   SOURCE OPERATOR NAME
SPUD.                                          1983/12/16:   SPUD DATE
LATI.                                        58 21 1.95 N:   SURF. LATITUDE
LONG.                                        1 48 12.27 E:   SURF. LONGITUDE
BTD1.                                             521.0 M:   TOTAL DEPTH 1
BTD2.                                             521.0 M:   TOTAL DEPTH 2
BTD3.                                             521.0 M:   TOTAL DEPTH 3
PBWE.                                             15/9-18:   PB WELL ID
APIN.                                             15/9-18:   PB WELLBORE ID
PBWS.                                                 all:   PB WELL NAME SET
~PARAMETER INFORMATION (log)
LNAM.                              CDL/CNL/GR  COMPOSITED:   NAME
LTYP.                                         DEPTH MATCH:   LOG TYPE
LSRV.                                             CAL/BGT:   LOG SERVICE
LSOU.                                             SPT/NPD:   LOG SOURCE
LVSN.                                                   1:   LOG VERSION
BHIS.                                                   R:   BRIEF HISTORY
FHIS.                                             RAW-LIS:   FULL HISTORY
LCNM.                                                  DA:   LOGGING CONTRACTOR
TOOL.                             CDL/CNL/GR (COMPOSITED):   TOOL STRING
~Curve Information Block
#MNEM.UNIT                                        API CODE    No Description
#=========                                        ========    == ===========
DEPT.M                                       00 001 00 00:     1  DEPTH
CAL.IN                                                   :     2  Caliper
CN.%                                                     :     3  Neutron Porosity
CORR.G/CC                                                :     4  Density Correction
DEN.G/CC                                                 :     5  Bulk Density
GR.GAPI                                                  :     6  Gamma Ray
SPD.                                                     :     7  Cable Speed
TEN.LB                                                   :     8  Cable Tension
~ASCII
# ...
 1942.5000    13.7340    41.1206      .0873     2.0574    92.6268  -999.2500    16.1507
 1942.6250    13.8228    41.9140      .1022     2.0559    92.2988  -999.2500    16.1160
 1942.7500    13.8863    42.9155      .1088     2.0598    91.3071  -999.2500    16.0812
 1942.8750    13.9318    42.8166      .1075     2.0653    90.1091  -999.2500    16.0464
 1943.0000    13.9692    41.0478      .1029     2.0770    88.9171  -999.2500    16.0116
 1943.1250    14.0114    39.0254      .0992     2.0894    87.8074  -999.2500    15.9769
 1943.2500    14.0535    37.8954      .0989     2.1013    87.8207  -999.2500    15.9421
 1943.3750    14.0957    38.0043      .1021     2.1124    87.6444  -999.2500    15.9073
 1943.5000    14.1462    38.5266      .1030     2.1220    86.9299  -999.2500    15.8726
 1943.6250    14.2069    44.3125      .0966     2.1231    85.9047  -999.2500    15.8378
 1943.7500    14.2753    46.4644      .0864     2.1165    84.8795  -999.2500    15.8030
 1943.8750    14.3437    46.5378      .0762     2.1073    83.8542  -999.2500    15.7682
 1944.0000    14.3221    45.5413      .0696     2.0978    82.8290  -999.2500    15.7335
 1944.1250    14.2764    44.1863      .0687     2.0894    82.3635  -999.2500    15.6987
 1944.2500    14.2119    43.3618      .0731     2.0880    82.4498  -999.2500    15.6639
 1944.3750    14.1315    42.8838      .0773     2.0868    82.9580  -999.2500    15.6291
 1944.5000    14.0415    42.5880      .0820     2.0828    83.6468  -999.2500    15.5944
 1944.6250    13.9739    41.4546      .0884     2.0785    83.9111  -999.2500    15.5596
 1944.7500    14.0016    39.4870      .0983     2.0752    83.2505  -999.2500    15.5248
 1944.8750    14.0689    38.0478      .1149     2.0710    82.3254  -999.2500    15.4901
 1945.0000    14.1915    37.3954      .1352     2.0536    81.3493  -999.2500    15.4553
 1945.1250    14.3778    38.7597      .1517     2.0251    80.6838  -999.2500    15.4205
 1945.2500    14.5923    40.6735      .1587     1.9905    81.1427  -999.2500    15.3857
 1945.3750    14.8067    42.6615      .1547     1.9561    82.0847  -999.2500    15.3510
 1945.5000    14.9808    44.3846      .1444     1.9300    82.7337  -999.2500    15.3162
 1945.6250    15.0140    44.5964      .1296     1.9246    81.7679  -999.2500    15.2814
 1945.7500    14.9100    42.8128      .1219     1.9527    79.2979  -999.2500    15.2467
 1945.8750    14.7428    40.9192      .1213     1.9907    76.4310  -999.2500    15.2119
 1946.0000    14.5757    39.5501      .1266     2.0378    74.4202  -999.2500    15.1771
 1946.1250    14.4840    39.0135      .1354     2.0771    74.7791  -999.2500    15.1423
 1946.2500    14.4571    39.3225      .1393     2.0806    76.3661  -999.2500    15.1076
 1946.3750    14.4668    40.1232      .1410     2.0818    79.0339  -999.2500    15.0728
 1946.5000    14.4938    40.8381      .1386     2.0868    82.4532  -999.2500    15.0380
 1946.6250    14.5392    41.9141      .1305     2.0895    85.8468  -999.2500    15.0032
 1946.7500    14.5596    43.1941      .1167     2.0869    87.6952  -999.2500    14.9685
 1946.8750    14.5655    44.4425      .0986     2.0793    88.2411  -999.2500    14.9337
 1947.0000    14.5200    45.7022      .0826     2.0722    87.8642  -999.2500    14.8989
 1947.1250    14.4268    45.4480      .0783     2.0738    86.8520  -999.2500    14.8642
 1947.2500    14.3121    44.1604      .0847     2.0783    85.5480  -999.2500    14.8294
 1947.3750    14.2059    42.5315      .0976     2.0803    84.7064  -999.2500    14.7946
 1947.5000    14.1072    41.0832      .1110     2.0725    84.2727  -999.2500    14.7598
 1947.6250    14.0040    40.1221      .1194     2.0502    84.5898  -999.2500    14.7251
 1947.7500    13.9190    39.8105      .1124     2.0356    85.1279  -999.2500    14.6903
 1947.8750    13.8588    39.4978      .1008     2.0268    85.5708  -999.2500    14.6555
 1948.0000    13.8081    39.0603      .0838     2.0244    86.0321  -999.2500    14.6207
 1948.1250    13.8058    38.6464      .0634     2.0245    86.9221  -999.2500    14.5860
 1948.2500    13.8586    38.4079      .0453     2.0232    87.8626  -999.2500    14.5512
 1948.3750    13.9213    38.3798      .0345     2.0193    88.8146  -999.2500    14.5164
 1948.5000    13.9826    38.0664      .0318     2.0186    89.7596  -999.2500    14.4817
 1948.6250    14.0347    36.8695      .0397     2.0260    90.5940  -999.2500    14.4469
 1948.7500    14.0402    35.9529      .0564     2.0403    90.9252  -999.2500    14.4121
 1948.8750    14.0061    35.7745      .0788     2.0550    90.3478  -999.2500    14.3773
 1949.0000    13.9697    36.4162      .1040     2.0607    90.0332  -999.2500    14.3426
 1949.1250    13.9332    38.6814      .1272     2.0479    90.2982  -999.2500    14.3078
 1949.2500    13.9230    40.2138      .1372     2.0243    91.1313  -999.2500    14.2730
 1949.3750    13.9826    41.3637      .1379     1.9983    92.2623  -999.2500    14.2382
 1949.5000    14.1094    42.4402      .1330     1.9748    93.3728  -999.2500    14.2035
 1949.6250    14.2428    43.5997      .1257     1.9631    92.7694  -999.2500    14.1687
 1949.7500    14.3754    44.7518      .1259     1.9772    91.4938  -999.2500    14.1339
 1949.8750    14.4843    45.1959      .1331     2.0008    90.0029  -999.2500    14.0992
 1950.0000    14.5389    44.8057      .1472     2.0297    88.5119  -999.2500    14.0644
 1950.1250    14.5020    42.7751      .1638     2.0501    87.0210  -999.2500    14.0296
 1950.2500    14.4110    40.4247      .1764     2.0589    85.9302  -999.2500    13.9948
 1950.3750    14.3184    39.4677      .1775     2.0586    84.9643  -999.2500    13.9601
 1950.5000    14.2259    39.3958      .1674     2.0531    84.2822  -999.2500    13.9253
 1950.6250    14.1334    41.5397      .1496     2.0422    83.7164  -999.2500    13.8905
 1950.7500    14.0423    43.5048      .1344     2.0331    82.9396  -999.2500    13.8558
 1950.8750    13.9643    44.8761      .1278     2.0272    82.2076  -999.2500    13.8210
 1951.0000    13.9237    45.5469      .1323     2.0259    82.3900  -999.2500    13.7862
 1951.1250    13.9201    45.5859      .1502     2.0308    83.7506  -999.2500    13.7514
 1951.2500    13.9434    45.7373      .1609     2.0289    85.9888  -999.2500    13.7167
 1951.3750    13.9780    46.0539      .1608     2.0214    88.5804  -999.2500    13.6819
 1951.5000    14.0055    46.0702      .1462     2.0091    90.9176  -999.2500    13.6471
 1951.6250    13.9502    45.6432      .1208     2.0030    90.2941  -999.2500    13.6123
 1951.7500    13.8771    44.9788      .1000     2.0121    88.9445  -999.2500    13.5776
 1951.8750    13.8036    44.9024      .0986     2.0290    87.3907  -999.2500    13.5428
 1952.0000    13.7704    45.6313      .1076     2.0431    85.9470  -999.2500    13.5080
 1952.1250    13.8126    48.2238      .1213     2.0459    84.8828  -999.2500    13.4733
 1952.2500    13.8897    50.6441      .1340     2.0396    85.0120  -999.2500    13.4385
 1952.3750    14.0664    52.2107      .1412     2.0277    85.2645  -999.2500    13.4037
 1952.5000    14.2536    53.5250      .1420     2.0130    85.5310  -999.2500    13.3689
 1952.6250    14.4365    53.5066      .1331     1.9947    86.0306  -999.2500    13.3342
 1952.7500    14.5991    52.3416      .1216     1.9901    86.7982  -999.2500    13.2994
 1952.8750    14.7109    50.9143      .1115     1.9949    87.5709  -999.2500    13.2646
 1953.0000    14.7207    49.5883      .1063     2.0134    88.5345  -999.2500    13.2298
 1953.1250    14.7029    48.5505      .1076     2.0406    89.3067  -999.2500    13.1951
 1953.2500    14.6922    47.8838      .1137     2.0477    89.5297  -999.2500    13.1603
 1953.3750    14.7006    47.3514      .1195     2.0460    89.0658  -999.2500    13.1255
 1953.5000    14.7389    46.7872      .1235     2.0342    88.0314  -999.2500    13.0908
 1953.6250    14.8568    46.5150      .1244     2.0230    86.9971  -999.2500    13.0560
 1953.7500    14.9419    46.8355      .1211     2.0174    85.9627  -999.2500    13.0212
