~VERSION INFORMATION
VERS.                                                 2.0:   CWLS Log ASCII Standard-VERSION 2.0
WRAP.                                                  NO:   One line per depth step
~Well Information Block
STRT.M                                           475.1250:   Top Depth
STOP.M                                          3626.2500:   Bottom Depth
STEP.M                                             .12500:   Depth Increment
NULL.                                            -999.250:   Null Value
FLD .                                               SIGMA:   Field Name
WELL.                                             15/9-18:   NAME
WBN .                                             15/9-18:   WELLBORE
NATI.                                                 NOR:   COUNTRY
BHT1.DEGF                                           100.0:   BH TEMP 1
BHT2.DEGF                                           100.0:   BH TEMP 2
BHT3.DEGF                                           100.0:   BH TEMP 3
BS1 .IN                                            12.250:   BIT SIZE 1
CTRY.                                                 NOR:   COUNTRY
CBD1.M                                              181.0:   CSG 1 DRILL DEP
CBL1.M                                              181.0:   CSG 1 LOG DEP
CS1 .IN                                              30.0:   CSG 1 SIZE
COMP.                                             STATOIL:   OPERATOR
PDAT.                                                 MSL:   PERM DATUM
PROV.                                           NORTH SEA:   PROVINCE
COUN.                                      DEEPSEA BERGEN:   RIG NAME
SON .                                                1334:   SOURCE OPERATOR NAME
SPUD.                                          1983/12/16:   SPUD DATE
LATI.                                        58 21 1.95 N:   SURF. LATITUDE
LONG.                                        1 48 12.27 E:   SURF. LONGITUDE
BTD1.                                             521.0 M:   TOTAL DEPTH 1
BTD2.                                             521.0 M:   TOTAL DEPTH 2
BTD3.                                             521.0 M:   TOTAL DEPTH 3
PBWE.                                             15/9-18:   PB WELL ID
APIN.                                             15/9-18:   PB WELLBORE ID
PBWS.                                                 all:   PB WELL NAME SET
~PARAMETER INFORMATION (log)
LNAM.                              CDL/CNL/GR  COMPOSITED:   NAME
LTYP.                                         DEPTH MATCH:   LOG TYPE
LSRV.                                             CAL/BGT:   LOG SERVICE
LSOU.                                             SPT/NPD:   LOG SOURCE
LVSN.                                                   1:   LOG VERSION
BHIS.                                                   R:   BRIEF HISTORY
FHIS.                                             RAW-LIS:   FULL HISTORY
LCNM.                                                  DA:   LOGGING CONTRACTOR
TOOL.                             CDL/CNL/GR (COMPOSITED):   TOOL STRING
~Curve Information Block
#MNEM.UNIT                                        API CODE    No Description
#=========                                        ========    == ===========
DEPT.M                                       00 001 00 00:     1  DEPTH
CAL.IN                                                   :     2  Caliper
CN.%                                                     :     3  Neutron Porosity
CORR.G/CC                                                :     4  Density Correction
DEN.G/CC                                                 :     5  Bulk Density
GR.GAPI                                                  :     6  Gamma Ray
SPD.                                                     :     7  Cable Speed
TEN.LB                                                   :     8  Cable Tension
~ASCII
# ...
 2989.0000    10.2894    22.2665      .0592     2.4274    43.5418     9.2464   -44.2870
 2989.1250    10.3517    23.2896      .0673     2.4111    43.2687     9.2456   -40.2868
 2989.2500    10.3802    23.9864      .0926     2.4130    43.2279     9.2405   -36.9510
 2989.3750    10.3844    24.3548      .1171     2.4133    43.4635     9.2384   -33.6594
 2989.5000    10.3763    24.5699      .1384     2.4040    43.8010     9.2472   -28.6490
 2989.6250    10.3989    24.7773      .1560     2.3802    44.2774     9.2609   -22.5582
 2989.7500    10.4745    25.0571      .1685     2.3408    45.0136     9.2699   -17.6222
 2989.8750    10.5916    25.3578      .1734     2.2892    45.6331     9.2810   -17.8625
 2990.0000    10.7214    25.6207      .1710     2.2443    45.7466     9.3027   -27.1332
 2990.1250    10.8235    26.0414      .1588     2.2124    45.0616     9.3398   -41.1103
 2990.2500    10.8417    26.5432      .1368     2.1970    43.5231     9.3842   -53.5965
 2990.3750    10.7791    26.9049      .1077     2.2018    42.3197     9.3964   -58.5944
 2990.5000    10.6931    26.8510      .0787     2.2289    42.0874     9.3620   -51.7272
 2990.6250    10.6165    26.2351      .0642     2.2746    42.7015     9.3012   -33.5697
 2990.7500    10.5734    25.4090      .0659     2.3201    44.0824     9.2431   -16.1015
 2990.8750    10.5758    24.7792      .0818     2.3492    46.2709     9.2177    -8.1674
 2991.0000    10.6091    24.4149      .1054     2.3573    49.1970     9.2392   -11.5128
 2991.1250    10.6500    24.3181      .1264     2.3455    51.7584     9.2910   -24.0278
 2991.2500    10.6899    24.4845      .1351     2.3203    53.2652     9.3487   -40.1624
 2991.3750    10.7166    25.0335      .1345     2.2896    53.5141     9.3968   -51.7826
 2991.5000    10.7142    25.9404      .1321     2.2686    52.7388     9.4256   -55.8409
 2991.6250    10.6576    27.0605      .1331     2.2599    51.7525     9.4313   -52.7149
 2991.7500    10.5117    28.2327      .1408     2.2624    50.6834     9.4126   -43.9173
 2991.8750    10.3309    29.2670      .1556     2.2733    49.3269     9.3913   -32.1955
 2992.0000    10.1546    29.8444      .1683     2.2903    47.7332     9.3709   -22.9083
 2992.1250    10.0067    29.3278      .1678     2.3138    46.1043     9.3528   -20.3563
 2992.2500     9.8921    28.0422      .1565     2.3476    44.6884     9.3382   -20.6549
 2992.3750     9.7730    26.2891      .1444     2.3996    43.2833     9.3357   -20.9790
 2992.5000     9.6023    24.3956      .1460     2.4723    40.8843     9.3420   -19.8764
 2992.6250     9.4046    22.6541      .1796     2.5597    37.2276     9.3612   -17.8567
 2992.7500     9.2228    20.7670      .2219     2.6361    32.5035     9.3964   -19.6153
 2992.8750     9.0983    18.6304      .2377     2.6768    27.1093     9.4453   -25.8637
 2993.0000     9.0592    16.3422      .2131     2.6734    21.5255     9.4937   -34.4508
 2993.1250     9.0963    14.1024      .1501     2.6377    16.8920     9.5156   -42.9812
 2993.2500     9.1414    12.1519      .0695     2.5916    13.6199     9.5045   -49.4328
 2993.3750     9.1708    10.7452      .0100     2.5589    11.8758     9.4660   -53.1736
 2993.5000     9.1785     9.8621     -.0196     2.5504    11.4312     9.4216   -55.5794
 2993.6250     9.1715     9.3684     -.0307     2.5498    11.7910     9.4008   -55.9297
 2993.7500     9.1618     9.1577     -.0346     2.5468    12.3810     9.4266   -53.0647
 2993.8750     9.1577     9.1162     -.0396     2.5384    12.5976     9.4595   -46.8972
 2994.0000     9.1576     9.1366     -.0444     2.5293    12.4847     9.4705   -38.6322
 2994.1250     9.1597     9.1162     -.0454     2.5269    12.3409     9.4548   -31.7522
 2994.2500     9.1621     9.0504     -.0453     2.5277    12.5196     9.4189   -27.5335
 2994.3750     9.1638     8.9728     -.0456     2.5274    13.3350     9.3772   -25.3803
 2994.5000     9.1624     8.9232     -.0463     2.5261    14.5321     9.3591   -24.7890
 2994.6250     9.1579     8.9417     -.0453     2.5254    15.3612     9.3575   -25.3969
 2994.7500     9.1525     9.0659     -.0405     2.5280    15.6904     9.3630   -27.2907
 2994.8750     9.1480     9.2215     -.0370     2.5298    15.5653     9.3702   -29.8035
 2995.0000     9.1457     9.2643     -.0387     2.5250    15.1454     9.3753   -30.7835
 2995.1250     9.1451     9.1734     -.0448     2.5158    14.6540     9.3731   -29.6420
 2995.2500     9.1447     8.9791     -.0518     2.5078    14.1283     9.3655   -26.7990
 2995.3750     9.1431     8.7520     -.0530     2.5075    13.6134     9.3638   -23.5788
 2995.5000     9.1405     8.6085     -.0467     2.5176    13.3310     9.3717   -22.8304
 2995.6250     9.1375     8.6684     -.0392     2.5287    13.5249     9.3882   -25.5358
 2995.7500     9.1349     8.9042     -.0350     2.5336    14.3991     9.4079   -28.4835
 2995.8750     9.1320     9.2995     -.0365     2.5301    15.9118     9.4209   -29.3797
 2996.0000     9.1290     9.7945     -.0437     2.5197    17.2243     9.4315   -27.4045
 2996.1250     9.1265    10.2610     -.0520     2.5072    17.8640     9.4433   -24.0735
 2996.2500     9.1246    10.3933     -.0556     2.5001    17.5834     9.4557   -24.5202
 2996.3750     9.1233    10.2470     -.0521     2.5018    16.4034     9.4669   -28.2689
 2996.5000     9.1220     9.9463     -.0429     2.5122    14.7732     9.4750   -32.5861
 2996.6250     9.1198     9.6246     -.0318     2.5270    13.4828     9.4781   -35.0369
 2996.7500     9.1174     9.3960     -.0265     2.5391    12.7663     9.4762   -34.0616
 2996.8750     9.1155     9.3044     -.0344     2.5374    12.6715     9.4698   -30.3582
 2997.0000     9.1141     9.3170     -.0530     2.5186    13.1573     9.4610   -28.7798
 2997.1250     9.1123     9.4373     -.0750     2.4946    14.1502     9.4541   -31.3174
 2997.2500     9.1091     9.7137     -.0907     2.4782    16.0586     9.4590   -36.8771
 2997.3750     9.1061    10.1978     -.0900     2.4796    18.6776     9.4693   -42.6577
 2997.5000     9.1039    10.9330     -.0622     2.5038    21.5592     9.4706   -44.5293
 2997.6250     9.0997    11.9702     -.0081     2.5421    24.0629     9.4556   -36.2378
 2997.7500     9.0894    13.1794      .0505     2.5717    25.4802     9.4233   -23.6289
 2997.8750     9.0671    14.2221      .0959     2.5853    25.0955     9.3795   -13.4892
 2998.0000     9.0400    14.8205      .1152     2.5832    23.3030     9.3524   -10.1229
 2998.1250     9.0238    14.7938      .1040     2.5707    21.0996     9.3574   -15.3893
 2998.2500     9.0230    14.1147      .0629     2.5555    18.9472     9.3846   -27.9983
 2998.3750     9.0360    13.2762      .0214     2.5479    17.2150     9.4139   -40.0620
 2998.5000     9.0563    12.5208     -.0071     2.5512    16.1851     9.4213   -48.0563
 2998.6250     9.0711    11.9163     -.0167     2.5627    16.2675     9.3928   -52.8440
 2998.7500     9.0770    11.5146     -.0089     2.5771    17.3074     9.3665   -55.5191
 2998.8750     9.0789    11.3645      .0076     2.5879    18.5879     9.3683   -56.6007
 2999.0000     9.0773    11.5547      .0193     2.5906    19.6267     9.3949   -53.5882
 2999.1250     9.0704    12.0548      .0287     2.5910    20.2035     9.4302   -43.4760
 2999.2500     9.0539    12.6628      .0429     2.5980    20.4951     9.4490   -30.2442
 2999.3750     9.0255    13.2931      .0665     2.6130    21.3447     9.4429   -18.9433
 2999.5000     8.9999    13.9307      .0965     2.6306    22.3727     9.4359   -14.1880
 2999.6250     8.9852    14.6463      .1038     2.6327    22.8322     9.4327   -18.6519
 2999.7500     8.9857    15.1963      .0824     2.6046    22.1306     9.4326   -28.9473
 2999.8750     9.0005    15.1513      .0423     2.5677    20.0329     9.4329   -37.4989
 3000.0000     9.0188    14.4359     -.0016     2.5382    17.2620     9.4349   -43.5893
 3000.1250     9.0265    13.2476     -.0329     2.5253    15.7607     9.4418   -48.3788
 3000.2500     9.0264    12.0058     -.0395     2.5309    15.8708     9.4503   -53.9411
