~VERSION INFORMATION
VERS.                                                 2.0:   CWLS Log ASCII Standard-VERSION 2.0
WRAP.                                                  NO:   One line per depth step
~Well Information Block
STRT.M                                           475.1250:   Top Depth
STOP.M                                          3626.2500:   Bottom Depth
STEP.M                                             .12500:   Depth Increment
NULL.                                            -999.250:   Null Value
FLD .                                               SIGMA:   Field Name
WELL.                                             15/9-18:   NAME
WBN .                                             15/9-18:   WELLBORE
NATI.                                                 NOR:   COUNTRY
BHT1.DEGF                                           100.0:   BH TEMP 1
BHT2.DEGF                                           100.0:   BH TEMP 2
BHT3.DEGF                                           100.0:   BH TEMP 3
BS1 .IN                                            12.250:   BIT SIZE 1
CTRY.                                                 NOR:   COUNTRY
CBD1.M                                              181.0:   CSG 1 DRILL DEP
CBL1.M                                              181.0:   CSG 1 LOG DEP
CS1 .IN                                              30.0:   CSG 1 SIZE
COMP.                                             STATOIL:   OPERATOR
PDAT.                                                 MSL:   PERM DATUM
PROV.                                           NORTH SEA:   PROVINCE
COUN.                                      DEEPSEA BERGEN:   RIG NAME
SON .                                                1334:   SOURCE OPERATOR NAME
SPUD.                                          1983/12/16:   SPUD DATE
LATI.                                        58 21 1.95 N:   SURF. LATITUDE
LONG.                                        1 48 12.27 E:   SURF. LONGITUDE
BTD1.                                             521.0 M:   TOTAL DEPTH 1
BTD2.                                             521.0 M:   TOTAL DEPTH 2
BTD3.                                             521.0 M:   TOTAL DEPTH 3
PBWE.                                             15/9-18:   PB WELL ID
APIN.                                             15/9-18:   PB WELLBORE ID
PBWS.                                                 all:   PB WELL NAME SET
~PARAMETER INFORMATION (log)
LNAM.                              CDL/CNL/GR  COMPOSITED:   NAME
LTYP.                                         DEPTH MATCH:   LOG TYPE
LSRV.                                             CAL/BGT:   LOG SERVICE
LSOU.                                             SPT/NPD:   LOG SOURCE
LVSN.                                                   1:   LOG VERSION
BHIS.                                                   R:   BRIEF HISTORY
FHIS.                                             RAW-LIS:   FULL HISTORY
LCNM.                                                  DA:   LOGGING CONTRACTOR
TOOL.                             CDL/CNL/GR (COMPOSITED):   TOOL STRING
~Curve Information Block
#MNEM.UNIT                                        API CODE    No Description
#=========                                        ========    == ===========
DEPT.M                                       00 001 00 00:     1  DEPTH
CAL.IN                                                   :     2  Caliper
CN.%                                                     :     3  Neutron Porosity
CORR.G/CC                                                :     4  Density Correction
DEN.G/CC                                                 :     5  Bulk Density
GR.GAPI                                                  :     6  Gamma Ray
SPD.                                                     :     7  Cable Speed
TEN.LB                                                   :     8  Cable Tension
~ASCII
# ...
 1112.1250    18.3952  -999.2500      .1226     2.1781    67.6795  -999.2500    24.2970
 1112.2500    18.3094  -999.2500      .1263     2.1751    66.9278  -999.2500    24.2903
 1112.3750    18.1836  -999.2500      .1278     2.1765    66.9201  -999.2500    24.2837
 1112.5000    18.0724  -999.2500      .1292     2.1817    67.2359  -999.2500    24.2770
 1112.6250    18.0498  -999.2500      .1362     2.1914    67.6062  -999.2500    24.2703
 1112.7500    18.0624  -999.2500      .1489     2.2016    67.8720  -999.2500    24.2637
 1112.8750    18.0735  -999.2500      .1595     2.2081    67.8947  -999.2500    24.2570
 1113.0000    18.0890  -999.2500      .1668     2.2113    67.5809  -999.2500    24.2503
 1113.1250    18.0921  -999.2500      .1699     2.2104    67.2670  -999.2500    24.2437
 1113.2500    18.0739  -999.2500      .1678     2.2059    67.0026  -999.2500    24.2370
 1113.3750    18.0440  -999.2500      .1611     2.2001    67.8041  -999.2500    24.2303
 1113.5000    17.9982  -999.2500      .1548     2.1949    69.8289  -999.2500    24.2237
 1113.6250    17.9555  -999.2500      .1503     2.1891    72.7008  -999.2500    24.2170
 1113.7500    18.0263  -999.2500      .1485     2.1838    75.5727  -999.2500    24.2103
 1113.8750    18.1058  -999.2500      .1491     2.1785    78.2882  -999.2500    24.2037
 1114.0000    18.1682  -999.2500      .1500     2.1717    78.6387  -999.2500    24.1970
 1114.1250    18.1877  -999.2500      .1428     2.1614    77.4207  -999.2500    24.1903
 1114.2500    18.1544  -999.2500      .1298     2.1545    75.5478  -999.2500    24.1837
 1114.3750    18.0775  -999.2500      .1136     2.1514    73.7019  -999.2500    24.1770
 1114.5000    17.9883  -999.2500      .0971     2.1532    72.2564  -999.2500    24.1704
 1114.6250    17.8991  -999.2500      .0834     2.1612    72.2744  -999.2500    24.1637
 1114.7500    17.8538  -999.2500      .0811     2.1759    73.5412  -999.2500    24.1570
 1114.8750    17.8421  -999.2500      .0869     2.1889    75.3920  -999.2500    24.1504
 1115.0000    17.8535  -999.2500      .0942     2.2001    76.8588  -999.2500    24.1437
 1115.1250    17.9169  -999.2500      .0996     2.2107    76.6720  -999.2500    24.1370
 1115.2500    17.9750  -999.2500      .1011     2.2181    74.7037  -999.2500    24.1304
 1115.3750    18.0322  -999.2500      .0975     2.2197    72.3203  -999.2500    24.1237
 1115.5000    18.0514  -999.2500      .0938     2.2184    69.8782  -999.2500    24.1170
 1115.6250    18.0366  -999.2500      .0895     2.2082    67.8298  -999.2500    24.1104
 1115.7500    18.0208  -999.2500      .0856     2.1978    66.5609  -999.2500    24.1037
 1115.8750    18.0051  -999.2500      .0822     2.1887    65.5687  -999.2500    24.0970
 1116.0000    18.0178  -999.2500      .0795     2.1817    65.7444  -999.2500    24.0904
 1116.1250    18.0436  -999.2500      .0788     2.1783    66.4570  -999.2500    24.0837
 1116.2500    18.0756  -999.2500      .0818     2.1796    67.3641  -999.2500    24.0770
 1116.3750    18.1056  -999.2500      .0864     2.1828    68.1730  -999.2500    24.0704
 1116.5000    18.1208  -999.2500      .0923     2.1859    68.6239  -999.2500    24.0637
 1116.6250    18.0667  -999.2500      .0991     2.1866    68.2695  -999.2500    24.0571
 1116.7500    18.0312  -999.2500      .1058     2.1833    67.2814  -999.2500    24.0504
 1116.8750    18.0031  -999.2500      .1067     2.1764    66.1306  -999.2500    24.0437
 1117.0000    17.9820  -999.2500      .1056     2.1673    65.1960  -999.2500    24.0371
 1117.1250    17.9730  -999.2500      .1044     2.1594    64.6245  -999.2500    24.0304
 1117.2500    17.9748  -999.2500      .1058     2.1592    63.8245  -999.2500    24.0237
 1117.3750    17.9766  -999.2500      .1129     2.1680    63.0286  -999.2500    24.0171
 1117.5000    17.9785  -999.2500      .1270     2.1825    62.4101  -999.2500    24.0104
 1117.6250    17.9803  -999.2500      .1520     2.2052    61.9136  -999.2500    24.0037
 1117.7500    17.9821  -999.2500      .1724     2.2176    61.5381  -999.2500    23.9971
 1117.8750    17.9839  -999.2500      .1860     2.2186    61.4200  -999.2500    23.9904
 1118.0000    17.9869  -999.2500      .1940     2.2104    62.1720  -999.2500    23.9837
 1118.1250    18.0025  -999.2500      .1995     2.1968    62.9991  -999.2500    23.9771
 1118.2500    18.0323  -999.2500      .2007     2.1803    63.3896  -999.2500    23.9704
 1118.3750    18.0865  -999.2500      .1964     2.1700    63.4011  -999.2500    23.9637
 1118.5000    18.1699  -999.2500      .1843     2.1576    63.2983  -999.2500    23.9571
 1118.6250    18.2560  -999.2500      .1639     2.1446    63.0995  -999.2500    23.9504
 1118.7500    18.3337  -999.2500      .1399     2.1390    62.6115  -999.2500    23.9438
 1118.8750    18.3873  -999.2500      .1340     2.1499    62.1524  -999.2500    23.9371
 1119.0000    18.4314  -999.2500      .1353     2.1677    61.6840  -999.2500    23.9304
 1119.1250    18.4754  -999.2500      .1376     2.1941    61.2057  -999.2500    23.9238
 1119.2500    18.5194  -999.2500      .1367     2.2078    60.8126  -999.2500    23.9171
 1119.3750    18.5634  -999.2500      .1315     2.2172    60.9002  -999.2500    23.9104
 1119.5000    18.5913  -999.2500      .1236     2.2365    61.2861  -999.2500    23.9038
 1119.6250    18.5721  -999.2500      .1176     2.2784    61.3107  -999.2500    23.8971
 1119.7500    18.5088  -999.2500      .1168     2.3057    60.7531  -999.2500    23.8904
 1119.8750    18.4185  -999.2500      .1196     2.3138    59.6885  -999.2500    23.8838
 1120.0000    18.3196  -999.2500      .1249     2.3012    58.5315  -999.2500    23.8771
 1120.1250    18.1265  -999.2500      .1314     2.2731    57.7840  -999.2500    23.8704
 1120.2500    18.0065  -999.2500      .1364     2.2406    58.0589  -999.2500    23.8638
 1120.3750    17.9306  -999.2500      .1344     2.2240    58.7493  -999.2500    23.8571
 1120.5000    17.8744  -999.2500      .1282     2.2128    59.4435  -999.2500    23.8488
 1120.6250    17.8325  -999.2500      .1185     2.1962    60.0502  -999.2500    23.7616
 1120.7500    17.8253  -999.2500      .1093     2.1815    60.9332  -999.2500    23.5508
 1120.8750    17.8302  -999.2500      .1058     2.1736    63.0980  -999.2500    23.2358
 1121.0000    17.8447  -999.2500      .1070     2.1705    65.5733  -999.2500    22.9074
 1121.1250    17.8623  -999.2500      .1156     2.1782    67.8851  -999.2500    22.5791
 1121.2500    17.8755  -999.2500      .1224     2.1823    69.4786  -999.2500    22.2507
 1121.3750    17.8785  -999.2500      .1238     2.1805    69.4219  -999.2500    21.9224
 1121.5000    17.8738  -999.2500      .1188     2.1735    68.9853  -999.2500    21.5940
 1121.6250    17.8667  -999.2500      .1086     2.1637    69.3542  -999.2500    21.2657
 1121.7500    17.8662  -999.2500      .0983     2.1570    70.1750  -999.2500    20.9373
 1121.8750    17.8756  -999.2500      .0931     2.1574    71.5100  -999.2500    20.6090
 1122.0000    17.8933  -999.2500      .0914     2.1596    73.5255  -999.2500    20.2806
 1122.1250    17.9157  -999.2500      .0927     2.1640    75.1825  -999.2500    19.9523
 1122.2500    17.9121  -999.2500      .0975     2.1705    76.2058  -999.2500    19.6239
 1122.3750    17.8964  -999.2500      .1052     2.1772    77.2974  -999.2500    19.2956
 1122.5000    17.8731  -999.2500      .1137     2.1830    78.4740  -999.2500    18.9672
 1122.6250    17.8524  -999.2500      .1188     2.1868    79.4372  -999.2500    18.6389
 1122.7500    17.8547  -999.2500      .1184     2.1862    79.6307  -999.2500    18.3105
 1122.8750    17.8782  -999.2500      .1112     2.1811    78.9846  -999.2500    17.9822
 1123.0000    17.9125  -999.2500      .0977     2.1715    78.5023  -999.2500    17.6538
 1123.1250    17.9426  -999.2500      .0757     2.1552    78.4660  -999.2500    17.3255
 1123.2500    17.9587  -999.2500      .0602     2.1458    78.7069  -999.2500    16.9971
 1123.3750    17.9568  -999.2500      .0557     2.1489    78.9000  -999.2500    16.6688
