~VERSION INFORMATION
VERS.                                                 2.0:   CWLS Log ASCII Standard-VERSION 2.0
WRAP.                                                  NO:   One line per depth step
~Well Information Block
STRT.M                                           475.1250:   Top Depth
STOP.M                                          3626.2500:   Bottom Depth
STEP.M                                             .12500:   Depth Increment
NULL.                                            -999.250:   Null Value
FLD .                                               SIGMA:   Field Name
WELL.                                             15/9-18:   NAME
WBN .                                             15/9-18:   WELLBORE
NATI.                                                 NOR:   COUNTRY
BHT1.DEGF                                           100.0:   BH TEMP 1
BHT2.DEGF                                           100.0:   BH TEMP 2
BHT3.DEGF                                           100.0:   BH TEMP 3
BS1 .IN                                            12.250:   BIT SIZE 1
CTRY.                                                 NOR:   COUNTRY
CBD1.M                                              181.0:   CSG 1 DRILL DEP
CBL1.M                                              181.0:   CSG 1 LOG DEP
CS1 .IN                                              30.0:   CSG 1 SIZE
COMP.                                             STATOIL:   OPERATOR
PDAT.                                                 MSL:   PERM DATUM
PROV.                                           NORTH SEA:   PROVINCE
COUN.                                      DEEPSEA BERGEN:   RIG NAME
SON .                                                1334:   SOURCE OPERATOR NAME
SPUD.                                          1983/12/16:   SPUD DATE
LATI.                                        58 21 1.95 N:   SURF. LATITUDE
LONG.                                        1 48 12.27 E:   SURF. LONGITUDE
BTD1.                                             521.0 M:   TOTAL DEPTH 1
BTD2.                                             521.0 M:   TOTAL DEPTH 2
BTD3.                                             521.0 M:   TOTAL DEPTH 3
PBWE.                                             15/9-18:   PB WELL ID
APIN.                                             15/9-18:   PB WELLBORE ID
PBWS.                                                 all:   PB WELL NAME SET
~PARAMETER INFORMATION (log)
LNAM.                              CDL/CNL/GR  COMPOSITED:   NAME
LTYP.                                         DEPTH MATCH:   LOG TYPE
LSRV.                                             CAL/BGT:   LOG SERVICE
LSOU.                                             SPT/NPD:   LOG SOURCE
LVSN.                                                   1:   LOG VERSION
BHIS.                                                   R:   BRIEF HISTORY
FHIS.                                             RAW-LIS:   FULL HISTORY
LCNM.                                                  DA:   LOGGING CONTRACTOR
TOOL.                             CDL/CNL/GR (COMPOSITED):   TOOL STRING
~Curve Information Block
#MNEM.UNIT                                        API CODE    No Description
#=========                                        ========    == ===========
DEPT.M                                       00 001 00 00:     1  DEPTH
CAL.IN                                                   :     2  Caliper
CN.%                                                     :     3  Neutron Porosity
CORR.G/CC                                                :     4  Density Correction
DEN.G/CC                                                 :     5  Bulk Density
GR.GAPI                                                  :     6  Gamma Ray
SPD.                                                     :     7  Cable Speed
TEN.LB                                                   :     8  Cable Tension
~ASCII
# ...
 1737.7500    16.0754    42.7041      .1131     2.0510    82.6715  -999.2500    16.2110
 1737.8750    15.9475    42.2271      .1072     2.0517    83.4153  -999.2500    16.3230
 1738.0000    15.9712    41.1411      .1086     2.0563    84.4994  -999.2500    16.4351
 1738.1250    16.0849    39.7357      .1166     2.0640    86.0812  -999.2500    16.5471
 1738.2500    16.3143    38.5704      .1284     2.0725    86.5137  -999.2500    16.6592
 1738.3750    16.4366    38.3743      .1356     2.0775    86.1209  -999.2500    16.7712
 1738.5000    16.4453    39.3358      .1390     2.0798    85.3853  -999.2500    16.8833
 1738.6250    16.3363    40.2392      .1364     2.0814    84.8031  -999.2500    16.9953
 1738.7500    16.0378    40.4544      .1313     2.0829    84.7597  -999.2500    17.1074
 1738.8750    15.8072    40.1740      .1272     2.0846    85.4358  -999.2500    17.2194
 1739.0000    15.6222    39.8355      .1250     2.0867    86.0142  -999.2500    17.3315
 1739.1250    15.4457    39.7131      .1233     2.0890    86.1800  -999.2500    17.4436
 1739.2500    15.2809    40.0587      .1214     2.0894    85.5947  -999.2500    17.5556
 1739.3750    15.1569    40.4957      .1202     2.0886    84.0709  -999.2500    17.6677
 1739.5000    15.1169    40.8319      .1210     2.0886    82.0187  -999.2500    17.7797
 1739.6250    15.1107    40.8359      .1249     2.0905    80.0127  -999.2500    17.8918
 1739.7500    15.1182    40.2718      .1314     2.0944    77.6906  -999.2500    18.0038
 1739.8750    15.1287    39.0024      .1375     2.0943    75.3043  -999.2500    18.1159
 1740.0000    15.1400    38.2794      .1453     2.0930    73.3932  -999.2500    18.2279
 1740.1250    15.1611    38.1796      .1556     2.0921    72.6434  -999.2500    18.3400
 1740.2500    15.2282    39.4235      .1656     2.0915    72.1402  -999.2500    18.4520
 1740.3750    15.2780    42.0258      .1687     2.0901    71.9956  -999.2500    18.5641
 1740.5000    15.3195    44.3232      .1635     2.0854    72.2379  -999.2500    18.6762
 1740.6250    15.3664    46.1356      .1475     2.0695    72.9393  -999.2500    18.7882
 1740.7500    15.4307    49.9974      .1307     2.0475    74.0585  -999.2500    18.9003
 1740.8750    15.5144    52.9427      .1172     2.0313    75.1531  -999.2500    19.0123
 1741.0000    15.5998    53.3626      .1080     2.0241    76.2477  -999.2500    19.1244
 1741.1250    15.6781    51.0158      .1023     2.0235    77.1457  -999.2500    19.2364
 1741.2500    15.7236    46.7730      .1019     2.0345    77.8613  -999.2500    19.3485
 1741.3750    15.7199    42.2909      .1045     2.0447    78.4709  -999.2500    19.4605
 1741.5000    15.6666    39.5205      .1109     2.0553    79.0759  -999.2500    19.5726
 1741.6250    15.6054    38.1698      .1208     2.0701    79.6037  -999.2500    19.6846
 1741.7500    15.5316    37.7833      .1320     2.0875    80.1243  -999.2500    19.7967
 1741.8750    15.4732    38.3644      .1338     2.0975    80.7026  -999.2500    19.9088
 1742.0000    15.4198    39.5611      .1312     2.0942    81.3722  -999.2500    20.0208
 1742.1250    15.3501    40.8864      .1281     2.0862    82.0839  -999.2500    20.1329
 1742.2500    15.2467    42.1573      .1290     2.0799    82.6120  -999.2500    20.2449
 1742.3750    15.1924    42.9059      .1363     2.0795    82.4702  -999.2500    20.3570
 1742.5000    15.1673    42.7589      .1476     2.0854    82.1454  -999.2500    20.4690
 1742.6250    15.1581    42.2550      .1538     2.0863    82.0208  -999.2500    20.5811
 1742.7500    15.1553    40.7176      .1509     2.0784    82.1754  -999.2500    20.6931
 1742.8750    15.1527    38.7803      .1430     2.0737    82.4505  -999.2500    20.8052
 1743.0000    15.1430    37.0985      .1327     2.0732    82.8695  -999.2500    20.9173
 1743.1250    15.1150    36.2127      .1217     2.0757    83.6969  -999.2500    21.0293
 1743.2500    15.0310    36.4496      .1145     2.0781    84.7799  -999.2500    21.1414
 1743.3750    14.9236    38.2012      .1152     2.0756    85.9683  -999.2500    21.2534
 1743.5000    14.8233    39.4836      .1209     2.0753    86.9351  -999.2500    21.3655
 1743.6250    14.7192    39.8019      .1292     2.0795    87.0537  -999.2500    21.4775
 1743.7500    14.5725    38.8924      .1354     2.0845    87.0988  -999.2500    21.5896
 1743.8750    14.4802    37.1822      .1325     2.0845    87.1431  -999.2500    21.7016
 1744.0000    14.4276    36.8541      .1246     2.0758    87.4474  -999.2500    21.8137
 1744.1250    14.4023    37.8831      .1171     2.0642    88.0084  -999.2500    21.9257
 1744.2500    14.3969    40.8403      .1129     2.0561    88.6328  -999.2500    22.0378
 1744.3750    14.4168    44.5352      .1119     2.0537    89.0562  -999.2500    22.1498
 1744.5000    14.4534    47.4169      .1121     2.0553    88.8754  -999.2500    22.2619
 1744.6250    14.5013    47.9314      .1109     2.0567    88.0582  -999.2500    22.3740
 1744.7500    14.5520    44.8993      .1088     2.0556    86.9561  -999.2500    22.4860
 1744.8750    14.5896    41.5134      .1066     2.0536    85.8408  -999.2500    22.5981
 1745.0000    14.5918    39.1023      .1044     2.0512    84.7256  -999.2500    22.7101
 1745.1250    14.5791    38.0687      .1026     2.0496    83.6103  -999.2500    22.8222
 1745.2500    14.5607    38.4760      .1024     2.0500    82.6865  -999.2500    22.9342
 1745.3750    14.5566    40.3637      .1054     2.0535    82.0913  -999.2500    23.0463
 1745.5000    14.5715    42.2905      .1086     2.0575    82.1359  -999.2500    23.1583
 1745.6250    14.6093    43.9225      .1109     2.0565    82.9749  -999.2500    23.2704
 1745.7500    14.7049    44.3490      .1123     2.0517    83.8909  -999.2500    23.3825
 1745.8750    14.8042    43.2271      .1133     2.0461    84.8069  -999.2500    23.4945
 1746.0000    14.8952    40.8149      .1158     2.0434    85.2852  -999.2500    23.6066
 1746.1250    14.9859    38.0375      .1204     2.0471    84.9548  -999.2500    23.7186
 1746.2500    15.0702    35.4064      .1231     2.0586    83.9550  -999.2500    23.8307
 1746.3750    15.1244    33.9759      .1235     2.0680    82.9792  -999.2500    23.9427
 1746.5000    15.1501    33.8414      .1217     2.0743    82.5508  -999.2500    24.0548
 1746.6250    15.1875    34.7398      .1185     2.0771    82.7099  -999.2500    24.1668
 1746.7500    15.2416    36.2290      .1154     2.0743    83.3237  -999.2500    24.2789
 1746.8750    15.2840    37.6590      .1148     2.0691    84.2095  -999.2500    24.3909
 1747.0000    15.2862    38.0208      .1173     2.0665    85.1653  -999.2500    24.5030
 1747.1250    15.2558    37.7439      .1226     2.0690    86.0124  -999.2500    24.6151
 1747.2500    15.1571    36.7632      .1290     2.0756    85.7909  -999.2500    24.7271
 1747.3750    15.1129    35.0222      .1316     2.0821    85.3203  -999.2500    24.8392
 1747.5000    15.1238    34.0927      .1325     2.0830    85.0366  -999.2500    24.9512
 1747.6250    15.2026    33.7493      .1350     2.0803    85.1882  -999.2500    25.0633
 1747.7500    15.3718    34.8781      .1389     2.0790    85.8536  -999.2500    25.1753
 1747.8750    15.5724    36.6514      .1429     2.0809    87.2858  -999.2500    25.2874
 1748.0000    15.7283    38.2642      .1444     2.0854    89.2323  -999.2500    25.3994
 1748.1250    15.8879    39.4077      .1383     2.0894    90.9889  -999.2500    25.5115
 1748.2500    16.0587    39.2032      .1316     2.0883    92.2484  -999.2500    25.6235
 1748.3750    16.2098    37.9748      .1275     2.0862    92.7105  -999.2500    25.7356
 1748.5000    16.2511    36.7236      .1276     2.0848    91.8332  -999.2500    25.8477
 1748.6250    16.2433    35.9832      .1325     2.0869    89.9844  -999.2500    25.9597
 1748.7500    16.1604    36.0651      .1405     2.0944    88.1093  -999.2500    26.0718
 1748.8750    16.0370    37.4127      .1469     2.1045    86.6579  -999.2500    26.1838
 1749.0000    15.8830    38.8203      .1506     2.1145    86.0695  -999.2500    26.2959
