~VERSION INFORMATION
VERS.                                                 2.0:   CWLS Log ASCII Standard-VERSION 2.0
WRAP.                                                  NO:   One line per depth step
~Well Information Block
STRT.M                                           475.1250:   Top Depth
STOP.M                                          3626.2500:   Bottom Depth
STEP.M                                             .12500:   Depth Increment
NULL.                                            -999.250:   Null Value
FLD .                                               SIGMA:   Field Name
WELL.                                             15/9-18:   NAME
WBN .                                             15/9-18:   WELLBORE
NATI.                                                 NOR:   COUNTRY
BHT1.DEGF                                           100.0:   BH TEMP 1
BHT2.DEGF                                           100.0:   BH TEMP 2
BHT3.DEGF                                           100.0:   BH TEMP 3
BS1 .IN                                            12.250:   BIT SIZE 1
CTRY.                                                 NOR:   COUNTRY
CBD1.M                                              181.0:   CSG 1 DRILL DEP
CBL1.M                                              181.0:   CSG 1 LOG DEP
CS1 .IN                                              30.0:   CSG 1 SIZE
COMP.                                             STATOIL:   OPERATOR
PDAT.                                                 MSL:   PERM DATUM
PROV.                                           NORTH SEA:   PROVINCE
COUN.                                      DEEPSEA BERGEN:   RIG NAME
SON .                                                1334:   SOURCE OPERATOR NAME
SPUD.                                          1983/12/16:   SPUD DATE
LATI.                                        58 21 1.95 N:   SURF. LATITUDE
LONG.                                        1 48 12.27 E:   SURF. LONGITUDE
BTD1.                                             521.0 M:   TOTAL DEPTH 1
BTD2.                                             521.0 M:   TOTAL DEPTH 2
BTD3.                                             521.0 M:   TOTAL DEPTH 3
PBWE.                                             15/9-18:   PB WELL ID
APIN.                                             15/9-18:   PB WELLBORE ID
PBWS.                                                 all:   PB WELL NAME SET
~PARAMETER INFORMATION (log)
LNAM.                              CDL/CNL/GR  COMPOSITED:   NAME
LTYP.                                         DEPTH MATCH:   LOG TYPE
LSRV.                                             CAL/BGT:   LOG SERVICE
LSOU.                                             SPT/NPD:   LOG SOURCE
LVSN.                                                   1:   LOG VERSION
BHIS.                                                   R:   BRIEF HISTORY
FHIS.                                             RAW-LIS:   FULL HISTORY
LCNM.                                                  DA:   LOGGING CONTRACTOR
TOOL.                             CDL/CNL/GR (COMPOSITED):   TOOL STRING
~Curve Information Block
#MNEM.UNIT                                        API CODE    No Description
#=========                                        ========    == ===========
DEPT.M                                       00 001 00 00:     1  DEPTH
CAL.IN                                                   :     2  Caliper
CN.%                                                     :     3  Neutron Porosity
CORR.G/CC                                                :     4  Density Correction
DEN.G/CC                                                 :     5  Bulk Density
GR.GAPI                                                  :     6  Gamma Ray
SPD.                                                     :     7  Cable Speed
TEN.LB                                                   :     8  Cable Tension
~ASCII
# ...
 2784.2500     9.6504    10.1739      .0260     2.6076      .7871     9.9211   -40.0948
 2784.3750     9.6486    10.0334      .0217     2.6112      .7083     9.9030   -43.7508
 2784.5000     9.6455     9.7221      .0069     2.6014      .8692     9.8992   -48.1464
 2784.6250     9.6420     9.2357     -.0182     2.5781     1.1288     9.9054   -51.5125
 2784.7500     9.6391     8.6832     -.0440     2.5494     1.2263     9.9175   -51.3283
 2784.8750     9.6371     8.3613     -.0561     2.5369     1.0469     9.9341   -45.5151
 2785.0000     9.6359     8.3857     -.0541     2.5411      .6356     9.9534   -37.9900
 2785.1250     9.6353     8.6676     -.0443     2.5514      .2761     9.9710   -31.8734
 2785.2500     9.6360     9.1167     -.0342     2.5588      .4021     9.9814   -29.1535
 2785.3750     9.6371     9.6477     -.0300     2.5579      .8699     9.9862   -30.4385
 2785.5000     9.6386    10.2054     -.0309     2.5503     1.5435     9.9876   -33.8178
 2785.6250     9.6404    10.7405     -.0305     2.5446     2.2613     9.9887   -34.9755
 2785.7500     9.6427    11.1255     -.0275     2.5420     2.8561     9.9927   -33.8422
 2785.8750     9.6475    11.2382     -.0231     2.5408     3.1370     9.9989   -32.2544
 2786.0000     9.6556    11.0503     -.0199     2.5396     3.0779     9.9968   -32.1417
 2786.1250     9.6656    10.6445     -.0206     2.5374     2.8334     9.9824   -34.9163
 2786.2500     9.6756    10.1686     -.0239     2.5358     2.5602     9.9583   -38.9453
 2786.3750     9.6838     9.7737     -.0254     2.5375     2.3695     9.9314   -38.1506
 2786.5000     9.6890     9.4899     -.0241     2.5453     2.2796     9.9118   -31.4138
 2786.6250     9.6898     9.3150     -.0212     2.5573     2.0281     9.9138   -21.4539
 2786.7500     9.6882     9.2260     -.0203     2.5688     1.5796     9.9222   -12.7666
 2786.8750     9.6859     9.1822     -.0248     2.5734     1.0340     9.9272   -10.6007
 2787.0000     9.6847     8.9851     -.0298     2.5704      .5185     9.9273   -15.5135
 2787.1250     9.6858     8.5542     -.0313     2.5703      .1675     9.9274   -22.8998
 2787.2500     9.6908     7.9609     -.0273     2.5770      .1332     9.9396   -30.2287
 2787.3750     9.6989     7.3337     -.0184     2.5910      .3147     9.9603   -35.9817
 2787.5000     9.7072     6.8322     -.0081     2.6093      .5346     9.9760   -39.6176
 2787.6250     9.7139     6.6205     -.0020     2.6220      .7212     9.9813   -40.4722
 2787.7500     9.7177     6.6220      .0023     2.6279      .8557     9.9753   -39.1681
 2787.8750     9.7178     6.7631      .0058     2.6300      .9729     9.9613   -36.6738
 2788.0000     9.7167     7.0305      .0086     2.6281     1.1365     9.9471   -33.0166
 2788.1250     9.7190     7.4179      .0093     2.6207     1.3016     9.9299   -27.7852
 2788.2500     9.7252     7.9138      .0051     2.6067     1.4394     9.9120   -20.0844
 2788.3750     9.7346     8.4302     -.0022     2.5890     1.5394     9.9027   -10.9301
 2788.5000     9.7451     8.8166     -.0121     2.5725     1.5986     9.9127    -5.0489
 2788.6250     9.7535     9.0342     -.0227     2.5597     1.6080     9.9467    -4.0717
 2788.7500     9.7575     9.0647     -.0315     2.5531     1.5385     9.9855    -7.6767
 2788.8750     9.7578     8.9117     -.0350     2.5546     1.4076    10.0043   -13.7793
 2789.0000     9.7544     8.6018     -.0302     2.5635     1.2445     9.9959   -17.6747
 2789.1250     9.7478     8.2205     -.0175     2.5806     1.1027     9.9659   -17.3685
 2789.2500     9.7393     7.8783     -.0017     2.5986     1.0538     9.9320   -15.9543
 2789.3750     9.7318     7.6404      .0114     2.6102     1.1819     9.9189   -15.1311
 2789.5000     9.7285     7.5283      .0161     2.6117     1.4818     9.9205   -15.5224
 2789.6250     9.7290     7.5065      .0106     2.6048     1.8356     9.9252   -16.3776
 2789.7500     9.7322     7.5427      .0019     2.5956     2.1094     9.9299   -17.6623
 2789.8750     9.7361     7.6203     -.0042     2.5927     2.1885     9.9368   -22.0665
 2790.0000     9.7388     7.7642     -.0062     2.5962     2.0189     9.9536   -30.3148
 2790.1250     9.7395     7.9689     -.0047     2.6028     1.7130     9.9841   -39.8444
 2790.2500     9.7401     8.2072     -.0023     2.6089     1.4454    10.0063   -46.0587
 2790.3750     9.7419     8.4343      .0027     2.6150     1.2791    10.0046   -42.5081
 2790.5000     9.7451     8.5900      .0115     2.6250     1.2515     9.9777   -31.4475
 2790.6250     9.7496     8.6619      .0202     2.6324     1.3768     9.9390   -20.2342
 2790.7500     9.7558     8.6565      .0241     2.6308     1.6513     9.9212   -12.4720
 2790.8750     9.7644     8.5966      .0197     2.6170     1.9715     9.9337    -9.8485
 2791.0000     9.7758     8.5201      .0094     2.5928     2.3093     9.9607   -12.0006
 2791.1250     9.7885     8.5284      .0007     2.5694     2.6353     9.9825   -17.6618
 2791.2500     9.8003     8.6732     -.0044     2.5547     2.9005     9.9841   -24.3656
 2791.3750     9.8083     8.9457     -.0064     2.5497     3.0235     9.9625   -29.7860
 2791.5000     9.8110     9.2599     -.0070     2.5519     2.9279     9.9520   -32.6377
 2791.6250     9.8109     9.4928     -.0086     2.5575     2.7559     9.9708   -32.8862
 2791.7500     9.8097     9.5027     -.0126     2.5618     2.6368    10.0093   -32.7827
 2791.8750     9.8090     9.3485     -.0190     2.5614     2.5990    10.0532   -35.1587
 2792.0000     9.8101     9.1156     -.0278     2.5579     2.5756    10.0873   -37.7706
 2792.1250     9.8145     8.8169     -.0375     2.5550     2.3472    10.0964   -38.5653
 2792.2500     9.8225     8.4509     -.0451     2.5561     1.9100    10.0898   -36.2742
 2792.3750     9.8301     8.0145     -.0471     2.5629     1.5487    10.0808   -30.7903
 2792.5000     9.8347     7.5916     -.0434     2.5717     1.4492    10.0738   -25.0012
 2792.6250     9.8347     7.3420     -.0353     2.5800     1.6815    10.0708   -22.2271
 2792.7500     9.8296     7.2559     -.0242     2.5887     2.1595    10.0715   -22.2280
 2792.8750     9.8219     7.3161     -.0121     2.5971     2.6614    10.0687   -24.4357
 2793.0000     9.8157     7.4850     -.0025     2.6032     3.0028    10.0512   -27.7296
 2793.1250     9.8115     7.6996     -.0015     2.6044     3.1160    10.0217   -30.1677
 2793.2500     9.8092     7.9037     -.0078     2.5993     2.9721     9.9919   -30.1652
 2793.3750     9.8082     8.0171     -.0173     2.5933     2.6016     9.9776   -30.1432
 2793.5000     9.8081     8.0024     -.0256     2.5895     2.1570     9.9956   -31.5220
 2793.6250     9.8105     7.8848     -.0294     2.5888     1.9625    10.0437   -34.2067
 2793.7500     9.8154     7.7434     -.0266     2.5895     1.9997    10.0866   -36.6811
 2793.8750     9.8227     7.7158     -.0251     2.5834     2.1288    10.1031   -35.2335
 2794.0000     9.8311     7.8600     -.0292     2.5670     2.2305    10.0871   -30.0647
 2794.1250     9.8388     8.1419     -.0364     2.5476     2.2539    10.0508   -24.8943
 2794.2500     9.8423     8.5257     -.0420     2.5331     2.3653    10.0240   -22.4630
 2794.3750     9.8434     8.9815     -.0408     2.5285     2.6372    10.0220   -24.3831
 2794.5000     9.8436     9.5009     -.0332     2.5344     2.9522    10.0457   -30.5747
 2794.6250     9.8439    10.1161     -.0252     2.5457     3.1733    10.0864   -38.1028
 2794.7500     9.8449    10.7027     -.0194     2.5550     3.1811    10.1298   -43.8638
 2794.8750     9.8464    11.0811     -.0154     2.5622     2.9188    10.1591   -47.0895
 2795.0000     9.8476    11.1697     -.0123     2.5674     2.5625    10.1610   -47.9426
 2795.1250     9.8479    10.9931     -.0093     2.5704     2.1857    10.1407   -47.1066
 2795.2500     9.8473    10.7510     -.0120     2.5670     1.8048    10.1082   -44.9073
 2795.3750     9.8463    10.7085     -.0216     2.5544     1.4486    10.0748   -41.4743
 2795.5000     9.8457    10.8719     -.0348     2.5370     1.1609    10.0511   -36.9472
