~VERSION INFORMATION
VERS.                                                 2.0:   CWLS Log ASCII Standard-VERSION 2.0
WRAP.                                                  NO:   One line per depth step
~Well Information Block
STRT.M                                           475.1250:   Top Depth
STOP.M                                          3626.2500:   Bottom Depth
STEP.M                                             .12500:   Depth Increment
NULL.                                            -999.250:   Null Value
FLD .                                               SIGMA:   Field Name
WELL.                                             15/9-18:   NAME
WBN .                                             15/9-18:   WELLBORE
NATI.                                                 NOR:   COUNTRY
BHT1.DEGF                                           100.0:   BH TEMP 1
BHT2.DEGF                                           100.0:   BH TEMP 2
BHT3.DEGF                                           100.0:   BH TEMP 3
BS1 .IN                                            12.250:   BIT SIZE 1
CTRY.                                                 NOR:   COUNTRY
CBD1.M                                              181.0:   CSG 1 DRILL DEP
CBL1.M                                              181.0:   CSG 1 LOG DEP
CS1 .IN                                              30.0:   CSG 1 SIZE
COMP.                                             STATOIL:   OPERATOR
PDAT.                                                 MSL:   PERM DATUM
PROV.                                           NORTH SEA:   PROVINCE
COUN.                                      DEEPSEA BERGEN:   RIG NAME
SON .                                                1334:   SOURCE OPERATOR NAME
SPUD.                                          1983/12/16:   SPUD DATE
LATI.                                        58 21 1.95 N:   SURF. LATITUDE
LONG.                                        1 48 12.27 E:   SURF. LONGITUDE
BTD1.                                             521.0 M:   TOTAL DEPTH 1
BTD2.                                             521.0 M:   TOTAL DEPTH 2
BTD3.                                             521.0 M:   TOTAL DEPTH 3
PBWE.                                             15/9-18:   PB WELL ID
APIN.                                             15/9-18:   PB WELLBORE ID
PBWS.                                                 all:   PB WELL NAME SET
~PARAMETER INFORMATION (log)
LNAM.                              CDL/CNL/GR  COMPOSITED:   NAME
LTYP.                                         DEPTH MATCH:   LOG TYPE
LSRV.                                             CAL/BGT:   LOG SERVICE
LSOU.                                             SPT/NPD:   LOG SOURCE
LVSN.                                                   1:   LOG VERSION
BHIS.                                                   R:   BRIEF HISTORY
FHIS.                                             RAW-LIS:   FULL HISTORY
LCNM.                                                  DA:   LOGGING CONTRACTOR
TOOL.                             CDL/CNL/GR (COMPOSITED):   TOOL STRING
~Curve Information Block
#MNEM.UNIT                                        API CODE    No Description
#=========                                        ========    == ===========
DEPT.M                                       00 001 00 00:     1  DEPTH
CAL.IN                                                   :     2  Caliper
CN.%                                                     :     3  Neutron Porosity
CORR.G/CC                                                :     4  Density Correction
DEN.G/CC                                                 :     5  Bulk Density
GR.GAPI                                                  :     6  Gamma Ray
SPD.                                                     :     7  Cable Speed
TEN.LB                                                   :     8  Cable Tension
~ASCII
# ...
 3409.8750     8.3329    38.8565     -.0133     1.7618    43.9884     8.9512   -42.8807
 3410.0000     8.3339    40.1760     -.0117     1.6916    37.3280     8.9841   -51.4872
 3410.1250     8.3342    42.7022     -.0112     1.6348    31.8203     9.0062   -61.4138
 3410.2500     8.3340    45.5894     -.0135     1.5919    29.5625     9.0090   -70.8567
 3410.3750     8.3377    47.7588     -.0184     1.5622    29.5126     8.9996   -77.5693
 3410.5000     8.3555    48.1713     -.0214     1.5439    31.0802     8.9829   -78.7627
 3410.6250     8.3978    46.7877     -.0198     1.5437    33.5278     8.9654   -70.9587
 3410.7500     8.4708    45.5292     -.0156     1.5627    36.0483     8.9523   -59.4506
 3410.8750     8.5719    44.9551     -.0095     1.6060    37.8733     8.9421   -48.6954
 3411.0000     8.6471    45.0596     -.0016     1.6716    39.4337     8.9296   -42.3060
 3411.1250     8.6644    45.4655      .0084     1.7502    41.8411     8.9139   -42.8016
 3411.2500     8.6292    45.7474      .0190     1.8189    44.8666     8.8981   -51.9041
 3411.3750     8.5619    45.8324      .0274     1.8572    47.4769     8.8876   -64.2069
 3411.5000     8.4922    45.7241      .0327     1.8729    48.0279     8.8880   -75.4091
 3411.6250     8.4566    45.6210      .0343     1.8769    44.1249     8.8975   -83.4927
 3411.7500     8.4478    45.7949      .0317     1.8752    37.7031     8.9007   -86.9367
 3411.8750     8.4600    46.5327      .0242     1.8639    31.6493     8.8917   -84.5708
 3412.0000     8.4985    47.5370      .0149     1.8266    27.3138     8.8706   -76.6940
 3412.1250     8.5706    48.1580      .0053     1.7611    25.0347     8.8424   -65.6200
 3412.2500     8.6828    48.2828     -.0044     1.6821    23.9687     8.8179   -54.1554
 3412.3750     8.8144    48.0119     -.0139     1.6036    22.7177     8.8146   -45.1498
 3412.5000     8.9282    47.5809     -.0231     1.5383    22.3509     8.8287   -41.3098
 3412.6250     9.0123    47.3293     -.0273     1.4974    23.7407     8.8528   -45.5799
 3412.7500     9.0598    46.9552     -.0285     1.4826    27.1002     8.8793   -59.5056
 3412.8750     9.0688    46.1736     -.0311     1.4798    31.8827     8.9016   -75.8337
 3413.0000     9.0447    44.9551     -.0375     1.4859    35.9176     8.9132   -87.9160
 3413.1250     9.0013    43.0897     -.0481     1.5025    37.5820     8.9061   -90.1405
 3413.2500     8.9646    40.1510     -.0578     1.5359    38.0373     8.8864   -79.1342
 3413.3750     8.9540    35.7584     -.0544     1.6087    38.1947     8.8609   -58.7149
 3413.5000     8.9758    31.4608     -.0278     1.7283    38.6818     8.8397   -43.0476
 3413.6250     9.0168    28.3986      .0182     1.8819    39.6177     8.8374   -36.0769
 3413.7500     9.0145    26.7653      .0710     2.0461    40.3171     8.8724   -37.6862
 3413.8750     8.9432    26.2955      .1105     2.1924    39.9162     8.9176   -45.3443
 3414.0000     8.8073    26.6055      .1048     2.2899    37.8751     8.9517   -54.9423
 3414.1250     8.6342    27.0022      .0648     2.3268    34.6300     8.9640   -65.6086
 3414.2500     8.4644    26.6718      .0187     2.3515    31.3423     8.9557   -77.5665
 3414.3750     8.3417    25.4518     -.0124     2.3759    29.9847     8.9473   -88.7492
 3414.5000     8.2778    23.7271     -.0171     2.3958    31.3207     8.9498   -96.0115
 3414.6250     8.2462    22.3427     -.0021     2.3949    34.6612     8.9460   -95.3425
 3414.7500     8.2152    22.4240      .0024     2.3623    39.3218     8.9221   -78.2426
 3414.8750     8.1561    23.8128     -.0163     2.3004    44.4627     8.8727   -52.2419
 3415.0000     8.0503    25.9510     -.0578     2.2175    49.1567     8.8061   -27.1319
 3415.1250     7.9221    27.7123     -.1108     2.1266    51.7442     8.7572    -9.9037
 3415.2500     7.8519    28.0382     -.1534     2.0433    52.5192     8.7354    -5.0513
 3415.3750     7.8906    26.4328     -.1460     1.9839    52.6585     8.7378   -13.5102
 3415.5000     8.0452    24.6600     -.0990     1.9450    53.2926     8.7610   -24.7260
 3415.6250     8.2916    23.5257     -.0379     1.9135    55.2384     8.8000   -32.0745
 3415.7500     8.5772    23.2566      .0172     1.8854    58.4098     8.8447   -37.1018
 3415.8750     8.8397    24.0950      .0527     1.8608    61.2919     8.8764   -42.4963
 3416.0000     9.0880    26.2532      .0650     1.8432    63.7071     8.8835   -50.7081
 3416.1250     9.3447    29.8619      .0615     1.8430    65.8487     8.8714   -59.7027
 3416.2500     9.6138    34.0579      .0578     1.8695    67.8719     8.8500   -61.2174
 3416.3750     9.8719    37.1513      .0595     1.9229    69.8044     8.8308   -54.6516
 3416.5000    10.0000    38.9916      .0671     1.9921    71.2201     8.8262   -43.8757
 3416.6250     9.9263    39.9651      .0765     2.0569    71.2300     8.8376   -34.5082
 3416.7500     9.7506    40.7525      .0782     2.0893    69.7430     8.8535   -32.6308
 3416.8750     9.5675    41.0802      .0811     2.0688    66.8250     8.8625   -40.2759
 3417.0000     9.4560    41.1196      .0911     2.0331    62.8964     8.8565   -49.9320
 3417.1250     9.4554    41.1767      .1073     2.0028    59.0769     8.8387   -59.7595
 3417.2500     9.5130    41.2100      .1234     1.9873    57.2858     8.8248   -70.0003
 3417.3750     9.5361    40.6923      .1264     1.9862    56.8314     8.8211   -81.6530
 3417.5000     9.5039    37.6576      .0989     1.9876    56.2786     8.8234   -93.5994
 3417.6250     9.4242    31.5736      .0499     1.9819    54.4277     8.8242   -94.3868
 3417.7500     9.3311    26.2018     -.0028     1.9808    50.6433     8.8146   -81.8404
 3417.8750     9.3037    22.5392     -.0419     1.9957    46.0658     8.7945   -58.7752
 3418.0000     9.4141    20.5903     -.0554     2.0345    43.8769     8.7821   -32.3805
 3418.1250     9.6389    19.5889     -.0518     2.0979    44.1727     8.7841   -13.6096
 3418.2500     9.9289    19.5030     -.0544     2.1435    45.8136     8.7998   -16.0239
 3418.3750    10.2231    20.0946     -.0593     2.1402    47.3054     8.8244   -27.6825
 3418.5000    10.4625    21.8896     -.0586     2.1078    47.3355     8.8504   -41.6544
 3418.6250    10.6064    25.3162     -.0462     2.0699    46.0853     8.8757   -54.3296
 3418.7500    10.7054    30.4670     -.0219     2.0473    45.0718     8.9032   -64.1521
 3418.8750    10.7655    36.6635      .0093     2.0498    44.6974     8.9279   -71.1038
 3419.0000    10.7756    40.1944      .0453     2.0663    44.9698     8.9421   -70.6799
 3419.1250    10.7098    41.1435      .0847     2.0966    45.6181     8.9372   -59.2605
 3419.2500    10.5022    40.3788      .1247     2.1418    46.3496     8.9028   -39.6724
 3419.3750    10.2082    38.5960      .1612     2.2024    46.7332     8.8659   -18.3491
 3419.5000     9.9141    36.0937      .1856     2.2780    46.2384     8.8476    -4.1974
 3419.6250     9.6669    32.4047      .1827     2.3574    44.9786     8.8468    -8.6303
 3419.7500     9.4935    28.8552      .1590     2.4201    43.3265     8.8540   -22.9280
 3419.8750     9.3964    26.2890      .1188     2.4577    41.8044     8.8544   -35.3566
 3420.0000     9.3348    24.9723      .0700     2.4713    41.3640     8.8297   -40.6044
 3420.1250     9.2949    24.8966      .0251     2.4659    42.0815     8.7983   -38.0378
 3420.2500     9.2765    25.9625      .0210     2.4451    43.5569     8.7766   -32.9895
 3420.3750     9.2746    27.6499      .0498     2.4143    45.2875     8.7725   -33.9539
 3420.5000     9.2781    29.1661      .0916     2.3917    46.7224     8.7848   -37.7485
 3420.6250     9.2618    30.3261      .1283     2.3857    47.2115     8.7978   -39.7100
 3420.7500     9.1927    30.8394      .1477     2.3978    46.5062     8.7998   -36.4761
 3420.8750     9.0761    30.3860      .1540     2.4234    44.9598     8.7977   -26.8344
 3421.0000     8.9356    28.9964      .1670     2.4520    42.7421     8.7989   -15.3250
 3421.1250     8.8093    27.2913      .1926     2.4745    40.0759     8.8070    -8.5004
