~VERSION INFORMATION
VERS.                                                 2.0:   CWLS Log ASCII Standard-VERSION 2.0
WRAP.                                                  NO:   One line per depth step
~Well Information Block
STRT.M                                           475.1250:   Top Depth
STOP.M                                          3626.2500:   Bottom Depth
STEP.M                                             .12500:   Depth Increment
NULL.                                            -999.250:   Null Value
FLD .                                               SIGMA:   Field Name
WELL.                                             15/9-18:   NAME
WBN .                                             15/9-18:   WELLBORE
NATI.                                                 NOR:   COUNTRY
BHT1.DEGF                                           100.0:   BH TEMP 1
BHT2.DEGF                                           100.0:   BH TEMP 2
BHT3.DEGF                                           100.0:   BH TEMP 3
BS1 .IN                                            12.250:   BIT SIZE 1
CTRY.                                                 NOR:   COUNTRY
CBD1.M                                              181.0:   CSG 1 DRILL DEP
CBL1.M                                              181.0:   CSG 1 LOG DEP
CS1 .IN                                              30.0:   CSG 1 SIZE
COMP.                                             STATOIL:   OPERATOR
PDAT.                                                 MSL:   PERM DATUM
PROV.                                           NORTH SEA:   PROVINCE
COUN.                                      DEEPSEA BERGEN:   RIG NAME
SON .                                                1334:   SOURCE OPERATOR NAME
SPUD.                                          1983/12/16:   SPUD DATE
LATI.                                        58 21 1.95 N:   SURF. LATITUDE
LONG.                                        1 48 12.27 E:   SURF. LONGITUDE
BTD1.                                             521.0 M:   TOTAL DEPTH 1
BTD2.                                             521.0 M:   TOTAL DEPTH 2
BTD3.                                             521.0 M:   TOTAL DEPTH 3
PBWE.                                             15/9-18:   PB WELL ID
APIN.                                             15/9-18:   PB WELLBORE ID
PBWS.                                                 all:   PB WELL NAME SET
~PARAMETER INFORMATION (log)
LNAM.                              CDL/CNL/GR  COMPOSITED:   NAME
LTYP.                                         DEPTH MATCH:   LOG TYPE
LSRV.                                             CAL/BGT:   LOG SERVICE
LSOU.                                             SPT/NPD:   LOG SOURCE
LVSN.                                                   1:   LOG VERSION
BHIS.                                                   R:   BRIEF HISTORY
FHIS.                                             RAW-LIS:   FULL HISTORY
LCNM.                                                  DA:   LOGGING CONTRACTOR
TOOL.                             CDL/CNL/GR (COMPOSITED):   TOOL STRING
~Curve Information Block
#MNEM.UNIT                                        API CODE    No Description
#=========                                        ========    == ===========
DEPT.M                                       00 001 00 00:     1  DEPTH
CAL.IN                                                   :     2  Caliper
CN.%                                                     :     3  Neutron Porosity
CORR.G/CC                                                :     4  Density Correction
DEN.G/CC                                                 :     5  Bulk Density
GR.GAPI                                                  :     6  Gamma Ray
SPD.                                                     :     7  Cable Speed
TEN.LB                                                   :     8  Cable Tension
~ASCII
# ...
  691.2500    17.6495  -999.2500      .0937     2.2031    70.6174  -999.2500     7.8407
  691.3750    17.6418  -999.2500      .0886     2.1973    71.9879  -999.2500     7.7538
  691.5000    17.6510  -999.2500      .0867     2.1953    73.0166  -999.2500     7.6669
  691.6250    17.6922  -999.2500      .0892     2.1994    73.1471  -999.2500     7.5799
  691.7500    17.7548  -999.2500      .0951     2.2069    72.6616  -999.2500     7.4930
  691.8750    17.8276  -999.2500      .1024     2.2157    71.7307  -999.2500     7.4061
  692.0000    17.9051  -999.2500      .1094     2.2254    70.7459  -999.2500     7.3192
  692.1250    17.9435  -999.2500      .1142     2.2368    69.9977  -999.2500     7.2323
  692.2500    17.9325  -999.2500      .1147     2.2454    69.7774  -999.2500     7.1453
  692.3750    17.9129  -999.2500      .1109     2.2509    70.3520  -999.2500     7.0584
  692.5000    17.9229  -999.2500      .1037     2.2530    71.7674  -999.2500     6.9715
  692.6250    17.9615  -999.2500      .0941     2.2497    73.5665  -999.2500     6.8846
  692.7500    18.0135  -999.2500      .0854     2.2351    74.6497  -999.2500     6.7976
  692.8750    18.0742  -999.2500      .0811     2.2219    75.0046  -999.2500     6.7107
  693.0000    18.1435  -999.2500      .0792     2.2123    75.0468  -999.2500     6.6238
  693.1250    18.2220  -999.2500      .0783     2.2154    74.9710  -999.2500     6.5369
  693.2500    18.2610  -999.2500      .0774     2.2278    74.8947  -999.2500     6.4499
  693.3750    18.2947  -999.2500      .0755     2.2397    74.9623  -999.2500     6.3630
  693.5000    18.3407  -999.2500      .0727     2.2487    75.1584  -999.2500     6.2761
  693.6250    18.3913  -999.2500      .0711     2.2542    75.4602  -999.2500     6.1892
  693.7500    18.4180  -999.2500      .0729     2.2581    75.8840  -999.2500     6.1023
  693.8750    18.4262  -999.2500      .0790     2.2616    76.8754  -999.2500     6.0153
  694.0000    18.3879  -999.2500      .0886     2.2649    77.9438  -999.2500     5.9284
  694.1250    18.3344  -999.2500      .0996     2.2668    79.0523  -999.2500     5.8415
  694.2500    18.2825  -999.2500      .1064     2.2639    79.8487  -999.2500     5.7546
  694.3750    18.2426  -999.2500      .1062     2.2582    79.8258  -999.2500     5.6676
  694.5000    18.2193  -999.2500      .1010     2.2520    78.3160  -999.2500     5.5807
  694.6250    18.2175  -999.2500      .0940     2.2479    76.4028  -999.2500     5.4938
  694.7500    18.2214  -999.2500      .0877     2.2483    74.4735  -999.2500     5.4069
  694.8750    18.2231  -999.2500      .0879     2.2526    72.5438  -999.2500     5.3200
  695.0000    18.2169  -999.2500      .0894     2.2584    70.9230  -999.2500     5.2330
  695.1250    18.1996  -999.2500      .0901     2.2657    70.1802  -999.2500     5.1461
  695.2500    18.1777  -999.2500      .0886     2.2700    71.2747  -999.2500     5.0592
  695.3750    18.1599  -999.2500      .0844     2.2690    72.3595  -999.2500     4.9723
  695.5000    18.1709  -999.2500      .0784     2.2639    73.4123  -999.2500     4.8853
  695.6250    18.2078  -999.2500      .0704     2.2532    73.8788  -999.2500     4.7984
  695.7500    18.2586  -999.2500      .0646     2.2449    73.4128  -999.2500     4.7115
  695.8750    18.3101  -999.2500      .0619     2.2393    72.3042  -999.2500     4.6246
  696.0000    18.3449  -999.2500      .0616     2.2343    71.1952  -999.2500     4.5376
  696.1250    18.3524  -999.2500      .0610     2.2280    70.6412  -999.2500     4.4507
  696.2500    18.3400  -999.2500      .0582     2.2208    70.7652  -999.2500     4.3638
  696.3750    18.3142  -999.2500      .0577     2.2229    71.4839  -999.2500     4.2769
  696.5000    18.2788  -999.2500      .0612     2.2314    72.4421  -999.2500     4.1900
  696.6250    18.2292  -999.2500      .0704     2.2511    72.4716  -999.2500     4.1030
  696.7500    18.1966  -999.2500      .0849     2.2742    72.4753  -999.2500     4.0161
  696.8750    18.1648  -999.2500      .0932     2.2829    72.4758  -999.2500     3.9292
  697.0000    18.1320  -999.2500      .0975     2.2849    72.6406  -999.2500     3.8423
  697.1250    18.1051  -999.2500      .0978     2.2784    72.9631  -999.2500     3.7553
  697.2500    18.0995  -999.2500      .0956     2.2695    73.1457  -999.2500     3.6684
  697.3750    18.1086  -999.2500      .0925     2.2608    72.5507  -999.2500     3.5815
  697.5000    18.1486  -999.2500      .0894     2.2535    71.9725  -999.2500     3.4946
  697.6250    18.1881  -999.2500      .0874     2.2486    72.1450  -999.2500     3.4077
  697.7500    18.2171  -999.2500      .0885     2.2521    72.8907  -999.2500     3.3207
  697.8750    18.2369  -999.2500      .0919     2.2592    73.6107  -999.2500     3.2338
  698.0000    18.2478  -999.2500      .0954     2.2658    73.8666  -999.2500     3.1469
  698.1250    18.2493  -999.2500      .0957     2.2672    73.1068  -999.2500     3.0600
  698.2500    18.2458  -999.2500      .0888     2.2600    71.9919  -999.2500     2.9730
  698.3750    18.2394  -999.2500      .0803     2.2495    70.7900  -999.2500     2.8861
  698.5000    18.2311  -999.2500      .0743     2.2418    69.9531  -999.2500     2.7992
  698.6250    18.2217  -999.2500      .0726     2.2399    70.0653  -999.2500     2.7123
  698.7500    18.2141  -999.2500      .0746     2.2412    70.2402  -999.2500     2.6253
  698.8750    18.1974  -999.2500      .0771     2.2428    70.2207  -999.2500     2.5384
  699.0000    18.1460  -999.2500      .0780     2.2433    69.6484  -999.2500     2.4515
  699.1250    18.0790  -999.2500      .0831     2.2510    68.7354  -999.2500     2.3646
  699.2500    18.0223  -999.2500      .0918     2.2642    67.9024  -999.2500     2.2777
  699.3750    17.9714  -999.2500      .1019     2.2772    67.5262  -999.2500     2.1907
  699.5000    17.9430  -999.2500      .1094     2.2845    67.9392  -999.2500     2.1038
  699.6250    17.9411  -999.2500      .1095     2.2810    68.2439  -999.2500     2.0169
  699.7500    17.9584  -999.2500      .1023     2.2609    68.1701  -999.2500     1.9300
  699.8750    17.9943  -999.2500      .0993     2.2502    67.7387  -999.2500     1.8430
  700.0000    18.0534  -999.2500      .1019     2.2468    67.1914  -999.2500     1.7561
  700.1250    18.1219  -999.2500      .1094     2.2529    66.6425  -999.2500     1.6692
  700.2500    18.1740  -999.2500      .1195     2.2647    66.2194  -999.2500     1.5823
  700.3750    18.2161  -999.2500      .1189     2.2699    66.2517  -999.2500     1.4953
  700.5000    18.2617  -999.2500      .1142     2.2721    66.8821  -999.2500     1.4084
  700.6250    18.3142  -999.2500      .1041     2.2703    68.0279  -999.2500     1.3215
  700.7500    18.3503  -999.2500      .0922     2.2655    69.2727  -999.2500     -.0154
  700.8750    18.3925  -999.2500      .0819     2.2580    70.5170  -999.2500    -3.6052
  701.0000    18.4563  -999.2500      .0740     2.2483    71.3334  -999.2500    -9.5702
  701.1250    18.5069  -999.2500      .0666     2.2365    71.7589  -999.2500   -15.5470
  701.2500    18.5362  -999.2500      .0619     2.2284    71.9821  -999.2500   -20.7788
  701.3750    18.5600  -999.2500      .0608     2.2266    72.1824  -999.2500   -25.6654
  701.5000    18.6095  -999.2500      .0624     2.2292    71.8554  -999.2500   -30.4335
  701.6250    18.6804  -999.2500      .0654     2.2364    70.8319  -999.2500   -34.6098
  701.7500    18.7470  -999.2500      .0714     2.2500    69.7118  -999.2500   -37.0227
  701.8750    18.8007  -999.2500      .0792     2.2598    68.5916  -999.2500   -36.5421
  702.0000    18.8309  -999.2500      .0875     2.2679    67.6111  -999.2500   -35.9610
  702.1250    18.8175  -999.2500      .0941     2.2672    67.1250  -999.2500   -35.3594
  702.2500    18.7713  -999.2500      .0964     2.2566    67.0605  -999.2500   -34.7578
  702.3750    18.7259  -999.2500      .0908     2.2389    66.6393  -999.2500   -34.1562
  702.5000    18.7001  -999.2500      .0833     2.2185    65.8680  -999.2500   -33.5546
