~VERSION INFORMATION
VERS.                                                 2.0:   CWLS Log ASCII Standard-VERSION 2.0
WRAP.                                                  NO:   One line per depth step
~Well Information Block
STRT.M                                           475.1250:   Top Depth
STOP.M                                          3626.2500:   Bottom Depth
STEP.M                                             .12500:   Depth Increment
NULL.                                            -999.250:   Null Value
FLD .                                               SIGMA:   Field Name
WELL.                                             15/9-18:   NAME
WBN .                                             15/9-18:   WELLBORE
NATI.                                                 NOR:   COUNTRY
BHT1.DEGF                                           100.0:   BH TEMP 1
BHT2.DEGF                                           100.0:   BH TEMP 2
BHT3.DEGF                                           100.0:   BH TEMP 3
BS1 .IN                                            12.250:   BIT SIZE 1
CTRY.                                                 NOR:   COUNTRY
CBD1.M                                              181.0:   CSG 1 DRILL DEP
CBL1.M                                              181.0:   CSG 1 LOG DEP
CS1 .IN                                              30.0:   CSG 1 SIZE
COMP.                                             STATOIL:   OPERATOR
PDAT.                                                 MSL:   PERM DATUM
PROV.                                           NORTH SEA:   PROVINCE
COUN.                                      DEEPSEA BERGEN:   RIG NAME
SON .                                                1334:   SOURCE OPERATOR NAME
SPUD.                                          1983/12/16:   SPUD DATE
LATI.                                        58 21 1.95 N:   SURF. LATITUDE
LONG.                                        1 48 12.27 E:   SURF. LONGITUDE
BTD1.                                             521.0 M:   TOTAL DEPTH 1
BTD2.                                             521.0 M:   TOTAL DEPTH 2
BTD3.                                             521.0 M:   TOTAL DEPTH 3
PBWE.                                             15/9-18:   PB WELL ID
APIN.                                             15/9-18:   PB WELLBORE ID
PBWS.                                                 all:   PB WELL NAME SET
~PARAMETER INFORMATION (log)
LNAM.                              CDL/CNL/GR  COMPOSITED:   NAME
LTYP.                                         DEPTH MATCH:   LOG TYPE
LSRV.                                             CAL/BGT:   LOG SERVICE
LSOU.                                             SPT/NPD:   LOG SOURCE
LVSN.                                                   1:   LOG VERSION
BHIS.                                                   R:   BRIEF HISTORY
FHIS.                                             RAW-LIS:   FULL HISTORY
LCNM.                                                  DA:   LOGGING CONTRACTOR
TOOL.                             CDL/CNL/GR (COMPOSITED):   TOOL STRING
~Curve Information Block
#MNEM.UNIT                                        API CODE    No Description
#=========                                        ========    == ===========
DEPT.M                                       00 001 00 00:     1  DEPTH
CAL.IN                                                   :     2  Caliper
CN.%                                                     :     3  Neutron Porosity
CORR.G/CC                                                :     4  Density Correction
DEN.G/CC                                                 :     5  Bulk Density
GR.GAPI                                                  :     6  Gamma Ray
SPD.                                                     :     7  Cable Speed
TEN.LB                                                   :     8  Cable Tension
~ASCII
# ...
 2158.6250    13.1255    40.3965      .0731     2.0917    72.1582  -999.2500    36.3546
 2158.7500    13.1586    40.1719      .0762     2.0958    72.6790  -999.2500    36.1537
 2158.8750    13.2280    39.9274      .0783     2.0998    72.9697  -999.2500    35.9529
 2159.0000    13.3199    39.9799      .0791     2.1028    73.3564  -999.2500    35.7521
 2159.1250    13.4206    41.2589      .0792     2.1024    73.8016  -999.2500    35.5512
 2159.2500    13.5213    42.8570      .0789     2.1012    74.1652  -999.2500    35.3504
 2159.3750    13.6219    43.7148      .0784     2.1009    74.2581  -999.2500    35.1495
 2159.5000    13.7226    43.5300      .0774     2.1026    72.9098  -999.2500    34.9487
 2159.6250    13.7730    42.5158      .0764     2.1063    70.4351  -999.2500    34.7479
 2159.7500    13.7692    41.5017      .0783     2.1113    67.6628  -999.2500    34.5470
 2159.8750    13.7266    40.8892      .0823     2.1171    64.8905  -999.2500    34.3462
 2160.0000    13.6604    40.8257      .0881     2.1209    62.3525  -999.2500    34.1453
 2160.1250    13.5388    41.1287      .0934     2.1221    61.3447  -999.2500    33.9445
 2160.2500    13.3988    41.6013      .0963     2.1216    61.6960  -999.2500    33.7437
 2160.3750    13.2281    42.0328      .0978     2.1210    62.8230  -999.2500    33.5428
 2160.5000    13.0613    41.9256      .1013     2.1216    64.6280  -999.2500    33.3420
 2160.6250    12.9372    41.4101      .1047     2.1246    66.8798  -999.2500    33.1411
 2160.7500    12.8835    41.1174      .1072     2.1298    69.1724  -999.2500    32.9403
 2160.8750    12.8371    41.1272      .1085     2.1388    71.4868  -999.2500    32.7394
 2161.0000    12.7614    41.3850      .1084     2.1503    74.0894  -999.2500    32.5386
 2161.1250    12.7218    41.8334      .1060     2.1572    76.6242  -999.2500    32.3378
 2161.2500    12.7197    41.7641      .1011     2.1536    78.0288  -999.2500    32.1369
 2161.3750    12.7415    41.8042      .0933     2.1443    77.5711  -999.2500    31.9361
 2161.5000    12.8097    41.8651      .0826     2.1331    76.2319  -999.2500    31.7352
 2161.6250    12.9036    41.5610      .0702     2.1265    74.8864  -999.2500    31.5344
 2161.7500    13.0101    40.5100      .0611     2.1298    73.7580  -999.2500    31.3336
 2161.8750    13.1209    39.1947      .0502     2.1389    72.6861  -999.2500    31.1327
 2162.0000    13.2326    37.3171      .0345     2.1543    71.5632  -999.2500    30.9319
 2162.1250    13.3475    36.0609      .0209     2.1621    70.4316  -999.2500    30.7310
 2162.2500    13.4708    35.9046      .0168     2.1664    70.0657  -999.2500    30.5302
 2162.3750    13.5209    36.8350      .0283     2.1730    69.8997  -999.2500    30.3294
 2162.5000    13.5445    38.2775      .0614     2.1844    69.7903  -999.2500    30.1285
 2162.6250    13.5376    38.5855      .0878     2.1853    69.6090  -999.2500    29.9277
 2162.7500    13.4920    38.9217      .0991     2.1736    69.2443  -999.2500    29.7268
 2162.8750    13.4215    39.1184      .0942     2.1509    68.6129  -999.2500    29.5260
 2163.0000    13.3510    39.1983      .0778     2.1241    66.9984  -999.2500    29.3252
 2163.1250    13.3004    39.1071      .0594     2.1027    65.6122  -999.2500    29.1243
 2163.2500    13.2648    38.0786      .0566     2.0978    65.2948  -999.2500    28.9235
 2163.3750    13.2365    37.0760      .0604     2.1002    66.2019  -999.2500    28.7226
 2163.5000    13.2082    36.0744      .0707     2.1100    67.9262  -999.2500    28.5218
 2163.6250    13.1799    35.0723      .0834     2.1215    69.8769  -999.2500    28.3210
 2163.7500    13.1905    34.2239      .0932     2.1324    70.9106  -999.2500    28.1201
 2163.8750    13.2363    33.8357      .1026     2.1458    70.5557  -999.2500    27.9193
 2164.0000    13.3067    34.1103      .1132     2.1709    69.1572  -999.2500    27.7184
 2164.1250    13.3890    35.0287      .1185     2.1832    67.2619  -999.2500    27.5176
 2164.2500    13.4712    36.3741      .1164     2.1887    65.3666  -999.2500    27.3168
 2164.3750    13.5535    38.0546      .1075     2.1912    63.4713  -999.2500    27.1159
 2164.5000    13.5732    39.9148      .0943     2.1932    61.6500  -999.2500    26.9151
 2164.6250    13.5619    41.5249      .0874     2.1957    60.3285  -999.2500    26.7142
 2164.7500    13.5387    42.0056      .0904     2.1949    59.4439  -999.2500    26.5134
 2164.8750    13.5150    42.4520      .0965     2.1846    58.8816  -999.2500    26.3125
 2165.0000    13.5068    43.1111      .0996     2.1675    59.8519  -999.2500    26.1117
 2165.1250    13.5764    44.0510      .0957     2.1501    62.6987  -999.2500    25.9109
 2165.2500    13.6546    45.1590      .0860     2.1398    66.5709  -999.2500    25.7100
 2165.3750    13.7225    45.7480      .0755     2.1326    69.5386  -999.2500    25.5092
 2165.5000    13.7506    44.3903      .0653     2.1207    70.7875  -999.2500    25.3083
 2165.6250    13.6895    41.8170      .0585     2.1124    71.3525  -999.2500    25.1075
 2165.7500    13.5262    39.2013      .0572     2.1082    71.3511  -999.2500    24.9067
 2165.8750    13.3628    37.6132      .0610     2.1086    71.1844  -999.2500    24.7058
 2166.0000    13.1995    37.5412      .0708     2.1179    70.8389  -999.2500    24.5050
 2166.1250    13.0737    38.4438      .0801     2.1306    70.1819  -999.2500    24.3041
 2166.2500    13.0110    39.2769      .0862     2.1419    69.1156  -999.2500    24.1033
 2166.3750    12.9358    39.8393      .0889     2.1494    67.8192  -999.2500    23.9025
 2166.5000    12.9053    40.1396      .0887     2.1509    66.5825  -999.2500    23.7016
 2166.6250    12.9016    40.3262      .0869     2.1457    66.3476  -999.2500    23.5008
 2166.7500    12.9084    40.5424      .0846     2.1361    67.4998  -999.2500    23.2999
 2166.8750    12.9157    40.8538      .0820     2.1284    69.6769  -999.2500    23.0991
 2167.0000    12.9220    41.3479      .0791     2.1231    71.8032  -999.2500    22.8983
 2167.1250    12.9187    41.9326      .0769     2.1217    72.9801  -999.2500    22.6974
 2167.2500    12.9053    42.3999      .0764     2.1240    73.0510  -999.2500    22.4966
 2167.3750    12.8840    42.4420      .0760     2.1269    72.6582  -999.2500    22.2961
 2167.5000    12.8585    41.9316      .0727     2.1282    71.6764  -999.2500    22.0949
 2167.6250    12.8391    41.4222      .0673     2.1251    70.1630  -999.2500    21.8941
 2167.7500    12.8517    40.9128      .0615     2.1192    69.3296  -999.2500    21.6932
 2167.8750    12.8992    40.5417      .0569     2.1119    69.8425  -999.2500    21.4924
 2168.0000    13.0573    40.3695      .0559     2.1044    70.9903  -999.2500    21.2915
 2168.1250    13.2290    39.7660      .0581     2.1005    72.3497  -999.2500    21.0907
 2168.2500    13.3762    38.8374      .0590     2.0998    73.7137  -999.2500    20.8899
 2168.3750    13.5253    38.5037      .0570     2.0997    75.0125  -999.2500    20.6890
 2168.5000    13.6975    38.8928      .0516     2.0996    75.5414  -999.2500    20.4882
 2168.6250    13.7803    39.9096      .0441     2.0996    75.1203  -999.2500    20.2873
 2168.7500    13.7820    41.3128      .0418     2.1004    74.1268  -999.2500    20.0865
 2168.8750    13.7026    42.3631      .0427     2.1016    72.8975  -999.2500    19.8856
 2169.0000    13.5551    42.5105      .0452     2.1000    71.6722  -999.2500    19.6848
 2169.1250    13.3754    42.3422      .0474     2.0971    70.4628  -999.2500    19.4840
 2169.2500    13.3159    42.1779      .0477     2.0936    70.3495  -999.2500    19.2831
 2169.3750    13.2849    42.4003      .0454     2.0897    70.6567  -999.2500    19.0823
 2169.5000    13.2504    44.0622      .0401     2.0850    71.2449  -999.2500    18.8814
 2169.6250    13.2048    45.0409      .0362     2.0847    71.6768  -999.2500    18.6806
 2169.7500    13.1563    44.1019      .0348     2.0878    71.4963  -999.2500    18.4798
 2169.8750    13.1028    42.4161      .0369     2.0947    71.2019  -999.2500    18.2789
