~VERSION INFORMATION
VERS.                                                 2.0:   CWLS Log ASCII Standard-VERSION 2.0
WRAP.                                                  NO:   One line per depth step
~Well Information Block
STRT.M                                           475.1250:   Top Depth
STOP.M                                          3626.2500:   Bottom Depth
STEP.M                                             .12500:   Depth Increment
NULL.                                            -999.250:   Null Value
FLD .                                               SIGMA:   Field Name
WELL.                                             15/9-18:   NAME
WBN .                                             15/9-18:   WELLBORE
NATI.                                                 NOR:   COUNTRY
BHT1.DEGF                                           100.0:   BH TEMP 1
BHT2.DEGF                                           100.0:   BH TEMP 2
BHT3.DEGF                                           100.0:   BH TEMP 3
BS1 .IN                                            12.250:   BIT SIZE 1
CTRY.                                                 NOR:   COUNTRY
CBD1.M                                              181.0:   CSG 1 DRILL DEP
CBL1.M                                              181.0:   CSG 1 LOG DEP
CS1 .IN                                              30.0:   CSG 1 SIZE
COMP.                                             STATOIL:   OPERATOR
PDAT.                                                 MSL:   PERM DATUM
PROV.                                           NORTH SEA:   PROVINCE
COUN.                                      DEEPSEA BERGEN:   RIG NAME
SON .                                                1334:   SOURCE OPERATOR NAME
SPUD.                                          1983/12/16:   SPUD DATE
LATI.                                        58 21 1.95 N:   SURF. LATITUDE
LONG.                                        1 48 12.27 E:   SURF. LONGITUDE
BTD1.                                             521.0 M:   TOTAL DEPTH 1
BTD2.                                             521.0 M:   TOTAL DEPTH 2
BTD3.                                             521.0 M:   TOTAL DEPTH 3
PBWE.                                             15/9-18:   PB WELL ID
APIN.                                             15/9-18:   PB WELLBORE ID
PBWS.                                                 all:   PB WELL NAME SET
~PARAMETER INFORMATION (log)
LNAM.                              CDL/CNL/GR  COMPOSITED:   NAME
LTYP.                                         DEPTH MATCH:   LOG TYPE
LSRV.                                             CAL/BGT:   LOG SERVICE
LSOU.                                             SPT/NPD:   LOG SOURCE
LVSN.                                                   1:   LOG VERSION
BHIS.                                                   R:   BRIEF HISTORY
FHIS.                                             RAW-LIS:   FULL HISTORY
LCNM.                                                  DA:   LOGGING CONTRACTOR
TOOL.                             CDL/CNL/GR (COMPOSITED):   TOOL STRING
~Curve Information Block
#MNEM.UNIT                                        API CODE    No Description
#=========                                        ========    == ===========
DEPT.M                                       00 001 00 00:     1  DEPTH
CAL.IN                                                   :     2  Caliper
CN.%                                                     :     3  Neutron Porosity
CORR.G/CC                                                :     4  Density Correction
DEN.G/CC                                                 :     5  Bulk Density
GR.GAPI                                                  :     6  Gamma Ray
SPD.                                                     :     7  Cable Speed
TEN.LB                                                   :     8  Cable Tension
~ASCII
# ...
 3193.7500    10.7133    37.2918      .2174     2.3674   124.0210     8.9747   -15.1266
 3193.8750    10.7170    38.1283      .2146     2.3589   125.6786     8.9890   -20.0318
 3194.0000    10.7216    38.6670      .1920     2.3439   125.5375     9.0088   -28.6081
 3194.1250    10.7294    38.9151      .1576     2.3265   124.6398     9.0182   -34.0570
 3194.2500    10.7384    38.8484      .1253     2.3136   124.0988     9.0177   -31.2996
 3194.3750    10.7477    38.2946      .1042     2.3129   124.9831     9.0141   -24.3296
 3194.5000    10.7564    37.2013      .0933     2.3175   127.7431     9.0149   -23.2803
 3194.6250    10.7638    35.7933      .0898     2.3231   131.6805     9.0242   -28.1887
 3194.7500    10.7668    34.4037      .0918     2.3284   133.8796     9.0305   -35.8651
 3194.8750    10.7592    33.4036      .1003     2.3329   132.8421     9.0272   -41.5875
 3195.0000    10.7298    33.1674      .1073     2.3344   128.8648     9.0165   -40.2275
 3195.1250    10.6735    33.7640      .1006     2.3211   123.6591     9.0000   -30.7797
 3195.2500    10.5932    34.5151      .0793     2.2954   119.7286     8.9790   -20.3215
 3195.3750    10.5073    34.9974      .0474     2.2628   119.7009     8.9554   -13.3470
 3195.5000    10.4524    34.9691      .0128     2.2309   121.8711     8.9415   -12.2865
 3195.6250    10.4328    34.3923     -.0099     2.2087   123.8833     8.9467   -17.3834
 3195.7500    10.4381    33.3352     -.0097     2.2110   124.5434     8.9728   -29.3169
 3195.8750    10.4515    32.4465      .0088     2.2317   123.3837     9.0133   -43.6312
 3196.0000    10.4535    31.9746      .0395     2.2640   120.7774     9.0535   -56.5512
 3196.1250    10.4196    31.8928      .0729     2.2994   118.6701     9.0690   -63.5176
 3196.2500    10.3572    32.0279      .0978     2.3282   118.7923     9.0652   -59.8795
 3196.3750    10.2745    32.1035      .0997     2.3403   121.6587     9.0450   -40.9888
 3196.5000    10.1861    32.1381      .0854     2.3348   126.6599     9.0158   -15.6483
 3196.6250    10.1114    32.6399      .0660     2.3252   132.2416     8.9905     1.8648
 3196.7500    10.0772    33.6572      .0505     2.3203   135.3069     8.9945     7.1831
 3196.8750    10.0821    34.9395      .0452     2.3245   133.7776     9.0308      .1852
 3197.0000    10.1053    36.0135      .0506     2.3375   129.5413     9.0760   -15.5705
 3197.1250    10.1314    36.2487      .0626     2.3526   125.2503     9.1119   -32.9455
 3197.2500    10.1458    35.9553      .0774     2.3649   123.2842     9.1237   -46.4316
 3197.3750    10.1369    35.6059      .0969     2.3782   125.1653     9.1026   -52.3965
 3197.5000    10.0978    35.2139      .1216     2.3958   129.4104     9.0646   -48.9826
 3197.6250    10.0304    34.6148      .1500     2.4191   133.2209     9.0314   -36.9935
 3197.7500     9.9499    33.5159      .1742     2.4464   135.6742     9.0075   -20.8489
 3197.8750     9.8708    31.9265      .1810     2.4615   136.5582     8.9983   -12.2997
 3198.0000     9.8058    30.5322      .1632     2.4531   136.0222     9.0075   -15.3158
 3198.1250     9.7613    29.6812      .1266     2.4284   134.3097     9.0348   -25.6923
 3198.2500     9.7386    29.4642      .0832     2.3989   131.3282     9.0669   -38.0250
 3198.3750     9.7328    29.7518      .0486     2.3767   128.1203     9.0928   -47.1701
 3198.5000     9.7446    30.2048      .0287     2.3685   125.1251     9.1111   -50.8584
 3198.6250     9.7712    30.1982      .0146     2.3673   122.6568     9.1226   -51.5640
 3198.7500     9.8055    29.7858      .0031     2.3658   120.9061     9.1297   -51.4451
 3198.8750     9.8345    29.1946     -.0050     2.3669   120.0462     9.1349   -49.7534
 3199.0000     9.8516    28.7188     -.0054     2.3737   119.4217     9.1302   -45.3799
 3199.1250     9.8638    28.6609      .0043     2.3868   118.9742     9.1103   -37.5128
 3199.2500     9.8753    29.2563      .0118     2.3889   118.9974     9.0797   -27.8362
 3199.3750     9.8877    30.1597      .0149     2.3769   119.8717     9.0480   -23.0005
 3199.5000     9.8960    31.2400      .0156     2.3566   121.9622     9.0272   -25.3232
 3199.6250     9.8864    32.2089      .0158     2.3347   125.0525     9.0258   -32.6657
 3199.7500     9.8596    32.6892      .0152     2.3182   127.9336     9.0348   -40.1046
 3199.8750     9.8186    32.1805      .0121     2.3141   130.0825     9.0489   -40.4668
 3200.0000     9.7705    30.7969      .0107     2.3262   131.3229     9.0642   -32.5241
 3200.1250     9.7257    29.5268      .0142     2.3511   131.7012     9.0788   -23.8571
 3200.2500     9.6981    28.8859      .0216     2.3796   130.8125     9.0938   -19.9581
 3200.3750     9.6859    29.1385      .0294     2.4012   128.9659     9.1078   -23.7156
 3200.5000     9.6824    30.2591      .0301     2.4063   127.0329     9.1178   -34.5873
 3200.6250     9.6815    31.7069      .0284     2.3950   125.6312     9.1227   -45.5625
 3200.7500     9.6787    32.4094      .0314     2.3845   124.9513     9.1224   -49.3298
 3200.8750     9.6719    32.2582      .0370     2.3767   124.5151     9.1173   -45.2716
 3201.0000     9.6638    31.4577      .0404     2.3692   123.4692     9.1138   -36.0119
 3201.1250     9.6578    30.4029      .0357     2.3595   121.8571     9.1126   -26.1103
 3201.2500     9.6539    29.6352      .0258     2.3482   120.0280     9.1128   -21.7846
 3201.3750     9.6505    29.4658      .0254     2.3465   118.2829     9.1141   -25.2341
 3201.5000     9.6450    29.8707      .0338     2.3528   116.9082     9.1163   -31.9001
 3201.6250     9.6340    30.5872      .0456     2.3593   116.4007     9.1172   -38.5038
 3201.7500     9.6182    31.2054      .0543     2.3604   117.2080     9.1118   -42.8950
 3201.8750     9.6021    31.2879      .0598     2.3543   118.8484     9.0968   -44.3791
 3202.0000     9.5882    30.8421      .0674     2.3469   120.4920     9.0741   -44.6970
 3202.1250     9.5786    30.5675      .0740     2.3433   121.4252     9.0496   -44.4784
 3202.2500     9.5743    30.6466      .0768     2.3433   121.2815     9.0331   -43.2369
 3202.3750     9.5761    31.0474      .0746     2.3461   120.2074     9.0347   -40.9868
 3202.5000     9.5821    31.6507      .0689     2.3504   119.2837     9.0452   -38.1329
 3202.6250     9.5902    32.3071      .0660     2.3541   118.7309     9.0586   -35.5266
 3202.7500     9.5977    32.8906      .0693     2.3574   118.6214     9.0691   -33.1995
 3202.8750     9.6023    33.2700      .0782     2.3631   118.9161     9.0709   -30.4987
 3203.0000     9.6027    33.3779      .0906     2.3698   119.4812     9.0567   -28.0912
 3203.1250     9.5996    33.2442      .1025     2.3730   119.7877     9.0219   -27.6652
 3203.2500     9.5954    32.9959      .1062     2.3659   119.4822     8.9848   -31.4418
 3203.3750     9.5881    32.9506      .0960     2.3401   118.5021     8.9587   -41.7221
 3203.5000     9.5733    33.2995      .0786     2.3083   117.1237     8.9486   -52.0533
 3203.6250     9.5441    33.6793      .0587     2.2833   115.9586     8.9485   -55.9397
 3203.7500     9.4816    33.7471      .0380     2.2679   116.1832     8.9450   -51.4596
 3203.8750     9.4002    33.3054      .0142     2.2609   117.3453     8.9310   -40.2362
 3204.0000     9.3181    32.4019     -.0135     2.2579   118.7879     8.9084   -27.7505
 3204.1250     9.2498    31.7004     -.0287     2.2655   120.2124     8.8826   -25.3870
 3204.2500     9.2054    31.6649     -.0230     2.2877   121.4611     8.8603   -30.0668
 3204.3750     9.1876    32.3563      .0047     2.3211   122.4305     8.8473   -35.1607
 3204.5000     9.1759    33.5298      .0476     2.3577   122.3924     8.8351   -36.0408
 3204.6250     9.1597    34.7369      .0885     2.3878   121.2831     8.8160   -30.6672
 3204.7500     9.1417    35.3330      .1096     2.4005   119.5723     8.7941   -22.0561
 3204.8750     9.1267    34.9033      .1140     2.3984   117.7841     8.7779   -19.1305
 3205.0000     9.1196    33.5839      .1050     2.3882   116.3383     8.7777   -24.0429
