~VERSION INFORMATION
VERS.                                                 2.0:   CWLS Log ASCII Standard-VERSION 2.0
WRAP.                                                  NO:   One line per depth step
~Well Information Block
STRT.M                                           475.1250:   Top Depth
STOP.M                                          3626.2500:   Bottom Depth
STEP.M                                             .12500:   Depth Increment
NULL.                                            -999.250:   Null Value
FLD .                                               SIGMA:   Field Name
WELL.                                             15/9-18:   NAME
WBN .                                             15/9-18:   WELLBORE
NATI.                                                 NOR:   COUNTRY
BHT1.DEGF                                           100.0:   BH TEMP 1
BHT2.DEGF                                           100.0:   BH TEMP 2
BHT3.DEGF                                           100.0:   BH TEMP 3
BS1 .IN                                            12.250:   BIT SIZE 1
CTRY.                                                 NOR:   COUNTRY
CBD1.M                                              181.0:   CSG 1 DRILL DEP
CBL1.M                                              181.0:   CSG 1 LOG DEP
CS1 .IN                                              30.0:   CSG 1 SIZE
COMP.                                             STATOIL:   OPERATOR
PDAT.                                                 MSL:   PERM DATUM
PROV.                                           NORTH SEA:   PROVINCE
COUN.                                      DEEPSEA BERGEN:   RIG NAME
SON .                                                1334:   SOURCE OPERATOR NAME
SPUD.                                          1983/12/16:   SPUD DATE
LATI.                                        58 21 1.95 N:   SURF. LATITUDE
LONG.                                        1 48 12.27 E:   SURF. LONGITUDE
BTD1.                                             521.0 M:   TOTAL DEPTH 1
BTD2.                                             521.0 M:   TOTAL DEPTH 2
BTD3.                                             521.0 M:   TOTAL DEPTH 3
PBWE.                                             15/9-18:   PB WELL ID
APIN.                                             15/9-18:   PB WELLBORE ID
PBWS.                                                 all:   PB WELL NAME SET
~PARAMETER INFORMATION (log)
LNAM.                              CDL/CNL/GR  COMPOSITED:   NAME
LTYP.                                         DEPTH MATCH:   LOG TYPE
LSRV.                                             CAL/BGT:   LOG SERVICE
LSOU.                                             SPT/NPD:   LOG SOURCE
LVSN.                                                   1:   LOG VERSION
BHIS.                                                   R:   BRIEF HISTORY
FHIS.                                             RAW-LIS:   FULL HISTORY
LCNM.                                                  DA:   LOGGING CONTRACTOR
TOOL.                             CDL/CNL/GR (COMPOSITED):   TOOL STRING
~Curve Information Block
#MNEM.UNIT                                        API CODE    No Description
#=========                                        ========    == ===========
DEPT.M                                       00 001 00 00:     1  DEPTH
CAL.IN                                                   :     2  Caliper
CN.%                                                     :     3  Neutron Porosity
CORR.G/CC                                                :     4  Density Correction
DEN.G/CC                                                 :     5  Bulk Density
GR.GAPI                                                  :     6  Gamma Ray
SPD.                                                     :     7  Cable Speed
TEN.LB                                                   :     8  Cable Tension
~ASCII
# ...
 3614.6250     8.9428    16.5108     -.0299     2.5449    70.8535     7.8351   105.7473
 3614.7500     8.8417    16.2126     -.0215     2.5345    74.3711     7.8273    99.5732
 3614.8750     8.7275    16.0377      .0017     2.5337    76.8391     7.8215    98.7906
 3615.0000     8.6190    16.1191      .0357     2.5441    77.8941     7.8173   105.3204
 3615.1250     8.5343    16.3231      .0655     2.5516    77.4425     7.8110   116.8484
 3615.2500     8.4895    16.4337      .0813     2.5528    75.6796     7.7967   130.0096
 3615.3750     8.4904    16.3178      .0790     2.5507    73.6148     7.7818   142.1322
 3615.5000     8.5107    15.9377      .0627     2.5523    72.7629     7.7797   150.7768
 3615.6250     8.5380    15.4253      .0500     2.5678    73.1324     7.7890   153.2375
 3615.7500     8.5628    14.9761      .0471     2.5971    74.0692     7.8064   148.1391
 3615.8750     8.5789    14.5865      .0483     2.6192    74.5380     7.8278   142.7474
 3616.0000     8.5815    14.2230      .0475     2.6262    73.3490     7.8465   141.9350
 3616.1250     8.5683    13.8914      .0408     2.6190    70.4036     7.8546   147.9831
 3616.2500     8.5516    13.6470      .0299     2.6059    67.2589     7.8532   160.0541
 3616.3750     8.5424    13.6813      .0187     2.5955    65.3504     7.8478   171.6341
 3616.5000     8.5479    13.9835      .0083     2.5905    65.5307     7.8464   174.9068
 3616.6250     8.5690    14.3607      .0007     2.5917    67.7497     7.8584   170.6107
 3616.7500     8.5928    14.6784     -.0020     2.5972    70.6437     7.8861   162.1312
 3616.8750     8.5930    14.8668      .0026     2.6028    72.3141     7.9036   154.0056
 3617.0000     8.5582    14.9681      .0127     2.6015    72.9446     7.9002   150.9300
 3617.1250     8.4943    15.2024      .0248     2.5840    73.3894     7.8782   156.3605
 3617.2500     8.4180    15.5726      .0399     2.5629    74.7347     7.8474   165.3501
 3617.3750     8.3541    16.0003      .0573     2.5452    77.8877     7.8211   175.1848
 3617.5000     8.3244    16.4180      .0741     2.5337    81.6531     7.8067   184.0667
 3617.6250     8.3183    16.7789      .0831     2.5271    84.6411     7.7968   191.1416
 3617.7500     8.3235    17.0716      .0769     2.5216    86.3578     7.7912   196.2598
 3617.8750     8.3320    17.3430      .0593     2.5143    86.6027     7.7924   199.5924
 3618.0000     8.3420    17.6677      .0335     2.5045    85.4315     7.8043   201.1733
 3618.1250     8.3599    18.1061      .0064     2.4947    83.2784     7.8173   201.7251
 3618.2500     8.3838    18.6942     -.0127     2.4894    81.0140     7.8103   201.8028
 3618.3750     8.4071    19.4298     -.0099     2.4941    79.3286     7.7842   201.3017
 3618.5000     8.4271    20.1468      .0107     2.5114    78.6534     7.7511   199.1912
 3618.6250     8.4429    20.7148      .0366     2.5323    79.1630     7.7289   198.3730
 3618.7500     8.4560    21.1653      .0570     2.5495    80.6641     7.7375   202.2060
 3618.8750     8.4645    21.5510      .0646     2.5584    81.8807     7.7674   212.3463
 3619.0000     8.4630    21.9261      .0595     2.5580    82.2677     7.7928   228.0008
 3619.1250     8.4548    22.2972      .0513     2.5523    81.9071     7.8050   242.4937
 3619.2500     8.4478    22.5370      .0467     2.5454    81.0503     7.8009   248.3465
 3619.3750     8.4534    22.5948      .0434     2.5347    80.0242     7.7817   249.5289
 3619.5000     8.4830    22.4923      .0380     2.5189    79.0005     7.7547   250.8371
 3619.6250     8.5344    22.2562      .0275     2.4999    78.0013     7.7366   255.7491
 3619.7500     8.5919    21.9013      .0125     2.4833    77.5073     7.7370   265.1474
 3619.8750     8.6452    21.5263      .0018     2.4787    77.8578     7.7591   274.1323
 3620.0000     8.6871    21.3106      .0007     2.4865    79.0839     7.7984   278.6116
 3620.1250     8.7138    21.2779      .0097     2.5020    80.6816     7.8392   279.5482
 3620.2500     8.7196    21.3812      .0283     2.5226    81.9796     7.8618   278.1805
 3620.3750     8.7143    21.5299      .0565     2.5468    82.8754     7.8670   275.6735
 3620.5000     8.7014    21.6011      .0930     2.5757    83.3291     7.8600   272.3088
 3620.6250     8.6847    21.5542      .1272     2.6026    83.3603     7.8490   267.1245
 3620.7500     8.6672    21.5295      .1487     2.6162    83.0398     7.8436   261.4108
 3620.8750     8.6497    21.5515      .1516     2.6124    82.4490     7.8525   258.0811
 3621.0000     8.6133    21.5672      .1366     2.5945    81.9281     7.8633   260.0896
 3621.1250     8.5162    21.4566      .1176     2.5729    81.6763     7.8574   269.9781
 3621.2500     8.3207    21.0587      .1110     2.5597    81.6073     7.8274   291.8643
 3621.3750     8.0118    20.6123      .1144     2.5520    81.6039     7.7778   316.0914
 3621.5000     7.6109    20.3577      .1216     2.5432    81.6039     7.7281   336.3612
 3621.6250     7.2295    20.3575      .1271     2.5318    81.6039     7.7251   350.1409
 3621.7500     6.9543    20.5909      .1286     2.5201    81.6039     7.7608   356.8913
 3621.8750     6.7996    20.9994      .1322     2.5150    81.6039     7.8173   357.3448
 3622.0000     6.7402    21.4397      .1413     2.5212    81.6039     7.8761   355.2480
 3622.1250     6.7274    21.8644      .1552     2.5340    81.6039     7.9218   353.3002
 3622.2500     6.7127    22.2134      .1728     2.5474    81.6039     7.9479   352.3463
 3622.3750     6.6789    22.4223      .1922     2.5558    81.6039     7.9641   352.1127
 3622.5000     6.6343    22.4409      .2094     2.5549    81.6039     7.9715   351.1932
 3622.6250     6.5886    22.2990      .2178     2.5441    81.6039     7.9713   345.3896
 3622.7500     6.5504    22.1840      .2184     2.5277    81.6039     7.9668   333.4815
 3622.8750     6.5248    22.1317      .2131     2.5103    81.6039     7.9634   318.7296
 3623.0000     6.5050    22.1226      .2050     2.4946    81.6039     7.9724   303.8303
 3623.1250     6.4835    22.1267      .1982     2.4818    81.6039     7.9920   290.8123
 3623.2500     6.4613    22.1252      .1934     2.4714    81.6039     8.0123   280.4393
 3623.3750     6.4408    22.1246      .1900     2.4647    81.6039     8.0278   271.1436
 3623.5000     6.4245    22.1245      .1897     2.4638    81.6039     8.0380   260.6772
 3623.6250     6.4136    22.1245      .1938     2.4699    81.6039     8.0530   248.3853
 3623.7500     6.4060    22.1245      .2028     2.4825    81.6039     8.0778   233.9780
 3623.8750     6.3987    22.1245      .2149     2.4987    81.6039     8.1010   217.5710
 3624.0000     6.3915    22.1245      .2199     2.5084    81.6039     8.1184   199.9309
 3624.1250     6.3848    22.1245      .2156     2.5023    81.6039     8.1297   182.2210
 3624.2500     6.3794    22.1245      .2052     2.4872    81.6039     8.1385   164.9788
 3624.3750     6.3763    22.1245      .1934     2.4699    81.6039     8.1479   148.6341
 3624.5000     6.3750    22.1245      .1853     2.4565    81.6039     8.1315   133.3364
 3624.6250     6.3749    22.1245      .1863     2.4519    81.6039     8.0363   118.8488
 3624.7500     6.3756    22.1245      .1927     2.4590    81.6039     7.8226   104.8974
 3624.8750     6.3764    22.1245      .1996     2.4677    81.6039     7.4831    90.8467
 3625.0000     6.3766    22.1245      .2039     2.4729    81.6039     7.0735    77.3651
 3625.1250     6.3758    22.1245      .2037     2.4725    81.6039     6.7479    65.4076
 3625.2500     6.3759    22.1245      .1983     2.4668    81.6039     6.5398    56.0639
 3625.3750     6.3778    22.1245      .1923     2.4598    81.6039     6.3848    50.7864
 3625.5000     6.3817    22.1245      .1894     2.4582    81.6039     6.1906    48.6640
 3625.6250     6.3868    22.1245      .1890     2.4603    81.6039     5.8605    47.9542
 3625.7500     6.3915    22.1245      .1897     2.4632    81.6039     5.3384    47.8062
 3625.8750     6.3945    22.1245      .1899     2.4647    81.6039     4.8211    47.7227
