~VERSION INFORMATION
VERS.                                                 2.0:   CWLS Log ASCII Standard-VERSION 2.0
WRAP.                                                  NO:   One line per depth step
~Well Information Block
STRT.M                                           470.2028:   Top Depth
STOP.M                                          3735.8300:   Bottom Depth
STEP.M                                             .15240:   Depth Increment
NULL.                                            -999.250:   Null Value
FLD .                                             WILDCAT:   Field Name
WELL.                                              15/9-8:   NAME
WBN .                                              15/9-8:   WELLBORE
NATI.                                                 NOR:   COUNTRY
BHT1.DEGF                                            78.0:   BH TEMP 1
BHT2.DEGF                                           166.0:   BH TEMP 2
BHT3.DEGF                                           166.0:   BH TEMP 3
BS1 .IN                                             17.50:   BIT SIZE 1
CTRY.                                                 NOR:   COUNTRY
CBD1.M                                             178.50:   CSG 1 DRILL DEP
CBL1.M                                             178.50:   CSG 1 LOG DEP
CS1 .IN                                              30.0:   CSG 1 SIZE
COMP.                                             STATOIL:   OPERATOR
PDAT.                                                 MSL:   PERM DATUM
PROV.                                           NORTH SEA:   PROVINCE
COUN.                                             NORTRYM:   RIG NAME
SPUD.                                          1981/03/05:   SPUD DATE
LATI.                                       58 22 55.81 N:   SURF. LATITUDE
LONG.                                        1 46 28.32 E:   SURF. LONGITUDE
BTD1.                                             494.0 M:   TOTAL DEPTH 1
BTD2.                                            2846.0 M:   TOTAL DEPTH 2
BTD3.                                            2846.0 M:   TOTAL DEPTH 3
PBWE.                                              15/9-8:   PB WELL ID
APIN.                                              15/9-8:   PB WELLBORE ID
PBWS.                                                 all:   PB WELL NAME SET
~PARAMETER INFORMATION (log)
LNAM.                              FDC/CNL/GR  COMPOSITED:   NAME
LTYP.                                         DEPTH MATCH:   LOG TYPE
LSRV.                                            DEN/NEUT:   LOG SERVICE
LSOU.                                             SPT/NPD:   LOG SOURCE
LVSN.                                                   1:   LOG VERSION
BHIS.                                                   R:   BRIEF HISTORY
FHIS.                                             RAW-LIS:   FULL HISTORY
LCNM.                                        SCHLUMBERGER:   LOGGING CONTRACTOR
TOOL.                             FDC/CNL/GR (COMPOSITED):   TOOL STRING
~Curve Information Block
#MNEM.UNIT                                        API CODE    No Description
#=========                                        ========    == ===========
DEPT.M                                       00 001 00 00:     1  DEPTH
CALI.IN                                                  :     2  Caliper
CS.                                                      :     3  Cable Speed
DRHO.G/CC                                                :     4  Bulk density correction
GR.GAPI                                                  :     5  Gamma Ray
NPHI.%                                                   :     6  Neutron porosity
RHOB.G/CC                                                :     7  Bulk density
TENS.LB                                                  :     8  Cable Tension
~ASCII
# ...
 2203.7528    11.9189  2178.6909      .0313    59.5938  -999.2500     2.1572  2914.8384
 2203.9052    11.7305  2175.3843      .0159    59.5000  -999.2500     2.1280  2936.1538
 2204.0576    11.6454  2172.6924      .0069    62.1875  -999.2500     2.1197  2969.6152
 2204.2100    11.6920  2170.6924      .0158    60.2812  -999.2500     2.1454  2982.6152
 2204.3624    11.7058  2171.3086      .0152    58.7187  -999.2500     2.1518  2964.3677
 2204.5148    11.6827  2173.3076      .0196    57.7500  -999.2500     2.1523  2944.8462
 2204.6672    11.6719  2171.3843      .0180    56.5938  -999.2500     2.1300  2946.5386
 2204.8196    11.6310  2170.0000      .0257    54.4063  -999.2500     2.1248  2946.0767
 2204.9720    11.6145  2170.0000      .0159    56.4062  -999.2500     2.1238  2960.9727
 2205.1244    11.6887  2172.6152      .0097    56.2500  -999.2500     2.1390  2963.4614
 2205.2768    11.8389  2174.0000      .0120    55.8125  -999.2500     2.1612  2940.3843
 2205.4292    11.8168  2174.0000      .0140    49.3125  -999.2500     2.1692  2930.0000
 2205.5816    11.7887  2170.0864      .0048    49.9063  -999.2500     2.1827  2936.5225
 2205.7340    11.8786  2168.0000      .0053    51.3125  -999.2500     2.2290  2940.0000
 2205.8864    11.9984  2168.0000      .0239    53.1250  -999.2500     2.2640  2942.6108
 2206.0388    11.9219  2169.3042      .0376    48.5937  -999.2500     2.2435  2944.0000
 2206.1912    11.8747  2170.0000      .0224    46.0625  -999.2500     2.1788  2941.3911
 2206.3436    11.8828  2171.3076      .0057    47.0625  -999.2500     2.1511  2942.6152
 2206.4960    11.9084  2170.6924      .0150    52.4063  -999.2500     2.1938  2954.4614
 2206.6484    11.9168  2171.3057      .0290    56.2813  -999.2500     2.2270  2953.4717
 2206.8008    11.7765  2172.0000      .0378    57.2188  -999.2500     2.2235  2963.0449
 2206.9532    11.7082  2173.3042      .0332    56.3750  -999.2500     2.1818  2979.1313
 2207.1056    12.1196  2171.3843      .0306    54.5000  -999.2500     2.1608  2961.7690
 2207.2580    12.2696  2170.0000      .0287    54.4688  -999.2500     2.1665  2950.0000
 2207.4104    12.3057  2170.0000      .0270    53.1875  -999.2500     2.1763  2950.0000
 2207.5628    12.4508  2170.0000      .0262    52.2188  -999.2500     2.1848  2952.6089
 2207.7152    12.6406  2171.3076      .0294    51.6250  -999.2500     2.1849  2960.5386
 2207.8676    12.6140  2173.3057      .0281    54.3125  -999.2500     2.1798  2980.9727
 2208.0200    12.3434  2174.0000      .0292    57.1250  -999.2500     2.1688  2990.0000
 2208.1724    12.2622  2174.0000      .0193    57.4063  -999.2500     2.1462  2983.4775
 2208.3248    12.2966  2175.3076      .0068    55.4375  -999.2500     2.1214  2973.4614
 2208.4772    12.1565  2176.0000     -.0004    53.6563  -999.2500     2.1120  2953.0000
 2208.6296    12.0475  2174.6943     -.0075    55.2188  -999.2500     2.1215  2941.3887
 2208.7820    11.9803  2174.0000     -.0061    56.4062  -999.2500     2.1652  2949.1313
 2208.9344    11.9582  2174.0000      .0127    59.6562  -999.2500     2.2238  2960.5225
 2209.0868    11.9712  2174.0000      .0426    57.8438  -999.2500     2.2454  2954.8462
 2209.2392    11.8848  2172.6943      .0429    57.2813  -999.2500     2.1938  2930.4160
 2209.3916    11.8563  2173.3042      .0202    54.1563  -999.2500     2.1214  2939.5674
 2209.5440    11.8417  2174.0000      .0157    53.4062  -999.2500     2.1028  2959.1313
 2209.6964    11.9865  2174.0000      .0334    53.7500  -999.2500     2.1323  2967.9229
 2209.8488    12.1264  2174.0000      .0348    54.3437  -999.2500     2.1452  2972.6108
 2210.0012    12.3244  2172.6953      .0128    53.6563  -999.2500     2.1229  2984.4355
 2210.1536    12.7300  2169.3911      .0036    53.1563  -999.2500     2.1075  2979.5640
 2210.3060    13.0159  2166.6924      .0058    55.6875  -999.2500     2.1093  2980.5386
 2210.4584    13.1190  2166.0000      .0215    60.1250  -999.2500     2.1369  2997.0767
 2210.6108    12.9162  2167.3057      .0287    58.8438  -999.2500     2.1504  3001.3887
 2210.7632    12.7816  2168.0000      .0255    56.1875  -999.2500     2.1402  3006.5225
 2210.9156    12.2027  2168.0000      .0188    52.9375  -999.2500     2.1131  3003.4775
 2211.0680    11.8984  2168.0000      .0107    52.7500  -999.2500     2.0977  3000.0000
 2211.2204    11.9392  2168.0000      .0065    54.9687  -999.2500     2.0944  2983.0269
 2211.3728    12.0272  2169.3042      .0138    53.9062  -999.2500     2.1129  2951.8237
 2211.5252    12.0727  2167.3911      .0206    58.0625  -999.2500     2.1243  2949.1313
 2211.6776    12.2263  2163.3843      .0245    57.0000  -999.2500     2.1263  2967.0767
 2211.8300    12.3659  2159.3887      .0252    56.6875  -999.2500     2.1206  2977.9165
 2211.9824    12.6838  2156.6953      .0246    53.9062  -999.2500     2.1185  2986.5225
 2212.1348    12.7799  2154.6953      .0333    53.4062  -999.2500     2.1395  2996.5225
 2212.2872    12.7806  2151.3843      .0269    55.8125  -999.2500     2.1478  3026.1538
 2212.4396    12.9144  2147.3843      .0111    54.3437  -999.2500     2.1439  3033.4614
 2212.5920    13.0174  2142.0767      .0049    52.8750  -999.2500     2.1451  3032.6152
 2212.7444    13.1411  2136.0830      .0028    52.9687  -999.2500     2.1388  3018.3325
 2212.8968    13.6132  2131.3911      .0051    55.5625  -999.2500     2.1309  3012.6089
 2213.0492    13.9177  2127.3843      .0005    58.0625  -999.2500     2.1123  3014.0000
 2213.2016    13.1079  2123.3843      .0063    59.5625  -999.2500     2.1188  2978.6924
 2213.3540    12.5081  2119.3843      .0096    59.2187  -999.2500     2.1193  2956.0767
 2213.5064    12.3226  2118.0000      .0139    60.3438  -999.2500     2.1280  2980.1118
 2213.6588    12.1737  2119.3076      .0217    59.1250  -999.2500     2.1514  2980.9229
 2213.8112    12.0279  2122.6152      .0356    60.7188  -999.2500     2.1780  2945.2305
 2213.9636    11.9050  2124.0000      .0543    58.1250  -999.2500     2.1888  2939.1538
 2214.1160    11.7652  2125.3057      .0448    58.2188  -999.2500     2.1512  2960.9727
 2214.2684    11.6496  2126.0000      .0179    56.2813  -999.2500     2.1028  2963.4614
 2214.4208    12.0003  2127.3076      .0022    57.0000  -999.2500     2.0904  2973.0767
 2214.5732    12.6118  2128.0000     -.0026    59.5625  -999.2500     2.0905  2973.4614
 2214.7256    12.9505  2129.3057      .0100    59.4375  -999.2500     2.1153  2963.4717
 2214.8780    12.4755  2130.0000      .0193    61.2813  -999.2500     2.1289  2962.6089
 2215.0304    12.1773  2130.0000      .0317    58.6875  -999.2500     2.1468  2990.1538
 2215.1828    12.1719  2130.0000      .0223    59.1250  -999.2500     2.1333  3030.1538
 2215.3352    12.2076  2130.0000      .0091    55.6563  -999.2500     2.1236  3024.3843
 2215.4876    12.2980  2130.0000      .0143    57.8125  -999.2500     2.1403  3014.0000
 2215.6400    12.4841  2130.0000      .0364    57.0938  -999.2500     2.1778  3007.4614
 2215.7924    12.8179  2130.0000      .0500    58.0937  -999.2500     2.1883  2984.3843
 2215.9448    12.4321  2130.0000      .0347    57.5625  -999.2500     2.1562  2997.5386
 2216.0972    12.0644  2128.6943      .0257    58.7187  -999.2500     2.1266  3025.6670
 2216.2496    11.8573  2129.3076      .0291    61.6250  -999.2500     2.1204  3014.3843
 2216.4020    11.7632  2128.6924      .0442    60.9688  -999.2500     2.1313  2994.8462
 2216.5544    11.7578  2128.0000      .0478    60.0625  -999.2500     2.1303  2973.0000
 2216.7068    11.8241  2128.0000      .0309    57.6875  -999.2500     2.1193  2974.4448
 2216.8592    11.9256  2128.0000      .0010    52.6250  -999.2500     2.1280  2973.4775
 2217.0116    11.9712  2128.0000     -.0155    54.1875  -999.2500     2.1680  2963.4614
 2217.1640    12.1656  2128.0000     -.0091    57.4063  -999.2500     2.2187  2966.5386
 2217.3164    12.2401  2128.0000      .0160    61.2500  -999.2500     2.2236  2972.6152
 2217.4688    12.0634  2128.0000      .0307    62.7188  -999.2500     2.1951  2987.0557
