~VERSION INFORMATION
VERS.                                                 2.0:   CWLS Log ASCII Standard-VERSION 2.0
WRAP.                                                  NO:   One line per depth step
~Well Information Block
STRT.M                                           470.2028:   Top Depth
STOP.M                                          3735.8300:   Bottom Depth
STEP.M                                             .15240:   Depth Increment
NULL.                                            -999.250:   Null Value
FLD .                                             WILDCAT:   Field Name
WELL.                                              15/9-8:   NAME
WBN .                                              15/9-8:   WELLBORE
NATI.                                                 NOR:   COUNTRY
BHT1.DEGF                                            78.0:   BH TEMP 1
BHT2.DEGF                                           166.0:   BH TEMP 2
BHT3.DEGF                                           166.0:   BH TEMP 3
BS1 .IN                                             17.50:   BIT SIZE 1
CTRY.                                                 NOR:   COUNTRY
CBD1.M                                             178.50:   CSG 1 DRILL DEP
CBL1.M                                             178.50:   CSG 1 LOG DEP
CS1 .IN                                              30.0:   CSG 1 SIZE
COMP.                                             STATOIL:   OPERATOR
PDAT.                                                 MSL:   PERM DATUM
PROV.                                           NORTH SEA:   PROVINCE
COUN.                                             NORTRYM:   RIG NAME
SPUD.                                          1981/03/05:   SPUD DATE
LATI.                                       58 22 55.81 N:   SURF. LATITUDE
LONG.                                        1 46 28.32 E:   SURF. LONGITUDE
BTD1.                                             494.0 M:   TOTAL DEPTH 1
BTD2.                                            2846.0 M:   TOTAL DEPTH 2
BTD3.                                            2846.0 M:   TOTAL DEPTH 3
PBWE.                                              15/9-8:   PB WELL ID
APIN.                                              15/9-8:   PB WELLBORE ID
PBWS.                                                 all:   PB WELL NAME SET
~PARAMETER INFORMATION (log)
LNAM.                              FDC/CNL/GR  COMPOSITED:   NAME
LTYP.                                         DEPTH MATCH:   LOG TYPE
LSRV.                                            DEN/NEUT:   LOG SERVICE
LSOU.                                             SPT/NPD:   LOG SOURCE
LVSN.                                                   1:   LOG VERSION
BHIS.                                                   R:   BRIEF HISTORY
FHIS.                                             RAW-LIS:   FULL HISTORY
LCNM.                                        SCHLUMBERGER:   LOGGING CONTRACTOR
TOOL.                             FDC/CNL/GR (COMPOSITED):   TOOL STRING
~Curve Information Block
#MNEM.UNIT                                        API CODE    No Description
#=========                                        ========    == ===========
DEPT.M                                       00 001 00 00:     1  DEPTH
CALI.IN                                                  :     2  Caliper
CS.                                                      :     3  Cable Speed
DRHO.G/CC                                                :     4  Bulk density correction
GR.GAPI                                                  :     5  Gamma Ray
NPHI.%                                                   :     6  Neutron porosity
RHOB.G/CC                                                :     7  Bulk density
TENS.LB                                                  :     8  Cable Tension
~ASCII
# ...
 1122.0176    17.5938  1760.0000     -.0078    86.7500  -999.2500     2.1465  1795.0000
 1122.1700    17.5938  1761.0000      .0000    83.3125  -999.2500     2.1504  1785.0000
 1122.3224    17.5938  1762.0000      .0024    80.8125  -999.2500     2.1484  1800.0000
 1122.4748    17.5938  1760.0000      .0142    75.4375  -999.2500     2.1523  1800.0000
 1122.6272    17.6094  1759.0000      .0020    76.0625  -999.2500     2.1426  1805.0000
 1122.7796    17.6094  1760.0000      .0054    76.6875  -999.2500     2.1406  1785.0000
 1122.9320    17.6094  1761.0000      .0024    79.7500  -999.2500     2.1406  1790.0000
 1123.0844    17.5938  1761.0000     -.0005    78.1250  -999.2500     2.1387  1790.0000
 1123.2368    17.5938  1761.0000     -.0034    76.8750  -999.2500     2.1309  1800.0000
 1123.3892    17.6094  1761.0000     -.0010    75.1250  -999.2500     2.1270  1780.0000
 1123.5416    17.5938  1760.0000      .0034    74.5625  -999.2500     2.1270  1820.0000
 1123.6940    17.5938  1761.0000      .0044    75.4375  -999.2500     2.1348  1790.0000
 1123.8464    17.6250  1763.0000      .0049    74.8125  -999.2500     2.1426  1790.0000
 1123.9988    17.6250  1764.0000      .0054    73.4375  -999.2500     2.1504  1795.0000
 1124.1512    17.6250  1762.0000      .0112    73.0000  -999.2500     2.1621  1805.0000
 1124.3036    17.6250  1761.0000     -.0015    70.3750  -999.2500     2.1484  1780.0000
 1124.4560    17.6250  1761.0000     -.0005    73.0625  -999.2500     2.1504  1805.0000
 1124.6084    17.5938  1761.0000      .0034    69.0625  -999.2500     2.1484  1805.0000
 1124.7608    17.5938  1762.0000      .0078    69.5000  -999.2500     2.1523  1775.0000
 1124.9132    17.6250  1762.0000      .0059    72.9375  -999.2500     2.1406  1820.0000
 1125.0656    17.6250  1762.0000     -.0005    71.5625  -999.2500     2.1230  1785.0000
 1125.2180    17.6250  1762.0000      .0063    71.0000  -999.2500     2.1250  1790.0000
 1125.3704    17.6250  1761.0000      .0049    66.3125  -999.2500     2.1133  1800.0000
 1125.5228    17.6250  1762.0000      .0010    70.2500  -999.2500     2.1094  1790.0000
 1125.6752    17.6250  1763.0000     -.0029    68.1250  -999.2500     2.0996  1815.0000
 1125.8276    17.6250  1762.0000     -.0063    64.2500  -999.2500     2.0879  1790.0000
 1125.9800    17.6250  1762.0000     -.0073    60.0938  -999.2500     2.0859  1810.0000
 1126.1324    17.6250  1761.0000     -.0010    60.8750  -999.2500     2.0918  1790.0000
 1126.2848    17.5938  1761.0000      .0098    65.5625  -999.2500     2.1113  1790.0000
 1126.4372    17.5938  1761.0000      .0127    69.6875  -999.2500     2.1211  1810.0000
 1126.5896    17.5938  1762.0000      .0039    69.0000  -999.2500     2.1152  1785.0000
 1126.7420    17.5938  1763.0000      .0020    64.6875  -999.2500     2.1113  1785.0000
 1126.8944    17.6094  1764.0000      .0024    62.0312  -999.2500     2.1035  1795.0000
 1127.0468    17.5938  1765.0000      .0107    63.7813  -999.2500     2.1133  1800.0000
 1127.1992    17.5938  1766.0000      .0083    63.2500  -999.2500     2.1133  1805.0000
 1127.3516    17.5938  1766.0000     -.0005    66.0000  -999.2500     2.1055  1790.0000
 1127.5040    17.5938  1766.0000     -.0068    67.8125  -999.2500     2.0937  1800.0000
 1127.6564    17.5938  1765.0000     -.0054    71.8750  -999.2500     2.0957  1790.0000
 1127.8088    17.6094  1767.0000      .0034    71.1875  -999.2500     2.1055  1800.0000
 1127.9612    17.5938  1767.0000      .0020    70.6875  -999.2500     2.1035  1795.0000
 1128.1136    17.5938  1766.0000      .0020    69.2500  -999.2500     2.0996  1800.0000
 1128.2660    17.6094  1766.0000      .0024    68.0625  -999.2500     2.0996  1800.0000
 1128.4184    17.6094  1766.0000      .0029    66.4375  -999.2500     2.0996  1800.0000
 1128.5708    17.6094  1767.0000      .0015    65.5000  -999.2500     2.1016  1810.0000
 1128.7232    17.5938  1768.0000      .0020    64.8750  -999.2500     2.1016  1795.0000
 1128.8756    17.6094  1768.0000      .0098    67.9375  -999.2500     2.1016  1805.0000
 1129.0280    17.6094  1768.0000      .0142    67.3750  -999.2500     2.1035  1780.0000
 1129.1804    17.6094  1767.0000      .0054    69.8125  -999.2500     2.0977  1805.0000
 1129.3328    17.6094  1768.0000     -.0015    67.0625  -999.2500     2.0996  1790.0000
 1129.4852    17.6250  1769.0000      .0059    71.1250  -999.2500     2.1113  1790.0000
 1129.6376    17.6094  1768.0000      .0078    69.3750  -999.2500     2.1113  1800.0000
 1129.7900    17.6094  1767.0000      .0078    70.5000  -999.2500     2.1211  1805.0000
 1129.9424    17.6094  1765.0000     -.0005    66.1875  -999.2500     2.1133  1800.0000
 1130.0948    17.6250  1766.0000      .0015    67.5625  -999.2500     2.1270  1785.0000
 1130.2472    17.6406  1766.0000      .0039    65.1250  -999.2500     2.1250  1810.0000
 1130.3996    17.5781  1767.0000      .0029    63.7500  -999.2500     2.1270  1805.0000
 1130.5520    17.5781  1767.0000      .0137    60.3750  -999.2500     2.1406  1805.0000
 1130.7044    17.5781  1767.0000      .0239    59.9687  -999.2500     2.1543  1785.0000
 1130.8568    17.5781  1766.0000      .0229    62.7500  -999.2500     2.1602  1805.0000
 1131.0092    17.5781  1766.0000      .0156    62.6875  -999.2500     2.1562  1800.0000
 1131.1616    17.5781  1766.0000      .0098    65.4375  -999.2500     2.1426  1795.0000
 1131.3140    17.5781  1766.0000      .0068    66.6875  -999.2500     2.1328  1800.0000
 1131.4664    17.5938  1767.0000      .0161    70.0000  -999.2500     2.1328  1800.0000
 1131.6188    17.6094  1767.0000      .0078    72.1875  -999.2500     2.1191  1800.0000
 1131.7712    17.6094  1766.0000      .0068    70.7500  -999.2500     2.1230  1810.0000
 1131.9236    17.6719  1768.0000     -.0107    69.0000  -999.2500     2.1523  1800.0000
 1132.0760    17.7500  1768.0000     -.0186    63.8750  -999.2500     2.2324  1805.0000
 1132.2284    17.7500  1770.0000      .0049    58.1563  -999.2500     2.3223  1805.0000
 1132.3808    17.7344  1771.0000      .0293    56.7500  -999.2500     2.3008  1810.0000
 1132.5332    17.6094  1769.0000      .0396    57.1562  -999.2500     2.2129  1805.0000
 1132.6856    17.6406  1768.0000      .0029    63.5937  -999.2500     2.1133  1815.0000
 1132.8380    17.6719  1768.0000      .0039    66.1875  -999.2500     2.0996  1805.0000
 1132.9904    17.7188  1768.0000      .0249    65.8750  -999.2500     2.1309  1805.0000
 1133.1428    17.7188  1769.0000      .0332    66.6250  -999.2500     2.1348  1795.0000
 1133.2952    17.6094  1769.0000      .0215    66.1250  -999.2500     2.1172  1820.0000
 1133.4476    17.6094  1769.0000      .0078    68.3125  -999.2500     2.1055  1800.0000
 1133.6000    17.6094  1769.0000      .0093    68.1875  -999.2500     2.1152  1800.0000
 1133.7524    17.6094  1769.0000     -.0005    69.5625  -999.2500     2.1055  1830.0000
 1133.9048    17.6094  1771.0000     -.0034    70.8750  -999.2500     2.0996  1800.0000
 1134.0572    17.6250  1771.0000     -.0068    72.3750  -999.2500     2.0977  1810.0000
 1134.2096    17.6250  1769.0000      .0000    75.3125  -999.2500     2.1113  1805.0000
 1134.3620    17.6250  1768.0000     -.0010    72.9375  -999.2500     2.1074  1810.0000
 1134.5144    17.6406  1768.0000     -.0010    70.5625  -999.2500     2.1074  1795.0000
 1134.6668    17.6250  1767.0000      .0039    66.7500  -999.2500     2.1055  1795.0000
 1134.8192    17.6406  1768.0000      .0078    67.8750  -999.2500     2.1094  1820.0000
 1134.9716    17.6406  1768.0000      .0122    64.8125  -999.2500     2.1133  1800.0000
 1135.1240    17.6406  1768.0000      .0049    63.0000  -999.2500     2.1055  1820.0000
 1135.2764    17.6094  1769.0000      .0010    63.6563  -999.2500     2.1055  1800.0000
 1135.4288    17.7813  1769.0000      .0024    66.7500  -999.2500     2.0957  1810.0000
 1135.5812    17.7813  1770.0000      .0063    70.2500  -999.2500     2.0937  1800.0000
 1135.7336    17.7813  1769.0000      .0337    68.3125  -999.2500     2.1094  1810.0000
