~VERSION INFORMATION
VERS.                                                 2.0:   CWLS Log ASCII Standard-VERSION 2.0
WRAP.                                                  NO:   One line per depth step
~Well Information Block
STRT.M                                           470.2028:   Top Depth
STOP.M                                          3735.8300:   Bottom Depth
STEP.M                                             .15240:   Depth Increment
NULL.                                            -999.250:   Null Value
FLD .                                             WILDCAT:   Field Name
WELL.                                              15/9-8:   NAME
WBN .                                              15/9-8:   WELLBORE
NATI.                                                 NOR:   COUNTRY
BHT1.DEGF                                            78.0:   BH TEMP 1
BHT2.DEGF                                           166.0:   BH TEMP 2
BHT3.DEGF                                           166.0:   BH TEMP 3
BS1 .IN                                             17.50:   BIT SIZE 1
CTRY.                                                 NOR:   COUNTRY
CBD1.M                                             178.50:   CSG 1 DRILL DEP
CBL1.M                                             178.50:   CSG 1 LOG DEP
CS1 .IN                                              30.0:   CSG 1 SIZE
COMP.                                             STATOIL:   OPERATOR
PDAT.                                                 MSL:   PERM DATUM
PROV.                                           NORTH SEA:   PROVINCE
COUN.                                             NORTRYM:   RIG NAME
SPUD.                                          1981/03/05:   SPUD DATE
LATI.                                       58 22 55.81 N:   SURF. LATITUDE
LONG.                                        1 46 28.32 E:   SURF. LONGITUDE
BTD1.                                             494.0 M:   TOTAL DEPTH 1
BTD2.                                            2846.0 M:   TOTAL DEPTH 2
BTD3.                                            2846.0 M:   TOTAL DEPTH 3
PBWE.                                              15/9-8:   PB WELL ID
APIN.                                              15/9-8:   PB WELLBORE ID
PBWS.                                                 all:   PB WELL NAME SET
~PARAMETER INFORMATION (log)
LNAM.                              FDC/CNL/GR  COMPOSITED:   NAME
LTYP.                                         DEPTH MATCH:   LOG TYPE
LSRV.                                            DEN/NEUT:   LOG SERVICE
LSOU.                                             SPT/NPD:   LOG SOURCE
LVSN.                                                   1:   LOG VERSION
BHIS.                                                   R:   BRIEF HISTORY
FHIS.                                             RAW-LIS:   FULL HISTORY
LCNM.                                        SCHLUMBERGER:   LOGGING CONTRACTOR
TOOL.                             FDC/CNL/GR (COMPOSITED):   TOOL STRING
~Curve Information Block
#MNEM.UNIT                                        API CODE    No Description
#=========                                        ========    == ===========
DEPT.M                                       00 001 00 00:     1  DEPTH
CALI.IN                                                  :     2  Caliper
CS.                                                      :     3  Cable Speed
DRHO.G/CC                                                :     4  Bulk density correction
GR.GAPI                                                  :     5  Gamma Ray
NPHI.%                                                   :     6  Neutron porosity
RHOB.G/CC                                                :     7  Bulk density
TENS.LB                                                  :     8  Cable Tension
~ASCII
# ...
  692.0972    17.9844  1775.0000     -.0059    68.5000  -999.2500     2.1895  1345.0000
  692.2496    17.9844  1775.0000     -.0078    69.2500  -999.2500     2.1914  1335.0000
  692.4020    17.9844  1771.0000     -.0098    72.2500  -999.2500     2.1973  1335.0000
  692.5544    18.1406  1771.0000     -.0068    73.0625  -999.2500     2.2012  1335.0000
  692.7068    17.9844  1771.0000     -.0024    73.5000  -999.2500     2.2090  1330.0000
  692.8592    17.9688  1773.0000     -.0015    71.1250  -999.2500     2.2031  1335.0000
  693.0116    17.9531  1773.0000      .0044    69.3125  -999.2500     2.2207  1345.0000
  693.1640    17.9844  1773.0000     -.0020    70.2500  -999.2500     2.2090  1350.0000
  693.3164    18.0313  1772.0000     -.0063    69.6875  -999.2500     2.2031  1330.0000
  693.4688    18.0938  1772.0000     -.0088    68.0000  -999.2500     2.1875  1340.0000
  693.6212    18.0938  1774.0000     -.0054    66.2500  -999.2500     2.1973  1335.0000
  693.7736    18.0938  1777.0000     -.0024    66.9375  -999.2500     2.2031  1340.0000
  693.9260    18.0938  1778.0000      .0005    67.5625  -999.2500     2.2090  1340.0000
  694.0784    18.0938  1779.0000     -.0029    67.7500  -999.2500     2.1973  1345.0000
  694.2308    18.0938  1776.0000      .0000    68.0625  -999.2500     2.1973  1345.0000
  694.3832    18.0938  1773.0000      .0000    70.8750  -999.2500     2.1914  1325.0000
  694.5356    18.1250  1774.0000      .0005    70.3125  -999.2500     2.1875  1340.0000
  694.6880    18.1250  1774.0000      .0034    66.6250  -999.2500     2.1855  1330.0000
  694.8404    18.1875  1775.0000      .0073    67.6875  -999.2500     2.1895  1330.0000
  694.9928    18.1875  1775.0000      .0073    67.5625  -999.2500     2.1992  1340.0000
  695.1452    18.2500  1776.0000      .0054    71.8750  -999.2500     2.2090  1340.0000
  695.2976    18.0938  1777.0000      .0132    73.1875  -999.2500     2.2207  1340.0000
  695.4500    18.0938  1779.0000      .0298    78.3750  -999.2500     2.2207  1345.0000
  695.6024    18.0938  1780.0000      .0273    80.0000  -999.2500     2.1875  1330.0000
  695.7548    18.0938  1780.0000      .0132    74.3125  -999.2500     2.1621  1345.0000
  695.9072    18.0938  1777.0000      .0063    71.1875  -999.2500     2.1465  1345.0000
  696.0596    18.0938  1777.0000      .0112    69.3750  -999.2500     2.1562  1330.0000
  696.2120    18.0938  1776.0000      .0176    73.6875  -999.2500     2.1504  1335.0000
  696.3644    18.0938  1774.0000      .0112    72.9375  -999.2500     2.1445  1345.0000
  696.5168    18.1563  1774.0000      .0122    72.9375  -999.2500     2.1562  1340.0000
  696.6692    18.2031  1774.0000      .0132    75.0625  -999.2500     2.1777  1340.0000
  696.8216    18.2500  1776.0000      .0112    76.3750  -999.2500     2.1875  1350.0000
  696.9740    18.2031  1777.0000     -.0015    73.9375  -999.2500     2.1738  1335.0000
  697.1264    18.3281  1776.0000     -.0024    68.3750  -999.2500     2.1660  1350.0000
  697.2788    18.4844  1777.0000     -.0010    69.2500  -999.2500     2.1602  1335.0000
  697.4312    18.5156  1778.0000      .0088    70.5625  -999.2500     2.1641  1350.0000
  697.5836    18.5781  1779.0000      .0132    71.6250  -999.2500     2.1602  1335.0000
  697.7360    18.5781  1777.0000      .0249    70.6250  -999.2500     2.1719  1350.0000
  697.8884    18.6250  1776.0000      .0332    74.5000  -999.2500     2.1797  1345.0000
  698.0408    18.6250  1776.0000      .0312    76.4375  -999.2500     2.1777  1350.0000
  698.1932    18.6875  1775.0000      .0283    78.3750  -999.2500     2.1758  1340.0000
  698.3456    18.5313  1776.0000      .0142    74.5000  -999.2500     2.1543  1345.0000
  698.4980    18.4844  1777.0000      .0088    71.5000  -999.2500     2.1484  1345.0000
  698.6504    18.0469  1778.0000     -.0020    71.0625  -999.2500     2.1367  1350.0000
  698.8028    17.9844  1780.0000     -.0005    71.5000  -999.2500     2.1387  1345.0000
  698.9552    17.9219  1781.0000     -.0054    74.3125  -999.2500     2.1230  1355.0000
  699.1076    17.7656  1782.0000     -.0029    69.6875  -999.2500     2.1191  1345.0000
  699.2600    17.8906  1780.0000     -.0083    73.0625  -999.2500     2.1113  1350.0000
  699.4124    18.0469  1779.0000     -.0029    72.7500  -999.2500     2.1426  1330.0000
  699.5648    18.2031  1779.0000      .0039    77.3125  -999.2500     2.1582  1365.0000
  699.7172    18.1875  1779.0000      .0093    76.3750  -999.2500     2.1816  1325.0000
  699.8696    18.1875  1779.0000      .0068    78.4375  -999.2500     2.1680  1345.0000
  700.0220    18.1875  1778.0000     -.0029    75.4375  -999.2500     2.1699  1340.0000
  700.1744    18.2031  1777.0000     -.0059    73.0625  -999.2500     2.1680  1340.0000
  700.3268    18.2031  1779.0000     -.0024    69.1250  -999.2500     2.1719  1350.0000
  700.4792    18.1875  1781.0000      .0044    67.7500  -999.2500     2.1738  1350.0000
  700.6316    18.1250  1783.0000      .0254    67.8750  -999.2500     2.1875  1335.0000
  700.7840    18.1406  1783.0000      .0303    70.0000  -999.2500     2.1895  1355.0000
  700.9364    18.0313  1783.0000      .0225    70.8750  -999.2500     2.1934  1345.0000
  701.0888    18.0156  1781.0000      .0054    71.3750  -999.2500     2.1895  1345.0000
  701.2412    18.0156  1778.0000     -.0005    69.0625  -999.2500     2.2129  1345.0000
  701.3936    18.0938  1779.0000      .0151    70.1875  -999.2500     2.2363  1340.0000
  701.5460    18.1719  1778.0000      .0195    65.6875  -999.2500     2.2480  1355.0000
  701.6984    18.2031  1777.0000      .0156    70.0000  -999.2500     2.2324  1330.0000
  701.8508    18.2813  1775.0000     -.0039    68.5625  -999.2500     2.2012  1325.0000
  702.0032    18.3594  1776.0000     -.0024    72.6250  -999.2500     2.1953  1360.0000
  702.1556    18.3750  1778.0000     -.0010    70.3125  -999.2500     2.1992  1345.0000
  702.3080    18.3750  1779.0000      .0088    70.5625  -999.2500     2.2168  1345.0000
  702.4604    18.4531  1781.0000      .0063    69.9375  -999.2500     2.2227  1340.0000
  702.6128    18.3594  1781.0000     -.0034    70.6875  -999.2500     2.2148  1355.0000
  702.7652    18.3750  1778.0000     -.0020    70.8750  -999.2500     2.2187  1375.0000
  702.9176    18.3750  1777.0000      .0000    70.6250  -999.2500     2.2129  1350.0000
  703.0700    18.3750  1776.0000      .0112    71.8125  -999.2500     2.2227  1350.0000
  703.2224    18.3750  1775.0000      .0044    72.6250  -999.2500     2.2109  1345.0000
  703.3748    18.3750  1775.0000      .0020    76.7500  -999.2500     2.2051  1365.0000
  703.5272    18.3750  1775.0000     -.0034    74.6250  -999.2500     2.1875  1350.0000
  703.6796    18.3750  1776.0000     -.0068    71.6250  -999.2500     2.1660  1345.0000
  703.8320    18.5781  1775.0000     -.0039    71.3125  -999.2500     2.1836  1345.0000
  703.9844    18.2969  1776.0000      .0029    70.2500  -999.2500     2.1953  1350.0000
  704.1368    18.2500  1777.0000      .0259    75.3750  -999.2500     2.2344  1350.0000
  704.2892    18.2813  1778.0000      .0142    74.3750  -999.2500     2.2129  1350.0000
  704.4416    18.2969  1779.0000      .0146    77.0625  -999.2500     2.2187  1350.0000
  704.5940    18.1719  1776.0000      .0151    76.4375  -999.2500     2.2246  1340.0000
  704.7464    18.1719  1773.0000      .0205    77.1250  -999.2500     2.2266  1355.0000
  704.8988    18.1719  1771.0000      .0254    73.1250  -999.2500     2.2422  1345.0000
  705.0512    18.1250  1771.0000      .0078    77.1250  -999.2500     2.2168  1340.0000
  705.2036    18.1250  1772.0000      .0068    78.6250  -999.2500     2.2109  1360.0000
  705.3560    18.1250  1773.0000     -.0005    84.0000  -999.2500     2.1934  1350.0000
  705.5084    18.1250  1773.0000      .0000    79.7500  -999.2500     2.2031  1335.0000
  705.6608    18.1250  1773.0000     -.0034    76.0625  -999.2500     2.2051  1350.0000
  705.8132    18.1250  1773.0000      .0000    72.8750  -999.2500     2.2090  1345.0000
