~VERSION INFORMATION
VERS.                                                 2.0:   CWLS Log ASCII Standard-VERSION 2.0
WRAP.                                                  NO:   One line per depth step
~Well Information Block
STRT.M                                           470.2028:   Top Depth
STOP.M                                          3735.8300:   Bottom Depth
STEP.M                                             .15240:   Depth Increment
NULL.                                            -999.250:   Null Value
FLD .                                             WILDCAT:   Field Name
WELL.                                              15/9-8:   NAME
WBN .                                              15/9-8:   WELLBORE
NATI.                                                 NOR:   COUNTRY
BHT1.DEGF                                            78.0:   BH TEMP 1
BHT2.DEGF                                           166.0:   BH TEMP 2
BHT3.DEGF                                           166.0:   BH TEMP 3
BS1 .IN                                             17.50:   BIT SIZE 1
CTRY.                                                 NOR:   COUNTRY
CBD1.M                                             178.50:   CSG 1 DRILL DEP
CBL1.M                                             178.50:   CSG 1 LOG DEP
CS1 .IN                                              30.0:   CSG 1 SIZE
COMP.                                             STATOIL:   OPERATOR
PDAT.                                                 MSL:   PERM DATUM
PROV.                                           NORTH SEA:   PROVINCE
COUN.                                             NORTRYM:   RIG NAME
SPUD.                                          1981/03/05:   SPUD DATE
LATI.                                       58 22 55.81 N:   SURF. LATITUDE
LONG.                                        1 46 28.32 E:   SURF. LONGITUDE
BTD1.                                             494.0 M:   TOTAL DEPTH 1
BTD2.                                            2846.0 M:   TOTAL DEPTH 2
BTD3.                                            2846.0 M:   TOTAL DEPTH 3
PBWE.                                              15/9-8:   PB WELL ID
APIN.                                              15/9-8:   PB WELLBORE ID
PBWS.                                                 all:   PB WELL NAME SET
~PARAMETER INFORMATION (log)
LNAM.                              FDC/CNL/GR  COMPOSITED:   NAME
LTYP.                                         DEPTH MATCH:   LOG TYPE
LSRV.                                            DEN/NEUT:   LOG SERVICE
LSOU.                                             SPT/NPD:   LOG SOURCE
LVSN.                                                   1:   LOG VERSION
BHIS.                                                   R:   BRIEF HISTORY
FHIS.                                             RAW-LIS:   FULL HISTORY
LCNM.                                        SCHLUMBERGER:   LOGGING CONTRACTOR
TOOL.                             FDC/CNL/GR (COMPOSITED):   TOOL STRING
~Curve Information Block
#MNEM.UNIT                                        API CODE    No Description
#=========                                        ========    == ===========
DEPT.M                                       00 001 00 00:     1  DEPTH
CALI.IN                                                  :     2  Caliper
CS.                                                      :     3  Cable Speed
DRHO.G/CC                                                :     4  Bulk density correction
GR.GAPI                                                  :     5  Gamma Ray
NPHI.%                                                   :     6  Neutron porosity
RHOB.G/CC                                                :     7  Bulk density
TENS.LB                                                  :     8  Cable Tension
~ASCII
# ...
 3285.4880    10.2862  2454.0000     -.0545    42.6356    38.3523     2.0729  3969.3589
 3285.6404     9.3986  2452.9854     -.0350    35.3439    32.0380     2.2777  3874.2080
 3285.7928     9.3924  2452.0000      .0221    31.3216    24.4144     2.4673  3809.8398
 3285.9452     9.4679  2452.0000      .1045    30.1750    19.8232     2.5430  3794.9199
 3286.0976     9.9520  2454.0288      .1797    30.8279    18.7323     2.5660  3825.5039
 3286.2500    10.3593  2457.0127      .2230    32.0944    19.3625     2.5792  3966.3462
 3286.4024    10.3993  2455.9741      .2099    33.8818    19.6302     2.5378  4089.2437
 3286.5548    10.4062  2451.9678      .1125    35.3111    21.8102     2.4193  4088.6953
 3286.7072     9.7998  2451.0142      .0299    35.8388    24.0015     2.3559  4049.7119
 3286.8596     9.3731  2454.0254      .0037    37.5889    23.8237     2.3951  3951.0000
 3287.0120     9.4262  2454.9868      .0532    40.0681    22.0027     2.5029  3853.7437
 3287.1644     9.7637  2454.0000      .0777    41.0398    19.9117     2.4428  3849.2402
 3287.3168    10.3518  2454.0000      .0397    41.6893    19.4357     2.2376  3882.2593
 3287.4692    10.2065  2456.0254      .0013    43.2051    21.5582     2.0787  3945.5767
 3287.6216     9.9521  2459.0127     -.0185    46.3666    26.0827     2.0239  3974.8076
 3287.7740     9.9427  2457.9678     -.0178    47.2360    29.6551     2.0859  3951.8716
 3287.9264     9.6090  2453.9678     -.0024    48.1530    29.4238     2.2130  3957.2080
 3288.0788     9.4131  2452.0000      .0205    50.9845    26.9348     2.3380  3939.5679
 3288.2312     9.6888  2450.9868      .0197    54.4679    26.0792     2.3856  3884.6792
 3288.3836     9.6437  2452.0254      .0185    54.5178    27.8001     2.4129  3877.2178
 3288.5360     9.3716  2452.9839      .0342    49.9476    28.4566     2.4583  3856.4067
 3288.6884     9.9320  2450.9854      .0813    45.2783    24.0677     2.4917  3830.1440
 3288.8408    10.4860  2450.0000      .1139    48.1124    17.5913     2.4725  3895.7051
 3288.9932    10.5356  2451.0127      .1193    62.2875    14.4728     2.4354  4027.9868
 3289.1456    10.5521  2453.0161      .0892    92.3018    17.6089     2.3553  4091.8076
 3289.2980    10.4759  2454.0000      .0314   137.4126    25.8254     2.2620  4056.6685
 3289.4504     9.9384  2451.9741      .0017   181.8846    35.4630     2.2346  3976.2690
 3289.6028     9.8051  2451.0127      .0089   210.1042    41.7174     2.2667  3899.7437
 3289.7552     9.7007  2453.0161      .0660   208.6632    45.1493     2.3192  3900.3203
 3289.9076     9.4653  2454.0000      .0647   191.1178    46.2013     2.2822  3904.7593
 3290.0600     9.4211  2454.0000      .0254   173.1573    43.1048     2.2452  3907.2725
 3290.2124     9.2182  2452.9839      .0025   165.7841    39.6769     2.2485  3893.5190
 3290.3648     9.1423  2452.0000      .0093   171.8692    39.2450     2.2680  3836.6108
 3290.5172     9.0876  2454.0317      .0137   182.1637    42.6932     2.2502  3789.6792
 3290.6696     8.9774  2456.0000     -.0007   192.1216    44.4699     2.2109  3787.2725
 3290.8220     8.9661  2454.9839     -.0104   196.5755    44.4205     2.1901  3854.8013
 3290.9744     8.9852  2454.0000     -.0138   200.5450    44.5723     2.1786  4017.6128
 3291.1268     8.9965  2451.9678     -.0108   206.6096    45.1840     2.1864  4105.6475
 3291.2792     9.0000  2451.0161     -.0087   212.1035    45.5449     2.2020  4046.4067
 3291.4316     9.0000  2453.0161     -.0037   215.7680    45.1219     2.2252  3951.0703
 3291.5840     9.0000  2451.9678      .0022   216.2400    45.2117     2.2437  3876.7275
 3291.7364     8.9783  2452.0352      .0020   214.4802    44.3487     2.2589  3867.1230
 3291.8888     8.9566  2454.0000     -.0006   211.9145    43.3539     2.2763  3871.9678
 3292.0412     8.9531  2454.0000     -.0042   209.6110    42.4471     2.2930  3864.9199
 3292.1936     8.9531  2454.0000     -.0028   209.7660    40.2326     2.3105  3856.9517
 3292.3460     8.9531  2452.9854     -.0019   209.2284    38.8707     2.3119  3857.0430
 3292.4984     8.9575  2450.9839     -.0002   210.0995    38.1191     2.3066  3865.0801
 3292.6508     8.9566  2450.0000      .0005   214.9785    37.4311     2.3012  3856.7915
 3292.8032     8.9575  2451.0161     -.0015   220.9926    36.1574     2.3012  3854.1602
 3292.9556     8.9566  2453.0142     -.0063   223.1704    34.6927     2.3069  3867.0430
 3293.1080     8.9575  2456.0317     -.0111   217.6184    35.0393     2.3129  3877.1118
 3293.2604     8.9609  2455.9678     -.0032   208.6759    35.6740     2.3392  3892.1279
 3293.4128     8.9609  2454.0000      .0099   202.7302    35.6891     2.3628  3889.8560
 3293.5652     8.9609  2452.9868      .0241   201.1218    36.1175     2.3813  3876.9614
 3293.7176     8.9609  2452.0000      .0220   201.3195    37.4613     2.3752  3879.0801
 3293.8700     8.9609  2452.0000      .0063   199.9720    39.1278     2.3548  3884.0000
 3294.0224     8.9609  2450.9854     -.0019   203.1318    40.0377     2.3464  3873.8560
 3294.1748     8.9609  2450.0000     -.0029   209.2676    39.6199     2.3427  3867.0386
 3294.3272     8.9609  2451.0127      .0087   214.2332    39.2325     2.3537  3849.7437
 3294.4796     8.9609  2453.0161      .0108   216.0355    38.2672     2.3524  3845.2402
 3294.6320     8.9609  2456.0288      .0029   218.5594    38.0462     2.3373  3867.1006
 3294.7844     8.9653  2456.9868     -.0047   223.6378    38.9191     2.3169  3877.0386
 3294.9368     8.9687  2453.9741     -.0014   224.6250    41.2125     2.3025  3869.8716
 3295.0892     8.9818  2452.0000      .0133   218.5288    42.9152     2.3051  3867.1118
 3295.2416     9.0009  2450.9839      .0384   207.0369    41.2875     2.3205  3871.9678
 3295.3940     9.0381  2451.0142      .0681   193.6366    38.6529     2.3409  3885.2158
 3295.5464     9.1058  2452.0000      .0741   179.2284    38.1201     2.3279  3905.0640
 3295.6988     9.1667  2450.9839      .0740   167.4794    39.9338     2.2986  3899.8398
 3295.8512     9.1701  2451.0161      .0513   160.6605    41.9838     2.2554  3881.8716
 3296.0036     9.1129  2453.0142      .0322   158.1758    42.0277     2.2285  3877.0430
 3296.1560     9.1128  2454.0000      .0318   158.7676    41.1627     2.2361  3871.8975
 3296.3084     9.1146  2454.0000      .0227   159.9351    41.8044     2.2216  3861.9741
 3296.4608     9.0894  2451.9678      .0047   164.7031    41.8619     2.1888  3860.0000
 3296.6132     9.0469  2448.9854     -.0152   174.1916    42.5957     2.1639  3856.9565
 3296.7656     9.0503  2448.0000     -.0186   185.1434    42.4636     2.1890  3864.1279
 3296.9180     9.0738  2449.0127     -.0076   191.3750    40.5192     2.2515  3877.0386
 3297.0704     9.0790  2451.0161      .0140   189.4064    38.1810     2.2999  3876.9517
 3297.2228     9.1639  2449.9678      .0298   184.0709    36.9203     2.3088  3863.8398
 3297.3752     9.1486  2450.0317      .0314   180.4960    39.6116     2.2800  3872.2886
 3297.5276     9.0859  2454.0317      .0188   177.7734    42.1930     2.2563  3897.1118
 3297.6800     9.0859  2456.0000      .0093   173.5306    40.5170     2.2541  3909.0879
 3297.8324     9.0946  2456.0000      .0030   166.7969    37.3091     2.2656  3901.8076
 3297.9848     9.0972  2454.9839      .0084   158.3169    36.1336     2.2756  3879.8398
 3298.1372     9.4234  2454.0000      .0060   153.8610    37.5459     2.2708  3854.7593
 3298.2896     9.3193  2454.0000      .0032   155.6628    39.7588     2.2754  3834.9277
 3298.4420     8.9930  2454.0000      .0005   163.3936    41.1955     2.2952  3832.0317
 3298.5944     9.0730  2452.9839      .0006   171.2326    41.9961     2.3155  3859.4004
 3298.7468     9.2170  2452.0000      .0027   175.3970    42.0379     2.3166  3953.0898
 3298.8992     9.3436  2452.0000      .0005   179.2266    40.7047     2.3008  4011.8716
 3299.0516     9.1412  2450.9824     -.0066   182.7698    38.9785     2.2832  3996.8765
 3299.2040     8.9297  2450.0000     -.0166   187.3676    38.4533     2.2808  3939.1987
