~VERSION INFORMATION
VERS.                                                 2.0:   CWLS Log ASCII Standard-VERSION 2.0
WRAP.                                                  NO:   One line per depth step
~Well Information Block
STRT.M                                           470.2028:   Top Depth
STOP.M                                          3735.8300:   Bottom Depth
STEP.M                                             .15240:   Depth Increment
NULL.                                            -999.250:   Null Value
FLD .                                             WILDCAT:   Field Name
WELL.                                              15/9-8:   NAME
WBN .                                              15/9-8:   WELLBORE
NATI.                                                 NOR:   COUNTRY
BHT1.DEGF                                            78.0:   BH TEMP 1
BHT2.DEGF                                           166.0:   BH TEMP 2
BHT3.DEGF                                           166.0:   BH TEMP 3
BS1 .IN                                             17.50:   BIT SIZE 1
CTRY.                                                 NOR:   COUNTRY
CBD1.M                                             178.50:   CSG 1 DRILL DEP
CBL1.M                                             178.50:   CSG 1 LOG DEP
CS1 .IN                                              30.0:   CSG 1 SIZE
COMP.                                             STATOIL:   OPERATOR
PDAT.                                                 MSL:   PERM DATUM
PROV.                                           NORTH SEA:   PROVINCE
COUN.                                             NORTRYM:   RIG NAME
SPUD.                                          1981/03/05:   SPUD DATE
LATI.                                       58 22 55.81 N:   SURF. LATITUDE
LONG.                                        1 46 28.32 E:   SURF. LONGITUDE
BTD1.                                             494.0 M:   TOTAL DEPTH 1
BTD2.                                            2846.0 M:   TOTAL DEPTH 2
BTD3.                                            2846.0 M:   TOTAL DEPTH 3
PBWE.                                              15/9-8:   PB WELL ID
APIN.                                              15/9-8:   PB WELLBORE ID
PBWS.                                                 all:   PB WELL NAME SET
~PARAMETER INFORMATION (log)
LNAM.                              FDC/CNL/GR  COMPOSITED:   NAME
LTYP.                                         DEPTH MATCH:   LOG TYPE
LSRV.                                            DEN/NEUT:   LOG SERVICE
LSOU.                                             SPT/NPD:   LOG SOURCE
LVSN.                                                   1:   LOG VERSION
BHIS.                                                   R:   BRIEF HISTORY
FHIS.                                             RAW-LIS:   FULL HISTORY
LCNM.                                        SCHLUMBERGER:   LOGGING CONTRACTOR
TOOL.                             FDC/CNL/GR (COMPOSITED):   TOOL STRING
~Curve Information Block
#MNEM.UNIT                                        API CODE    No Description
#=========                                        ========    == ===========
DEPT.M                                       00 001 00 00:     1  DEPTH
CALI.IN                                                  :     2  Caliper
CS.                                                      :     3  Cable Speed
DRHO.G/CC                                                :     4  Bulk density correction
GR.GAPI                                                  :     5  Gamma Ray
NPHI.%                                                   :     6  Neutron porosity
RHOB.G/CC                                                :     7  Bulk density
TENS.LB                                                  :     8  Cable Tension
~ASCII
# ...
 3063.5936     9.4766  2504.9824      .0028    21.6469    13.4826     2.5855  3665.0879
 3063.7460     9.4766  2506.0317      .0007    21.0475    13.6447     2.5799  3670.0000
 3063.8984     9.4766  2506.9839     -.0034    18.0255    13.2037     2.5651  3664.9199
 3064.0508     9.4766  2507.0161     -.0035    14.8412    12.8650     2.5579  3651.8716
 3064.2032     9.4766  2508.0000      .0008    12.9475    13.1905     2.5671  3647.0527
 3064.3556     9.4766  2508.0000      .0097    12.7430    13.4998     2.5864  3655.0801
 3064.5080     9.4766  2506.9839      .0119    12.9123    13.5518     2.5966  3656.9517
 3064.6604     9.4766  2504.9839      .0035    12.3998    13.5230     2.5881  3651.9678
 3064.8128     9.4766  2505.0161     -.0090    12.0874    13.4285     2.5658  3644.9199
 3064.9652     9.4766  2507.0176     -.0143    12.3151    13.4020     2.5419  3645.0879
 3065.1176     9.4766  2511.0479     -.0115    13.9815    13.1068     2.5289  3655.0801
 3065.2700     9.3636  2512.9839      .0006    15.0239    12.9650     2.5439  3665.0801
 3065.4224     9.2734  2509.9678      .0042    16.3127    12.7642     2.5597  3656.7915
 3065.5748     9.2734  2505.9648      .0027    17.7656    12.4752     2.5736  3641.9648
 3065.7272     9.2734  2504.0000      .0041    19.6310    12.5504     2.5840  3645.0801
 3065.8796     9.2691  2502.9839      .0066    21.0406    12.5969     2.5948  3650.0000
 3066.0320     9.2700  2503.0161      .0028    19.7196    12.4992     2.5948  3657.1118
 3066.1844     9.2734  2502.9824     -.0055    16.5865    12.0288     2.5781  3667.0527
 3066.3368     9.2778  2503.0161     -.0088    12.7825    11.2490     2.5649  3670.0000
 3066.4892     9.2856  2505.0161     -.0079    11.3781    10.3181     2.5616  3661.8716
 3066.6416     9.2891  2508.0288     -.0074    12.3073     9.5427     2.5712  3648.9277
 3066.7940     9.2891  2510.0000     -.0094    13.5813     9.4004     2.5803  3633.8716
 3066.9464     9.2891  2508.9839     -.0097    14.1171     9.8943     2.5896  3627.0479
 3067.0988     9.2847  2508.0000     -.0055    14.3118    10.4020     2.6033  3635.0801
 3067.2512     9.2769  2508.0000      .0057    15.4469    10.4733     2.6256  3650.1440
 3067.4036     9.2734  2506.9868      .0076    16.7313    10.2267     2.6224  3656.9614
 3067.5560     9.2734  2507.0161      .0015    17.0938    10.1834     2.5963  3659.0801
 3067.7084     9.2734  2505.9678     -.0033    16.1531    10.5004     2.5740  3664.0000
 3067.8608     9.2734  2505.0142     -.0040    15.2580    10.5702     2.5677  3667.0430
 3068.0132     9.2734  2507.0127     -.0000    15.6493    10.4486     2.5876  3666.9614
 3068.1656     9.2778  2509.0161      .0079    16.9523    10.4004     2.6211  3661.9678
 3068.3180     9.2769  2510.0000      .0157    17.8435    10.4004     2.6476  3654.9199
 3068.4704     9.2734  2508.9839      .0140    16.8915    10.3756     2.6389  3657.1118
 3068.6228     9.2734  2508.0000      .0040    15.0492    10.1039     2.6142  3667.0430
 3068.7752     9.2734  2506.9868     -.0017    13.5788     9.6902     2.6033  3672.0254
 3068.9276     9.2734  2506.0000     -.0022    12.6502     9.4471     2.6037  3668.9199
 3069.0800     9.2648  2506.0000     -.0024    11.7018     9.3502     2.6163  3661.9678
 3069.2324     9.2535  2506.0000     -.0046    11.1327     9.3757     2.6228  3651.8848
 3069.3848     9.2457  2506.0000     -.0099    11.3030     9.3991     2.6124  3641.9741
 3069.5372     9.2335  2508.0317     -.0122    11.8496     9.4742     2.5990  3650.1602
 3069.6896     9.2222  2511.0161     -.0120    12.5721     9.3967     2.5894  3654.9199
 3069.8420     9.2187  2512.0000     -.0084    12.9060     9.4266     2.5935  3660.1440
 3069.9944     9.2101  2512.0000     -.0054    12.7007    10.0395     2.5931  3664.9355
 3070.1468     9.2031  2510.9839     -.0035    12.1584    10.7469     2.5933  3665.0801
 3070.2992     9.1901  2510.0000     -.0047    12.0427    10.6135     2.5933  3666.9517
 3070.4516     9.1624  2511.0161     -.0076    12.6625     9.8826     2.5855  3658.9199
 3070.6040     9.1441  2512.0000     -.0115    13.2215     9.7439     2.5755  3659.0801
 3070.7564     9.1363  2512.0000     -.0093    14.1209    10.3338     2.5790  3658.9199
 3070.9088     9.1328  2512.0000     -.0043    14.8122    11.0652     2.5859  3667.2285
 3071.0612     9.1328  2510.9839      .0001    14.4238    11.6250     2.5805  3664.7593
 3071.2136     9.1328  2508.9839     -.0006    13.2925    11.9396     2.5599  3657.1118
 3071.3660     9.1328  2508.0000      .0009    11.5944    12.1109     2.5577  3646.7275
 3071.5184     9.1328  2508.0000      .0049    10.6600    11.7102     2.5794  3642.2109
 3071.6708     9.1328  2506.9839      .0135     9.7316    11.1064     2.6137  3657.0479
 3071.8232     9.1328  2506.0000      .0149     9.8082    10.5894     2.6263  3662.0317
 3071.9756     9.1328  2507.0161      .0156    10.9565    10.4779     2.6265  3656.8877
 3072.1280     9.1328  2509.0190      .0160    11.9205    10.4685     2.6287  3660.1924
 3072.2804     9.1328  2511.0176      .0205    12.6325    10.0312     2.6367  3670.0000
 3072.4328     9.1111  2513.0161      .0253    12.9942     9.3920     2.6424  3675.0801
 3072.5852     9.0764  2511.9678      .0214    14.8675     9.1092     2.6352  3674.9199
 3072.7376     9.0538  2510.0000      .0163    17.6378     9.2525     2.6178  3666.9517
 3072.8900     9.0469  2507.9648      .0098    20.0033     9.9241     2.5966  3667.0527
 3073.0424     9.0512  2506.0000      .0066    20.8641    10.9182     2.5835  3680.1602
 3073.1948     9.0547  2504.9839      .0082    21.0608    11.6025     2.5920  3679.8398
 3073.3472     9.0504  2502.9839      .0063    21.2867    11.8389     2.5983  3675.0801
 3073.4996     9.0469  2502.0000     -.0018    21.1486    11.7188     2.5740  3661.6831
 3073.6520     9.0425  2504.0317     -.0085    20.3863    11.5947     2.5490  3657.2080
 3073.8044     9.0434  2508.0317     -.0108    19.4184    11.1025     2.5419  3675.0801
 3073.9568     9.0469  2510.0000     -.0050    18.8227    10.4945     2.5703  3680.0000
 3074.1092     9.0469  2510.0000      .0041    18.4610    10.6001     2.6002  3671.8975
 3074.2616     9.0469  2507.9678      .0035    18.4767    11.1111     2.6033  3674.1602
 3074.4140     9.0469  2503.9678      .0021    18.2780    11.3041     2.5983  3684.0000
 3074.5664     9.0425  2503.0142     -.0004    18.4347    11.9225     2.5816  3697.1870
 3074.7188     9.0434  2504.0000      .0006    18.2274    12.9945     2.5833  3706.9614
 3074.8712     9.0469  2505.0161     -.0029    17.3382    12.9805     2.5796  3698.9199
 3075.0236     9.0469  2506.0000     -.0137    16.2777    10.7388     2.5803  3686.8877
 3075.1760     9.0469  2506.0000     -.0170    17.4484     8.1664     2.5823  3687.1006
 3075.3284     9.0469  2509.0386     -.0183    19.2656     7.7693     2.5653  3681.8462
 3075.4808     9.0425  2513.0161     -.0206    18.4957     9.0961     2.5458  3675.0801
 3075.6332     9.0391  2514.0000     -.0207    15.6941     9.5392     2.5414  3664.7593
 3075.7856     9.0434  2511.9678     -.0156    14.2865     8.8828     2.5644  3662.1924
 3075.9380     9.0469  2508.9854     -.0112    15.9967     8.7416     2.5801  3666.8989
 3076.0904     9.0469  2509.0127     -.0086    17.2993     9.0604     2.5757  3672.1538
 3076.2428     9.0469  2510.0000     -.0044    17.6669     9.2773     2.5799  3676.8877
 3076.3952     9.0469  2510.0000      .0022    17.4548     8.8308     2.5935  3682.1924
 3076.5476     9.0469  2510.0000      .0023    16.8958     8.7699     2.5996  3697.0430
 3076.7000     9.0469  2510.0000     -.0029    16.3389     9.1803     2.5996  3705.0640
 3076.8524     9.0469  2510.0000     -.0027    15.7703     9.2285     2.6116  3699.8398
 3077.0048     9.0425  2510.0000     -.0021    15.1812     8.7820     2.6243  3681.8716
 3077.1572     9.0434  2510.0000     -.0027    14.9752     7.9781     2.6248  3677.0430
 3077.3096     9.0469  2508.9868     -.0068    14.7884     7.6914     2.6079  3680.0000
