~VERSION INFORMATION
VERS.                                                 2.0:   CWLS Log ASCII Standard-VERSION 2.0
WRAP.                                                  NO:   One line per depth step
~Well Information Block
STRT.M                                           470.2028:   Top Depth
STOP.M                                          3735.8300:   Bottom Depth
STEP.M                                             .15240:   Depth Increment
NULL.                                            -999.250:   Null Value
FLD .                                             WILDCAT:   Field Name
WELL.                                              15/9-8:   NAME
WBN .                                              15/9-8:   WELLBORE
NATI.                                                 NOR:   COUNTRY
BHT1.DEGF                                            78.0:   BH TEMP 1
BHT2.DEGF                                           166.0:   BH TEMP 2
BHT3.DEGF                                           166.0:   BH TEMP 3
BS1 .IN                                             17.50:   BIT SIZE 1
CTRY.                                                 NOR:   COUNTRY
CBD1.M                                             178.50:   CSG 1 DRILL DEP
CBL1.M                                             178.50:   CSG 1 LOG DEP
CS1 .IN                                              30.0:   CSG 1 SIZE
COMP.                                             STATOIL:   OPERATOR
PDAT.                                                 MSL:   PERM DATUM
PROV.                                           NORTH SEA:   PROVINCE
COUN.                                             NORTRYM:   RIG NAME
SPUD.                                          1981/03/05:   SPUD DATE
LATI.                                       58 22 55.81 N:   SURF. LATITUDE
LONG.                                        1 46 28.32 E:   SURF. LONGITUDE
BTD1.                                             494.0 M:   TOTAL DEPTH 1
BTD2.                                            2846.0 M:   TOTAL DEPTH 2
BTD3.                                            2846.0 M:   TOTAL DEPTH 3
PBWE.                                              15/9-8:   PB WELL ID
APIN.                                              15/9-8:   PB WELLBORE ID
PBWS.                                                 all:   PB WELL NAME SET
~PARAMETER INFORMATION (log)
LNAM.                              FDC/CNL/GR  COMPOSITED:   NAME
LTYP.                                         DEPTH MATCH:   LOG TYPE
LSRV.                                            DEN/NEUT:   LOG SERVICE
LSOU.                                             SPT/NPD:   LOG SOURCE
LVSN.                                                   1:   LOG VERSION
BHIS.                                                   R:   BRIEF HISTORY
FHIS.                                             RAW-LIS:   FULL HISTORY
LCNM.                                        SCHLUMBERGER:   LOGGING CONTRACTOR
TOOL.                             FDC/CNL/GR (COMPOSITED):   TOOL STRING
~Curve Information Block
#MNEM.UNIT                                        API CODE    No Description
#=========                                        ========    == ===========
DEPT.M                                       00 001 00 00:     1  DEPTH
CALI.IN                                                  :     2  Caliper
CS.                                                      :     3  Cable Speed
DRHO.G/CC                                                :     4  Bulk density correction
GR.GAPI                                                  :     5  Gamma Ray
NPHI.%                                                   :     6  Neutron porosity
RHOB.G/CC                                                :     7  Bulk density
TENS.LB                                                  :     8  Cable Tension
~ASCII
# ...
 1981.8584    12.8774  2171.3062      .0060    71.3750  -999.2500     2.0796  2752.6523
 1982.0108    12.8879  2174.6152      .0130    72.7500  -999.2500     2.0857  2783.0767
 1982.1632    12.8855  2177.3066      .0117    71.3125  -999.2500     2.0918  2773.0137
 1982.3156    12.9135  2180.6152     -.0082    72.4375  -999.2500     1.9807  2764.0000
 1982.4680    12.9297  2180.6934     -.0198    71.3125  -999.2500     1.9193  2761.3867
 1982.6204    12.9654  2178.6924     -.0228    72.3125  -999.2500     1.9148  2749.5386
 1982.7728    13.0507  2176.6934     -.0091    74.0000  -999.2500     2.0120  2730.9336
 1982.9252    13.1319  2176.0000      .0030    75.3750  -999.2500     2.0696  2750.1538
 1983.0776    13.1767  2177.3066      .0047    75.3125  -999.2500     2.0710  2748.3203
 1983.2300    13.2079  2178.0000      .0140    72.6250  -999.2500     2.0831  2723.0205
 1983.3824    13.1524  2176.6934      .0117    69.3125  -999.2500     2.0886  2711.3867
 1983.5348    13.1070  2176.0000      .0161    69.1250  -999.2500     2.1045  2719.1426
 1983.6872    13.1016  2177.3066      .0259    70.3750  -999.2500     2.1286  2730.5332
 1983.8396    13.0863  2180.6118      .0263    71.5000  -999.2500     2.1354  2737.9180
 1983.9920    13.0934  2183.3076      .0208    73.9375  -999.2500     2.1233  2716.4614
 1984.1444    13.1016  2184.0000      .0090    71.8125  -999.2500     2.1057  2701.3867
 1984.2968    13.1782  2181.3843      .0074    77.8750  -999.2500     2.0971  2713.0767
 1984.4492    13.2698  2178.6934      .0058    73.2500  -999.2500     2.0932  2722.6133
 1984.6016    13.3377  2178.0000      .0065    72.8750  -999.2500     2.0905  2717.4614
 1984.7540    13.2930  2178.0000      .0113    70.4375  -999.2500     2.0898  2733.5996
 1984.9064    13.2323  2179.3076      .0215    73.6875  -999.2500     2.1052  2750.5386
 1985.0588    13.2443  2180.0000      .0323    75.3125  -999.2500     2.1222  2740.9336
 1985.2112    13.2578  2178.6938      .0325    71.0000  -999.2500     2.1282  2734.0000
 1985.3636    13.2986  2179.3066      .0288    70.2500  -999.2500     2.1161  2724.8535
 1985.5160    13.3254  2180.0000      .0227    70.3750  -999.2500     2.1004  2700.4087
 1985.6684    13.3792  2180.0000      .0114    70.4375  -999.2500     2.0817  2699.1465
 1985.8208    13.2838  2178.6938      .0154    68.2500  -999.2500     2.0844  2704.0000
 1985.9732    13.2647  2176.6934      .0203    66.7500  -999.2500     2.0911  2710.5332
 1986.1256    13.3656  2173.3877      .0221    64.1875  -999.2500     2.1046  2730.9790
 1986.2780    13.5339  2173.3066      .0143    66.1875  -999.2500     2.1139  2723.0137
 1986.4304    13.6628  2174.0000      .0072    67.5625  -999.2500     2.1178  2740.1216
 1986.5828    13.7617  2175.3066      .0110    71.8125  -999.2500     2.1191  2727.8672
 1986.7352    13.6693  2176.0000      .0178    75.0625  -999.2500     2.1051  2727.0605
 1986.8876    13.6169  2176.0000      .0136    80.7500  -999.2500     2.0811  2751.0000
 1987.0400    13.7475  2176.0000      .0154    83.0625  -999.2500     2.0735  2749.5469
 1987.1924    13.8227  2178.6118      .0075    82.6250  -999.2500     2.0704  2741.3877
 1987.3448    13.8332  2180.0000      .0026    79.3750  -999.2500     2.0773  2729.5469
 1987.4972    13.8512  2178.6938      .0084    76.0625  -999.2500     2.0922  2730.5303
 1987.6496    13.9461  2178.0000      .0176    75.8750  -999.2500     2.1104  2714.4004
 1987.8020    14.0330  2176.6938      .0302    76.3125  -999.2500     2.1159  2701.3877
 1987.9544    14.1057  2176.0000      .0211    78.0000  -999.2500     2.0923  2693.4668
 1988.1068    14.1430  2176.0000      .0130    76.3125  -999.2500     2.0788  2699.1426
 1988.2592    14.1893  2177.3066      .0079    75.4375  -999.2500     2.0768  2710.5332
 1988.4116    14.1395  2178.0000      .0015    75.8125  -999.2500     2.0736  2704.8574
 1988.5640    14.1832  2179.3066      .0005    73.1875  -999.2500     2.0672  2709.1465
 1988.7164    14.2521  2178.6938      .0074    72.6250  -999.2500     2.0708  2707.4692
 1988.8688    14.1839  2176.6924      .0194    72.5625  -999.2500     2.0832  2717.0767
 1989.0212    14.0743  2176.0000      .0246    74.5000  -999.2500     2.0853  2717.4668
 1989.1736    14.0595  2176.0000      .0290    80.0625  -999.2500     2.0904  2714.0000
 1989.3260    14.0550  2174.6934      .0284    81.8125  -999.2500     2.0861  2730.9863
 1989.4784    14.0622  2172.6938      .0227    79.3750  -999.2500     2.0820  2716.4902
 1989.6308    13.9529  2173.3066      .0141    68.4375  -999.2500     2.0757  2694.8535
 1989.7832    13.9876  2174.0000     -.0135    58.6563  -999.2500     2.1067  2699.1426
 1989.9356    13.9064  2174.0000     -.0474    57.6250  -999.2500     2.2028  2710.5332
 1990.0880    13.9584  2175.3062     -.0296    61.0000  -999.2500     2.4049  2727.0605
 1990.2404    14.0592  2176.0000      .0101    71.7500  -999.2500     2.4022  2750.9863
 1990.3928    13.8996  2174.6938      .0443    76.3750  -999.2500     2.2675  2749.5513
 1990.5452    13.9068  2174.0000      .0292    78.2500  -999.2500     2.1276  2724.4004
 1990.6976    13.9354  2172.6938      .0094    76.8125  -999.2500     2.0692  2724.4487
 1990.8500    13.9219  2172.0000      .0092    78.3750  -999.2500     2.0657  2745.6924
 1991.0024    14.0444  2170.6934      .0133    77.8750  -999.2500     2.0690  2740.9336
 1991.1548    14.1043  2168.6938      .0220    78.5000  -999.2500     2.0818  2734.0000
 1991.3072    13.9740  2168.0000      .0351    80.3750  -999.2500     2.1019  2753.5996
 1991.4596    14.0032  2170.6118      .0471    81.0000  -999.2500     2.1107  2748.3267
 1991.6120    14.0496  2173.3066      .0482    77.8125  -999.2500     2.0998  2736.0801
 1991.7644    14.1285  2174.0000      .0507    74.0000  -999.2500     2.0950  2720.9390
 1991.9168    14.3046  2172.6934      .0435    77.3125  -999.2500     2.0817  2724.4531
 1992.0692    14.4974  2170.6938      .0475    78.5625  -999.2500     2.0831  2739.1426
 1992.2216    14.5523  2168.6934      .0414    76.6250  -999.2500     2.0713  2734.8535
 1992.3740    14.5265  2169.3062      .0309    70.4375  -999.2500     2.0574  2723.4692
 1992.5264    14.4952  2171.3066      .0267    71.1250  -999.2500     2.0534  2742.2129
 1992.6788    14.4180  2172.0000      .0198    74.0625  -999.2500     2.0553  2757.9180
 1992.8312    14.2602  2172.0000      .0313    79.8750  -999.2500     2.0771  2753.4614
 1992.9836    14.2362  2173.3076      .0330    79.2500  -999.2500     2.0866  2743.4614
 1993.1360    14.2731  2175.3066      .0358    77.1250  -999.2500     2.0859  2736.0801
 1993.2884    14.2710  2178.6152      .0221    74.0000  -999.2500     2.0642  2711.7690
 1993.4408    14.0615  2180.0000      .0135    78.1250  -999.2500     2.0502  2706.5332
 1993.5932    13.8561  2178.6924      .0156    80.1250  -999.2500     2.0578  2712.6152
 1993.7456    13.7791  2176.6924      .0188    80.0000  -999.2500     2.0702  2744.0767
 1993.8980    14.0263  2176.0000      .0168    76.8750  -999.2500     2.0781  2753.4585
 1994.0504    14.4246  2174.6924      .0081    76.6875  -999.2500     2.0737  2730.3843
 1994.2028    14.3070  2175.3081      .0079    79.6250  -999.2500     2.0780  2713.4585
 1994.3552    14.0850  2176.0000      .0047    76.4375  -999.2500     2.0705  2723.0767
 1994.5076    13.9828  2176.0000      .0055    80.5000  -999.2500     2.0645  2769.2471
 1994.6600    13.9889  2176.0000      .0019    76.6875  -999.2500     2.0504  2776.9229
 1994.8124    14.0282  2177.3066      .0057    79.8750  -999.2500     2.0583  2743.8672
 1994.9648    14.2587  2178.0000      .0153    75.3125  -999.2500     2.0702  2719.5386
 1995.1172    14.1402  2178.0000      .0173    77.8125  -999.2500     2.0761  2727.0664
 1995.2696    14.0565  2178.0000      .0176    76.3125  -999.2500     2.0756  2770.6152
 1995.4220    14.1955  2178.0000      .0056    76.1250  -999.2500     2.0551  2773.0137
 1995.5744    14.2374  2176.6924      .0016    74.3125  -999.2500     2.0539  2741.7690
