~VERSION INFORMATION
VERS.                                                 2.0:   CWLS Log ASCII Standard-VERSION 2.0
WRAP.                                                  NO:   One line per depth step
~Well Information Block
STRT.M                                           470.2028:   Top Depth
STOP.M                                          3735.8300:   Bottom Depth
STEP.M                                             .15240:   Depth Increment
NULL.                                            -999.250:   Null Value
FLD .                                             WILDCAT:   Field Name
WELL.                                              15/9-8:   NAME
WBN .                                              15/9-8:   WELLBORE
NATI.                                                 NOR:   COUNTRY
BHT1.DEGF                                            78.0:   BH TEMP 1
BHT2.DEGF                                           166.0:   BH TEMP 2
BHT3.DEGF                                           166.0:   BH TEMP 3
BS1 .IN                                             17.50:   BIT SIZE 1
CTRY.                                                 NOR:   COUNTRY
CBD1.M                                             178.50:   CSG 1 DRILL DEP
CBL1.M                                             178.50:   CSG 1 LOG DEP
CS1 .IN                                              30.0:   CSG 1 SIZE
COMP.                                             STATOIL:   OPERATOR
PDAT.                                                 MSL:   PERM DATUM
PROV.                                           NORTH SEA:   PROVINCE
COUN.                                             NORTRYM:   RIG NAME
SPUD.                                          1981/03/05:   SPUD DATE
LATI.                                       58 22 55.81 N:   SURF. LATITUDE
LONG.                                        1 46 28.32 E:   SURF. LONGITUDE
BTD1.                                             494.0 M:   TOTAL DEPTH 1
BTD2.                                            2846.0 M:   TOTAL DEPTH 2
BTD3.                                            2846.0 M:   TOTAL DEPTH 3
PBWE.                                              15/9-8:   PB WELL ID
APIN.                                              15/9-8:   PB WELLBORE ID
PBWS.                                                 all:   PB WELL NAME SET
~PARAMETER INFORMATION (log)
LNAM.                              FDC/CNL/GR  COMPOSITED:   NAME
LTYP.                                         DEPTH MATCH:   LOG TYPE
LSRV.                                            DEN/NEUT:   LOG SERVICE
LSOU.                                             SPT/NPD:   LOG SOURCE
LVSN.                                                   1:   LOG VERSION
BHIS.                                                   R:   BRIEF HISTORY
FHIS.                                             RAW-LIS:   FULL HISTORY
LCNM.                                        SCHLUMBERGER:   LOGGING CONTRACTOR
TOOL.                             FDC/CNL/GR (COMPOSITED):   TOOL STRING
~Curve Information Block
#MNEM.UNIT                                        API CODE    No Description
#=========                                        ========    == ===========
DEPT.M                                       00 001 00 00:     1  DEPTH
CALI.IN                                                  :     2  Caliper
CS.                                                      :     3  Cable Speed
DRHO.G/CC                                                :     4  Bulk density correction
GR.GAPI                                                  :     5  Gamma Ray
NPHI.%                                                   :     6  Neutron porosity
RHOB.G/CC                                                :     7  Bulk density
TENS.LB                                                  :     8  Cable Tension
~ASCII
  470.2028    19.2656  1821.0000     -.5845    40.3125  -999.2500     1.8408  1135.0000
  470.3552    19.2656  1822.0000     -.6187    40.7812  -999.2500     1.8066  1150.0000
  470.5076    19.2813  1824.0000     -.6299    40.5937  -999.2500     1.7939  1135.0000
  470.6600    19.2813  1825.0000     -.6328    39.8750  -999.2500     1.7793  1140.0000
  470.8124    19.2656  1825.0000     -.6445    41.0000  -999.2500     1.7900  1130.0000
  470.9648    19.2656  1824.0000     -.6553    38.5313  -999.2500     1.7969  1145.0000
  471.1172    19.2813  1821.0000     -.6421    36.2187  -999.2500     1.8330  1130.0000
  471.2696    19.2969  1820.0000     -.6562    36.2500  -999.2500     1.8174  1130.0000
  471.4220    19.2969  1820.0000     -.6396    39.7500  -999.2500     1.8330  1145.0000
  471.5744    19.2969  1819.0000     -.6567    40.0000  -999.2500     1.8096  1150.0000
  471.7268    19.2969  1817.0000     -.6816    38.6875  -999.2500     1.7842  1140.0000
  471.8792    19.2969  1817.0000     -.6968    35.4688  -999.2500     1.7686  1135.0000
  472.0316    19.3125  1818.0000     -.6841    37.8125  -999.2500     1.7969  1145.0000
  472.1840    19.3125  1819.0000     -.6484    40.2500  -999.2500     1.8281  1140.0000
  472.3364    19.3125  1821.0000     -.6128    42.5313  -999.2500     1.8730  1130.0000
  472.4888    19.3438  1821.0000     -.6084    43.4688  -999.2500     1.8662  1140.0000
  472.6412    19.3281  1821.0000     -.6099    41.6250  -999.2500     1.8838  1140.0000
  472.7936    19.3438  1821.0000     -.6489    40.3438  -999.2500     1.8398  1140.0000
  472.9460    19.3594  1820.0000     -.6914    37.2188  -999.2500     1.8086  1140.0000
  473.0984    19.3906  1818.0000     -.7187    37.3750  -999.2500     1.7588  1145.0000
  473.2508    19.4063  1817.0000     -.7192    37.0625  -999.2500     1.7412  1140.0000
  473.4032    19.5313  1817.0000     -.6724    40.1875  -999.2500     1.7813  1140.0000
  473.5556    19.5313  1819.0000     -.6777    39.9687  -999.2500     1.7754  1140.0000
  473.7080    19.5313  1819.0000     -.6626    41.7500  -999.2500     1.7979  1145.0000
  473.8604    19.5313  1819.0000     -.6860    39.5000  -999.2500     1.7734  1150.0000
  474.0128    19.5156  1819.0000     -.6704    39.7813  -999.2500     1.8037  1130.0000
  474.1652    19.5156  1822.0000     -.7222    39.4375  -999.2500     1.7529  1150.0000
  474.3176    19.5000  1824.0000     -.6812    39.1250  -999.2500     1.8105  1125.0000
  474.4700    19.5469  1825.0000     -.6475    40.2188  -999.2500     1.8379  1130.0000
  474.6224    19.5313  1821.0000     -.5840    41.5625  -999.2500     1.9160  1125.0000
  474.7748    19.5313  1818.0000     -.6118    41.2500  -999.2500     1.8877  1135.0000
  474.9272    19.5313  1818.0000     -.6167    37.9375  -999.2500     1.9043  1140.0000
  475.0796    19.5313  1818.0000     -.6880    35.2188  -999.2500     1.8379  1135.0000
  475.2320    19.5313  1819.0000     -.7256    37.1875  -999.2500     1.7852  1125.0000
  475.3844    19.5313  1818.0000     -.7080    39.4688  -999.2500     1.8096  1120.0000
  475.5368    19.5000  1817.0000     -.6396    39.1875  -999.2500     1.8760  1140.0000
  475.6892    19.4844  1816.0000     -.6157    37.0938  -999.2500     1.9111  1125.0000
  475.8416    19.5156  1817.0000     -.6201    32.3125  -999.2500     1.8926  1120.0000
  475.9940    19.4844  1819.0000     -.6890    31.8437  -999.2500     1.8223  1125.0000
  476.1464    19.4531  1822.0000     -.7144    30.0313  -999.2500     1.7988  1115.0000
  476.2988    19.4531  1822.0000     -.8042    33.0313  -999.2500     1.7207  1115.0000
  476.4512    19.4688  1821.0000     -.7998    32.2813  -999.2500     1.7402  1125.0000
  476.6036    19.4531  1818.0000     -.7539    34.4688  -999.2500     1.7988  1120.0000
  476.7560    19.4531  1817.0000     -.6714    33.8750  -999.2500     1.8750  1125.0000
  476.9084    19.4688  1817.0000     -.6138    35.7813  -999.2500     1.9219  1120.0000
  477.0608    19.4531  1818.0000     -.6294    38.1875  -999.2500     1.9072  1135.0000
  477.2132    19.4531  1818.0000     -.6699    37.8125  -999.2500     1.8662  1110.0000
  477.3656    19.4375  1818.0000     -.7642    36.0938  -999.2500     1.7832  1125.0000
  477.5180    19.4375  1819.0000     -.7798    33.7813  -999.2500     1.7666  1145.0000
  477.6704    19.5000  1819.0000     -.7412    34.2500  -999.2500     1.8066  1125.0000
  477.8228    19.5000  1821.0000     -.6328    34.4375  -999.2500     1.9072  1125.0000
  477.9752    19.5156  1821.0000     -.6064    33.5625  -999.2500     1.9248  1135.0000
  478.1276    19.5156  1820.0000     -.6260    35.7813  -999.2500     1.9004  1120.0000
  478.2800    19.5000  1818.0000     -.6943    36.8750  -999.2500     1.8164  1100.0000
  478.4324    19.5000  1817.0000     -.7109    38.5938  -999.2500     1.8086  1120.0000
  478.5848    19.5156  1816.0000     -.7021    38.7187  -999.2500     1.8291  1125.0000
  478.7372    19.5000  1816.0000     -.7021    37.6875  -999.2500     1.8457  1135.0000
  478.8896    19.5000  1816.0000     -.7012    36.7188  -999.2500     1.8555  1130.0000
  479.0420    19.5000  1817.0000     -.7314    37.3438  -999.2500     1.8096  1115.0000
  479.1944    19.5000  1819.0000     -.6963    41.4688  -999.2500     1.8555  1115.0000
  479.3468    19.5000  1821.0000     -.6782    45.0000  -999.2500     1.8730  1120.0000
  479.4992    19.5156  1820.0000     -.6553    44.7500  -999.2500     1.9023  1130.0000
  479.6516    19.5000  1821.0000     -.6348    41.3750  -999.2500     1.9092  1125.0000
  479.8040    19.5000  1823.0000     -.6675    38.7813  -999.2500     1.8613  1130.0000
  479.9564    19.5000  1822.0000     -.7515    38.2813  -999.2500     1.8145  1130.0000
  480.1088    19.5000  1819.0000     -.9771    37.0313  -999.2500     1.6553  1130.0000
  480.2612    19.5000  1817.0000    -1.2031    36.3438  -999.2500     1.5674  1120.0000
  480.4136    19.4844  1817.0000    -1.2510    33.5938  -999.2500     1.5557  1115.0000
  480.5660    19.4844  1816.0000     -.1055    35.0313  -999.2500     2.5859  1130.0000
  480.7184    20.3438  1816.0000      .0547    39.9375  -999.2500     2.4238  1120.0000
  480.8708    22.3594  1817.0000      .0981    46.1875  -999.2500     2.0176  1125.0000
  481.0232    22.3750  1817.0000      .0205    49.6250  -999.2500     1.7393  1150.0000
  481.1756    22.2344  1817.0000     -.0117    47.8438  -999.2500     1.5986  1135.0000
  481.3280    22.2500  1818.0000     -.0093    44.0938  -999.2500     1.6055  1135.0000
  481.4804    21.1406  1818.0000     -.0059    45.5000  -999.2500     1.6436  1165.0000
  481.6328    20.8438  1814.0000     -.0005    48.9375  -999.2500     1.7080  1175.0000
  481.7852    21.0313  1812.0000      .0229    54.5938  -999.2500     1.7979  1165.0000
  481.9376    21.2187  1813.0000      .0303    54.6562  -999.2500     1.8154  1155.0000
  482.0900    21.3594  1812.0000      .0205    52.4375  -999.2500     1.8105  1090.0000
  482.2424    21.2969  1811.0000     -.0020    48.4375  -999.2500     1.8154  1125.0000
  482.3948    21.4531  1811.0000     -.0034    47.4063  -999.2500     1.8711  1130.0000
  482.5472    21.6406  1810.0000      .0000    48.0937  -999.2500     1.9111  1145.0000
  482.6996    21.7344  1810.0000      .0200    51.0000  -999.2500     1.9258  1150.0000
  482.8520    21.8125  1812.0000      .0068    49.0625  -999.2500     1.9082  1150.0000
  483.0044    21.8437  1814.0000      .0093    48.1250  -999.2500     1.9072  1110.0000
  483.1568    21.9531  1815.0000      .0059    44.5000  -999.2500     1.9043  1140.0000
  483.3092    21.9531  1815.0000      .0054    48.4688  -999.2500     1.9150  1125.0000
  483.4616    22.0000  1811.0000      .0195    50.0313  -999.2500     1.9268  1125.0000
  483.6140    22.1875  1809.0000      .0161    53.7187  -999.2500     1.8965  1130.0000
  483.7664    22.0625  1808.0000      .0259    52.2188  -999.2500     1.8789  1135.0000
  483.9188    22.0000  1810.0000      .0068    49.5938  -999.2500     1.8564  1125.0000
