~VERSION INFORMATION
VERS.                                                 2.0:   CWLS Log ASCII Standard-VERSION 2.0
WRAP.                                                  NO:   One line per depth step
~Well Information Block
STRT.M                                           470.2028:   Top Depth
STOP.M                                          3735.8300:   Bottom Depth
STEP.M                                             .15240:   Depth Increment
NULL.                                            -999.250:   Null Value
FLD .                                             WILDCAT:   Field Name
WELL.                                              15/9-8:   NAME
WBN .                                              15/9-8:   WELLBORE
NATI.                                                 NOR:   COUNTRY
BHT1.DEGF                                            78.0:   BH TEMP 1
BHT2.DEGF                                           166.0:   BH TEMP 2
BHT3.DEGF                                           166.0:   BH TEMP 3
BS1 .IN                                             17.50:   BIT SIZE 1
CTRY.                                                 NOR:   COUNTRY
CBD1.M                                             178.50:   CSG 1 DRILL DEP
CBL1.M                                             178.50:   CSG 1 LOG DEP
CS1 .IN                                              30.0:   CSG 1 SIZE
COMP.                                             STATOIL:   OPERATOR
PDAT.                                                 MSL:   PERM DATUM
PROV.                                           NORTH SEA:   PROVINCE
COUN.                                             NORTRYM:   RIG NAME
SPUD.                                          1981/03/05:   SPUD DATE
LATI.                                       58 22 55.81 N:   SURF. LATITUDE
LONG.                                        1 46 28.32 E:   SURF. LONGITUDE
BTD1.                                             494.0 M:   TOTAL DEPTH 1
BTD2.                                            2846.0 M:   TOTAL DEPTH 2
BTD3.                                            2846.0 M:   TOTAL DEPTH 3
PBWE.                                              15/9-8:   PB WELL ID
APIN.                                              15/9-8:   PB WELLBORE ID
PBWS.                                                 all:   PB WELL NAME SET
~PARAMETER INFORMATION (log)
LNAM.                              FDC/CNL/GR  COMPOSITED:   NAME
LTYP.                                         DEPTH MATCH:   LOG TYPE
LSRV.                                            DEN/NEUT:   LOG SERVICE
LSOU.                                             SPT/NPD:   LOG SOURCE
LVSN.                                                   1:   LOG VERSION
BHIS.                                                   R:   BRIEF HISTORY
FHIS.                                             RAW-LIS:   FULL HISTORY
LCNM.                                        SCHLUMBERGER:   LOGGING CONTRACTOR
TOOL.                             FDC/CNL/GR (COMPOSITED):   TOOL STRING
~Curve Information Block
#MNEM.UNIT                                        API CODE    No Description
#=========                                        ========    == ===========
DEPT.M                                       00 001 00 00:     1  DEPTH
CALI.IN                                                  :     2  Caliper
CS.                                                      :     3  Cable Speed
DRHO.G/CC                                                :     4  Bulk density correction
GR.GAPI                                                  :     5  Gamma Ray
NPHI.%                                                   :     6  Neutron porosity
RHOB.G/CC                                                :     7  Bulk density
TENS.LB                                                  :     8  Cable Tension
~ASCII
# ...
 2633.6732    11.9946  2084.0000      .0002    27.6563  -999.2500     2.2291  3407.1089
 2633.8256    12.0256  2085.3086      .0054    25.3125  -999.2500     2.2350  3407.4561
 2633.9780    12.0391  2087.3076      .0121    28.6406  -999.2500     2.2414  3394.8462
 2634.1304    12.0391  2088.0000      .0142    34.7500  -999.2500     2.2429  3379.5386
 2634.2828    12.0391  2086.6890      .0014    36.9375  -999.2500     2.2281  3377.9326
 2634.4352    12.0391  2084.6909     -.0047    35.8750  -999.2500     2.2309  3382.6177
 2634.5876    12.1208  2084.0000     -.0041    33.3750  -999.2500     2.2440  3377.4614
 2634.7400    12.0977  2084.0000      .0060    31.0938  -999.2500     2.2659  3374.0000
 2634.8924    12.0625  2085.3076      .0074    30.4063  -999.2500     2.2626  3367.4614
 2635.0448    11.9960  2087.3086      .0118    27.2969  -999.2500     2.2495  3361.3823
 2635.1972    11.9303  2088.0000      .0084    29.8906  -999.2500     2.2231  3375.6924
 2635.3496    11.9141  2086.6924      .0132    30.6094  -999.2500     2.2186  3397.0767
 2635.5020    11.9038  2086.0000      .0023    30.9531  -999.2500     2.2201  3388.3076
 2635.6544    11.9394  2086.0000     -.0068    30.3125  -999.2500     2.2392  3382.6216
 2635.8068    12.0325  2084.6909     -.0134    31.3438  -999.2500     2.2538  3384.0000
 2635.9592    12.1061  2082.6924     -.0121    32.7188  -999.2500     2.2635  3387.9229
 2636.1116    12.1505  2082.0000     -.0069    34.7500  -999.2500     2.2727  3396.5386
 2636.2640    12.1282  2080.6890     -.0038    36.1875  -999.2500     2.2716  3419.6636
 2636.4164    11.9918  2080.0000     -.0001    37.7812  -999.2500     2.2721  3416.9121
 2636.5688    11.9297  2081.3076      .0002    36.8125  -999.2500     2.2671  3396.9229
 2636.7212    11.9246  2082.0000      .0030    36.2187  -999.2500     2.2713  3392.6152
 2636.8736    11.9219  2082.0000      .0049    36.9063  -999.2500     2.2690  3391.3843
 2637.0260    11.9219  2080.6909      .0014    39.6250  -999.2500     2.2605  3390.0000
 2637.1784    11.9270  2080.0000     -.0040    44.8125  -999.2500     2.2463  3386.0767
 2637.3308    11.9297  2078.6924     -.0046    47.2500  -999.2500     2.2492  3387.9229
 2637.4832    11.9297  2076.6943     -.0039    51.7813  -999.2500     2.2577  3386.0830
 2637.6356    11.9297  2076.0000     -.0029    49.9063  -999.2500     2.2713  3390.5386
 2637.7880    11.9399  2076.0000     -.0024    51.3438  -999.2500     2.2773  3394.0000
 2637.9404    12.1442  2077.3057     -.0056    47.2813  -999.2500     2.2697  3404.4448
 2638.0928    11.9494  2078.0000      .0051    48.8750  -999.2500     2.2707  3410.0000
 2638.2452    11.7329  2078.0000      .0312    49.4063  -999.2500     2.3028  3396.9229
 2638.3976    11.7849  2078.0000      .0741    48.4375  -999.2500     2.3592  3386.0767
 2638.5500    11.9865  2076.6924      .0776    43.5625  -999.2500     2.3694  3387.9229
 2638.7024    11.9581  2076.0000      .0521    36.4063  -999.2500     2.3301  3409.5840
 2638.8548    11.9137  2076.0000      .0269    40.5313  -999.2500     2.2819  3422.6089
 2639.0072    11.9219  2076.0000      .0106    40.0313  -999.2500     2.2516  3447.5386
 2639.1596    11.9219  2074.6924      .0003    42.0938  -999.2500     2.2339  3473.0767
 2639.3120    11.9576  2074.0000     -.0017    37.3750  -999.2500     2.2413  3447.3599
 2639.4644    11.9817  2076.6089     -.0023    36.5000  -999.2500     2.2430  3449.5674
 2639.6168    12.0406  2079.3076     -.0074    36.9375  -999.2500     2.2441  3423.3843
 2639.7692    12.1367  2080.0000     -.0088    39.6875  -999.2500     2.2525  3397.4614
 2639.9216    12.2433  2080.0000      .0048    44.4375  -999.2500     2.2814  3380.9438
 2640.0740    12.2965  2078.6953      .0337    50.5313  -999.2500     2.3102  3397.4805
 2640.2264    12.2587  2078.0000      .0524    58.0000  -999.2500     2.3247  3406.0767
 2640.3788    12.2701  2078.0000      .0504    63.4375  -999.2500     2.3192  3410.5386
 2640.5312    12.4219  2078.0000      .0467    59.0938  -999.2500     2.3081  3407.4614
 2640.6836    12.4718  2076.6943      .0410    46.7187  -999.2500     2.2817  3397.4717
 2640.8360    12.2724  2076.0000      .0247    36.1563  -999.2500     2.2415  3410.9580
 2640.9884    12.0288  2077.3076      .0054    31.4844  -999.2500     2.2023  3429.1538
 2641.1408    11.9276  2079.3076     -.0035    31.8750  -999.2500     2.1843  3451.0000
 2641.2932    11.8631  2081.3057     -.0030    31.1875  -999.2500     2.1740  3436.4990
 2641.4456    11.8665  2080.6953     -.0032    33.5313  -999.2500     2.1686  3410.9551
 2641.5980    11.9032  2078.6924     -.0144    33.9688  -999.2500     2.1539  3401.3843
 2641.7504    11.9192  2078.0000     -.0242    36.0938  -999.2500     2.1554  3402.6152
 2641.9028    11.9219  2078.0000     -.0194    35.2188  -999.2500     2.1742  3404.0000
 2642.0552    11.9270  2079.3042     -.0048    33.8438  -999.2500     2.2033  3401.3911
 2642.2076    11.9297  2078.6924      .0074    33.0625  -999.2500     2.2276  3400.0000
 2642.3600    11.9297  2078.0000      .0024    32.4687  -999.2500     2.2293  3413.0767
 2642.5124    11.9450  2078.0000     -.0020    32.4375  -999.2500     2.2266  3433.0767
 2642.6648    11.9531  2079.3057     -.0007    30.4844  -999.2500     2.2240  3440.0000
 2642.8172    11.9531  2081.3042      .0022    29.1406  -999.2500     2.2252  3453.0449
 2642.9696    11.9582  2082.0000      .0076    29.2188  -999.2500     2.2291  3475.6924
 2643.1220    11.9609  2082.0000      .0031    30.6563  -999.2500     2.2164  3468.3076
 2643.2744    12.0272  2080.6943      .0046    32.8750  -999.2500     2.2103  3466.5278
 2643.4268    12.0676  2078.6953     -.0025    33.0625  -999.2500     2.2224  3437.3877
 2643.5792    11.8558  2078.0000     -.0072    33.2188  -999.2500     2.2745  3403.0000
 2643.7316    11.6758  2079.3076     -.0027    31.5469  -999.2500     2.3333  3397.9229
 2643.8840    11.6508  2081.3057      .0151    30.7500  -999.2500     2.3388  3389.5552
 2644.0364    11.6919  2082.0000      .0314    34.8125  -999.2500     2.2989  3390.5225
 2644.1888    11.7109  2082.0000      .0248    35.6563  -999.2500     2.2455  3391.3843
 2644.3412    11.8131  2080.6924      .0098    36.4688  -999.2500     2.2125  3392.6152
 2644.4936    12.0153  2080.0000      .0001    31.6250  -999.2500     2.2025  3397.9229
 2644.6460    12.1193  2082.6152     -.0012    33.1250  -999.2500     2.1999  3419.6152
 2644.7984    12.1379  2084.0000      .0024    33.1563  -999.2500     2.2018  3436.5278
 2644.9508    12.0947  2082.6924      .0026    33.7500  -999.2500     2.1967  3446.5386
 2645.1032    12.0703  2080.6924      .0000    33.8438  -999.2500     2.1831  3452.6152
 2645.2556    12.0652  2080.0000     -.0032    39.5625  -999.2500     2.1739  3454.0000
 2645.4080    12.0114  2080.0000      .0039    51.7813  -999.2500     2.1693  3444.8462
 2645.5604    11.9486  2082.6177      .0179    60.8750  -999.2500     2.1782  3416.4414
 2645.7128    11.9961  2084.0000      .0214    60.0313  -999.2500     2.1849  3410.5386
 2645.8652    12.0517  2082.6924      .0167    52.5000  -999.2500     2.2111  3400.9229
 2646.0176    11.8939  2080.6924      .0048    46.5625  -999.2500     2.2463  3394.0000
 2646.1700    11.7791  2080.0000      .0081    45.9688  -999.2500     2.2898  3407.0879
 2646.3224    11.7707  2081.3076      .0114    48.6563  -999.2500     2.3105  3414.0000
 2646.4748    11.8041  2082.0000      .0152    50.0938  -999.2500     2.3163  3411.3843
 2646.6272    11.8305  2080.6924      .0179    53.5625  -999.2500     2.3145  3416.5386
 2646.7796    11.8155  2078.6943      .0193    57.8125  -999.2500     2.3036  3429.1392
 2646.9320    11.8660  2078.0000      .0210    63.2812  -999.2500     2.2950  3414.3843
 2647.0844    12.0568  2079.3076      .0231    61.3125  -999.2500     2.2955  3407.9229
 2647.2368    12.0998  2081.3076      .0134    52.8125  -999.2500     2.2905  3416.5386
 2647.3892    12.0883  2080.6924      .0024    41.4375  -999.2500     2.2807  3446.1538
