~VERSION INFORMATION
VERS.                                                 2.0:   CWLS Log ASCII Standard-VERSION 2.0
WRAP.                                                  NO:   One line per depth step
~Well Information Block
STRT.M                                           470.2028:   Top Depth
STOP.M                                          3735.8300:   Bottom Depth
STEP.M                                             .15240:   Depth Increment
NULL.                                            -999.250:   Null Value
FLD .                                             WILDCAT:   Field Name
WELL.                                              15/9-8:   NAME
WBN .                                              15/9-8:   WELLBORE
NATI.                                                 NOR:   COUNTRY
BHT1.DEGF                                            78.0:   BH TEMP 1
BHT2.DEGF                                           166.0:   BH TEMP 2
BHT3.DEGF                                           166.0:   BH TEMP 3
BS1 .IN                                             17.50:   BIT SIZE 1
CTRY.                                                 NOR:   COUNTRY
CBD1.M                                             178.50:   CSG 1 DRILL DEP
CBL1.M                                             178.50:   CSG 1 LOG DEP
CS1 .IN                                              30.0:   CSG 1 SIZE
COMP.                                             STATOIL:   OPERATOR
PDAT.                                                 MSL:   PERM DATUM
PROV.                                           NORTH SEA:   PROVINCE
COUN.                                             NORTRYM:   RIG NAME
SPUD.                                          1981/03/05:   SPUD DATE
LATI.                                       58 22 55.81 N:   SURF. LATITUDE
LONG.                                        1 46 28.32 E:   SURF. LONGITUDE
BTD1.                                             494.0 M:   TOTAL DEPTH 1
BTD2.                                            2846.0 M:   TOTAL DEPTH 2
BTD3.                                            2846.0 M:   TOTAL DEPTH 3
PBWE.                                              15/9-8:   PB WELL ID
APIN.                                              15/9-8:   PB WELLBORE ID
PBWS.                                                 all:   PB WELL NAME SET
~PARAMETER INFORMATION (log)
LNAM.                              FDC/CNL/GR  COMPOSITED:   NAME
LTYP.                                         DEPTH MATCH:   LOG TYPE
LSRV.                                            DEN/NEUT:   LOG SERVICE
LSOU.                                             SPT/NPD:   LOG SOURCE
LVSN.                                                   1:   LOG VERSION
BHIS.                                                   R:   BRIEF HISTORY
FHIS.                                             RAW-LIS:   FULL HISTORY
LCNM.                                        SCHLUMBERGER:   LOGGING CONTRACTOR
TOOL.                             FDC/CNL/GR (COMPOSITED):   TOOL STRING
~Curve Information Block
#MNEM.UNIT                                        API CODE    No Description
#=========                                        ========    == ===========
DEPT.M                                       00 001 00 00:     1  DEPTH
CALI.IN                                                  :     2  Caliper
CS.                                                      :     3  Cable Speed
DRHO.G/CC                                                :     4  Bulk density correction
GR.GAPI                                                  :     5  Gamma Ray
NPHI.%                                                   :     6  Neutron porosity
RHOB.G/CC                                                :     7  Bulk density
TENS.LB                                                  :     8  Cable Tension
~ASCII
# ...
 1773.8324    14.6041  2213.3062      .0280    63.8750  -999.2500     2.0967  2482.6118
 1773.9848    14.4013  2215.3066      .0289    62.4687  -999.2500     2.1055  2484.0000
 1774.1372    14.2516  2214.6938      .0291    58.5937  -999.2500     2.1106  2474.8574
 1774.2896    14.2263  2214.0000      .0293    54.2813  -999.2500     2.1069  2498.7690
 1774.4420    14.3109  2215.3066      .0349    52.5313  -999.2500     2.1073  2504.8535
 1774.5944    14.3975  2216.0000      .0323    59.6250  -999.2500     2.0966  2486.9229
 1774.7468    14.7587  2216.0000      .0287    63.5937  -999.2500     2.0911  2480.0000
 1774.8992    14.8558  2216.0000      .0242    64.5000  -999.2500     2.0918  2499.6152
 1775.0516    15.0065  2216.0000      .0287    61.5625  -999.2500     2.1058  2510.0000
 1775.2040    14.7522  2216.0000      .0364    61.1250  -999.2500     2.1184  2519.1426
 1775.3564    14.5523  2217.3066      .0462    61.4375  -999.2500     2.1275  2514.8535
 1775.5088    14.3938  2219.3062      .0433    59.2187  -999.2500     2.1079  2503.4692
 1775.6612    14.5422  2220.0000      .0309    59.6250  -999.2500     2.0842  2489.5469
 1775.8136    14.5365  2218.6938      .0213    60.6250  -999.2500     2.0743  2484.0000
 1775.9660    14.3973  2218.0000      .0186    60.5625  -999.2500     2.0825  2481.3867
 1776.1184    14.5737  2216.6938      .0195    60.5000  -999.2500     2.0853  2495.6729
 1776.2708    14.2431  2216.0000      .0197    62.3125  -999.2500     2.0853  2507.9229
 1776.4232    13.8343  2217.3066      .0214    64.8125  -999.2500     2.0923  2499.5469
 1776.5756    14.2939  2218.0000      .0151    68.3125  -999.2500     2.0970  2511.0000
 1776.7280    14.3205  2218.0000      .0135    68.5000  -999.2500     2.0964  2533.0664
 1776.8804    14.2972  2218.0000      .0070    68.0000  -999.2500     2.0842  2513.8462
 1777.0328    14.6146  2218.0000      .0186    68.6875  -999.2500     2.0896  2506.5332
 1777.1852    14.5306  2220.6118      .0182    70.6875  -999.2500     2.0855  2529.5913
 1777.3376    14.4906  2222.0000      .0172    68.5000  -999.2500     2.0839  2533.4668
 1777.4900    14.3578  2222.0000      .0130    64.5000  -999.2500     2.0808  2519.5513
 1777.6424    13.9288  2222.0000      .0152    69.2500  -999.2500     2.0883  2507.4668
 1777.7948    13.7806  2219.3877      .0184    72.9375  -999.2500     2.0899  2517.0605
 1777.9472    13.4396  2216.6934      .0163    74.3125  -999.2500     2.0879  2508.3203
 1778.0996    13.1327  2217.3062      .0049    68.5000  -999.2500     2.0751  2509.1426
 1778.2520    13.2951  2219.3076      .0043    67.0000  -999.2500     2.0735  2498.3076
 1778.4044    13.5519  2220.0000      .0078    66.5625  -999.2500     2.0609  2496.5332
 1778.5568    13.8089  2220.0000      .0179    65.0000  -999.2500     2.0463  2496.0767
 1778.7092    14.1257  2220.0000      .0169    65.8125  -999.2500     2.0251  2504.4531
 1778.8616    13.9357  2218.6924      .0121    68.8750  -999.2500     2.0207  2516.5386
 1779.0140    14.6462  2218.0000      .0151    70.3125  -999.2500     2.0400  2526.5332
 1779.1664    14.3390  2218.0000      .0190    68.0000  -999.2500     2.0705  2519.5513
 1779.3188    13.7715  2218.0000      .0302    62.9063  -999.2500     2.0973  2504.8535
 1779.4712    13.4834  2216.6938      .0404    58.9375  -999.2500     2.1169  2489.5513
 1779.6236    13.2219  2214.6934      .0385    58.6563  -999.2500     2.1128  2500.9863
 1779.7760    13.2835  2212.6938      .0113    54.9687  -999.2500     2.0972  2532.2036
 1779.9284    13.6758  2210.6934     -.0026    56.2813  -999.2500     2.0931  2508.7202
 1780.0808    13.3846  2211.3062      .0063    61.5938  -999.2500     2.1065  2496.5303
 1780.2332    13.1508  2212.0000      .0355    66.6875  -999.2500     2.1094  2502.6152
 1780.3856    13.4372  2212.0000      .0400    67.6250  -999.2500     2.0908  2523.6152
 1780.5380    13.9692  2210.6914      .0293    63.1563  -999.2500     2.0718  2551.0073
 1780.6904    13.7683  2211.3076      .0214    66.2500  -999.2500     2.0677  2523.3843
 1780.8428    13.7029  2212.0000      .0162    70.3750  -999.2500     2.0684  2501.3833
 1780.9952    14.0980  2213.3076      .0073    73.7500  -999.2500     2.0569  2502.6152
 1781.1476    14.5568  2214.0000      .0044    68.1250  -999.2500     2.0597  2517.0767
 1781.3000    14.7365  2214.0000      .0068    66.1875  -999.2500     2.0593  2543.6235
 1781.4524    13.9480  2214.0000      .0116    65.0625  -999.2500     2.0707  2512.1538
 1781.6048    13.6052  2214.0000      .0188    68.3750  -999.2500     2.0807  2483.4585
 1781.7572    13.9703  2215.3076      .0256    67.2500  -999.2500     2.0935  2482.6152
 1781.9096    13.5069  2217.3081      .0278    67.4375  -999.2500     2.0983  2503.6235
 1782.0620    13.4886  2218.0000      .0275    65.9375  -999.2500     2.1091  2507.4614
 1782.2144    13.5694  2218.0000      .0251    59.5312  -999.2500     2.1140  2477.8350
 1782.3668    13.9525  2216.6924      .0128    55.7812  -999.2500     2.1056  2481.0000
 1782.5192    14.2103  2216.0000      .0011    53.0625  -999.2500     2.1092  2499.1577
 1782.6716    14.1346  2216.0000      .0012    54.2500  -999.2500     2.1452  2517.0767
 1782.8240    14.0195  2217.3081      .0211    54.9063  -999.2500     2.1928  2524.0000
 1782.9764    14.8477  2218.0000      .0426    58.8438  -999.2500     2.2026  2517.4614
 1783.1288    15.4324  2218.0000      .0482    58.0313  -999.2500     2.1750  2500.9229
 1783.2812    15.3518  2218.0000      .0546    57.5000  -999.2500     2.1532  2504.4658
 1783.4336    15.7485  2218.0000      .0405    54.8437  -999.2500     2.1191  2493.0000
 1783.5860    15.7598  2219.3081      .0427    55.2188  -999.2500     2.1022  2470.9175
 1783.7384    15.2599  2218.6924      .0405    54.6875  -999.2500     2.0875  2477.0767
 1783.8908    15.1749  2216.6914      .0435    51.8125  -999.2500     2.0903  2510.1650
 1784.0432    14.6520  2216.0000      .0272    52.3437  -999.2500     2.0778  2504.3843
 1784.1956    14.1649  2216.0000      .0147    55.0625  -999.2500     2.0735  2511.0073
 1784.3480    14.1623  2216.0000      .0073    58.0625  -999.2500     2.0723  2516.0767
 1784.5004    14.2978  2214.6914      .0020    61.5312  -999.2500     2.0716  2520.5410
 1784.6528    14.5072  2214.0000     -.0003    58.8750  -999.2500     2.0735  2517.4614
 1784.8052    14.7418  2215.3066      .0041    59.2500  -999.2500     2.0793  2487.8672
 1784.9576    14.8918  2216.0000      .0046    56.9375  -999.2500     2.0782  2493.6152
 1785.1100    14.7764  2217.3076      .0072    56.8437  -999.2500     2.0787  2490.9229
 1785.2624    14.9048  2216.6914      .0080    59.0625  -999.2500     2.0737  2503.6235
 1785.4148    14.8471  2216.0000      .0175    61.5000  -999.2500     2.0831  2507.4614
 1785.5672    14.4563  2216.0000      .0140    62.2188  -999.2500     2.0732  2497.4585
 1785.7196    14.4399  2216.0000      .0013    60.4063  -999.2500     2.0619  2491.3843
 1785.8720    14.4287  2216.0000     -.0029    59.8437  -999.2500     2.0657  2499.1577
 1786.0244    15.0622  2216.0000      .0102    57.7812  -999.2500     2.0824  2510.5386
 1786.1768    15.0079  2217.3081      .0327    57.2500  -999.2500     2.1065  2504.8423
 1786.3292    14.5643  2218.0000      .0423    52.0938  -999.2500     2.1165  2502.6152
 1786.4816    14.3073  2218.0000      .0363    55.6875  -999.2500     2.1197  2494.8423
 1786.6340    14.7248  2219.3076      .0225    54.6562  -999.2500     2.1109  2499.1538
 1786.7864    14.8874  2221.3066      .0098    57.9375  -999.2500     2.0940  2494.8535
 1786.9388    14.4835  2220.6924      .0065    57.2813  -999.2500     2.0802  2503.0767
 1787.0912    14.5776  2221.3066      .0170    55.8750  -999.2500     2.0877  2512.6133
 1787.2436    14.7981  2222.0000      .0196    58.0625  -999.2500     2.0912  2494.3843
 1787.3960    14.6828  2222.0000      .0126    61.8125  -999.2500     2.0847  2490.5332
 1787.5484    14.4432  2222.0000      .0066    66.0000  -999.2500     2.0808  2478.3076
