~VERSION INFORMATION
VERS.                                                 2.0:   CWLS Log ASCII Standard-VERSION 2.0
WRAP.                                                  NO:   One line per depth step
~Well Information Block
STRT.M                                           470.2028:   Top Depth
STOP.M                                          3735.8300:   Bottom Depth
STEP.M                                             .15240:   Depth Increment
NULL.                                            -999.250:   Null Value
FLD .                                             WILDCAT:   Field Name
WELL.                                              15/9-8:   NAME
WBN .                                              15/9-8:   WELLBORE
NATI.                                                 NOR:   COUNTRY
BHT1.DEGF                                            78.0:   BH TEMP 1
BHT2.DEGF                                           166.0:   BH TEMP 2
BHT3.DEGF                                           166.0:   BH TEMP 3
BS1 .IN                                             17.50:   BIT SIZE 1
CTRY.                                                 NOR:   COUNTRY
CBD1.M                                             178.50:   CSG 1 DRILL DEP
CBL1.M                                             178.50:   CSG 1 LOG DEP
CS1 .IN                                              30.0:   CSG 1 SIZE
COMP.                                             STATOIL:   OPERATOR
PDAT.                                                 MSL:   PERM DATUM
PROV.                                           NORTH SEA:   PROVINCE
COUN.                                             NORTRYM:   RIG NAME
SPUD.                                          1981/03/05:   SPUD DATE
LATI.                                       58 22 55.81 N:   SURF. LATITUDE
LONG.                                        1 46 28.32 E:   SURF. LONGITUDE
BTD1.                                             494.0 M:   TOTAL DEPTH 1
BTD2.                                            2846.0 M:   TOTAL DEPTH 2
BTD3.                                            2846.0 M:   TOTAL DEPTH 3
PBWE.                                              15/9-8:   PB WELL ID
APIN.                                              15/9-8:   PB WELLBORE ID
PBWS.                                                 all:   PB WELL NAME SET
~PARAMETER INFORMATION (log)
LNAM.                              FDC/CNL/GR  COMPOSITED:   NAME
LTYP.                                         DEPTH MATCH:   LOG TYPE
LSRV.                                            DEN/NEUT:   LOG SERVICE
LSOU.                                             SPT/NPD:   LOG SOURCE
LVSN.                                                   1:   LOG VERSION
BHIS.                                                   R:   BRIEF HISTORY
FHIS.                                             RAW-LIS:   FULL HISTORY
LCNM.                                        SCHLUMBERGER:   LOGGING CONTRACTOR
TOOL.                             FDC/CNL/GR (COMPOSITED):   TOOL STRING
~Curve Information Block
#MNEM.UNIT                                        API CODE    No Description
#=========                                        ========    == ===========
DEPT.M                                       00 001 00 00:     1  DEPTH
CALI.IN                                                  :     2  Caliper
CS.                                                      :     3  Cable Speed
DRHO.G/CC                                                :     4  Bulk density correction
GR.GAPI                                                  :     5  Gamma Ray
NPHI.%                                                   :     6  Neutron porosity
RHOB.G/CC                                                :     7  Bulk density
TENS.LB                                                  :     8  Cable Tension
~ASCII
# ...
 2411.7788    13.2612  2140.0000      .0031    61.9688  -999.2500     2.2730  3141.3911
 2411.9312    12.7642  2140.0000     -.0006    63.1250  -999.2500     2.2781  3162.1763
 2412.0836    12.6400  2140.0000      .0201    69.2500  -999.2500     2.2920  3197.5386
 2412.2360    12.7329  2140.0000      .0408    69.4375  -999.2500     2.2918  3210.0000
 2412.3884    13.0080  2138.6943      .0590    67.9375  -999.2500     2.2897  3199.5552
 2412.5408    13.2602  2138.0000      .0659    62.2500  -999.2500     2.2719  3178.3462
 2412.6932    13.0625  2138.0000      .0822    58.7813  -999.2500     2.2668  3176.5386
 2412.8456    13.3459  2136.6924      .0691    56.0625  -999.2500     2.2427  3180.0000
 2412.9980    13.1674  2136.0000      .0605    57.7188  -999.2500     2.2400  3176.0830
 2413.1504    12.8869  2136.0000      .0560    61.3750  -999.2500     2.2537  3158.3462
 2413.3028    13.1369  2137.3042      .0693    66.5000  -999.2500     2.2795  3195.6567
 2413.4552    13.3146  2139.3076      .0539    67.0000  -999.2500     2.2719  3222.6152
 2413.6076    13.3026  2141.3057      .0391    69.4375  -999.2500     2.2592  3184.8320
 2413.7600    13.1260  2142.0000      .0355    74.5000  -999.2500     2.2604  3150.9551
 2413.9124    12.8913  2142.0000      .0565    77.5000  -999.2500     2.2681  3167.4805
 2414.0648    13.2825  2142.0000      .0811    82.2500  -999.2500     2.2677  3189.1538
 2414.2172    13.3729  2142.0000      .0735    80.8750  -999.2500     2.2273  3194.0000
 2414.3696    12.9576  2142.0000      .0513    81.0000  -999.2500     2.2007  3171.8047
 2414.5220    12.7558  2140.6953      .0294    72.3750  -999.2500     2.1947  3195.2212
 2414.6744    12.7473  2138.6924      .0357    66.8125  -999.2500     2.2266  3231.0000
 2414.8268    12.9032  2139.3076      .0280    61.9063  -999.2500     2.2492  3213.8462
 2414.9792    13.0864  2141.3057      .0229    61.9688  -999.2500     2.2660  3196.0830
 2415.1316    13.2018  2143.3042      .0196    59.5000  -999.2500     2.2925  3180.9551
 2415.2840    12.7401  2145.3042      .0257    56.2500  -999.2500     2.3167  3180.5225
 2415.4364    12.4766  2144.6924      .0213    53.4375  -999.2500     2.3178  3187.9229
 2415.5888    12.4511  2142.6943      .0070    52.4687  -999.2500     2.3030  3179.5552
 2415.7412    12.4120  2142.0000      .0048    50.4687  -999.2500     2.2969  3160.9551
 2415.8936    12.4188  2140.6953      .0086    48.2500  -999.2500     2.3096  3154.0000
 2416.0460    12.4144  2140.0000      .0321    51.0313  -999.2500     2.3458  3160.5386
 2416.1984    12.4318  2140.0000      .0506    56.1250  -999.2500     2.3677  3174.4614
 2416.3508    12.4810  2141.3057      .0654    60.4375  -999.2500     2.3634  3173.4717
 2416.5032    12.5000  2142.0000      .0455    59.8125  -999.2500     2.3097  3156.9551
 2416.6556    12.9138  2142.0000      .0212    58.9062  -999.2500     2.2615  3159.1538
 2416.8080    12.8008  2143.3076      .0096    59.0938  -999.2500     2.2551  3187.5386
 2416.9604    12.8851  2146.6108      .0032    60.0625  -999.2500     2.2782  3193.4717
 2417.1128    12.8043  2148.0000      .0043    63.4062  -999.2500     2.3145  3190.0000
 2417.2652    12.6875  2145.3911      .0008    64.0000  -999.2500     2.3256  3183.4775
 2417.4176    12.6875  2142.6924      .0086    60.7188  -999.2500     2.3280  3193.0767
 2417.5700    12.6875  2140.6943      .0081    57.8438  -999.2500     2.3186  3189.5552
 2417.7224    12.6824  2140.0000      .0179    53.5313  -999.2500     2.3329  3174.8687
 2417.8748    12.6797  2141.3042      .0195    55.4375  -999.2500     2.3387  3153.0415
 2418.0272    12.6797  2142.0000      .0214    53.5625  -999.2500     2.3372  3154.4614
 2418.1796    12.6797  2142.0000      .0067    55.5313  -999.2500     2.3098  3162.6152
 2418.3320    12.6797  2140.6924     -.0037    55.6250  -999.2500     2.2911  3167.9229
 2418.4844    12.6848  2141.3057     -.0054    55.7812  -999.2500     2.3044  3163.4717
 2418.6368    12.6824  2142.0000      .0021    59.4063  -999.2500     2.3214  3166.5386
 2418.7892    12.7001  2142.0000      .0044    58.1563  -999.2500     2.3160  3183.0767
 2418.9416    12.7109  2140.6924      .0088    59.2813  -999.2500     2.3016  3190.0000
 2419.0940    12.7160  2137.3843      .0223    58.0937  -999.2500     2.3071  3186.0767
 2419.2464    12.8105  2136.0000      .0396    59.6250  -999.2500     2.3329  3174.8608
 2419.3988    12.7981  2137.3076      .0561    61.5625  -999.2500     2.3565  3179.1538
 2419.5512    12.7758  2139.3076      .0867    60.0313  -999.2500     2.3722  3184.0000
 2419.7036    12.8681  2141.3076      .1138    58.1250  -999.2500     2.3757  3190.5386
 2419.8560    12.9396  2142.0000      .0966    56.9063  -999.2500     2.3444  3184.8608
 2420.0084    12.9174  2142.0000      .0493    55.2500  -999.2500     2.3090  3180.0000
 2420.1608    12.8729  2142.0000      .0287    55.4375  -999.2500     2.2899  3186.5386
 2420.3132    12.9564  2142.0000      .0261    53.0937  -999.2500     2.2724  3192.6152
 2420.4656    13.1761  2140.6943      .0139    54.3125  -999.2500     2.2401  3184.8608
 2420.6180    13.1379  2140.0000     -.0059    56.0000  -999.2500     2.2266  3182.6152
 2420.7704    12.8813  2138.6924     -.0026    60.8438  -999.2500     2.2623  3170.9229
 2420.9228    12.7812  2138.0000      .0246    62.8438  -999.2500     2.3259  3150.9229
 2421.0752    12.7915  2139.3076      .0550    65.5625  -999.2500     2.3624  3170.1538
 2421.2276    12.9550  2141.3057      .0506    63.7187  -999.2500     2.3398  3207.5005
 2421.3800    13.0186  2143.3076      .0289    60.5313  -999.2500     2.2936  3189.9229
 2421.5324    13.1049  2144.0000      .0240    56.4688  -999.2500     2.2773  3184.4614
 2421.6848    13.0847  2142.6924      .0318    59.2500  -999.2500     2.2888  3173.0000
 2421.8372    13.1897  2140.6943      .0301    62.3125  -999.2500     2.2987  3194.0288
 2421.9896    13.2758  2140.0000      .0305    65.0000  -999.2500     2.2944  3199.5386
 2422.1420    13.1025  2140.0000      .0287    62.8125  -999.2500     2.2795  3220.1538
 2422.2944    13.0487  2140.0000      .0460    65.8125  -999.2500     2.2747  3214.3843
 2422.4468    13.1876  2141.3057      .0523    68.8125  -999.2500     2.2792  3207.9165
 2422.5992    13.4901  2142.0000      .0589    67.2500  -999.2500     2.2876  3196.9229
 2422.7516    13.2596  2143.3076      .0574    66.8750  -999.2500     2.2859  3196.5386
 2422.9040    13.2389  2145.3076      .0635    69.2500  -999.2500     2.2896  3176.4614
 2423.0564    13.5989  2147.3076      .0623    71.3750  -999.2500     2.2802  3187.5386
 2423.2088    13.5025  2148.0000      .0635    71.3750  -999.2500     2.2798  3200.0000
 2423.3612    13.5385  2146.6924      .0535    72.1250  -999.2500     2.2653  3189.5386
 2423.5136    13.4053  2143.3843      .0478    74.2500  -999.2500     2.2533  3168.3076
 2423.6660    13.4883  2140.6924      .0483    76.0000  -999.2500     2.2494  3186.1538
 2423.8184    13.7111  2138.6943      .0576    72.3125  -999.2500     2.2608  3215.6670
 2423.9708    13.6508  2139.3076      .0682    70.0625  -999.2500     2.2714  3208.3076
 2424.1232    13.7239  2138.6924      .0799    68.7500  -999.2500     2.2837  3186.9229
 2424.2756    13.6590  2139.3076      .0730    66.4375  -999.2500     2.2750  3182.6152
 2424.4280    13.6879  2141.3057      .0698    69.1250  -999.2500     2.2752  3214.0288
 2424.5804    13.8798  2143.3042      .0716    67.1250  -999.2500     2.2831  3223.4775
 2424.7328    14.0349  2142.6924      .0932    66.5625  -999.2500     2.3133  3220.0000
 2424.8852    14.1650  2142.0000      .1141    64.3750  -999.2500     2.3409  3203.0000
 2425.0376    14.2978  2142.0000      .1099    64.8750  -999.2500     2.3272  3204.4614
 2425.1900    13.9096  2142.0000      .0916    66.3750  -999.2500     2.2870  3212.6152
 2425.3424    13.8688  2140.6909      .0765    67.0000  -999.2500     2.2549  3224.4702
 2425.4948    14.0352  2141.3076      .0802    69.9375  -999.2500     2.2652  3239.1538
