~VERSION INFORMATION
VERS.                                                 2.0:   CWLS Log ASCII Standard-VERSION 2.0
WRAP.                                                  NO:   One line per depth step
~Well Information Block
STRT.M                                           470.2028:   Top Depth
STOP.M                                          3735.8300:   Bottom Depth
STEP.M                                             .15240:   Depth Increment
NULL.                                            -999.250:   Null Value
FLD .                                             WILDCAT:   Field Name
WELL.                                              15/9-8:   NAME
WBN .                                              15/9-8:   WELLBORE
NATI.                                                 NOR:   COUNTRY
BHT1.DEGF                                            78.0:   BH TEMP 1
BHT2.DEGF                                           166.0:   BH TEMP 2
BHT3.DEGF                                           166.0:   BH TEMP 3
BS1 .IN                                             17.50:   BIT SIZE 1
CTRY.                                                 NOR:   COUNTRY
CBD1.M                                             178.50:   CSG 1 DRILL DEP
CBL1.M                                             178.50:   CSG 1 LOG DEP
CS1 .IN                                              30.0:   CSG 1 SIZE
COMP.                                             STATOIL:   OPERATOR
PDAT.                                                 MSL:   PERM DATUM
PROV.                                           NORTH SEA:   PROVINCE
COUN.                                             NORTRYM:   RIG NAME
SPUD.                                          1981/03/05:   SPUD DATE
LATI.                                       58 22 55.81 N:   SURF. LATITUDE
LONG.                                        1 46 28.32 E:   SURF. LONGITUDE
BTD1.                                             494.0 M:   TOTAL DEPTH 1
BTD2.                                            2846.0 M:   TOTAL DEPTH 2
BTD3.                                            2846.0 M:   TOTAL DEPTH 3
PBWE.                                              15/9-8:   PB WELL ID
APIN.                                              15/9-8:   PB WELLBORE ID
PBWS.                                                 all:   PB WELL NAME SET
~PARAMETER INFORMATION (log)
LNAM.                              FDC/CNL/GR  COMPOSITED:   NAME
LTYP.                                         DEPTH MATCH:   LOG TYPE
LSRV.                                            DEN/NEUT:   LOG SERVICE
LSOU.                                             SPT/NPD:   LOG SOURCE
LVSN.                                                   1:   LOG VERSION
BHIS.                                                   R:   BRIEF HISTORY
FHIS.                                             RAW-LIS:   FULL HISTORY
LCNM.                                        SCHLUMBERGER:   LOGGING CONTRACTOR
TOOL.                             FDC/CNL/GR (COMPOSITED):   TOOL STRING
~Curve Information Block
#MNEM.UNIT                                        API CODE    No Description
#=========                                        ========    == ===========
DEPT.M                                       00 001 00 00:     1  DEPTH
CALI.IN                                                  :     2  Caliper
CS.                                                      :     3  Cable Speed
DRHO.G/CC                                                :     4  Bulk density correction
GR.GAPI                                                  :     5  Gamma Ray
NPHI.%                                                   :     6  Neutron porosity
RHOB.G/CC                                                :     7  Bulk density
TENS.LB                                                  :     8  Cable Tension
~ASCII
# ...
 2855.5676     9.7960  2572.9839      .0068     7.5900     9.4975     2.5987  3491.9678
 2855.7200     9.7389  2573.0142      .0052     7.7997     9.7444     2.5877  3510.2881
 2855.8724     9.6006  2575.0161     -.0013     8.0060    10.1098     2.5662  3504.5991
 2856.0248     9.5495  2574.9839     -.0068     7.6346    10.9733     2.5556  3469.8398
 2856.1772     9.5347  2572.9839     -.0078     7.2577    11.3475     2.5579  3454.9199
 2856.3296     9.5312  2570.9839     -.0021     7.2361    10.9359     2.5703  3455.0801
 2856.4820     9.5009  2570.0000      .0105     7.6050    10.3693     2.5890  3460.0000
 2856.6344     9.4766  2568.9839      .0142     7.5896    10.3586     2.5944  3467.1118
 2856.7868     9.4679  2568.0000     -.0009     6.8239    10.6918     2.5788  3463.8398
 2856.9392     9.4566  2568.0000     -.0184     6.4453    10.0252     2.5608  3454.0000
 2857.0916     9.4531  2569.0142     -.0249     6.6375     9.0516     2.5579  3454.0000
 2857.2440     9.4531  2570.0000     -.0189     7.0266     8.7418     2.5747  3454.0000
 2857.3964     9.4531  2571.0161     -.0120     7.2227     9.1356     2.5892  3451.9678
 2857.5488     9.4531  2573.0161     -.0065     7.6215     9.6719     2.5907  3446.9517
 2857.7012     9.4575  2572.9854     -.0042     7.6195     9.9616     2.5909  3462.2593
 2857.8536     9.4566  2573.0161      .0000     7.4327     9.6873     2.6005  3485.0801
 2858.0060     9.4531  2571.9678      .0015     7.4108     9.0773     2.6183  3484.9199
 2858.1584     9.4531  2567.9712      .0025     7.5973     8.0461     2.6204  3469.8560
 2858.3108     9.4748  2566.0000      .0003     8.1843     7.5220     2.6098  3460.0000
 2858.4632     9.4922  2568.0254     -.0064     8.3985     8.0363     2.5903  3460.0000
 2858.6156     9.4922  2570.0000     -.0077     8.5928     9.0690     2.5846  3482.3525
 2858.7680     9.4922  2570.0000     -.0079     8.3673     9.4684     2.5812  3507.0430
 2858.9204     9.4879  2567.9741     -.0080     8.1645     9.0808     2.5775  3510.0000
 2859.0728     9.4844  2567.0127     -.0127     7.9678     8.6629     2.5692  3494.8076
 2859.2252     9.4844  2569.0161     -.0195     7.2068     8.4984     2.5660  3469.8398
 2859.3776     9.4844  2570.0000     -.0180     6.8241     8.0977     2.5779  3467.1006
 2859.5300     9.4887  2568.9868     -.0138     7.0063     7.6178     2.5851  3482.1025
 2859.6824     9.4879  2566.9868     -.0124     7.9649     8.0369     2.5784  3502.1538
 2859.8348     9.4844  2566.0000     -.0155     8.9291     9.2914     2.5614  3496.7275
 2859.9872     9.4844  2566.0000     -.0183     9.1527    10.5283     2.5517  3466.7915
 2860.1396     9.4844  2568.0288     -.0183     8.7954    10.5420     2.5573  3462.1152
 2860.2920     9.4844  2570.0000     -.0194     8.0301    10.1309     2.5690  3461.8975
 2860.4444     9.4800  2570.0000     -.0146     7.2410     9.8855     2.5850  3462.1025
 2860.5968     9.4766  2567.9678     -.0062     6.6551     9.7416     2.5959  3464.9199
 2860.7492     9.4809  2567.0142     -.0010     6.4629     9.2208     2.5998  3467.1006
 2860.9016     9.4800  2569.0127      .0012     6.8348     8.6914     2.6113  3482.1025
 2861.0540     9.4852  2570.0000      .0031     7.3792     8.3947     2.6224  3486.9614
 2861.2064     9.5052  2570.0000      .0093     7.9436     8.0311     2.6109  3484.0000
 2861.3588     9.5416  2568.9854      .0162     8.1460     7.5380     2.5769  3478.9277
 2861.5112     9.5842  2569.0127      .0172     8.9696     7.9696     2.5391  3477.0386
 2861.6636     9.6189  2571.0127      .0115    10.5270     9.8276     2.5256  3500.2563
 2861.8160     9.6328  2572.0000      .0075    12.2525    11.9809     2.5338  3499.6792
 2861.9684     9.6285  2569.9678      .0071    13.1529    13.6317     2.5542  3480.0000
 2862.1208     9.6033  2566.9839      .0047    12.1555    13.7881     2.5718  3495.2402
 2862.2732     9.5859  2564.9839     -.0022    10.4222    12.4107     2.5783  3479.5190
 2862.4256     9.6076  2565.0142     -.0047     8.5195    10.0141     2.5920  3460.1440
 2862.5780     9.6250  2564.9839     -.0004     6.8101     8.6178     2.5983  3470.0000
 2862.7304     9.6250  2565.0161      .0063     6.8225     8.5937     2.5946  3461.8716
 2862.8828     9.6293  2567.0161      .0030     7.7570     9.3131     2.5656  3457.0479
 2863.0352     9.6371  2568.0000      .0011     8.9220    10.2327     2.5462  3470.1440
 2863.1876     9.6450  2569.0161     -.0018     9.3115    10.9453     2.5412  3500.3203
 2863.3400     9.6484  2572.0317      .0007     8.5829    11.1777     2.5514  3516.9517
 2863.4924     9.6484  2574.0000      .0034     7.8130    10.7143     2.5710  3498.7593
 2863.6448     9.6484  2572.9839      .0091     7.4306    10.5973     2.5729  3476.8877
 2863.7972     9.6441  2569.9648      .0097     7.9910    11.0412     2.5671  3466.9473
 2863.9496     9.6319  2566.9839      .0030     8.7483    11.4762     2.5569  3461.9678
 2864.1020     9.5989  2564.9839     -.0037     8.5535    11.3738     2.5606  3462.0317
 2864.2544     9.5781  2564.0000     -.0075     7.4186    10.5367     2.5694  3467.0479
 2864.4068     9.5738  2565.0142     -.0033     7.0397     9.5902     2.5833  3480.1440
 2864.5592     9.5747  2567.0161      .0130     7.2128     9.0541     2.6035  3486.9517
 2864.7116     9.5781  2569.0161      .0191     7.5999     9.0611     2.6070  3487.0479
 2864.8640     9.5781  2570.0000      .0110     7.7979     9.2773     2.5992  3486.9517
 2865.0164     9.5781  2571.0142      .0038     7.6191     8.8068     2.6022  3473.8560
 2865.1688     9.5781  2572.0000      .0018     7.6053     7.8783     2.6161  3461.9678
 2865.3212     9.5825  2569.9678     -.0003     7.5878     7.3971     2.6220  3462.0317
 2865.4736     9.5903  2566.9854     -.0033     7.7802     7.7941     2.6146  3467.0430
 2865.6260     9.6024  2564.9868     -.0036     7.5968     8.6729     2.6072  3470.0000
 2865.7784     9.6094  2566.0317      .0034     7.2404     8.8828     2.6066  3475.0801
 2865.9308     9.6094  2566.9839      .0055     7.0535     8.3449     2.6063  3492.1924
 2866.0832     9.5617  2566.0000      .0027     7.6300     7.9328     2.6087  3514.1440
 2866.2356     9.5234  2568.0254     -.0046     7.5996     7.6147     2.6027  3511.8462
 2866.3880     9.5234  2568.9868     -.0092     6.8497     7.3724     2.5979  3479.7437
 2866.5404     9.5191  2569.0161     -.0099     6.2701     6.8777     2.5985  3460.0000
 2866.6928     9.5200  2570.0000     -.0096     5.6972     6.4948     2.6085  3465.0718
 2866.8452     9.5234  2571.0127     -.0067     5.2978     6.9139     2.6215  3482.1538
 2866.9976     9.5321  2569.9741      .0009     5.1139     7.4979     2.6185  3486.9102
 2867.1500     9.5564  2566.9839      .0135     6.0944     7.9133     2.6079  3482.0317
 2867.3024     9.5920  2567.0161      .0141     7.2524     7.9814     2.5927  3476.8877
 2867.4548     9.5661  2569.0142      .0160     8.2212     7.9852     2.5948  3490.2881
 2867.6072     9.5312  2571.0127      .0131     8.5912     7.9818     2.5981  3499.8716
 2867.7596     9.5312  2569.9678      .0063     8.9739     7.8861     2.5959  3486.9517
 2867.9120     9.5443  2565.9678     -.0031     8.7494     8.2078     2.5933  3476.8877
 2868.0644     9.5590  2564.0000     -.0086     7.9882     8.3723     2.5985  3456.8125
 2868.2168     9.5668  2566.0254     -.0119     7.7846     8.2767     2.5892  3454.1279
 2868.3692     9.5920  2566.9868     -.0108     7.3920     8.1771     2.5697  3472.1025
 2868.5216     9.6094  2566.0000      .0027     7.1913     8.0566     2.5720  3505.4004
 2868.6740     9.6224  2567.0142      .0205     7.1975     8.2052     2.5911  3514.7837
 2868.8264     9.6328  2569.0127      .0210     7.4167     8.8194     2.6005  3507.0898
 2868.9788     9.6371  2570.0000      .0025     7.8229     9.5988     2.5855  3496.7817
 2869.1312     9.6363  2573.0479     -.0079     7.8270     9.5648     2.5807  3487.1118
 2869.2836     9.6371  2574.9839     -.0048     8.4047     8.6580     2.5924  3486.8877
