~VERSION INFORMATION
VERS.                                                 2.0:   CWLS Log ASCII Standard-VERSION 2.0
WRAP.                                                  NO:   One line per depth step
~Well Information Block
STRT.M                                           470.2028:   Top Depth
STOP.M                                          3735.8300:   Bottom Depth
STEP.M                                             .15240:   Depth Increment
NULL.                                            -999.250:   Null Value
FLD .                                             WILDCAT:   Field Name
WELL.                                              15/9-8:   NAME
WBN .                                              15/9-8:   WELLBORE
NATI.                                                 NOR:   COUNTRY
BHT1.DEGF                                            78.0:   BH TEMP 1
BHT2.DEGF                                           166.0:   BH TEMP 2
BHT3.DEGF                                           166.0:   BH TEMP 3
BS1 .IN                                             17.50:   BIT SIZE 1
CTRY.                                                 NOR:   COUNTRY
CBD1.M                                             178.50:   CSG 1 DRILL DEP
CBL1.M                                             178.50:   CSG 1 LOG DEP
CS1 .IN                                              30.0:   CSG 1 SIZE
COMP.                                             STATOIL:   OPERATOR
PDAT.                                                 MSL:   PERM DATUM
PROV.                                           NORTH SEA:   PROVINCE
COUN.                                             NORTRYM:   RIG NAME
SPUD.                                          1981/03/05:   SPUD DATE
LATI.                                       58 22 55.81 N:   SURF. LATITUDE
LONG.                                        1 46 28.32 E:   SURF. LONGITUDE
BTD1.                                             494.0 M:   TOTAL DEPTH 1
BTD2.                                            2846.0 M:   TOTAL DEPTH 2
BTD3.                                            2846.0 M:   TOTAL DEPTH 3
PBWE.                                              15/9-8:   PB WELL ID
APIN.                                              15/9-8:   PB WELLBORE ID
PBWS.                                                 all:   PB WELL NAME SET
~PARAMETER INFORMATION (log)
LNAM.                              FDC/CNL/GR  COMPOSITED:   NAME
LTYP.                                         DEPTH MATCH:   LOG TYPE
LSRV.                                            DEN/NEUT:   LOG SERVICE
LSOU.                                             SPT/NPD:   LOG SOURCE
LVSN.                                                   1:   LOG VERSION
BHIS.                                                   R:   BRIEF HISTORY
FHIS.                                             RAW-LIS:   FULL HISTORY
LCNM.                                        SCHLUMBERGER:   LOGGING CONTRACTOR
TOOL.                             FDC/CNL/GR (COMPOSITED):   TOOL STRING
~Curve Information Block
#MNEM.UNIT                                        API CODE    No Description
#=========                                        ========    == ===========
DEPT.M                                       00 001 00 00:     1  DEPTH
CALI.IN                                                  :     2  Caliper
CS.                                                      :     3  Cable Speed
DRHO.G/CC                                                :     4  Bulk density correction
GR.GAPI                                                  :     5  Gamma Ray
NPHI.%                                                   :     6  Neutron porosity
RHOB.G/CC                                                :     7  Bulk density
TENS.LB                                                  :     8  Cable Tension
~ASCII
# ...
 3493.5140     8.5183  2376.0000     -.0161    63.1145    46.7327     2.2828  4071.8589
 3493.6664     8.5391  2379.0479     -.0241    63.2774    44.7373     2.2936  4072.1279
 3493.8188     8.5391  2382.0000     -.0308    66.0638    41.6392     2.3206  4080.0000
 3493.9712     8.5391  2379.9678     -.0248    66.6972    38.0144     2.3813  4082.0317
 3494.1236     8.5217  2376.9854     -.0167    65.5652    35.2094     2.4453  4078.9277
 3494.2760     8.4948  2374.9839     -.0099    65.8135    32.7465     2.4861  4071.9678
 3494.4284     8.4627  2375.0161     -.0051    67.2403    32.7561     2.4891  4072.0317
 3494.5808     8.4453  2378.0288     -.0035    68.1821    35.7951     2.4718  4071.9712
 3494.7332     8.4496  2378.9868     -.0033    68.3189    38.5601     2.4616  4066.9614
 3494.8856     8.4531  2379.0161     -.0034    66.1137    39.2066     2.4698  4079.2402
 3495.0380     8.4531  2380.0000      .0315    57.0863    39.5338     2.4471  4103.1436
 3495.1904     8.4531  2380.0000      .0250    41.8405    42.7145     2.1365  4116.0576
 3495.3428     8.4488  2378.9868     -.0068    29.0112    48.3780     1.7729  4104.8076
 3495.4952     8.4497  2376.9839     -.0306    29.2377    52.0129     1.6325  4079.8398
 3495.6476     8.4878  2376.0000     -.0499    42.6160    51.5693     1.6916  4056.7915
 3495.8000     8.8578  2377.0142     -.0333    58.2340    46.9468     1.9720  4059.2158
 3495.9524     9.2714  2379.0127     -.0007    66.8722    43.7284     2.2238  4101.3457
 3496.1048     9.5691  2380.0000      .0089    66.8786    44.6871     2.2750  4125.9736
 3496.2572     9.8098  2378.9839      .0037    60.7970    45.1373     2.2214  4121.9678
 3496.4096     9.4929  2380.0317      .0003    51.2060    44.9475     2.0819  4144.3848
 3496.5620     8.7768  2382.0000     -.0158    38.6827    47.3723     1.8400  4118.2939
 3496.7144     8.4921  2380.9868     -.0311    26.8022    51.2160     1.6039  4072.0254
 3496.8668     8.4713  2380.0000     -.0415    18.8004    53.5529     1.4543  4074.0000
 3497.0192     8.4384  2378.9839     -.0528    14.8189    52.6837     1.3803  4061.8076
 3497.1716     8.4366  2378.0000     -.0604    13.2187    52.4611     1.3533  4060.1440
 3497.3240     8.4384  2376.9868     -.0695    12.6678    53.6355     1.3352  4075.0640
 3497.4764     8.4453  2376.0000     -.0753    14.4422    54.5086     1.3257  4090.1602
 3497.6288     8.4106  2379.0479     -.0814    20.1010    56.1129     1.3424  4120.3203
 3497.7812     8.3828  2379.9712     -.0981    29.2477    54.9063     1.4167  4123.7695
 3497.9336     8.3828  2376.9868     -.1109    37.4285    48.1295     1.5963  4088.7563
 3498.0860     8.3612  2374.9868     -.0905    42.3536    36.6355     1.9297  4066.9614
 3498.2384     8.3481  2375.0161     -.0462    45.6778    27.2728     2.2618  4056.8877
 3498.3908     8.3429  2377.0161     -.0211    50.1116    23.2234     2.4090  4065.2402
 3498.5432     8.3316  2379.0161     -.0162    54.3315    23.2362     2.4479  4085.0801
 3498.6956     8.3065  2380.0000     -.0124    53.0711    25.6055     2.4642  4095.0801
 3498.8480     8.2804  2381.0176     -.0138    45.8533    27.5768     2.4494  4089.8237
 3499.0004     8.2604  2382.0000     -.0223    38.4892    27.6010     2.4106  4064.7593
 3499.1528     8.2500  2385.0479     -.0225    36.2555    26.2842     2.3656  4057.1118
 3499.3052     8.2673  2386.9839     -.0250    37.8479    29.1563     2.3218  4061.9678
 3499.4576     8.2552  2383.9648     -.0279    37.9813    33.4388     2.2864  4067.1230
 3499.6100     8.2344  2380.9839     -.0359    35.7310    33.2099     2.2756  4053.6792
 3499.7624     8.2691  2380.0000     -.0331    35.9595    28.4081     2.3067  4047.2080
 3499.9148     8.3186  2380.0000     -.0192    42.0910    24.1101     2.3724  4070.1602
 3500.0672     8.3359  2377.9678     -.0119    51.8148    25.4963     2.4236  4092.1924
 3500.2196     8.3359  2377.0176     -.0155    58.0379    30.2976     2.4440  4112.1406
 3500.3720     8.3359  2380.0317     -.0195    55.7410    34.1985     2.4492  4104.7598
 3500.5244     8.3229  2382.0000     -.0269    46.6609    33.4912     2.4470  4090.0000
 3500.6768     8.3255  2382.0000     -.0286    38.1394    28.8616     2.4627  4084.9199
 3500.8292     8.3359  2379.9648     -.0306    33.4385    25.1045     2.4722  4069.8237
 3500.9816     8.3359  2378.0000     -.0286    32.4961    23.8234     2.4753  4070.1602
 3501.1340     8.3359  2375.9678     -.0259    32.8854    23.2871     2.4468  4066.7915
 3501.2864     8.3403  2375.0161     -.0267    34.3564    23.1461     2.4145  4054.0000
 3501.4388     8.3568  2378.0352     -.0248    38.0176    23.6894     2.4156  4046.8765
 3501.5912     8.3976  2378.9839     -.0201    44.6852    24.7412     2.4558  4050.1602
 3501.7436     8.4132  2378.0000     -.0111    52.8840    26.3340     2.5061  4075.2402
 3501.8960     8.3932  2381.0430     -.0050    61.7015    29.6972     2.5169  4097.1006
 3502.0484     8.3698  2382.9868     -.0077    66.8742    33.7621     2.4944  4114.1279
 3502.2008     8.3594  2382.0000     -.0205    65.2567    37.2104     2.4740  4115.8711
 3502.3532     8.3594  2380.9839     -.0262    55.8758    37.9238     2.4677  4105.9678
 3502.5056     8.3550  2377.9712     -.0222    44.1924    34.9321     2.4527  4096.8994
 3502.6580     8.3905  2377.0127     -.0173    37.8604    29.8186     2.4273  4076.8330
 3502.8104     8.4219  2378.0000     -.0271    36.9442    25.0710     2.4160  4079.2402
 3502.9628     8.4219  2379.0161     -.0366    37.2488    24.2809     2.4518  4097.0479
 3503.1152     8.4219  2381.0142     -.0348    33.7224    25.1224     2.5173  4102.0283
 3503.2676     8.4219  2379.9741     -.0234    28.6066    24.4541     2.5707  4114.1279
 3503.4200     8.4219  2378.0000     -.0132    24.3889    21.0259     2.5996  4103.6797
 3503.5724     8.4175  2376.9839     -.0152    23.0739    16.8711     2.5771  4084.0000
 3503.7248     8.4184  2376.0000     -.0224    22.9873    14.9584     2.5289  4089.0801
 3503.8772     8.4262  2376.0000     -.0329    23.5910    14.9477     2.5022  4091.9712
 3504.0296     8.4470  2376.0000     -.0405    25.1730    15.3067     2.5351  4117.3457
 3504.1820     8.4609  2377.0161     -.0412    27.8120    15.0359     2.6175  4123.6797
 3504.3344     8.4609  2380.0317     -.0324    31.6796    15.3895     2.7048  4106.0322
 3504.4868     8.4609  2382.0000     -.0140    36.2407    16.1161     2.7400  4105.9707
 3504.6392     8.4609  2382.0000      .0043    41.7877    17.1493     2.7166  4093.8716
 3504.7916     8.4609  2382.0000      .0082    47.9578    18.6633     2.6438  4087.0479
 3504.9440     8.4566  2379.9678     -.0001    52.8237    20.0801     2.5692  4084.9199
 3505.0964     8.4575  2378.0000     -.0119    54.3895    21.6428     2.5265  4092.1729
 3505.2488     8.4609  2378.0000     -.0192    52.4609    23.1780     2.5269  4108.0508
 3505.4012     8.4566  2376.9839     -.0143    51.4818    25.1916     2.5564  4100.8232
 3505.5536     8.4575  2376.0000      .0010    52.0590    26.4400     2.5681  4090.0000
 3505.7060     8.4609  2376.0000      .0039    50.2562    25.3494     2.5318  4095.0801
 3505.8584     8.4609  2378.0317     -.0043    46.2263    23.6715     2.4790  4114.2236
 3506.0108     8.4609  2380.0000     -.0190    41.6534    22.2531     2.4536  4134.0957
 3506.1632     8.4609  2378.9824     -.0223    39.0060    22.8259     2.4644  4133.8945
 3506.3156     8.4653  2378.0000     -.0246    36.6907    24.2451     2.4668  4125.9678
 3506.4680     8.4687  2376.9839     -.0265    34.4766    24.0180     2.4709  4103.6797
 3506.6204     8.4644  2376.0000     -.0278    34.0317    22.0941     2.4967  4071.8076
 3506.7728     8.4609  2378.0352     -.0185    35.2868    20.3330     2.5576  4070.1758
 3506.9252     8.4609  2378.9839     -.0059    38.2150    21.0598     2.5751  4085.0801
 3507.0776     8.4609  2378.0000     -.0088    41.6525    22.8905     2.5314  4086.9517
 3507.2300     8.4653  2378.0000     -.0154    46.5506    24.2258     2.4968  4089.0801
