~VERSION INFORMATION
VERS.                                                 2.0:   CWLS Log ASCII Standard-VERSION 2.0
WRAP.                                                  NO:   One line per depth step
~Well Information Block
STRT.M                                           470.2028:   Top Depth
STOP.M                                          3735.8300:   Bottom Depth
STEP.M                                             .15240:   Depth Increment
NULL.                                            -999.250:   Null Value
FLD .                                             WILDCAT:   Field Name
WELL.                                              15/9-8:   NAME
WBN .                                              15/9-8:   WELLBORE
NATI.                                                 NOR:   COUNTRY
BHT1.DEGF                                            78.0:   BH TEMP 1
BHT2.DEGF                                           166.0:   BH TEMP 2
BHT3.DEGF                                           166.0:   BH TEMP 3
BS1 .IN                                             17.50:   BIT SIZE 1
CTRY.                                                 NOR:   COUNTRY
CBD1.M                                             178.50:   CSG 1 DRILL DEP
CBL1.M                                             178.50:   CSG 1 LOG DEP
CS1 .IN                                              30.0:   CSG 1 SIZE
COMP.                                             STATOIL:   OPERATOR
PDAT.                                                 MSL:   PERM DATUM
PROV.                                           NORTH SEA:   PROVINCE
COUN.                                             NORTRYM:   RIG NAME
SPUD.                                          1981/03/05:   SPUD DATE
LATI.                                       58 22 55.81 N:   SURF. LATITUDE
LONG.                                        1 46 28.32 E:   SURF. LONGITUDE
BTD1.                                             494.0 M:   TOTAL DEPTH 1
BTD2.                                            2846.0 M:   TOTAL DEPTH 2
BTD3.                                            2846.0 M:   TOTAL DEPTH 3
PBWE.                                              15/9-8:   PB WELL ID
APIN.                                              15/9-8:   PB WELLBORE ID
PBWS.                                                 all:   PB WELL NAME SET
~PARAMETER INFORMATION (log)
LNAM.                              FDC/CNL/GR  COMPOSITED:   NAME
LTYP.                                         DEPTH MATCH:   LOG TYPE
LSRV.                                            DEN/NEUT:   LOG SERVICE
LSOU.                                             SPT/NPD:   LOG SOURCE
LVSN.                                                   1:   LOG VERSION
BHIS.                                                   R:   BRIEF HISTORY
FHIS.                                             RAW-LIS:   FULL HISTORY
LCNM.                                        SCHLUMBERGER:   LOGGING CONTRACTOR
TOOL.                             FDC/CNL/GR (COMPOSITED):   TOOL STRING
~Curve Information Block
#MNEM.UNIT                                        API CODE    No Description
#=========                                        ========    == ===========
DEPT.M                                       00 001 00 00:     1  DEPTH
CALI.IN                                                  :     2  Caliper
CS.                                                      :     3  Cable Speed
DRHO.G/CC                                                :     4  Bulk density correction
GR.GAPI                                                  :     5  Gamma Ray
NPHI.%                                                   :     6  Neutron porosity
RHOB.G/CC                                                :     7  Bulk density
TENS.LB                                                  :     8  Cable Tension
~ASCII
# ...
  900.1232    17.6406  1740.0000     -.0093    32.5938  -999.2500     2.0371  1545.0000
  900.2756    17.6406  1742.0000     -.0063    29.6562  -999.2500     2.0352  1560.0000
  900.4280    17.6406  1743.0000     -.0083    29.0938  -999.2500     2.0312  1545.0000
  900.5804    17.6406  1745.0000     -.0088    27.5781  -999.2500     2.0332  1550.0000
  900.7328    17.6406  1747.0000     -.0234    25.9062  -999.2500     2.0215  1560.0000
  900.8852    17.6563  1745.0000     -.0200    24.1875  -999.2500     2.0254  1550.0000
  901.0376    17.6563  1745.0000     -.0210    24.8438  -999.2500     2.0273  1550.0000
  901.1900    17.6563  1744.0000     -.0200    25.9844  -999.2500     2.0234  1550.0000
  901.3424    17.6563  1744.0000     -.0181    25.7031  -999.2500     2.0293  1545.0000
  901.4948    17.6563  1744.0000     -.0210    25.5781  -999.2500     2.0234  1540.0000
  901.6472    17.6406  1744.0000     -.0176    26.1719  -999.2500     2.0273  1550.0000
  901.7996    17.6563  1746.0000     -.0137    27.9688  -999.2500     2.0352  1535.0000
  901.9520    17.6719  1747.0000     -.0151    27.6875  -999.2500     2.0332  1555.0000
  902.1044    17.6875  1748.0000     -.0132    26.8750  -999.2500     2.0332  1550.0000
  902.2568    17.6875  1749.0000     -.0156    24.6719  -999.2500     2.0273  1550.0000
  902.4092    17.6875  1750.0000     -.0112    27.7188  -999.2500     2.0449  1550.0000
  902.5616    17.6875  1751.0000     -.0132    32.3438  -999.2500     2.0566  1550.0000
  902.7140    17.7344  1751.0000     -.0132    39.6875  -999.2500     2.0898  1550.0000
  902.8664    17.7031  1750.0000     -.0112    44.6562  -999.2500     2.1211  1555.0000
  903.0188    17.7188  1749.0000     -.0020    48.2812  -999.2500     2.1367  1550.0000
  903.1712    17.9844  1748.0000      .0073    47.0312  -999.2500     2.1191  1555.0000
  903.3236    17.7031  1749.0000     -.0049    41.1875  -999.2500     2.0625  1540.0000
  903.4760    17.5938  1749.0000     -.0132    36.3750  -999.2500     2.0273  1565.0000
  903.6284    17.5938  1750.0000     -.0132    32.6563  -999.2500     2.0117  1550.0000
  903.7808    17.5938  1751.0000     -.0088    32.1875  -999.2500     2.0117  1575.0000
  903.9332    17.5938  1751.0000     -.0044    30.6250  -999.2500     2.0078  1545.0000
  904.0856    17.6094  1751.0000     -.0098    30.0469  -999.2500     1.9824  1610.0000
  904.2380    17.5938  1750.0000     -.0137    28.8125  -999.2500     1.9766  1545.0000
  904.3904    17.5938  1749.0000     -.0210    29.2813  -999.2500     1.9775  1545.0000
  904.5428    17.5938  1750.0000     -.0166    26.7031  -999.2500     1.9961  1545.0000
  904.6952    17.5938  1749.0000     -.0083    28.3594  -999.2500     2.0098  1550.0000
  904.8476    17.5938  1749.0000     -.0044    28.3906  -999.2500     2.0195  1555.0000
  905.0000    17.5938  1748.0000     -.0059    29.8438  -999.2500     2.0234  1545.0000
  905.1524    17.5938  1749.0000     -.0137    28.4844  -999.2500     2.0176  1540.0000
  905.3048    17.5938  1750.0000     -.0156    26.8281  -999.2500     2.0137  1565.0000
  905.4572    17.5938  1751.0000     -.0127    28.5000  -999.2500     2.0137  1540.0000
  905.6096    17.5938  1753.0000     -.0112    27.7344  -999.2500     2.0039  1545.0000
  905.7620    17.5938  1754.0000     -.0132    27.6563  -999.2500     1.9893  1560.0000
  905.9144    17.5938  1754.0000     -.0166    26.3281  -999.2500     1.9795  1565.0000
  906.0668    17.5938  1751.0000     -.0146    27.2656  -999.2500     1.9805  1550.0000
  906.2192    17.5938  1750.0000     -.0122    29.1875  -999.2500     1.9883  1550.0000
  906.3716    17.5938  1750.0000     -.0151    30.9531  -999.2500     1.9902  1560.0000
  906.5240    17.5938  1749.0000     -.0156    32.1562  -999.2500     1.9961  1540.0000
  906.6764    17.5938  1748.0000     -.0186    32.0313  -999.2500     1.9883  1560.0000
  906.8288    17.5938  1748.0000     -.0200    31.1563  -999.2500     1.9854  1560.0000
  906.9812    17.5938  1748.0000     -.0205    30.0000  -999.2500     1.9795  1545.0000
  907.1336    17.5938  1749.0000     -.0117    29.9844  -999.2500     1.9961  1570.0000
  907.2860    17.5938  1750.0000     -.0098    29.0000  -999.2500     2.0078  1560.0000
  907.4384    17.5938  1752.0000     -.0093    31.8906  -999.2500     2.0332  1535.0000
  907.5908    17.5938  1750.0000     -.0176    35.6563  -999.2500     2.0645  1565.0000
  907.7432    17.5938  1748.0000     -.0039    40.9688  -999.2500     2.1094  1545.0000
  907.8956    17.6094  1747.0000     -.0020    40.5937  -999.2500     2.1035  1555.0000
  908.0480    17.5938  1746.0000     -.0015    36.7813  -999.2500     2.0664  1555.0000
  908.2004    17.5938  1746.0000     -.0156    32.0000  -999.2500     2.0137  1560.0000
  908.3528    17.5938  1745.0000     -.0127    31.8125  -999.2500     2.0078  1560.0000
  908.5052    17.5938  1745.0000     -.0107    32.4687  -999.2500     2.0098  1565.0000
  908.6576    17.5938  1744.0000     -.0073    32.4375  -999.2500     2.0215  1555.0000
  908.8100    17.5938  1744.0000     -.0117    31.2969  -999.2500     2.0234  1560.0000
  908.9624    17.5938  1745.0000     -.0112    31.2813  -999.2500     2.0234  1565.0000
  909.1148    17.5938  1746.0000     -.0063    32.0313  -999.2500     2.0273  1555.0000
  909.2672    17.5938  1748.0000     -.0063    31.0469  -999.2500     2.0273  1560.0000
  909.4196    17.5938  1747.0000     -.0044    29.3437  -999.2500     2.0273  1560.0000
  909.5720    17.5938  1745.0000     -.0117    30.6250  -999.2500     2.0273  1550.0000
  909.7244    17.5938  1744.0000     -.0098    33.6875  -999.2500     2.0293  1550.0000
  909.8768    17.5938  1743.0000     -.0103    33.0625  -999.2500     2.0293  1560.0000
  910.0292    17.5938  1743.0000     -.0073    32.0313  -999.2500     2.0332  1555.0000
  910.1816    17.5938  1744.0000     -.0103    29.8750  -999.2500     2.0293  1560.0000
  910.3340    17.5938  1744.0000     -.0161    32.2188  -999.2500     2.0234  1560.0000
  910.4864    17.5938  1744.0000     -.0161    35.4063  -999.2500     2.0293  1560.0000
  910.6388    17.5938  1744.0000     -.0166    36.4688  -999.2500     2.0332  1560.0000
  910.7912    17.5938  1745.0000     -.0103    37.9375  -999.2500     2.0488  1555.0000
  910.9436    17.5938  1745.0000     -.0073    36.7813  -999.2500     2.0527  1560.0000
  911.0960    17.5938  1744.0000     -.0093    36.5312  -999.2500     2.0469  1555.0000
  911.2484    17.5938  1743.0000     -.0078    34.3750  -999.2500     2.0410  1560.0000
  911.4008    17.5938  1742.0000     -.0142    33.1250  -999.2500     2.0293  1560.0000
  911.5532    17.5938  1741.0000     -.0078    34.0938  -999.2500     2.0430  1565.0000
  911.7056    17.5938  1741.0000     -.0112    34.4063  -999.2500     2.0527  1580.0000
  911.8580    17.5938  1742.0000     -.0029    35.6875  -999.2500     2.0684  1560.0000
  912.0104    17.5938  1745.0000     -.0059    37.3750  -999.2500     2.0645  1550.0000
  912.1628    17.5938  1746.0000     -.0093    38.7500  -999.2500     2.0605  1575.0000
  912.3152    17.5938  1747.0000     -.0137    35.8750  -999.2500     2.0566  1555.0000
  912.4676    17.5938  1747.0000     -.0103    34.1250  -999.2500     2.0625  1560.0000
  912.6200    17.5938  1748.0000     -.0083    32.8125  -999.2500     2.0566  1555.0000
  912.7724    17.6094  1747.0000     -.0112    34.9063  -999.2500     2.0449  1560.0000
  912.9248    17.5938  1746.0000     -.0132    31.7188  -999.2500     2.0391  1565.0000
  913.0772    17.5938  1745.0000     -.0117    32.0000  -999.2500     2.0449  1570.0000
  913.2296    17.5938  1744.0000     -.0078    32.0625  -999.2500     2.0488  1560.0000
  913.3820    17.5938  1743.0000     -.0122    34.2188  -999.2500     2.0430  1570.0000
  913.5344    17.6094  1741.0000     -.0161    33.0000  -999.2500     2.0371  1560.0000
  913.6868    17.6094  1741.0000     -.0259    34.4375  -999.2500     2.0215  1575.0000
  913.8392    17.5938  1743.0000     -.0234    33.0000  -999.2500     2.0176  1555.0000
