~VERSION INFORMATION
VERS.                                                 2.0:   CWLS Log ASCII Standard-VERSION 2.0
WRAP.                                                  NO:   One line per depth step
~Well Information Block
STRT.M                                           470.2028:   Top Depth
STOP.M                                          3735.8300:   Bottom Depth
STEP.M                                             .15240:   Depth Increment
NULL.                                            -999.250:   Null Value
FLD .                                             WILDCAT:   Field Name
WELL.                                              15/9-8:   NAME
WBN .                                              15/9-8:   WELLBORE
NATI.                                                 NOR:   COUNTRY
BHT1.DEGF                                            78.0:   BH TEMP 1
BHT2.DEGF                                           166.0:   BH TEMP 2
BHT3.DEGF                                           166.0:   BH TEMP 3
BS1 .IN                                             17.50:   BIT SIZE 1
CTRY.                                                 NOR:   COUNTRY
CBD1.M                                             178.50:   CSG 1 DRILL DEP
CBL1.M                                             178.50:   CSG 1 LOG DEP
CS1 .IN                                              30.0:   CSG 1 SIZE
COMP.                                             STATOIL:   OPERATOR
PDAT.                                                 MSL:   PERM DATUM
PROV.                                           NORTH SEA:   PROVINCE
COUN.                                             NORTRYM:   RIG NAME
SPUD.                                          1981/03/05:   SPUD DATE
LATI.                                       58 22 55.81 N:   SURF. LATITUDE
LONG.                                        1 46 28.32 E:   SURF. LONGITUDE
BTD1.                                             494.0 M:   TOTAL DEPTH 1
BTD2.                                            2846.0 M:   TOTAL DEPTH 2
BTD3.                                            2846.0 M:   TOTAL DEPTH 3
PBWE.                                              15/9-8:   PB WELL ID
APIN.                                              15/9-8:   PB WELLBORE ID
PBWS.                                                 all:   PB WELL NAME SET
~PARAMETER INFORMATION (log)
LNAM.                              FDC/CNL/GR  COMPOSITED:   NAME
LTYP.                                         DEPTH MATCH:   LOG TYPE
LSRV.                                            DEN/NEUT:   LOG SERVICE
LSOU.                                             SPT/NPD:   LOG SOURCE
LVSN.                                                   1:   LOG VERSION
BHIS.                                                   R:   BRIEF HISTORY
FHIS.                                             RAW-LIS:   FULL HISTORY
LCNM.                                        SCHLUMBERGER:   LOGGING CONTRACTOR
TOOL.                             FDC/CNL/GR (COMPOSITED):   TOOL STRING
~Curve Information Block
#MNEM.UNIT                                        API CODE    No Description
#=========                                        ========    == ===========
DEPT.M                                       00 001 00 00:     1  DEPTH
CALI.IN                                                  :     2  Caliper
CS.                                                      :     3  Cable Speed
DRHO.G/CC                                                :     4  Bulk density correction
GR.GAPI                                                  :     5  Gamma Ray
NPHI.%                                                   :     6  Neutron porosity
RHOB.G/CC                                                :     7  Bulk density
TENS.LB                                                  :     8  Cable Tension
~ASCII
# ...
 1551.9380    15.1941  2120.0000      .0323    87.5000  -999.2500     2.1106  2301.8462
 1552.0904    15.1066  2120.0000      .0419    86.9375  -999.2500     2.1184  2291.2939
 1552.2428    14.9687  2118.6924      .0285    86.0000  -999.2500     2.1032  2267.4614
 1552.3952    15.3469  2118.0000      .0147    84.5625  -999.2500     2.0848  2264.0000
 1552.5476    15.1791  2115.3843      .0081    81.1250  -999.2500     2.0750  2281.0000
 1552.7000    14.9333  2114.0000      .0148    85.8750  -999.2500     2.0863  2253.3691
 1552.8524    15.2076  2114.0000      .0183    82.6875  -999.2500     2.0963  2234.0000
 1553.0048    15.2548  2115.3081      .0169    85.0625  -999.2500     2.1028  2253.6235
 1553.1572    15.2260  2117.3076      .0208    82.6875  -999.2500     2.1029  2274.4614
 1553.3096    15.5539  2118.0000      .0220    84.8125  -999.2500     2.0913  2269.5337
 1553.4620    15.2897  2116.6924      .0202    87.1875  -999.2500     2.0808  2290.1538
 1553.6144    14.8839  2114.6934      .0208    87.7500  -999.2500     2.0768  2245.2007
 1553.7668    14.8453  2115.3076      .0177    86.7500  -999.2500     2.0787  2220.5386
 1553.9192    14.9056  2117.3066      .0230    85.2500  -999.2500     2.0877  2234.4531
 1554.0716    14.7737  2118.0000      .0307    82.6875  -999.2500     2.1084  2249.1538
 1554.2240    14.7566  2118.0000      .0401    82.8750  -999.2500     2.1287  2240.9336
 1554.3764    14.8401  2116.6924      .0321    84.8125  -999.2500     2.1309  2234.0000
 1554.5288    15.3317  2114.6934      .0211    85.3750  -999.2500     2.1276  2253.5996
 1554.6812    14.9192  2115.3076      .0259    88.6250  -999.2500     2.1372  2261.3843
 1554.8336    14.4324  2116.0000      .0473    88.6250  -999.2500     2.1592  2246.9229
 1554.9860    14.3492  2116.0000      .0528    85.6875  -999.2500     2.1501  2253.0825
 1555.1384    14.4510  2116.0000      .0415    83.0625  -999.2500     2.1304  2260.0000
 1555.2908    14.3238  2113.3833      .0277    79.7500  -999.2500     2.1161  2262.6162
 1555.4432    14.2521  2110.6924      .0335    83.3750  -999.2500     2.1343  2235.2305
 1555.5956    14.4596  2110.0000      .0486    85.0000  -999.2500     2.1592  2229.1465
 1555.7480    14.5319  2110.0000      .0473    87.1250  -999.2500     2.1532  2253.6152
 1555.9004    14.5462  2110.0000      .0302    88.3750  -999.2500     2.1312  2267.9199
 1556.0528    14.4093  2110.0000      .0194    89.0000  -999.2500     2.1230  2239.9229
 1556.2052    14.2107  2111.3066      .0224    89.7500  -999.2500     2.1294  2234.4531
 1556.3576    14.2455  2112.0000      .0342    88.5625  -999.2500     2.1456  2246.5386
 1556.5100    14.3377  2113.3066      .0330    88.4375  -999.2500     2.1460  2246.0801
 1556.6624    14.4156  2116.6152      .0394    87.6875  -999.2500     2.1541  2244.0000
 1556.8148    14.4402  2116.6924      .0390    87.5000  -999.2500     2.1487  2241.3843
 1556.9672    14.4273  2114.6914      .0387    87.0625  -999.2500     2.1387  2246.5410
 1557.1196    14.4627  2112.6924      .0308    86.2500  -999.2500     2.1227  2263.0767
 1557.2720    14.5507  2110.6934      .0169    89.9375  -999.2500     2.1038  2263.4668
 1557.4244    14.5604  2110.0000      .0097    88.2500  -999.2500     2.0977  2246.9229
 1557.5768    14.5469  2110.0000      .0163    90.5000  -999.2500     2.1091  2216.4805
 1557.7292    14.5009  2110.0000      .0294    86.4375  -999.2500     2.1318  2204.0000
 1557.8816    14.4613  2110.0000      .0332    91.0625  -999.2500     2.1381  2227.5195
 1558.0340    14.4327  2108.6924      .0254    90.5625  -999.2500     2.1227  2249.1538
 1558.1864    14.4321  2109.3066      .0234    91.7500  -999.2500     2.1127  2244.8535
 1558.3388    14.6214  2111.3076      .0356    89.9375  -999.2500     2.1292  2236.0767
 1558.4912    14.5963  2112.0000      .0399    95.1250  -999.2500     2.1451  2247.0664
 1558.6436    14.4138  2112.0000      .0391    96.8750  -999.2500     2.1523  2244.8462
 1558.7960    14.3056  2112.0000      .0394    94.3750  -999.2500     2.1466  2236.0767
 1558.9484    14.3886  2112.0000      .0424    89.0625  -999.2500     2.1426  2240.5410
 1559.1008    14.4709  2110.6924      .0376    87.6875  -999.2500     2.1324  2244.0000
 1559.2532    14.2751  2111.3066      .0249    91.6250  -999.2500     2.1218  2234.8535
 1559.4056    14.1845  2114.6152      .0194    96.6875  -999.2500     2.1153  2230.0000
 1559.5580    14.1647  2116.0000      .0181    94.3750  -999.2500     2.1133  2239.1465
 1559.7104    14.0974  2116.0000      .0249    88.1875  -999.2500     2.1197  2247.9229
 1559.8628    14.0907  2116.0000      .0224    84.3125  -999.2500     2.1218  2239.5469
 1560.0152    13.9687  2116.0000      .0261    83.5000  -999.2500     2.1288  2234.0000
 1560.1676    13.9342  2116.0000      .0215    80.9375  -999.2500     2.1201  2234.0000
 1560.3200    13.9582  2117.3076      .0235    78.3125  -999.2500     2.1158  2231.3843
 1560.4724    13.9201  2119.3066      .0329    78.8125  -999.2500     2.1248  2236.5332
 1560.6248    13.8984  2118.6924      .0438    80.5625  -999.2500     2.1340  2249.1538
 1560.7772    13.8117  2115.3867      .0418    78.9375  -999.2500     2.1342  2247.4668
 1560.9296    13.7554  2114.0000      .0367    77.6250  -999.2500     2.1200  2247.9229
 1561.0820    13.7653  2115.3066      .0200    77.1875  -999.2500     2.0941  2252.6133
 1561.2344    13.8908  2116.0000      .0159    74.7500  -999.2500     2.0827  2247.4692
 1561.3868    13.9582  2116.0000      .0059    75.6250  -999.2500     2.0795  2247.9199
 1561.5392    13.9201  2116.0000      .0100    75.3750  -999.2500     2.1011  2233.0205
 1561.6916    13.7912  2114.6924      .0204    78.2500  -999.2500     2.1299  2237.0767
 1561.8440    13.9130  2112.6934      .0306    76.7500  -999.2500     2.1451  2241.3867
 1561.9964    14.0282  2113.3076      .0283    80.2500  -999.2500     2.1382  2233.4614
 1562.1488    14.0799  2112.6934      .0230    79.4375  -999.2500     2.1213  2252.2129
 1562.3012    14.0505  2112.0000      .0194    79.3125  -999.2500     2.1025  2264.0000
 1562.4536    14.2582  2112.0000      .0149    78.0000  -999.2500     2.0766  2257.4668
 1562.6060    14.6689  2112.0000      .0113    78.6250  -999.2500     2.0600  2251.3843
 1562.7584    14.6876  2113.3066      .0090    75.5625  -999.2500     2.0579  2246.0801
 1562.9108    14.3516  2115.3076      .0019    75.1250  -999.2500     2.0573  2250.5386
 1563.0632    14.2773  2117.3066     -.0021    72.1250  -999.2500     2.0592  2244.8535
 1563.2156    14.2411  2118.0000      .0014    71.4375  -999.2500     2.0644  2253.0605
 1563.3680    14.1215  2116.6934      .0104    68.5625  -999.2500     2.0728  2305.7324
 1563.5204    14.0934  2116.0000      .0132    71.7500  -999.2500     2.0711  2290.8174
 1563.6728    14.2395  2116.0000      .0165    79.4375  -999.2500     2.0722  2266.0767
 1563.8252    14.2359  2117.3066      .0278    79.3125  -999.2500     2.0895  2264.0000
 1563.9776    14.3434  2118.0000      .0251    76.3750  -999.2500     2.0951  2250.9229
 1564.1300    14.3045  2116.6934      .0175    72.2500  -999.2500     2.0925  2247.9199
 1564.2824    13.9612  2114.6924      .0131    79.0000  -999.2500     2.0905  2239.5386
 1564.4348    13.8686  2114.0000      .0124    79.1875  -999.2500     2.0873  2247.0664
 1564.5872    13.9904  2114.0000      .0073    79.9375  -999.2500     2.0796  2264.4614
 1564.7396    14.2177  2115.3066      .0031    71.6250  -999.2500     2.0762  2259.5469
 1564.8920    14.2819  2117.3076      .0117    72.9375  -999.2500     2.0864  2244.8462
 1565.0444    13.9032  2116.6934      .0230    71.8125  -999.2500     2.0969  2262.2129
 1565.1968    13.9048  2113.3877      .0200    76.9375  -999.2500     2.0881  2264.8574
 1565.3492    13.6965  2110.6934      .0172    74.3750  -999.2500     2.0820  2260.0000
 1565.5016    13.9445  2110.0000      .0169    71.5625  -999.2500     2.0757  2253.4692
 1565.6540    14.3531  2110.0000      .0211    65.3125  -999.2500     2.0672  2269.6152
