~VERSION INFORMATION
VERS.                                                 2.0:   CWLS Log ASCII Standard-VERSION 2.0
WRAP.                                                  NO:   One line per depth step
~Well Information Block
STRT.M                                           470.2028:   Top Depth
STOP.M                                          3735.8300:   Bottom Depth
STEP.M                                             .15240:   Depth Increment
NULL.                                            -999.250:   Null Value
FLD .                                             WILDCAT:   Field Name
WELL.                                              15/9-8:   NAME
WBN .                                              15/9-8:   WELLBORE
NATI.                                                 NOR:   COUNTRY
BHT1.DEGF                                            78.0:   BH TEMP 1
BHT2.DEGF                                           166.0:   BH TEMP 2
BHT3.DEGF                                           166.0:   BH TEMP 3
BS1 .IN                                             17.50:   BIT SIZE 1
CTRY.                                                 NOR:   COUNTRY
CBD1.M                                             178.50:   CSG 1 DRILL DEP
CBL1.M                                             178.50:   CSG 1 LOG DEP
CS1 .IN                                              30.0:   CSG 1 SIZE
COMP.                                             STATOIL:   OPERATOR
PDAT.                                                 MSL:   PERM DATUM
PROV.                                           NORTH SEA:   PROVINCE
COUN.                                             NORTRYM:   RIG NAME
SPUD.                                          1981/03/05:   SPUD DATE
LATI.                                       58 22 55.81 N:   SURF. LATITUDE
LONG.                                        1 46 28.32 E:   SURF. LONGITUDE
BTD1.                                             494.0 M:   TOTAL DEPTH 1
BTD2.                                            2846.0 M:   TOTAL DEPTH 2
BTD3.                                            2846.0 M:   TOTAL DEPTH 3
PBWE.                                              15/9-8:   PB WELL ID
APIN.                                              15/9-8:   PB WELLBORE ID
PBWS.                                                 all:   PB WELL NAME SET
~PARAMETER INFORMATION (log)
LNAM.                              FDC/CNL/GR  COMPOSITED:   NAME
LTYP.                                         DEPTH MATCH:   LOG TYPE
LSRV.                                            DEN/NEUT:   LOG SERVICE
LSOU.                                             SPT/NPD:   LOG SOURCE
LVSN.                                                   1:   LOG VERSION
BHIS.                                                   R:   BRIEF HISTORY
FHIS.                                             RAW-LIS:   FULL HISTORY
LCNM.                                        SCHLUMBERGER:   LOGGING CONTRACTOR
TOOL.                             FDC/CNL/GR (COMPOSITED):   TOOL STRING
~Curve Information Block
#MNEM.UNIT                                        API CODE    No Description
#=========                                        ========    == ===========
DEPT.M                                       00 001 00 00:     1  DEPTH
CALI.IN                                                  :     2  Caliper
CS.                                                      :     3  Cable Speed
DRHO.G/CC                                                :     4  Bulk density correction
GR.GAPI                                                  :     5  Gamma Ray
NPHI.%                                                   :     6  Neutron porosity
RHOB.G/CC                                                :     7  Bulk density
TENS.LB                                                  :     8  Cable Tension
~ASCII
# ...
 1330.0436    12.1041  2106.6938      .0161    78.4375  -999.2500     1.9468  1978.6738
 1330.1960    12.2228  2104.6934      .0121    74.8750  -999.2500     1.9167  1996.1328
 1330.3484    12.1571  2102.6938      .0098    74.8750  -999.2500     1.8841  2019.7957
 1330.5008    12.3104  2100.6924      .0023    74.6250  -999.2500     1.8511  2015.1921
 1330.6532    12.1262  2098.6934     -.0036    75.0000  -999.2500     1.8366  1996.9336
 1330.8056    11.8996  2098.0000     -.0045    75.6250  -999.2500     1.8532  1993.2693
 1330.9580    11.9591  2098.0000     -.0023    82.9375  -999.2500     1.8770  1998.2666
 1331.1104    12.0742  2098.0000     -.0007    86.3125  -999.2500     1.8969  1996.7307
 1331.2628    12.2676  2099.3066     -.0021    87.5625  -999.2500     1.8925  2008.0664
 1331.4152    12.1881  2098.6924     -.0032    86.0000  -999.2500     1.8816  1988.8462
 1331.5676    12.0607  2098.0000     -.0050    85.3750  -999.2500     1.8681  1991.3330
 1331.7200    12.2380  2098.0000     -.0081    83.9375  -999.2500     1.8693  2000.0000
 1331.8724    12.0324  2096.6934     -.0099    83.6875  -999.2500     1.8903  2006.5332
 1332.0248    11.8825  2094.6938     -.0048    83.1250  -999.2500     1.9230  2013.2651
 1332.1772    11.8345  2092.6934      .0028    86.3125  -999.2500     1.9470  1995.4001
 1332.3296    11.7945  2092.0000      .0022    80.1250  -999.2500     1.9601  2007.8564
 1332.4820    11.7737  2093.3076      .0008    80.5000  -999.2500     1.9760  2013.4614
 1332.6344    11.7809  2095.3066     -.0051    75.6250  -999.2500     1.9901  2003.4668
 1332.7868    11.7993  2096.0000     -.0083    75.5625  -999.2500     1.9922  2000.0000
 1332.9392    11.8047  2097.3066     -.0083    72.9375  -999.2500     1.9791  1990.2002
 1333.0916    11.8251  2099.3076      .0029    71.3750  -999.2500     1.9656  1988.2693
 1333.2440    11.8461  2100.0000      .0145    65.6250  -999.2500     1.9504  1983.4668
 1333.3964    11.9129  2101.3076      .0198    62.9063  -999.2500     1.9373  1980.0000
 1333.5488    11.9810  2102.0000      .0140    59.6250  -999.2500     1.9189  1970.2002
 1333.7012    12.3673  2100.6938      .0128    61.3125  -999.2500     1.9118  1974.7957
 1333.8536    12.2001  2098.6934      .0225    64.0625  -999.2500     1.9179  2002.8662
 1334.0060    11.8752  2098.0000      .0218    65.2500  -999.2500     1.9145  2008.4695
 1334.1584    11.7383  2098.0000      .0155    67.1875  -999.2500     1.9067  1985.4001
 1334.3108    11.7286  2099.3062      .0063    66.6250  -999.2500     1.8992  1997.8564
 1334.4632    11.6401  2102.6133      .0085    69.5000  -999.2500     1.9105  2006.7334
 1334.6156    11.7645  2104.0000      .0047    73.8750  -999.2500     1.9275  2014.7957
 1334.7680    12.1911  2102.6934     -.0006    74.3750  -999.2500     1.9556  2020.0000
 1334.9204    11.9590  2102.0000     -.0024    73.2500  -999.2500     1.9850  2046.1218
 1335.0728    11.8341  2100.6934     -.0023    69.9375  -999.2500     2.0031  2037.1335
 1335.2252    11.8624  2100.0000      .0038    68.1250  -999.2500     2.0065  2015.2043
 1335.3776    11.9793  2100.0000      .0024    67.3750  -999.2500     1.9912  2029.6152
 1335.5300    11.9703  2100.0000      .0006    65.1875  -999.2500     1.9713  2017.1335
 1335.6824    11.9042  2098.6938     -.0035    66.1250  -999.2500     1.9546  1985.4087
 1335.8348    11.8906  2099.3066     -.0024    62.3125  -999.2500     1.9562  2017.4658
 1335.9872    11.8753  2102.6118      .0037    62.6250  -999.2500     1.9753  2000.8171
 1336.1396    11.8978  2106.6133      .0110    58.2500  -999.2500     2.0070  2006.1328
 1336.2920    12.0416  2110.6118      .0223    57.7188  -999.2500     2.0425  2006.9390
 1336.4444    12.1247  2113.3066      .0409    54.5000  -999.2500     2.0726  1993.4668
 1336.5968    11.9389  2114.0000      .0557    55.3125  -999.2500     2.0693  2009.5913
 1336.7492    11.8257  2112.6934      .0385    54.1875  -999.2500     2.0255  2006.9336
 1336.9016    11.8203  2110.6938      .0114    52.9687  -999.2500     1.9733  1980.4087
 1337.0540    11.8203  2108.6934     -.0035    50.8438  -999.2500     1.9465  1992.8662
 1337.2064    11.8203  2106.6938     -.0043    52.4687  -999.2500     1.9331  2014.7957
 1337.3588    11.8510  2104.6924     -.0026    53.6250  -999.2500     1.9230  2016.7307
 1337.5112    11.8672  2102.6934     -.0012    58.2188  -999.2500     1.9180  1992.1335
 1337.6636    11.8672  2100.6938      .0030    60.0000  -999.2500     1.9285  1983.2651
 1337.8160    11.8672  2101.3066      .0135    58.1875  -999.2500     1.9512  1981.7334
 1337.9684    11.8672  2103.3062      .0264    57.6562  -999.2500     1.9727  1983.2651
 1338.1208    11.8570  2102.6934      .0250    57.3125  -999.2500     1.9667  1998.0664
 1338.2732    11.8771  2100.6938      .0140    60.9375  -999.2500     1.9504  2005.0000
 1338.4256    11.8294  2098.6934      .0040    58.9688  -999.2500     1.9479  1991.9336
 1338.5780    11.7918  2096.6938      .0003    59.0938  -999.2500     1.9664  1998.0608
 1338.7304    11.7891  2094.6934      .0000    56.3750  -999.2500     1.9858  2014.7998
 1338.8828    11.7891  2095.3062     -.0045    55.7500  -999.2500     1.9906  2006.9390
 1339.0352    11.8095  2096.0000     -.0075    54.2500  -999.2500     1.9921  2009.7998
 1339.1876    11.7999  2096.0000     -.0078    52.5313  -999.2500     2.0040  2011.7346
 1339.3400    11.7891  2096.0000     -.0056    51.6563  -999.2500     2.0187  2003.4614
 1339.4924    11.7891  2097.3066     -.0022    50.3750  -999.2500     2.0209  1996.7334
 1339.6448    11.8095  2100.6118      .0048    47.9375  -999.2500     2.0144  1995.0000
 1339.7972    11.7846  2104.6133      .0123    49.4063  -999.2500     2.0168  1988.4668
 1339.9496    11.7605  2104.6938      .0137    46.6875  -999.2500     2.0183  1975.2043
 1340.1020    11.7425  2102.6934      .0033    55.6875  -999.2500     2.0074  1992.8662
 1340.2544    11.7548  2100.6938     -.0064    56.4688  -999.2500     1.9930  1998.4695
 1340.4068    11.9647  2100.0000     -.0129    61.8437  -999.2500     1.9876  1985.2002
 1340.5592    12.0652  2100.0000     -.0113    60.0625  -999.2500     1.9911  1970.2043
 1340.7116    11.9910  2101.3066     -.0019    62.3750  -999.2500     1.9976  1984.5996
 1340.8640    11.9888  2102.0000      .0131    64.5625  -999.2500     1.9968  2011.3262
 1341.0164    12.0435  2103.3066      .0171    63.1875  -999.2500     1.9785  2006.9336
 1341.1688    12.0829  2105.3062      .0081    66.2500  -999.2500     1.9480  2019.5913
 1341.3212    12.1244  2107.3076     -.0015    66.5625  -999.2500     1.9167  2020.1921
 1341.4736    12.1968  2108.0000     -.0031    71.8750  -999.2500     1.9024  2005.1921
 1341.6260    12.2266  2108.0000     -.0021    68.6250  -999.2500     1.8895  2009.7998
 1341.7784    12.5177  2109.3076      .0006    69.9375  -999.2500     1.8825  2011.7307
 1341.9308    12.7433  2108.6934      .0064    64.1250  -999.2500     1.8812  2026.3330
 1342.0832    12.6944  2108.0000      .0161    66.3750  -999.2500     1.8924  2015.3845
 1342.2356    12.4697  2108.0000      .0293    64.2500  -999.2500     1.9099  1995.1921
 1342.3880    12.4823  2108.0000      .0249    68.1875  -999.2500     1.9032  1999.8118
 1342.5404    12.6157  2109.3076      .0133    65.7500  -999.2500     1.8888  2018.0769
 1342.6928    12.9935  2112.6162      .0094    68.3750  -999.2500     1.8803  2011.9175
 1342.8452    12.9114  2115.3076      .0189    65.0000  -999.2500     1.8933  2024.6152
 1342.9976    12.5179  2114.6914      .0319    65.3125  -999.2500     1.9122  2012.1057
 1343.1500    12.3522  2114.0000      .0345    62.2188  -999.2500     1.9237  2000.0000
 1343.3024    12.5761  2112.6914      .0305    63.8125  -999.2500     1.9300  2006.5413
 1343.4548    12.6316  2112.0000      .0352    60.5313  -999.2500     1.9316  2026.3462
 1343.6072    12.4764  2112.0000      .0338    59.9375  -999.2500     1.9265  2025.2002
 1343.7596    12.6541  2110.6924      .0306    58.1875  -999.2500     1.9111  2023.2693
