~VERSION INFORMATION
VERS.                                                 2.0:   CWLS Log ASCII Standard-VERSION 2.0
WRAP.                                                  NO:   One line per depth step
~Well Information Block
STRT.M                                           470.2028:   Top Depth
STOP.M                                          3735.8300:   Bottom Depth
STEP.M                                             .15240:   Depth Increment
NULL.                                            -999.250:   Null Value
FLD .                                             WILDCAT:   Field Name
WELL.                                              15/9-8:   NAME
WBN .                                              15/9-8:   WELLBORE
NATI.                                                 NOR:   COUNTRY
BHT1.DEGF                                            78.0:   BH TEMP 1
BHT2.DEGF                                           166.0:   BH TEMP 2
BHT3.DEGF                                           166.0:   BH TEMP 3
BS1 .IN                                             17.50:   BIT SIZE 1
CTRY.                                                 NOR:   COUNTRY
CBD1.M                                             178.50:   CSG 1 DRILL DEP
CBL1.M                                             178.50:   CSG 1 LOG DEP
CS1 .IN                                              30.0:   CSG 1 SIZE
COMP.                                             STATOIL:   OPERATOR
PDAT.                                                 MSL:   PERM DATUM
PROV.                                           NORTH SEA:   PROVINCE
COUN.                                             NORTRYM:   RIG NAME
SPUD.                                          1981/03/05:   SPUD DATE
LATI.                                       58 22 55.81 N:   SURF. LATITUDE
LONG.                                        1 46 28.32 E:   SURF. LONGITUDE
BTD1.                                             494.0 M:   TOTAL DEPTH 1
BTD2.                                            2846.0 M:   TOTAL DEPTH 2
BTD3.                                            2846.0 M:   TOTAL DEPTH 3
PBWE.                                              15/9-8:   PB WELL ID
APIN.                                              15/9-8:   PB WELLBORE ID
PBWS.                                                 all:   PB WELL NAME SET
~PARAMETER INFORMATION (log)
LNAM.                              FDC/CNL/GR  COMPOSITED:   NAME
LTYP.                                         DEPTH MATCH:   LOG TYPE
LSRV.                                            DEN/NEUT:   LOG SERVICE
LSOU.                                             SPT/NPD:   LOG SOURCE
LVSN.                                                   1:   LOG VERSION
BHIS.                                                   R:   BRIEF HISTORY
FHIS.                                             RAW-LIS:   FULL HISTORY
LCNM.                                        SCHLUMBERGER:   LOGGING CONTRACTOR
TOOL.                             FDC/CNL/GR (COMPOSITED):   TOOL STRING
~Curve Information Block
#MNEM.UNIT                                        API CODE    No Description
#=========                                        ========    == ===========
DEPT.M                                       00 001 00 00:     1  DEPTH
CALI.IN                                                  :     2  Caliper
CS.                                                      :     3  Cable Speed
DRHO.G/CC                                                :     4  Bulk density correction
GR.GAPI                                                  :     5  Gamma Ray
NPHI.%                                                   :     6  Neutron porosity
RHOB.G/CC                                                :     7  Bulk density
TENS.LB                                                  :     8  Cable Tension
~ASCII
# ...
 3715.4084     8.3594  1817.4934     -.0099    49.7364    15.0018     2.5041  4281.8711
 3715.5608     8.3637  1819.0256     -.0052    49.0831    13.0246     2.5397  4288.2051
 3715.7132     8.4019  1821.5081      .0027    49.3894    12.8791     2.5757  4293.8398
 3715.8656     8.4297  1820.9839      .0074    54.8530    15.8795     2.5998  4312.4482
 3716.0180     8.4297  1819.4927      .0034    66.7014    18.8348     2.6040  4319.7119
 3716.1704     8.4557  1819.0000      .0003    81.7356    20.2965     2.6126  4306.0771
 3716.3228     8.4766  1818.4934      .0056    93.6999    20.8484     2.6274  4318.0771
 3716.4752     8.4722  1818.0000      .0098    98.7453    20.9256     2.6319  4305.7109
 3716.6276     8.4558  1818.5071      .0065   100.3116    20.2765     2.6285  4290.0283
 3716.7800     8.4366  1819.0000     -.0009   100.5665    18.6912     2.6153  4289.9736
 3716.9324     8.4297  1821.0256     -.0011   101.3814    17.3512     2.6085  4277.8711
 3717.0848     8.4297  1821.9839      .0077   102.5100    17.3178     2.6126  4288.3203
 3717.2372     8.4297  1820.4927      .0111   103.2835    17.8223     2.6109  4310.0283
 3717.3896     8.4297  1818.9871      .0030   103.5325    17.9212     2.6053  4316.0508
 3717.5420     8.4513  1819.0127     -.0016   103.5617    17.7209     2.6111  4309.8711
 3717.6944     8.4731  1819.4919      .0006   101.7854    17.7541     2.6269  4300.0000
 3717.8468     8.4766  1819.5081      .0003    99.1725    18.7113     2.6272  4304.0635
 3717.9992     8.4766  1818.9839     -.0015    98.5993    19.7824     2.6168  4303.9355
 3718.1516     8.4766  1819.5239     -.0028    99.9218    20.8350     2.6079  4302.0322
 3718.3040     8.4766  1822.5215     -.0004   100.9067    21.8566     2.6133  4297.9131
 3718.4564     8.4766  1822.4758     -.0010   101.1915    22.5137     2.6167  4300.1279
 3718.6088     8.4809  1820.4919     -.0010   102.6440    22.8035     2.6155  4303.9355
 3718.7612     8.4800  1820.0000     -.0004   106.5113    22.8268     2.6150  4300.0000
 3718.9136     8.4766  1820.0000     -.0012   108.8714    23.3476     2.6187  4289.8555
 3719.0660     8.4722  1821.0159     -.0031   107.8312    23.5049     2.6230  4296.2559
 3719.2184     8.4731  1821.4919     -.0043   107.5070    23.0205     2.6241  4316.0635
 3719.3708     8.4766  1819.4758     -.0028   107.7470    22.4043     2.6196  4315.9355
 3719.5232     8.4766  1820.5400      .0043   107.8800    21.9238     2.6196  4309.9678
 3719.6756     8.4766  1823.5088      .0066   107.0427    21.7748     2.6230  4314.1055
 3719.8280     8.4722  1824.5081      .0022   107.3980    22.0774     2.6220  4313.9033
 3719.9804     8.4861  1824.4919     -.0047   108.7807    23.1547     2.6146  4314.0957
 3720.1328     8.4826  1824.0000     -.0045   107.7975    24.2010     2.6115  4320.0000
 3720.2852     8.4601  1824.5071      .0017   107.4456    23.8912     2.6079  4299.7119
 3720.4376     8.4314  1827.5400      .0085   107.3967    22.3996     2.6057  4296.2559
 3720.5900     8.4271  1831.0159      .0065   107.4793    21.0851     2.5933  4312.0000
 3720.7424     8.4418  1830.9839      .0003   105.4897    20.7551     2.5853  4309.9678
 3720.8948     8.4626  1831.5215     -.0023   103.7934    22.0865     2.5857  4308.0000
 3721.0472     8.4766  1833.5081     -.0042   103.8630    23.9375     2.5894  4318.1602
 3721.1996     8.4766  1834.5081     -.0022   105.4111    25.2783     2.6024  4319.8711
 3721.3520     8.4809  1835.0000      .0016   107.3080    25.5322     2.6083  4309.9707
 3721.5044     8.4800  1834.4934      .0018   106.6835    24.7997     2.6074  4305.9736
 3721.6568     8.4766  1833.4934     -.0015   104.4443    24.3152     2.5998  4316.1533
 3721.8092     8.4766  1834.5239     -.0045   103.9278    23.5986     2.5959  4346.2881
 3721.9616     8.4766  1836.0000     -.0048   105.5036    22.8495     2.5955  4345.7402
 3722.1140     8.4809  1836.5063     -.0022   107.3009    22.1364     2.5927  4303.6924
 3722.2664     8.4844  1838.0127      .0017   108.1795    21.4584     2.5961  4282.0254
 3722.4188     8.4844  1838.4919      .0004   108.5150    21.3627     2.5909  4298.2236
 3722.5712     8.4844  1838.0000     -.0074   109.5643    21.6839     2.5753  4320.1152
 3722.7236     8.4844  1838.5063     -.0155   110.6687    21.7254     2.5575  4323.9482
 3722.8760     8.4844  1839.0000     -.0199   112.7011    22.0778     2.5488  4326.0771
 3723.0284     8.4844  1838.4919     -.0196   113.5277    23.8965     2.5542  4299.4873
 3723.1808     8.4800  1838.5081     -.0115   111.5027    25.1969     2.5618  4229.3906
 3723.3332     8.4029  1838.4927      .0182   108.5137    24.8720     2.5666  4149.3945
 3723.4856     6.7019  1840.0256      .0560   107.5341    24.6854     2.5640  4055.3330
 3723.6380     5.2637  1843.0127      .0795   109.2376    25.2980     2.5551  4054.6411
 3723.7904     5.2612  1842.9839      .0729   112.0528    25.5844     2.5399  4416.9355
 3723.9428     5.4637  1841.4927      .0533   112.5191    25.0425     2.5237  4835.6416
 3724.0952     5.7029  1841.0000      .0440   111.0545    24.4857     2.5295  4960.1533
 3724.2476     5.7800  1842.5193      .0436   108.5068    24.2169     2.5466  4976.0508
 3724.4000     6.1031  1844.0000      .0547   107.6410    24.3451     2.5798  4975.9355
 3724.5524     6.5929  1843.4927      .0633   107.7691    24.7084     2.6016  4978.0859
 3724.7048     6.9025  1841.4807      .0569   107.8237    24.9283     2.6037  4973.8711
 3724.8572     7.1088  1842.5320      .0429   106.5669    24.7768     2.5892  4943.7432
 3725.0096     7.2009  1846.0159      .0334   105.8018    23.7924     2.5762  4895.5508
 3725.1620     7.2755  1847.0000      .0323   105.2845    22.8973     2.5718  4845.6475
 3725.3144     7.3784  1843.4438      .0365   105.8803    22.4322     2.5792  4801.6475
 3725.4668     7.4739  1838.9839      .0388   108.3472    23.0113     2.5846  4749.5186
 3725.6192     7.5416  1840.0288      .0426   107.3896    23.8034     2.5929  4709.8555
 3725.7716     7.5690  1843.5239      .0416   105.5515    23.6801     2.6005  4679.6797
 3725.9240     7.4156  1845.5081      .0242   105.2560    23.4848     2.5855  4645.7754
 3726.0764     7.1524  1844.4758      .0137   108.4191    23.5375     2.5753  4617.7754
 3726.2288     6.9823  1845.0288      .0144   110.2057    23.9293     2.5708  4585.7402
 3726.3812     6.8923  1848.0159      .0236   108.1377    24.1451     2.5805  4557.8398
 3726.5336     6.8529  1851.0320      .0229   106.8095    24.1707     2.5777  4535.8076
 3726.6860     6.8477  1851.9839      .0128   106.5615    23.5986     2.5642  4501.6475
 3726.8384     6.7827  1850.4919      .0095   105.7697    22.9484     2.5603  4461.7109
 3726.9908     6.7240  1851.5264      .0114   105.1261    22.9501     2.5619  4423.6475
 3727.1432     6.7035  1855.0320      .0124   106.2035    23.1469     2.5655  4381.6475
 3727.2956     6.6871  1858.5239      .0117   108.0130    23.5143     2.5566  4331.5508
 3727.4480     6.6836  1859.4919      .0174   109.1935    24.0033     2.5597  4277.5830
 3727.6004     6.6814  1861.0288      .0244   109.1821    24.6638     2.5684  4217.5098
 3727.7528     6.6797  1864.0159      .0307   107.9235    24.5527     2.5781  4151.4873
 3727.9052     6.6753  1866.5239      .0285   106.6497    23.4521     2.5783  4086.4712
 3728.0576     6.6719  1868.0000      .0242   107.3613    22.9756     2.5777  4026.5674
 3728.2100     6.6719  1868.5071      .0247   110.4980    23.4672     2.5853  3969.5679
 3728.3624     6.6719  1870.5239      .0265   113.3890    24.2002     2.5835  3909.5190
 3728.5148     6.6719  1873.5239      .0232   114.2500    24.4861     2.5703  3856.6313
 3728.6672     6.6762  1876.5215      .0187   114.2500    24.2902     2.5592  3806.6108
 3728.8196     6.6797  1879.5193      .0216   114.2500    24.4666     2.5653  3751.6411
 3728.9720     6.6753  1883.0320      .0317   114.2500    24.9791     2.5799  3713.8398
 3729.1244     6.6719  1885.5081      .0384   114.2500    25.7162     2.5892  3714.1602
