~VERSION INFORMATION
VERS.                                                 2.0:   CWLS Log ASCII Standard-VERSION 2.0
WRAP.                                                  NO:   One line per depth step
~Well Information Block
STRT.M                                           625.0412:   Top Depth
STOP.M                                          4623.7124:   Bottom Depth
STEP.M                                             .15240:   Depth Increment
NULL.                                            -999.250:   Null Value
FLD .                                                   -:   Field Name
WELL.                                              15/2-1:   NAME
WBN .                                              15/2-1:   WELLBORE
NATI.                                                 NOR:   COUNTRY
CTRY.                                                 NOR:   COUNTRY
COMP.                                     NORSK HYDRO A/S:   OPERATOR
PROV.                                                   ?:   PROVINCE
COUN.                                             NORTRYM:   RIG NAME
SPUD.                                          1981/11/26:   SPUD DATE
LATI.                                       58 45 19.57 N:   SURF. LATITUDE
LONG.                                        1 35 40.54 E:   SURF. LONGITUDE
PBWE.                                              15/2-1:   PB WELL ID
APIN.                                              15/2-1:   PB WELLBORE ID
PBWS.                                                 all:   PB WELL NAME SET
~PARAMETER INFORMATION (log)
LNAM.                              FDC/CNL/GR  COMPOSITED:   NAME
LTYP.                                         DEPTH MATCH:   LOG TYPE
LSRV.                                            DEN/NEUT:   LOG SERVICE
LSOU.                                             SPT/NPD:   LOG SOURCE
LVSN.                                                   1:   LOG VERSION
BHIS.                                                   R:   BRIEF HISTORY
FHIS.                                             RAW-LIS:   FULL HISTORY
LCNM.                                        SCHLUMBERGER:   LOGGING CONTRACTOR
TOOL.                             FDC/CNL/GR (COMPOSITED):   TOOL STRING
~Curve Information Block
#MNEM.UNIT                                        API CODE    No Description
#=========                                        ========    == ===========
DEPT.M                                       00 001 00 00:     1  DEPTH
CALI.IN                                                  :     2  Caliper
CS.                                                      :     3  Cable Speed
DRHO.G/CC                                                :     4  Bulk density correction
GR.GAPI                                                  :     5  Gamma Ray
NPHI.%                                                   :     6  Neutron porosity
RHOB.G/CC                                                :     7  Bulk density
TENS.LB                                                  :     8  Cable Tension
~ASCII
# ...
 3537.4052    13.1094  2014.0000      .0054    36.0938    19.0430     2.5605  3204.0000
 3537.5576    13.1250  2014.0000      .0215    34.4688    19.1895     2.5645  3164.0000
 3537.7100    13.0859  2015.0000      .0278    32.5625    19.5313     2.5430  3080.0000
 3537.8624    12.9688  2016.0000      .0229    33.0937    19.1895     2.5137  3024.0000
 3538.0148    13.0000  2015.0000      .0063    32.2188    17.5293     2.5000  2984.0000
 3538.1672    13.0156  2014.0000      .0068    36.1563    15.4297     2.5000  2950.0000
 3538.3196    13.0391  2010.0000      .0093    34.1563    14.2578     2.5195  3044.0000
 3538.4720    13.0547  2009.0000      .0039    35.9062    14.2578     2.4961  3330.0000
 3538.6244    13.0391  2007.0000     -.0059    33.9063    14.6484     2.4902  3980.0000
 3538.7768    13.0391  2007.0000     -.0063    35.2188    14.7461     2.4863  3924.0000
 3538.9292    13.0391  2008.0000     -.0068    33.2500    15.1367     2.4922  3890.0000
 3539.0816    13.0547  2009.0000      .0127    31.3125    15.0879     2.5195  3840.0000
 3539.2340    13.0391  2010.0000      .0220    29.0156    14.1602     2.5527  3800.0000
 3539.3864    13.0391  2010.0000      .0146    27.7344    13.8184     2.5293  3740.0000
 3539.5388    13.0391  2010.0000     -.0015    29.9531    13.4277     2.5078  3670.0000
 3539.6912    13.0547  2010.0000     -.0034    28.4375    14.4531     2.4922  3644.0000
 3539.8436    13.0547  2011.0000      .0190    26.7031    14.9902     2.5293  3594.0000
 3539.9960    13.0391  2012.0000      .0220    25.4688    16.0156     2.5410  3540.0000
 3540.1484    13.0391  2013.0000      .0000    26.0313    15.8203     2.5059  3490.0000
 3540.3008    13.0391  2014.0000      .0034    28.5938    15.5762     2.5273  3474.0000
 3540.4532    13.0391  2015.0000      .0029    27.1250    14.8926     2.5195  3430.0000
 3540.6056    13.0391  2014.0000      .0166    27.8125    14.3555     2.5469  3380.0000
 3540.7580    13.0391  2013.0000      .0117    28.2656    14.2090     2.5391  3344.0000
 3540.9104    13.0625  2012.0000      .0068    29.4844    14.3555     2.5273  3330.0000
 3541.0628    13.0781  2013.0000     -.0005    30.9531    14.7949     2.5215  3254.0000
 3541.2152    13.0781  2013.0000      .0103    29.4219    14.6484     2.5234  3184.0000
 3541.3676    13.0781  2014.0000      .0190    27.3906    14.8437     2.5410  3134.0000
 3541.5200    13.0781  2014.0000      .0415    26.4531    15.5273     2.5605  3144.0000
 3541.6724    13.0781  2014.0000      .0225    27.4844    16.2109     2.5332  3174.0000
 3541.8248    13.0781  2015.0000      .0068    27.4687    16.8945     2.5117  3244.0000
 3541.9772    13.0781  2013.0000     -.0044    26.1719    17.1387     2.4941  3400.0000
 3542.1296    13.0781  2013.0000     -.0044    24.1406    16.2109     2.4941  3404.0000
 3542.2820    13.0781  2013.0000      .0044    26.7188    13.9648     2.5215  3334.0000
 3542.4344    13.0781  2014.0000      .0015    29.4688    13.1348     2.5020  3294.0000
 3542.5868    13.0781  2014.0000     -.0034    34.1875    13.3789     2.4902  3250.0000
 3542.7392    13.1328  2015.0000      .0029    35.9688    14.9414     2.4727  3214.0000
 3542.8916    13.1484  2015.0000      .0073    37.5625    17.0410     2.4844  3150.0000
 3543.0440    13.1563  2015.0000      .0205    34.6875    19.3359     2.4883  3084.0000
 3543.1964    13.1953  2014.0000      .0039    34.4063    20.0195     2.4785  2974.0000
 3543.3488    13.2344  2012.0000      .0044    34.3125    18.4570     2.4707  2994.0000
 3543.5012    13.2656  2010.0000      .0044    37.2188    17.8711     2.4863  3150.0000
 3543.6536    13.2656  2006.0000      .0132    37.9688    17.5293     2.4844  3754.0000
 3543.8060    13.2656  2006.0000      .0093    36.7188    18.4570     2.4863  3944.0000
 3543.9584    13.2656  2007.0000      .0117    37.2500    19.4824     2.4902  3920.0000
 3544.1108    13.2813  2007.0000      .0220    35.0313    20.7520     2.5078  3864.0000
 3544.2632    13.2656  2009.0000      .0273    37.0625    21.1914     2.5137  3820.0000
 3544.4156    13.2656  2010.0000      .0229    37.5938    21.2402     2.5039  3750.0000
 3544.5680    13.2656  2010.0000      .0063    39.5625    21.3867     2.4766  3750.0000
 3544.7204    13.2656  2011.0000     -.0024    37.7812    21.3379     2.4609  3670.0000
 3544.8728    13.2656  2011.0000     -.0063    36.0000    21.0449     2.4531  3600.0000
 3545.0252    13.2656  2012.0000     -.0059    37.2188    20.5078     2.4668  3544.0000
 3545.1776    13.2813  2013.0000     -.0015    37.1562    20.9961     2.4766  3500.0000
 3545.3300    13.2656  2014.0000      .0068    37.1875    20.2637     2.5098  3470.0000
 3545.4824    13.2656  2015.0000      .0205    35.5000    19.6777     2.5195  3424.0000
 3545.6348    13.2813  2016.0000      .0239    38.6250    19.8730     2.5156  3384.0000
 3545.7872    13.2656  2016.0000      .0269    43.3750    20.4102     2.5078  3380.0000
 3545.9396    13.2813  2015.0000      .0303    47.3437    22.8516     2.4941  3330.0000
 3546.0920    13.2891  2013.0000      .0239    46.2813    23.3398     2.4805  3280.0000
 3546.2444    13.7109  2013.0000      .0024    44.5312    24.5605     2.4277  3240.0000
 3546.3968    13.1953  2014.0000      .0034    42.9687    24.5117     2.4316  3234.0000
 3546.5492    13.1797  2015.0000     -.0005    44.1875    25.1953     2.4375  3214.0000
 3546.7016    13.2813  2015.0000      .0371    44.5000    25.7324     2.4883  3184.0000
 3546.8540    13.2813  2015.0000      .0400    43.3125    24.6582     2.4883  3144.0000
 3547.0064    13.2891  2017.0000      .0620    43.6250    23.4863     2.5078  3134.0000
 3547.1588    13.2578  2016.0000      .0098    40.0313    21.0449     2.4707  3154.0000
 3547.3112    13.2422  2016.0000     -.0024    41.2813    21.4844     2.4785  3174.0000
 3547.4636    13.2656  2015.0000     -.0005    42.2813    20.8496     2.4961  3154.0000
 3547.6160    13.2891  2015.0000      .0625    46.5312    22.1191     2.5449  3144.0000
 3547.7684    13.3672  2016.0000      .0547    50.2812    25.5371     2.5352  3140.0000
 3547.9208    13.3047  2016.0000      .0244    52.2188    27.4902     2.4922  3160.0000
 3548.0732    13.3047  2017.0000     -.0039    54.0938    27.4902     2.4844  3170.0000
 3548.2256    13.3125  2017.0000      .0186    48.9688    23.7793     2.4375  3204.0000
 3548.3780    14.1172  2018.0000      .0347    48.2812    20.8984     2.3535  3210.0000
 3548.5304    14.2187  2016.0000      .0356    46.9063    22.9492     2.3145  3200.0000
 3548.6828    13.8437  2015.0000      .0024    48.0625    26.4648     2.2891  3204.0000
 3548.8352    13.8516  2014.0000     -.0010    48.0000    30.9082     2.3281  3214.0000
 3548.9876    13.9844  2014.0000      .0181    48.0000    30.6641     2.3398  3184.0000
 3549.1400    14.1562  2014.0000      .0254    53.6875    31.3965     2.3555  3214.0000
 3549.2924    13.5312  2013.0000      .0166    53.7500    31.0547     2.3691  3294.0000
 3549.4448    13.5781  2014.0000      .0005    56.0313    29.2480     2.3926  3320.0000
 3549.5972    13.4688  2015.0000      .0107    52.7188    26.5625     2.4395  3294.0000
 3549.7496    13.7813  2015.0000      .0229    56.9063    25.2441     2.4785  3200.0000
 3549.9020    13.4688  2015.0000      .0127    57.9063    25.0488     2.5000  3230.0000
 3550.0544    13.3516  2015.0000      .0073    59.5625    22.7539     2.5176  3250.0000
 3550.2068    13.3516  2016.0000      .0010    46.5625    18.8477     2.5508  3220.0000
 3550.3592    13.3672  2017.0000     -.0015    34.5313    15.4297     2.5625  3214.0000
 3550.5116    13.3672  2019.0000     -.0020    24.7031    13.3789     2.5781  3204.0000
 3550.6640    13.3672  2018.0000      .0024    25.4531    13.1348     2.5801  3214.0000
 3550.8164    13.3516  2019.0000      .0073    27.7031    12.7930     2.6035  3194.0000
 3550.9688    13.3750  2020.0000      .0000    29.5000    11.8164     2.6035  3180.0000
 3551.1212    13.3984  2019.0000     -.0137    29.9687    10.4980     2.6055  3190.0000
