~VERSION INFORMATION
VERS.                                                 2.0:   CWLS Log ASCII Standard-VERSION 2.0
WRAP.                                                  NO:   One line per depth step
~Well Information Block
STRT.M                                           625.0412:   Top Depth
STOP.M                                          4623.7124:   Bottom Depth
STEP.M                                             .15240:   Depth Increment
NULL.                                            -999.250:   Null Value
FLD .                                                   -:   Field Name
WELL.                                              15/2-1:   NAME
WBN .                                              15/2-1:   WELLBORE
NATI.                                                 NOR:   COUNTRY
CTRY.                                                 NOR:   COUNTRY
COMP.                                     NORSK HYDRO A/S:   OPERATOR
PROV.                                                   ?:   PROVINCE
COUN.                                             NORTRYM:   RIG NAME
SPUD.                                          1981/11/26:   SPUD DATE
LATI.                                       58 45 19.57 N:   SURF. LATITUDE
LONG.                                        1 35 40.54 E:   SURF. LONGITUDE
PBWE.                                              15/2-1:   PB WELL ID
APIN.                                              15/2-1:   PB WELLBORE ID
PBWS.                                                 all:   PB WELL NAME SET
~PARAMETER INFORMATION (log)
LNAM.                              FDC/CNL/GR  COMPOSITED:   NAME
LTYP.                                         DEPTH MATCH:   LOG TYPE
LSRV.                                            DEN/NEUT:   LOG SERVICE
LSOU.                                             SPT/NPD:   LOG SOURCE
LVSN.                                                   1:   LOG VERSION
BHIS.                                                   R:   BRIEF HISTORY
FHIS.                                             RAW-LIS:   FULL HISTORY
LCNM.                                        SCHLUMBERGER:   LOGGING CONTRACTOR
TOOL.                             FDC/CNL/GR (COMPOSITED):   TOOL STRING
~Curve Information Block
#MNEM.UNIT                                        API CODE    No Description
#=========                                        ========    == ===========
DEPT.M                                       00 001 00 00:     1  DEPTH
CALI.IN                                                  :     2  Caliper
CS.                                                      :     3  Cable Speed
DRHO.G/CC                                                :     4  Bulk density correction
GR.GAPI                                                  :     5  Gamma Ray
NPHI.%                                                   :     6  Neutron porosity
RHOB.G/CC                                                :     7  Bulk density
TENS.LB                                                  :     8  Cable Tension
~ASCII
# ...
 4341.7724    10.5703  1931.0000     -.0273    84.3750    32.5684     2.4746  4460.0000
 4341.9248    10.2578  1933.0000     -.0283    82.5625    33.0078     2.4824  4420.0000
 4342.0772     9.9844  1935.0000     -.0298    86.0000    33.3496     2.4609  4360.0000
 4342.2296    10.0859  1933.0000     -.0220    85.0625    32.6660     2.4648  4348.0000
 4342.3820    10.2656  1934.0000     -.0151    85.0625    31.2500     2.4668  4264.0000
 4342.5344    10.2422  1936.0000     -.0117    86.9375    31.2500     2.4746  4204.0000
 4342.6868    10.3281  1935.0000     -.0166    90.0625    32.8613     2.4648  4188.0000
 4342.8392    10.3594  1936.0000     -.0156    88.5625    32.3730     2.4629  4180.0000
 4342.9916    10.3594  1936.0000     -.0142    81.0625    33.6914     2.4805  4212.0000
 4343.1440    10.1563  1935.0000     -.0098    74.4375    34.2773     2.5156  4300.0000
 4343.2964    10.3281  1935.0000     -.0137    70.0000    34.8633     2.5391  4252.0000
 4343.4488     9.6719  1932.0000     -.0088    69.1250    34.2773     2.5430  4224.0000
 4343.6012     9.9062  1932.0000     -.0054    66.6250    31.7871     2.5195  4292.0000
 4343.7536     9.6328  1932.0000     -.0020    64.2500    32.2754     2.4941  4172.0000
 4343.9060     9.6641  1932.0000     -.0020    62.3750    33.9355     2.4766  4144.0000
 4344.0584     9.6719  1933.0000     -.0078    64.9375    34.8145     2.4766  4164.0000
 4344.2108     9.7734  1932.0000     -.0146    67.3125    35.1074     2.4824  4220.0000
 4344.3632     9.9062  1933.0000     -.0205    70.3750    33.1055     2.4844  4384.0000
 4344.5156     9.9453  1932.0000     -.0020    68.1250    33.2520     2.5137  4544.0000
 4344.6680    10.0234  1931.0000      .0054    65.7500    31.9824     2.5234  4568.0000
 4344.8204     9.6328  1932.0000      .0068    62.7812    33.3008     2.5234  4512.0000
 4344.9728     9.6641  1932.0000     -.0137    62.5625    33.1543     2.4844  4472.0000
 4345.1252     9.7266  1933.0000     -.0220    65.2500    34.2285     2.4746  4444.0000
 4345.2776     9.8359  1934.0000     -.0269    65.5000    32.5684     2.4785  4404.0000
 4345.4300     9.8359  1934.0000     -.0322    68.8125    32.3242     2.5508  4304.0000
 4345.5824     9.2656  1935.0000     -.0166    67.8750    31.2988     2.6445  4292.0000
 4345.7348     9.2734  1933.0000     -.0142    71.7500    32.6172     2.6309  4400.0000
 4345.8872     9.7109  1932.0000     -.0176    72.6250    32.1777     2.5469  4392.0000
 4346.0396     9.4766  1933.0000     -.0347    76.0000    32.6172     2.4473  4328.0000
 4346.1920     9.4766  1932.0000     -.0371    77.9375    32.3242     2.4453  4248.0000
 4346.3444     9.4766  1932.0000     -.0366    84.5625    33.1543     2.4375  4284.0000
 4346.4968     9.4766  1933.0000     -.0190    88.9375    33.2031     2.4824  4284.0000
 4346.6492     9.4844  1932.0000     -.0044    89.5625    33.4473     2.5059  4440.0000
 4346.8016     9.6250  1935.0000     -.0020    83.1875    33.0566     2.5156  4400.0000
 4346.9540     9.3750  1934.0000     -.0059    76.0000    32.8125     2.5176  4344.0000
 4347.1064     9.1250  1934.0000     -.0171    75.5625    33.0078     2.5820  4304.0000
 4347.2588     9.0391  1934.0000      .0039    80.2500    32.6172     2.6934  4268.0000
 4347.4112     9.2187  1934.0000      .0508    89.7500    31.9336     2.7969  4240.0000
 4347.5636     9.2656  1935.0000      .0566    89.8750    31.1035     2.7285  4204.0000
 4347.7160     9.3125  1935.0000      .0063    88.8125    29.6875     2.5723  4168.0000
 4347.8684     9.2969  1935.0000     -.0073    84.1250    30.6641     2.5000  4188.0000
 4348.0208     9.5000  1935.0000     -.0068    82.2500    31.0059     2.4883  4284.0000
 4348.1732     9.7109  1933.0000     -.0034    83.1875    32.3730     2.5078  4304.0000
 4348.3256     9.8750  1934.0000     -.0073    84.7500    32.0313     2.5137  4244.0000
 4348.4780    10.0937  1935.0000     -.0225    84.8750    32.9590     2.4785  4180.0000
 4348.6304    10.1484  1935.0000     -.0239    81.0625    31.7383     2.4746  4184.0000
 4348.7828    10.1719  1935.0000     -.0444    82.6250    32.9590     2.4297  4160.0000
 4348.9352    10.1953  1935.0000     -.0479    79.8125    31.8359     2.4082  4244.0000
 4349.0876    10.2109  1936.0000     -.0522    79.7500    34.6191     2.3906  4368.0000
 4349.2400    10.3203  1936.0000     -.0498    72.4375    32.7148     2.3809  4404.0000
 4349.3924    10.3203  1934.0000     -.0576    77.0000    30.3711     2.3770  4380.0000
 4349.5448    10.3281  1934.0000     -.0630    79.6875    27.0020     2.3809  4320.0000
 4349.6972    10.3281  1934.0000     -.0513    86.9375    27.9785     2.4609  4224.0000
 4349.8496     9.2422  1934.0000     -.0317    83.1875    32.0801     2.5176  4188.0000
 4350.0020     9.6250  1934.0000     -.0073    84.5000    33.3496     2.5566  4180.0000
 4350.1544     9.0547  1934.0000     -.0005    80.5625    35.3516     2.5840  4184.0000
 4350.3068     8.6953  1934.0000      .0161    85.8750    36.6699     2.6582  4168.0000
 4350.4592     8.7500  1933.0000      .0112    87.1875    38.5742     2.7441  4044.0000
 4350.6116     8.7500  1931.0000      .0137    89.5000    39.3555     2.7461  4034.0000
 4350.7640     8.7500  1931.0000      .0234    88.9375    37.4023     2.7461  4108.0000
 4350.9164     8.7500  1930.0000      .0381    89.5625    32.8125     2.7422  4328.0000
 4351.0688     8.7500  1927.0000      .0273    85.1250    29.6387     2.7070  5072.0000
 4351.2212     8.7344  1929.0000      .0122    82.3750    28.2227     2.6758  5044.0000
 4351.3736     8.7344  1930.0000      .0029    73.6875    28.8086     2.6523  4980.0000
 4351.5260     8.7344  1931.0000      .0044    81.3750    29.2480     2.6289  4964.0000
 4351.6784     8.7422  1931.0000      .0127    84.0625    29.2480     2.6367  4964.0000
 4351.8308     8.7812  1930.0000      .0015    89.0000    29.2480     2.5937  4804.0000
 4351.9832     8.7812  1931.0000      .0010    88.1250    30.2734     2.5996  4732.0000
 4352.1356     8.7891  1932.0000     -.0078    90.1250    32.2266     2.5469  4700.0000
 4352.2880     8.8281  1933.0000     -.0054    94.7500    33.0566     2.5430  4788.0000
 4352.4404     8.8281  1934.0000     -.0127    94.3125    32.1289     2.5176  4728.0000
 4352.5928     8.8281  1934.0000     -.0112    93.0000    32.1289     2.5254  4708.0000
 4352.7452     8.8281  1935.0000     -.0151    85.6250    34.5703     2.5137  4648.0000
 4352.8976     8.8281  1933.0000     -.0117    77.0000    34.3750     2.5098  4592.0000
 4353.0500     8.8281  1932.0000     -.0083    69.3125    31.5430     2.5059  4544.0000
 4353.2024     8.8281  1932.0000     -.0073    75.0000    28.9063     2.5098  4528.0000
 4353.3548     8.8359  1933.0000     -.0054    83.6250    30.0781     2.5215  4468.0000
 4353.5072     8.8594  1934.0000     -.0078    92.2500    34.2773     2.5254  4452.0000
 4353.6596     8.8516  1935.0000     -.0034    93.3125    35.5957     2.5273  4384.0000
 4353.8120     8.9062  1936.0000     -.0063    94.9375    35.4004     2.5059  4328.0000
 4353.9644     9.1172  1936.0000     -.0195    89.6250    33.5449     2.4687  4288.0000
 4354.1168     9.3203  1934.0000     -.0264    90.6250    32.5684     2.4629  4192.0000
 4354.2692     9.6328  1934.0000     -.0366    91.8125    31.4453     2.4473  4204.0000
 4354.4216     9.5078  1935.0000     -.0239    97.8750    31.7383     2.5332  4240.0000
 4354.5740     9.7969  1934.0000     -.0122    97.0625    32.0313     2.5859  4268.0000
 4354.7264     8.9844  1935.0000      .0029    93.7500    34.6680     2.6602  4384.0000
 4354.8788     8.9844  1935.0000      .0039    88.8125    35.7910     2.6387  4372.0000
 4355.0312     8.9922  1936.0000     -.0039    78.4375    34.8145     2.6426  4260.0000
 4355.1836     8.9922  1936.0000     -.0015    72.5000    32.5195     2.6465  4304.0000
 4355.3360     8.9844  1933.0000      .0005    71.3750    29.7852     2.6055  4440.0000
 4355.4884     8.9766  1933.0000      .0034    77.8750    27.7344     2.5449  4500.0000
