~VERSION INFORMATION
VERS.                                                 2.0:   CWLS Log ASCII Standard-VERSION 2.0
WRAP.                                                  NO:   One line per depth step
~Well Information Block
STRT.M                                           625.0412:   Top Depth
STOP.M                                          4623.7124:   Bottom Depth
STEP.M                                             .15240:   Depth Increment
NULL.                                            -999.250:   Null Value
FLD .                                                   -:   Field Name
WELL.                                              15/2-1:   NAME
WBN .                                              15/2-1:   WELLBORE
NATI.                                                 NOR:   COUNTRY
CTRY.                                                 NOR:   COUNTRY
COMP.                                     NORSK HYDRO A/S:   OPERATOR
PROV.                                                   ?:   PROVINCE
COUN.                                             NORTRYM:   RIG NAME
SPUD.                                          1981/11/26:   SPUD DATE
LATI.                                       58 45 19.57 N:   SURF. LATITUDE
LONG.                                        1 35 40.54 E:   SURF. LONGITUDE
PBWE.                                              15/2-1:   PB WELL ID
APIN.                                              15/2-1:   PB WELLBORE ID
PBWS.                                                 all:   PB WELL NAME SET
~PARAMETER INFORMATION (log)
LNAM.                              FDC/CNL/GR  COMPOSITED:   NAME
LTYP.                                         DEPTH MATCH:   LOG TYPE
LSRV.                                            DEN/NEUT:   LOG SERVICE
LSOU.                                             SPT/NPD:   LOG SOURCE
LVSN.                                                   1:   LOG VERSION
BHIS.                                                   R:   BRIEF HISTORY
FHIS.                                             RAW-LIS:   FULL HISTORY
LCNM.                                        SCHLUMBERGER:   LOGGING CONTRACTOR
TOOL.                             FDC/CNL/GR (COMPOSITED):   TOOL STRING
~Curve Information Block
#MNEM.UNIT                                        API CODE    No Description
#=========                                        ========    == ===========
DEPT.M                                       00 001 00 00:     1  DEPTH
CALI.IN                                                  :     2  Caliper
CS.                                                      :     3  Cable Speed
DRHO.G/CC                                                :     4  Bulk density correction
GR.GAPI                                                  :     5  Gamma Ray
NPHI.%                                                   :     6  Neutron porosity
RHOB.G/CC                                                :     7  Bulk density
TENS.LB                                                  :     8  Cable Tension
~ASCII
# ...
 2746.9064     7.1680  1895.0000     -.0029    21.8594    25.4395     2.3105  3184.0000
 2747.0588    15.5703  1894.0000     -.0010    24.9219    28.1250     2.3125  3174.0000
 2747.2112    16.7813  1893.0000      .0254    28.9375    31.2012     2.3926  3214.0000
 2747.3636    18.1875  1891.0000      .0371    27.7188    32.1289     2.4687  3244.0000
 2747.5160    18.0469  1891.0000      .0161    27.1562    30.5176     2.4531  3290.0000
 2747.6684    18.3594  1891.0000      .0083    24.6406    28.0762     2.4727  3274.0000
 2747.8208    18.1875  1890.0000     -.0132    23.1094    26.4160     2.4551  3294.0000
 2747.9732    18.1875  1890.0000      .0132    23.3750    24.3164     2.5098  3300.0000
 2748.1256    17.8438  1891.0000      .0181    26.1250    24.0234     2.5195  3310.0000
 2748.2780    17.0469  1891.0000      .0303    26.8437    26.0254     2.5000  3344.0000
 2748.4304    16.9375  1891.0000      .0273    26.6250    30.0781     2.4727  3450.0000
 2748.5828    16.8438  1890.0000      .0078    25.4219    32.9590     2.4258  3434.0000
 2748.7352    16.8125  1890.0000      .0112    26.2031    31.0547     2.4648  3480.0000
 2748.8876    16.7188  1890.0000     -.0029    23.1719    26.3184     2.5000  3444.0000
 2749.0400    16.6250  1888.0000      .0044    22.3750    21.7285     2.5605  3420.0000
 2749.1924    16.5781  1889.0000      .0122    17.8750    19.8242     2.5879  3410.0000
 2749.3448    16.4375  1890.0000      .0342    19.6094    19.3848     2.6094  3374.0000
 2749.4972    16.3594  1891.0000      .0479    21.0938    21.5332     2.6191  3364.0000
 2749.6496    16.1875  1891.0000      .0596    25.3125    22.9980     2.6094  3344.0000
 2749.8020    16.0781  1893.0000      .0542    29.0625    25.6836     2.5840  3340.0000
 2749.9544    16.1250  1892.0000      .0459    31.5938    26.9531     2.5664  3320.0000
 2750.1068    15.8672  1891.0000      .0312    35.8750    27.7344     2.5547  3294.0000
 2750.2592    15.8203  1890.0000      .0112    34.6562    26.8555     2.5605  3270.0000
 2750.4116    15.7031  1888.0000      .0083    32.8750    24.5117     2.5703  3250.0000
 2750.5640    15.6797  1888.0000     -.0024    29.5625    22.3145     2.5703  3304.0000
 2750.7164    15.7734  1889.0000     -.0093    28.3125    21.2891     2.5488  3360.0000
 2750.8688    15.4609  2006.0000     -.0078    30.0781    20.4590     2.5645  3370.0000
 2751.0212    15.4297  2007.0000     -.0010    32.5313    22.0215     2.5801  2554.0000
 2751.1736    15.4375  2007.0000      .0205    35.0625    21.7285     2.5859  2534.0000
 2751.3260    15.3750  2006.0000      .0127    31.8750    23.5840     2.5488  2550.0000
 2751.4784    15.1875  2005.0000      .0020    28.2031    23.8281     2.5273  2550.0000
 2751.6308    15.0703  2005.0000     -.0034    25.5000    23.5840     2.5488  2560.0000
 2751.7832    15.0156  2005.0000      .0137    25.4531    20.3613     2.5977  2534.0000
 2751.9356    14.9375  2006.0000      .0483    26.9375    18.4570     2.6367  2554.0000
 2752.0880    15.0156  2007.0000      .0503    26.3594    18.6035     2.6289  2524.0000
 2752.2404    14.8594  2008.0000      .0420    26.6250    19.1406     2.6172  2540.0000
 2752.3928    14.8359  2010.0000      .0215    28.1094    18.9941     2.5957  2534.0000
 2752.5452    14.8984  2010.0000      .0781    29.0938    18.0664     2.5957  2530.0000
 2752.6976    15.1250  2009.0000      .0479    28.8594    19.6777     2.5195  2550.0000
 2752.8500    14.6719  2009.0000      .0215    22.4063    21.9727     2.4668  2544.0000
 2753.0024    14.6562  2007.0000     -.0117    20.1875    20.5566     2.4941  2590.0000
 2753.1548    14.6562  2007.0000      .0059    19.4063    18.1152     2.5410  2574.0000
 2753.3072    14.6562  2008.0000      .0239    22.6094    15.3809     2.5879  2594.0000
 2753.4596    14.5781  2008.0000      .0703    22.8438    15.3809     2.6113  2544.0000
 2753.6120    14.6250  2008.0000      .0591    23.8125    17.1875     2.6113  2540.0000
 2753.7644    14.6250  2008.0000      .0469    24.0469    18.7988     2.5801  2550.0000
 2753.9168    14.6250  2008.0000     -.0005    24.5781    19.8730     2.5195  2540.0000
 2754.0692    14.6328  2007.0000     -.0015    24.4063    19.8242     2.5059  2554.0000
 2754.2216    14.4922  2007.0000      .0005    24.9844    20.6055     2.5293  2524.0000
 2754.3740    14.4766  2005.0000      .0122    28.7656    22.8027     2.5684  2570.0000
 2754.5264    14.6562  2006.0000      .0088    30.7500    24.7070     2.5859  2580.0000
 2754.6788    14.4922  2006.0000      .0083    28.4688    22.2168     2.5977  2564.0000
 2754.8312    14.4766  2007.0000     -.0127    25.4219    19.1406     2.5762  2570.0000
 2754.9836    14.4922  2007.0000     -.0020    26.8437    15.6250     2.5430  2570.0000
 2755.1360    14.6484  2009.0000      .0474    31.0313    21.2402     2.5352  2590.0000
 2755.2884    15.5234  2009.0000      .0527    33.1875    26.5137     2.4766  2570.0000
 2755.4408    14.3594  2007.0000      .0376    33.2813    31.3477     2.4727  2564.0000
 2755.5932    14.6016  2007.0000      .0083    29.3437    27.8809     2.4844  2584.0000
 2755.7456    14.5391  2006.0000      .0073    25.1875    23.3398     2.5645  2594.0000
 2755.8980    14.4766  2006.0000      .0000    18.9375    17.9199     2.5859  2530.0000
 2756.0504    14.5859  2007.0000      .0034    18.9219    15.6738     2.5566  2550.0000
 2756.2028    14.6953  2007.0000      .0435    22.1250    19.4824     2.5547  2530.0000
 2756.3552    14.8750  2006.0000      .0762    30.0781    24.2676     2.5508  2570.0000
 2756.5076    15.0547  2007.0000      .0791    31.5781    24.4629     2.5586  2584.0000
 2756.6600    14.8047  2008.0000      .0537    26.8594    18.5547     2.5488  2570.0000
 2756.8124    14.8047  2006.0000      .0425    17.6563    11.5723     2.5742  2554.0000
 2756.9648    14.8281  2006.0000      .0034    13.4609     9.2773     2.5469  2544.0000
 2757.1172    14.6250  2005.0000      .0063    13.4844     9.2773     2.5762  2550.0000
 2757.2696    14.5000  2005.0000      .0132    15.9688    11.1328     2.5937  2554.0000
 2757.4220    14.7422  2005.0000      .0503    23.6250    15.3809     2.6055  2544.0000
 2757.5744    14.6094  2006.0000      .0371    28.2813    22.3633     2.5625  2540.0000
 2757.7268    14.4766  2006.0000      .0225    28.5156    25.4883     2.5293  2530.0000
 2757.8792    14.4766  2007.0000      .0054    24.5313    24.9512     2.5332  2530.0000
 2758.0316    14.5859  2008.0000      .0020    24.2813    20.6543     2.5352  2544.0000
 2758.1840    14.5234  2007.0000      .0078    26.4844    20.7031     2.5352  2520.0000
 2758.3364    14.5156  2007.0000     -.0010    25.5313    21.8262     2.5078  2530.0000
 2758.4888    14.4687  2007.0000      .0049    25.3594    21.6797     2.5215  2550.0000
 2758.6412    14.4766  2006.0000     -.0059    24.2031    21.1426     2.5156  2580.0000
 2758.7936    14.4766  2007.0000      .0215    26.4375    19.5313     2.5645  2584.0000
 2758.9460    14.5234  2008.0000      .0278    26.3906    19.5313     2.5879  2600.0000
 2759.0984    14.4453  2008.0000      .0356    26.0938    20.3125     2.6035  2594.0000
 2759.2508    14.4453  2008.0000      .0391    25.6094    19.4824     2.6055  2580.0000
 2759.4032    14.4531  2010.0000      .0498    26.5781    19.8242     2.5781  2570.0000
 2759.5556    14.8125  2009.0000      .0767    28.8125    21.6797     2.5996  2554.0000
 2759.7080    14.9375  2009.0000      .0537    28.3281    23.1934     2.5840  2574.0000
 2759.8604    14.3203  2008.0000      .0391    26.6563    22.5586     2.5957  2560.0000
 2760.0128    14.3203  2007.0000      .0698    24.9687    18.0664     2.6152  2574.0000
 2760.1652    14.5391  2006.0000      .0537    25.2031    18.3594     2.5723  2584.0000
 2760.3176    14.1406  2007.0000      .0449    25.3750    21.6797     2.5215  2614.0000
 2760.4700    14.1562  2007.0000      .0293    26.3281    26.4648     2.4785  2574.0000
 2760.6224    14.8125  2006.0000      .0356    27.8125    26.9043     2.4687  2584.0000
