~VERSION INFORMATION
VERS.                                                 2.0:   CWLS Log ASCII Standard-VERSION 2.0
WRAP.                                                  NO:   One line per depth step
~Well Information Block
STRT.M                                           625.0412:   Top Depth
STOP.M                                          4623.7124:   Bottom Depth
STEP.M                                             .15240:   Depth Increment
NULL.                                            -999.250:   Null Value
FLD .                                                   -:   Field Name
WELL.                                              15/2-1:   NAME
WBN .                                              15/2-1:   WELLBORE
NATI.                                                 NOR:   COUNTRY
CTRY.                                                 NOR:   COUNTRY
COMP.                                     NORSK HYDRO A/S:   OPERATOR
PROV.                                                   ?:   PROVINCE
COUN.                                             NORTRYM:   RIG NAME
SPUD.                                          1981/11/26:   SPUD DATE
LATI.                                       58 45 19.57 N:   SURF. LATITUDE
LONG.                                        1 35 40.54 E:   SURF. LONGITUDE
PBWE.                                              15/2-1:   PB WELL ID
APIN.                                              15/2-1:   PB WELLBORE ID
PBWS.                                                 all:   PB WELL NAME SET
~PARAMETER INFORMATION (log)
LNAM.                              FDC/CNL/GR  COMPOSITED:   NAME
LTYP.                                         DEPTH MATCH:   LOG TYPE
LSRV.                                            DEN/NEUT:   LOG SERVICE
LSOU.                                             SPT/NPD:   LOG SOURCE
LVSN.                                                   1:   LOG VERSION
BHIS.                                                   R:   BRIEF HISTORY
FHIS.                                             RAW-LIS:   FULL HISTORY
LCNM.                                        SCHLUMBERGER:   LOGGING CONTRACTOR
TOOL.                             FDC/CNL/GR (COMPOSITED):   TOOL STRING
~Curve Information Block
#MNEM.UNIT                                        API CODE    No Description
#=========                                        ========    == ===========
DEPT.M                                       00 001 00 00:     1  DEPTH
CALI.IN                                                  :     2  Caliper
CS.                                                      :     3  Cable Speed
DRHO.G/CC                                                :     4  Bulk density correction
GR.GAPI                                                  :     5  Gamma Ray
NPHI.%                                                   :     6  Neutron porosity
RHOB.G/CC                                                :     7  Bulk density
TENS.LB                                                  :     8  Cable Tension
~ASCII
# ...
 1692.9080    19.1563  2070.0000      .0396    34.6875    51.6602     2.0117  2224.0000
 1693.0604    19.2344  2070.0000      .0396    34.4375    51.1719     1.9932  2244.0000
 1693.2128    19.7969  2068.0000      .0059    31.5469    51.6113     1.9619  2244.0000
 1693.3652    20.4688  2068.0000      .0127    35.5937    50.9277     1.9951  2230.0000
 1693.5176    20.6875  2068.0000      .0244    35.1875    50.0488     2.0098  2240.0000
 1693.6700    21.5312  2068.0000      .0474    35.0938    49.3164     1.9883  2244.0000
 1693.8224    20.2344  2068.0000      .0483    31.3594    49.5605     1.9453  2280.0000
 1693.9748    19.2344  2070.0000      .0342    29.6875    52.9297     1.9160  2244.0000
 1694.1272    19.2656  2070.0000      .0396    25.4063    54.2480     1.9707  2234.0000
 1694.2796    19.1250  2070.0000      .0498    25.6875    54.5410     2.0176  2224.0000
 1694.4320    19.4375  2070.0000      .0522    28.5938    60.0586     1.9990  2270.0000
 1694.5844    20.8281  2068.0000      .0244    30.9531    60.7910     1.8721  2254.0000
 1694.7368    21.1563  2068.0000     -.0010    30.9531    63.5254     1.8164  2240.0000
 1694.8892    18.7969  2068.0000     -.0015    30.9531    56.3477     1.8154  2184.0000
 1695.0416    18.5938  2068.0000      .0166    31.7813    61.9141     1.8691  2234.0000
 1695.1940    19.4844  2068.0000      .0322    33.1563    67.3828     1.8867  2280.0000
 1695.3464    20.2656  2068.0000      .0469    32.2813    74.4629     1.9082  2270.0000
 1695.4988    21.6094  2070.0000      .0356    32.8750    70.9473     1.8857  2204.0000
 1695.6512    20.0156  2070.0000      .0288    30.8906    62.1582     1.8330  2234.0000
 1695.8036    20.8906  2070.0000      .0117    30.0781    57.2754     1.7559  2304.0000
 1695.9560    20.1719  2068.0000      .0049    30.0781    53.5645     1.7490  2234.0000
 1696.1084    20.7969  2068.0000      .0049    32.0938    51.1230     1.7959  2194.0000
 1696.2608    20.7969  2068.0000      .0303    31.7813    52.5879     1.8916  2210.0000
 1696.4132    21.3594  2066.0000      .0508    32.9375    53.5645     1.9307  2250.0000
 1696.5656    22.0469  2066.0000      .0527    30.8594    55.2734     1.8691  2260.0000
 1696.7180    21.4688  2068.0000      .0361    32.0000    50.4883     1.7822  2234.0000
 1696.8704    20.2031  2068.0000      .0112    31.6719    50.9277     1.6855  2234.0000
 1697.0228    19.8125  2068.0000      .0083    31.9688    56.8359     1.6982  2264.0000
 1697.1752    20.6406  2070.0000     -.0010    31.1406    57.7637     1.7500  2234.0000
 1697.3276    21.6406  2072.0000      .0068    31.7500    57.2266     1.8770  2230.0000
 1697.4800    21.7813  2072.0000     -.0005    30.3438    51.5625     1.9238  2210.0000
 1697.6324    18.9844  2072.0000      .0093    33.5000    53.9551     1.9473  2220.0000
 1697.7848    21.1094  2072.0000      .0088    31.2031    49.6094     1.9492  2244.0000
 1697.9372    21.6719  2072.0000      .0239    33.5000    46.4844     1.9814  2230.0000
 1698.0896    18.6719  2070.0000      .0166    30.8750    51.2207     1.9512  2264.0000
 1698.2420    19.0625  2070.0000      .0254    30.8594    54.2480     1.8945  2244.0000
 1698.3944    18.3594  2070.0000      .0171    31.9375    58.3496     1.8594  2250.0000
 1698.5468    18.0156  2070.0000      .0015    31.0313    58.7402     1.8555  2270.0000
 1698.6992    18.4063  2072.0000     -.0063    31.6406    57.9102     1.8896  2250.0000
 1698.8516    19.6875  2072.0000     -.0054    29.0938    59.0820     1.8887  2234.0000
 1699.0040    20.5625  2072.0000     -.0034    30.0625    55.9082     1.8066  2224.0000
 1699.1564    20.3125  2070.0000     -.0054    30.6719    56.6895     1.7188  2230.0000
 1699.3088    19.2500  2068.0000     -.0024    31.8125    58.2520     1.7002  2234.0000
 1699.4612    19.4063  2068.0000     -.0024    31.7969    56.2988     1.7607  2264.0000
 1699.6136    20.2656  2068.0000      .0166    33.0000    54.1504     1.8936  2260.0000
 1699.7660    21.0000  2068.0000      .0430    35.0313    51.0254     1.9922  2250.0000
 1699.9184    21.1406  2068.0000      .0190    34.7188    50.9277     2.0195  2224.0000
 1700.0708    21.1719  2068.0000      .0317    34.0625    50.1465     2.0957  2234.0000
 1700.2232    21.1250  2070.0000      .0269    31.0938    48.3887     2.1055  2250.0000
 1700.3756    20.1094  2072.0000      .0605    31.7500    49.6582     2.1074  2230.0000
 1700.5280    18.8438  2074.0000      .0410    30.3438    53.1250     2.0332  2214.0000
 1700.6804    17.8594  2072.0000      .0376    30.3906    52.6855     2.0137  2230.0000
 1700.8328    17.7969  2072.0000      .0410    29.1719    56.3965     1.9990  2240.0000
 1700.9852    17.5156  2072.0000      .0244    30.6094    53.2715     1.9717  2250.0000
 1701.1376    19.2188  2072.0000      .0195    30.0313    54.6875     1.9736  2240.0000
 1701.2900    21.1875  2072.0000      .0151    31.2187    50.7324     1.9775  2234.0000
 1701.4424    22.2500  2070.0000      .0015    30.2812    55.6641     1.8652  2224.0000
 1701.5948    21.9531  2070.0000     -.0068    30.8281    55.5664     1.7988  2224.0000
 1701.7472    22.1406  2070.0000     -.0171    31.0625    60.7910     1.7871  2220.0000
 1701.8996    19.2813  2072.0000     -.0098    29.8906    61.3281     1.8906  2234.0000
 1702.0520    18.7031  2074.0000     -.0039    30.8438    60.8887     1.9785  2284.0000
 1702.2044    17.2500  2074.0000      .0151    31.4844    54.8340     2.0215  2224.0000
 1702.3568    17.1875  2072.0000      .0337    33.3438    57.2266     2.0488  2224.0000
 1702.5092    17.1250  2072.0000      .0317    32.7500    58.5937     2.0449  2250.0000
 1702.6616    17.8281  2072.0000      .0210    30.7031    57.4219     2.0488  2254.0000
 1702.8140    18.0938  2072.0000      .0405    31.8281    52.0996     2.0215  2234.0000
 1702.9664    18.3438  2072.0000      .0586    33.0000    49.8535     1.9443  2204.0000
 1703.1188    17.6719  2070.0000      .0508    33.2188    54.6875     1.8672  2224.0000
 1703.2712    17.4531  2070.0000      .0186    31.7500    56.8848     1.8428  2244.0000
 1703.4236    17.4531  2070.0000      .0073    31.6563    57.6660     1.8984  2220.0000
 1703.5760    17.4375  2072.0000      .0254    33.1563    55.0781     1.9785  2234.0000
 1703.7284    17.4531  2072.0000      .0435    36.7500    56.7383     2.0156  2220.0000
 1703.8808    17.5156  2072.0000      .0596    39.1563    57.6172     2.0332  2244.0000
 1704.0332    17.5625  2072.0000      .0742    39.1875    59.6191     2.0430  2244.0000
 1704.1856    17.6719  2070.0000      .0596    37.9688    55.0781     2.0254  2230.0000
 1704.3380    17.7969  2070.0000      .0620    35.3125    54.5898     2.0293  2224.0000
 1704.4904    17.7344  2070.0000      .0527    37.3750    52.1973     2.0059  2230.0000
 1704.6428    17.7188  2070.0000      .0503    37.9063    52.4414     1.9912  2230.0000
 1704.7952    17.6875  2068.0000      .0283    36.6875    52.6367     1.9629  2214.0000
 1704.9476    17.5625  2070.0000      .0269    33.1250    53.3203     1.9717  2210.0000
 1705.1000    17.4844  2070.0000      .0396    33.6875    51.6602     2.0098  2234.0000
 1705.2524    17.4844  2070.0000      .0381    34.9063    51.0254     2.0488  2234.0000
 1705.4048    17.4844  2072.0000      .0605    34.4063    52.3926     2.1172  2230.0000
 1705.5572    17.5156  2070.0000      .0347    30.4063    53.8574     2.1094  2220.0000
 1705.7096    17.5156  2070.0000      .0542    30.1094    59.0332     2.1211  2204.0000
 1705.8620    17.5156  2070.0000      .0356    33.2500    58.7891     2.0625  2224.0000
 1706.0144    17.5156  2070.0000      .0435    34.1250    62.9395     2.0449  2244.0000
 1706.1668    17.5625  2070.0000      .0142    33.8438    62.4023     1.9951  2240.0000
 1706.3192    17.5156  2068.0000      .0166    32.3750    61.0840     1.9941  2240.0000
 1706.4716    17.5156  2070.0000      .0234    34.0312    61.3770     1.9980  2234.0000
 1706.6240    17.5156  2070.0000      .0444    37.7500    60.0098     2.0098  2234.0000
