~VERSION INFORMATION
VERS.                                                 2.0:   CWLS Log ASCII Standard-VERSION 2.0
WRAP.                                                  NO:   One line per depth step
~Well Information Block
STRT.M                                           625.0412:   Top Depth
STOP.M                                          4623.7124:   Bottom Depth
STEP.M                                             .15240:   Depth Increment
NULL.                                            -999.250:   Null Value
FLD .                                                   -:   Field Name
WELL.                                              15/2-1:   NAME
WBN .                                              15/2-1:   WELLBORE
NATI.                                                 NOR:   COUNTRY
CTRY.                                                 NOR:   COUNTRY
COMP.                                     NORSK HYDRO A/S:   OPERATOR
PROV.                                                   ?:   PROVINCE
COUN.                                             NORTRYM:   RIG NAME
SPUD.                                          1981/11/26:   SPUD DATE
LATI.                                       58 45 19.57 N:   SURF. LATITUDE
LONG.                                        1 35 40.54 E:   SURF. LONGITUDE
PBWE.                                              15/2-1:   PB WELL ID
APIN.                                              15/2-1:   PB WELLBORE ID
PBWS.                                                 all:   PB WELL NAME SET
~PARAMETER INFORMATION (log)
LNAM.                              FDC/CNL/GR  COMPOSITED:   NAME
LTYP.                                         DEPTH MATCH:   LOG TYPE
LSRV.                                            DEN/NEUT:   LOG SERVICE
LSOU.                                             SPT/NPD:   LOG SOURCE
LVSN.                                                   1:   LOG VERSION
BHIS.                                                   R:   BRIEF HISTORY
FHIS.                                             RAW-LIS:   FULL HISTORY
LCNM.                                        SCHLUMBERGER:   LOGGING CONTRACTOR
TOOL.                             FDC/CNL/GR (COMPOSITED):   TOOL STRING
~Curve Information Block
#MNEM.UNIT                                        API CODE    No Description
#=========                                        ========    == ===========
DEPT.M                                       00 001 00 00:     1  DEPTH
CALI.IN                                                  :     2  Caliper
CS.                                                      :     3  Cable Speed
DRHO.G/CC                                                :     4  Bulk density correction
GR.GAPI                                                  :     5  Gamma Ray
NPHI.%                                                   :     6  Neutron porosity
RHOB.G/CC                                                :     7  Bulk density
TENS.LB                                                  :     8  Cable Tension
~ASCII
# ...
 4605.2720  -999.2500  1429.0000  -999.2500   119.2944    20.2896     2.0626  3835.9131
 4605.4244  -999.2500  1372.0000  -999.2500   117.3074    20.4511     2.0444  3794.6514
 4605.5768  -999.2500  1316.0000  -999.2500   118.6247    20.3201     2.0372  3753.3892
 4605.7292  -999.2500    90.0000  -999.2500   122.2906    19.8302     2.0386  3711.9951
 4605.8816  -999.2500  2230.0000  -999.2500   124.5913    19.4647     2.0394  3692.6167
 4606.0340  -999.2500  -999.2500  -999.2500   123.5403    19.8209     2.0366  3685.2930
 4606.1864  -999.2500  -999.2500  -999.2500   121.7591    19.9972     2.0329  3681.2686
 4606.3388  -999.2500  -999.2500  -999.2500   120.2737    19.7220     2.0319  3677.2441
 4606.4912  -999.2500  -999.2500  -999.2500   120.6697    19.2637     2.0299  3673.2197
 4606.6436  -999.2500  -999.2500  -999.2500   121.4811    19.2949     2.0254  3669.1953
 4606.7960  -999.2500  -999.2500  -999.2500   121.6826    19.8499     2.0243  3659.7129
 4606.9484  -999.2500  -999.2500  -999.2500   121.1791    20.6483     2.0368  3648.7383
 4607.1008  -999.2500  -999.2500  -999.2500   120.4217    20.9712     2.0567  3648.3516
 4607.2532  -999.2500  -999.2500  -999.2500   119.8926    20.9627     2.0594  3648.3516
 4607.4056  -999.2500  -999.2500  -999.2500   122.3530    20.6257     2.0527  3647.6606
 4607.5580  -999.2500  -999.2500  -999.2500   125.4583    20.1700     2.0471  3645.5054
 4607.7104  -999.2500  -999.2500  -999.2500   127.3941    20.2048     2.0449  3643.3501
 4607.8628  -999.2500  -999.2500  -999.2500   127.6454    20.6522     2.0353  3641.1943
 4608.0152  -999.2500  -999.2500  -999.2500   129.2133    20.9210     2.0184  3639.0391
 4608.1676  -999.2500  -999.2500  -999.2500   130.9587    20.8871     2.0078  3636.1851
 4608.3200  -999.2500  -999.2500  -999.2500   130.6493    20.8142     2.0061  3633.0005
 4608.4724  -999.2500  -999.2500  -999.2500   128.9669    20.9541     2.0206  3629.8257
 4608.6248  -999.2500  -999.2500  -999.2500   126.2041    21.5908     2.0383  3626.7368
 4608.7772  -999.2500  -999.2500  -999.2500   125.1206    22.0435     2.0392  3623.7197
 4608.9296  -999.2500  -999.2500  -999.2500   123.9919    22.0565     2.0275  3620.7026
 4609.0820  -999.2500  -999.2500  -999.2500   122.9244    21.6587     2.0208  3619.0146
 4609.2344  -999.2500  -999.2500  -999.2500   122.6948    21.3507     2.0268  3621.7583
 4609.3868  -999.2500  -999.2500  -999.2500   122.1521    21.2526     2.0423  3624.5020
 4609.5392  -999.2500  -999.2500  -999.2500   120.5558    21.3233     2.0536  3627.2456
 4609.6916  -999.2500  -999.2500  -999.2500   117.7520    21.3536     2.0560  3626.6660
 4609.8440  -999.2500  -999.2500  -999.2500   115.0300    21.3211     2.0445  3623.7910
 4609.9964  -999.2500  -999.2500  -999.2500   115.1166    21.0421     2.0265  3620.9160
 4610.1488  -999.2500  -999.2500  -999.2500   116.7567    20.5944     2.0214  3617.0410
 4610.3012  -999.2500  -999.2500  -999.2500   118.5450    20.2911     2.0232  3605.7339
 4610.4536  -999.2500  -999.2500  -999.2500   119.2195    20.2148     2.0227  3594.4268
 4610.6060  -999.2500  -999.2500  -999.2500   119.8068    20.2773     2.0214  3593.4004
 4610.7584  -999.2500  -999.2500  -999.2500   121.6475    20.4244     2.0225  3604.0630
 4610.9108  -999.2500  -999.2500  -999.2500   123.5040    20.6868     2.0321  3614.7251
 4611.0632  -999.2500  -999.2500  -999.2500   124.5439    20.9070     2.0431  3620.7256
 4611.2156  -999.2500  -999.2500  -999.2500   125.1680    21.3545     2.0424  3624.2754
 4611.3680  -999.2500  -999.2500  -999.2500   127.1158    21.6689     2.0308  3627.8247
 4611.5204  -999.2500  -999.2500  -999.2500   129.3472    21.5261     2.0220  3602.8491
 4611.6728  -999.2500  -999.2500  -999.2500   129.0190    21.0960     2.0241  3603.0801
 4611.8252  -999.2500  -999.2500  -999.2500   125.4929    20.4488     2.0298  3608.0049
 4611.9776  -999.2500  -999.2500  -999.2500   121.1474    20.0068     2.0239  3595.9473
 4612.1300  -999.2500  -999.2500  -999.2500   118.0525    19.9162     2.0081  3584.6411
 4612.2824  -999.2500  -999.2500  -999.2500   117.1646    20.3862     1.9999  3572.6021
 4612.4348  -999.2500  -999.2500  -999.2500   119.1373    21.0623     2.0055  3568.6763
 4612.5872  -999.2500  -999.2500  -999.2500   122.1557    21.1900     2.0309  3572.6982
 4612.7396  -999.2500  -999.2500  -999.2500   124.2754    20.5520     2.0559  3576.7202
 4612.8920  -999.2500  -999.2500  -999.2500   124.3038    19.6990     2.0621  3581.9062
 4613.0444  -999.2500  -999.2500  -999.2500   123.6354    19.5274     2.0489  3587.9463
 4613.1968  -999.2500  -999.2500  -999.2500   124.8378    20.0065     2.0400  3578.7236
 4613.3492  -999.2500  -999.2500  -999.2500   126.1752    20.6961     2.0480  3568.2290
 4613.5016  -999.2500  -999.2500  -999.2500   125.6869    20.9341     2.0630  3557.7349
 4613.6540  -999.2500  -999.2500  -999.2500   125.0295    20.9341     2.0743  3549.6455
 4613.8064  -999.2500  -999.2500  -999.2500   124.7039    20.9640     2.0811  3559.7163
 4613.9588  -999.2500  -999.2500  -999.2500   125.0031    21.1294     2.0789  3565.9341
 4614.1112  -999.2500  -999.2500  -999.2500   126.4155    21.5736     2.0591  3547.3813
 4614.2636  -999.2500  -999.2500  -999.2500   128.2160    21.8095     2.0419  3528.8281
 4614.4160  -999.2500  -999.2500  -999.2500   130.0298    21.5420     2.0324  3526.0063
 4614.5684  -999.2500  -999.2500  -999.2500   130.8670    20.7931     2.0272  3523.4927
 4614.7208  -999.2500  -999.2500  -999.2500   130.9094    19.8855     2.0228  3520.9790
 4614.8732  -999.2500  -999.2500  -999.2500   130.9517    19.8506     2.0204  3518.4170
 4615.0256  -999.2500  -999.2500  -999.2500   130.9941    20.7563     2.0204  3508.3301
 4615.1780  -999.2500  -999.2500  -999.2500   131.0364    21.1888     2.0197  3498.2759
 4615.3304  -999.2500  -999.2500  -999.2500   131.0541    21.0199     2.0204  3488.7295
 4615.4828  -999.2500  -999.2500  -999.2500   131.0644    20.1766     2.0292  3496.2759
 4615.6352  -999.2500  -999.2500  -999.2500   131.0747    19.5817     2.0485  3503.8228
 4615.7876  -999.2500  -999.2500  -999.2500   131.0849    19.4206     2.0664  3503.0752
 4615.9400  -999.2500  -999.2500  -999.2500   131.0952    19.5936     2.0739  3488.8750
 4616.0924  -999.2500  -999.2500  -999.2500   131.1055    20.1236     2.0705  3474.6753
 4616.2448  -999.2500  -999.2500  -999.2500   131.1157    20.5418     2.0592  3466.2368
 4616.3972  -999.2500  -999.2500  -999.2500   131.1260    20.7948     2.0556  3462.2153
 4616.5496  -999.2500  -999.2500  -999.2500   131.1363    20.9375     2.0566  3458.9150
 4616.7020  -999.2500  -999.2500  -999.2500   131.1465    21.0457     2.0549  3463.2256
 4616.8544  -999.2500  -999.2500  -999.2500   131.1568    21.0539     2.0401  3467.5361
 4617.0068  -999.2500  -999.2500  -999.2500   131.1671    21.0539     2.0237  3451.6465
 4617.1592  -999.2500  -999.2500  -999.2500   131.1773    21.0539     2.0213  3429.6968
 4617.3116  -999.2500  -999.2500  -999.2500   131.1876    21.0539     2.0344  3418.5820
 4617.4640  -999.2500  -999.2500  -999.2500   131.1978    21.0539     2.0520  3418.5820
 4617.6164  -999.2500  -999.2500  -999.2500   131.2081    21.0358     2.0628  3418.5820
 4617.7688  -999.2500  -999.2500  -999.2500   131.2184    20.9940     2.0602  3418.5820
 4617.9212  -999.2500  -999.2500  -999.2500   131.2287    20.9940     2.0509  3415.5527
 4618.0736  -999.2500  -999.2500  -999.2500   131.2390    21.0240     2.0481  3395.4438
 4618.2260  -999.2500  -999.2500  -999.2500   131.2492    21.0539     2.0598  3375.3345
 4618.3784  -999.2500  -999.2500  -999.2500   131.2529    20.9712     2.0631  3368.6318
 4618.5308  -999.2500  -999.2500  -999.2500   131.2423    20.9940     2.0525  3368.4385
 4618.6832  -999.2500  -999.2500  -999.2500   131.2315    20.9940     2.0496  3353.3667
 4618.8356  -999.2500  -999.2500  -999.2500   131.2208    20.9940     2.0612  3338.2944
 4618.9880  -999.2500  -999.2500  -999.2500   131.2100    21.0240     2.0679  3323.1743
