~VERSION INFORMATION
VERS.                                                 2.0:   CWLS Log ASCII Standard-VERSION 2.0
WRAP.                                                  NO:   One line per depth step
~Well Information Block
STRT.M                                           625.0412:   Top Depth
STOP.M                                          4623.7124:   Bottom Depth
STEP.M                                             .15240:   Depth Increment
NULL.                                            -999.250:   Null Value
FLD .                                                   -:   Field Name
WELL.                                              15/2-1:   NAME
WBN .                                              15/2-1:   WELLBORE
NATI.                                                 NOR:   COUNTRY
CTRY.                                                 NOR:   COUNTRY
COMP.                                     NORSK HYDRO A/S:   OPERATOR
PROV.                                                   ?:   PROVINCE
COUN.                                             NORTRYM:   RIG NAME
SPUD.                                          1981/11/26:   SPUD DATE
LATI.                                       58 45 19.57 N:   SURF. LATITUDE
LONG.                                        1 35 40.54 E:   SURF. LONGITUDE
PBWE.                                              15/2-1:   PB WELL ID
APIN.                                              15/2-1:   PB WELLBORE ID
PBWS.                                                 all:   PB WELL NAME SET
~PARAMETER INFORMATION (log)
LNAM.                              FDC/CNL/GR  COMPOSITED:   NAME
LTYP.                                         DEPTH MATCH:   LOG TYPE
LSRV.                                            DEN/NEUT:   LOG SERVICE
LSOU.                                             SPT/NPD:   LOG SOURCE
LVSN.                                                   1:   LOG VERSION
BHIS.                                                   R:   BRIEF HISTORY
FHIS.                                             RAW-LIS:   FULL HISTORY
LCNM.                                        SCHLUMBERGER:   LOGGING CONTRACTOR
TOOL.                             FDC/CNL/GR (COMPOSITED):   TOOL STRING
~Curve Information Block
#MNEM.UNIT                                        API CODE    No Description
#=========                                        ========    == ===========
DEPT.M                                       00 001 00 00:     1  DEPTH
CALI.IN                                                  :     2  Caliper
CS.                                                      :     3  Cable Speed
DRHO.G/CC                                                :     4  Bulk density correction
GR.GAPI                                                  :     5  Gamma Ray
NPHI.%                                                   :     6  Neutron porosity
RHOB.G/CC                                                :     7  Bulk density
TENS.LB                                                  :     8  Cable Tension
~ASCII
# ...
 3814.7732     9.5469  1966.0000     -.0112    95.2500    35.1074     2.4102  3694.0000
 3814.9256     9.7578  1967.0000     -.0264    98.2500    33.1543     2.3809  3664.0000
 3815.0780    10.1328  1967.0000     -.0488    93.6875    31.9824     2.3535  3660.0000
 3815.2304    10.1484  1967.0000     -.0615    91.3750    31.2988     2.3281  3624.0000
 3815.3828    10.1484  1964.0000     -.0527    91.0000    32.5195     2.3281  3634.0000
 3815.5352    10.1094  1962.0000     -.0571    85.7500    35.0098     2.3203  3714.0000
 3815.6876    10.0000  1961.0000     -.0566    79.6250    37.2070     2.3242  3900.0000
 3815.8400     9.9609  1961.0000     -.0625    72.0000    39.7461     2.3223  3994.0000
 3815.9924     9.9609  1962.0000     -.0669    71.0000    39.6973     2.3281  3954.0000
 3816.1448     9.9609  1963.0000     -.0645    70.6250    43.0664     2.3379  3910.0000
 3816.2972     9.9687  1964.0000     -.0620    68.5000    44.5312     2.3457  3814.0000
 3816.4496     9.9609  1964.0000     -.0562    64.5625    45.2637     2.3730  3780.0000
 3816.6020     9.7578  1965.0000     -.0327    64.0625    43.4570     2.4395  3754.0000
 3816.7544     9.7969  1964.0000     -.0210    58.6563    41.2598     2.5215  3674.0000
 3816.9068     9.6641  1960.0000     -.0078    57.1250    39.3066     2.5312  3620.0000
 3817.0592     9.6641  1959.0000     -.0137    51.0000    37.7930     2.4902  3590.0000
 3817.2116     9.6641  1959.0000     -.0142    49.0312    35.0586     2.4375  3520.0000
 3817.3640     9.6641  1958.0000     -.0112    45.7500    34.6191     2.4453  3414.0000
 3817.5164     9.6953  1958.0000     -.0107    46.7813    31.7383     2.4531  3504.0000
 3817.6688     9.7109  1956.0000     -.0054    47.2813    31.7383     2.4785  3734.0000
 3817.8212     9.7344  1951.0000     -.0054    47.0000    29.7363     2.4785  4752.0000
 3817.9736     9.7344  1949.0000      .0015    43.9375    30.7129     2.4941  4740.0000
 3818.1260     9.7500  1947.0000     -.0015    42.6250    28.3691     2.4785  4688.0000
 3818.2784     9.7500  1949.0000     -.0054    40.3750    28.6133     2.4668  4612.0000
 3818.4308     9.7578  1950.0000     -.0044    36.0000    26.4160     2.4648  4524.0000
 3818.5832     9.7734  1951.0000     -.0024    33.1563    27.0508     2.4648  4472.0000
 3818.7356     9.7734  1953.0000      .0132    32.2500    27.7832     2.4824  4468.0000
 3818.8880     9.7734  1955.0000      .0181    35.3438    31.6895     2.4902  4408.0000
 3819.0404     9.7734  1955.0000      .0103    34.1563    31.2500     2.4785  4364.0000
 3819.1928     9.7734  1957.0000     -.0054    32.4687    30.9082     2.4609  4300.0000
 3819.3452     9.7734  1955.0000     -.0083    32.0000    28.3203     2.4414  4272.0000
 3819.4976     9.7734  1954.0000      .0054    35.8438    28.5156     2.4746  4200.0000
 3819.6500     9.7734  1954.0000      .0112    38.6563    26.7578     2.4805  4148.0000
 3819.8024     9.7578  1954.0000      .0005    41.0625    26.2207     2.4824  4074.0000
 3819.9548     9.7578  1954.0000     -.0107    38.5625    27.4902     2.4687  4020.0000
 3820.1072     9.7578  1954.0000     -.0156    39.2813    27.6367     2.4707  3970.0000
 3820.2596     9.7578  1953.0000     -.0151    35.7500    26.1230     2.5137  3920.0000
 3820.4120     9.7500  1950.0000     -.0098    36.3750    21.6309     2.5488  3874.0000
 3820.5644     9.9375  1946.0000      .0063    35.3750    19.0918     2.5879  3840.0000
 3820.7168     9.9609  1943.0000      .0088    34.6562    20.9473     2.5566  3760.0000
 3820.8692     9.9609  1940.0000      .0063    34.7188    25.3418     2.5371  3764.0000
 3821.0216     9.9609  1938.0000      .0029    34.6562    28.7109     2.5332  3740.0000
 3821.1740     9.9453  1935.0000      .0068    38.0937    29.1504     2.5449  3740.0000
 3821.3264     9.9609  1932.0000     -.0039    37.6563    29.0527     2.5410  3770.0000
 3821.4788     9.9453  1928.0000     -.0146    33.4062    26.7578     2.5410  3890.0000
 3821.6312     9.9453  1924.0000     -.0195    27.1250    27.0508     2.5781  3970.0000
 3821.7836     9.9609  1920.0000     -.0117    27.2344    27.1484     2.6367  3914.0000
 3821.9360    10.0000  1915.0000      .0073    33.8750    27.7832     2.6895  3884.0000
 3822.0884    10.0859  1913.0000      .0044    40.4687    25.9277     2.6465  3824.0000
 3822.2408    10.1563  1912.0000      .0151    44.9063    23.6816     2.6211  3764.0000
 3822.3932    10.1953  1913.0000      .0215    44.4375    28.6133     2.5977  3750.0000
 3822.5456    10.1953  1914.0000      .0337    47.7188    29.0039     2.5918  3704.0000
 3822.6980    10.2109  1914.0000      .0034    45.0938    32.0313     2.5215  3720.0000
 3822.8504    10.3672  1913.0000     -.0181    44.2813    29.0527     2.4902  3754.0000
 3823.0028    10.0859  1913.0000     -.0322    39.4688    29.4922     2.5020  3834.0000
 3823.1552    10.0703  1911.0000     -.0127    37.7188    28.1250     2.5879  3890.0000
 3823.3076    10.1484  1910.0000     -.0034    38.3438    26.8066     2.6211  3834.0000
 3823.4600    10.1953  1910.0000     -.0005    36.5938    25.8301     2.6504  3744.0000
 3823.6124    10.1953  1910.0000      .0034    39.9687    24.6582     2.6523  3784.0000
 3823.7648    10.2812  1910.0000      .0112    40.4687    25.0977     2.6738  3780.0000
 3823.9172    10.3672  1911.0000      .0293    41.4375    24.6582     2.6523  3764.0000
 3824.0696    10.4531  1911.0000      .0024    36.9688    27.0020     2.6230  3760.0000
 3824.2220    10.4688  1910.0000      .0034    36.5625    26.7578     2.6211  3744.0000
 3824.3744    10.4922  1911.0000      .0098    35.8438    30.5664     2.6602  3724.0000
 3824.5268    10.5078  1910.0000      .0151    35.1563    29.6875     2.6484  3744.0000
 3824.6792    10.5312  1909.0000      .0220    32.6563    30.3223     2.6641  3784.0000
 3824.8316    10.5937  1909.0000      .0088    34.7188    27.9785     2.6387  3864.0000
 3824.9840    11.1016  1910.0000     -.0015    38.5625    28.1250     2.6152  3934.0000
 3825.1364    11.7734  1910.0000     -.0010    38.5625    27.1484     2.5664  3874.0000
 3825.2888    10.5312  1911.0000      .0010    39.5000    27.0996     2.5098  3830.0000
 3825.4412    10.4844  1911.0000      .0073    40.5000    26.0254     2.4961  3764.0000
 3825.5936    10.4922  1911.0000      .0024    40.4687    26.2695     2.4824  3784.0000
 3825.7460    10.4922  1911.0000     -.0083    38.7187    26.3672     2.4766  3794.0000
 3825.8984    10.4844  1911.0000     -.0132    37.9375    25.3418     2.4551  3740.0000
 3826.0508    10.4844  1911.0000     -.0122    37.9375    23.5840     2.4531  3740.0000
 3826.2032    10.4844  1912.0000     -.0059    38.0937    22.0215     2.4805  3800.0000
 3826.3556    10.4922  1912.0000     -.0034    38.4062    25.1953     2.5215  3884.0000
 3826.5080    10.4922  1912.0000     -.0044    40.4375    30.0293     2.5547  3844.0000
 3826.6604    10.9375  1912.0000     -.0020    42.0625    34.0332     2.5664  3764.0000
 3826.8128    10.9922  1913.0000      .0049    40.0000    33.4473     2.5664  3734.0000
 3826.9652    10.4453  1915.0000     -.0073    36.7813    33.3008     2.5352  3710.0000
 3827.1176    10.3828  1913.0000     -.0044    34.7500    34.4238     2.5508  3740.0000
 3827.2700    10.4531  1913.0000     -.0073    35.5937    34.9121     2.5645  3780.0000
 3827.4224    10.5703  1913.0000     -.0024    41.0000    32.9102     2.6035  3814.0000
 3827.5748    11.2500  1913.0000     -.0132    43.2812    32.3730     2.5879  3764.0000
 3827.7272    11.7578  1912.0000     -.0063    46.0000    33.4961     2.6035  3690.0000
 3827.8796    11.7734  1912.0000     -.0200    42.8125    34.5703     2.5742  3684.0000
 3828.0320    11.7734  1912.0000     -.0098    40.7812    34.4238     2.5879  3690.0000
 3828.1844    11.7812  1909.0000     -.0234    40.0313    33.8379     2.5566  3800.0000
 3828.3368    11.8125  1907.0000     -.0146    42.0938    34.3262     2.5684  4140.0000
 3828.4892    11.7969  1907.0000     -.0322    47.1562    33.4961     2.5234  4104.0000
