~VERSION INFORMATION
VERS.                                                 2.0:   CWLS Log ASCII Standard-VERSION 2.0
WRAP.                                                  NO:   One line per depth step
~Well Information Block
STRT.M                                           625.0412:   Top Depth
STOP.M                                          4623.7124:   Bottom Depth
STEP.M                                             .15240:   Depth Increment
NULL.                                            -999.250:   Null Value
FLD .                                                   -:   Field Name
WELL.                                              15/2-1:   NAME
WBN .                                              15/2-1:   WELLBORE
NATI.                                                 NOR:   COUNTRY
CTRY.                                                 NOR:   COUNTRY
COMP.                                     NORSK HYDRO A/S:   OPERATOR
PROV.                                                   ?:   PROVINCE
COUN.                                             NORTRYM:   RIG NAME
SPUD.                                          1981/11/26:   SPUD DATE
LATI.                                       58 45 19.57 N:   SURF. LATITUDE
LONG.                                        1 35 40.54 E:   SURF. LONGITUDE
PBWE.                                              15/2-1:   PB WELL ID
APIN.                                              15/2-1:   PB WELLBORE ID
PBWS.                                                 all:   PB WELL NAME SET
~PARAMETER INFORMATION (log)
LNAM.                              FDC/CNL/GR  COMPOSITED:   NAME
LTYP.                                         DEPTH MATCH:   LOG TYPE
LSRV.                                            DEN/NEUT:   LOG SERVICE
LSOU.                                             SPT/NPD:   LOG SOURCE
LVSN.                                                   1:   LOG VERSION
BHIS.                                                   R:   BRIEF HISTORY
FHIS.                                             RAW-LIS:   FULL HISTORY
LCNM.                                        SCHLUMBERGER:   LOGGING CONTRACTOR
TOOL.                             FDC/CNL/GR (COMPOSITED):   TOOL STRING
~Curve Information Block
#MNEM.UNIT                                        API CODE    No Description
#=========                                        ========    == ===========
DEPT.M                                       00 001 00 00:     1  DEPTH
CALI.IN                                                  :     2  Caliper
CS.                                                      :     3  Cable Speed
DRHO.G/CC                                                :     4  Bulk density correction
GR.GAPI                                                  :     5  Gamma Ray
NPHI.%                                                   :     6  Neutron porosity
RHOB.G/CC                                                :     7  Bulk density
TENS.LB                                                  :     8  Cable Tension
~ASCII
# ...
 1152.0404    19.4063  2142.0000      .0308    58.2188    48.8281     2.0332  1705.0000
 1152.1928    18.9531  2142.0000      .0200    58.5625    53.5645     2.0137  1705.0000
 1152.3452    20.3750  2142.0000      .0288    63.9375    50.9766     2.0078  1690.0000
 1152.4976    20.9688  2144.0000      .0439    64.8125    51.3672     2.0156  1710.0000
 1152.6500    20.5313  2144.0000      .0547    66.2500    44.9219     2.0039  1690.0000
 1152.8024    18.7031  2144.0000      .0449    62.0312    48.5840     1.9971  1710.0000
 1152.9548    18.4844  2144.0000      .0518    60.9062    47.8516     2.0098  1700.0000
 1153.1072    18.5938  2144.0000      .0547    57.6250    46.3379     2.0293  1715.0000
 1153.2596    18.3750  2144.0000      .0547    55.5937    49.4629     2.0391  1685.0000
 1153.4120    19.0625  2144.0000      .0366    58.9062    45.9961     2.0195  1725.0000
 1153.5644    18.2031  2144.0000      .0220    61.5625    51.5625     2.0117  1660.0000
 1153.7168    18.4063  2144.0000      .0420    65.6875    46.0449     2.0312  1715.0000
 1153.8692    19.3750  2142.0000      .0371    64.5000    49.9512     2.0176  1730.0000
 1154.0216    19.8281  2142.0000      .0488    63.4375    47.6074     2.0098  1675.0000
 1154.1740    19.6406  2144.0000      .0317    62.5625    54.1992     1.9678  1740.0000
 1154.3264    20.3750  2146.0000      .0479    66.3125    54.1504     1.9746  1675.0000
 1154.4788    20.6094  2146.0000      .0508    67.6250    56.2012     1.9824  1700.0000
 1154.6312    19.8281  2144.0000      .0586    66.1875    55.3711     2.0117  1700.0000
 1154.7836    18.7344  2144.0000      .0752    64.5000    56.3965     2.0527  1730.0000
 1154.9360    18.7813  2144.0000      .0830    64.2500    53.3691     2.0566  1695.0000
 1155.0884    18.5781  2146.0000      .0659    63.2812    51.8066     2.0410  1740.0000
 1155.2408    18.8125  2144.0000      .0498    60.2812    45.5566     2.0039  1685.0000
 1155.3932    20.2031  2144.0000      .0444    55.7812    45.3125     2.0020  1725.0000
 1155.5456    21.7813  2144.0000      .0537    59.1250    47.4609     2.0020  1705.0000
 1155.6980    20.8438  2144.0000      .0366    57.0000    52.0996     1.9766  1735.0000
 1155.8504    18.7969  2144.0000      .0088    60.2188    56.5430     1.9414  1695.0000
 1156.0028    19.7031  2144.0000      .0156    56.2187    50.8789     1.9385  1685.0000
 1156.1552    19.1406  2146.0000      .0342    57.6562    52.7832     1.9541  1685.0000
 1156.3076    18.5469  2146.0000      .0864    57.4687    51.1230     2.0059  1710.0000
 1156.4600    18.9531  2146.0000      .0659    59.1250    52.2949     1.9951  1715.0000
 1156.6124    20.0938  2146.0000      .0366    59.4688    47.9492     1.9824  1645.0000
 1156.7648    20.1094  2146.0000      .0239    59.0938    45.8496     1.9727  1740.0000
 1156.9172    19.7188  2146.0000      .0371    56.2813    49.4141     1.9951  1705.0000
 1157.0696    19.8125  2146.0000      .0605    55.0625    48.9746     2.0215  1725.0000
 1157.2220    18.6563  2146.0000      .0410    53.2812    50.3418     2.0000  1705.0000
 1157.3744    18.3125  2144.0000      .0420    56.0625    45.3125     1.9834  1715.0000
 1157.5268    18.1719  2144.0000      .0269    57.8125    48.7793     1.9648  1730.0000
 1157.6792    18.3125  2144.0000      .0386    57.1562    49.9023     1.9883  1670.0000
 1157.8316    18.4375  2146.0000      .0293    58.8750    54.0039     1.9980  1740.0000
 1157.9840    18.5000  2146.0000      .0474    57.1562    53.8086     2.0234  1720.0000
 1158.1364    18.5469  2144.0000      .0347    62.1250    54.5898     2.0078  1705.0000
 1158.2888    18.5000  2144.0000      .0391    61.0313    56.4453     2.0020  1685.0000
 1158.4412    18.5156  2142.0000      .0332    62.5313    52.3926     1.9941  1705.0000
 1158.5936    18.6094  2142.0000      .0420    57.7188    49.1699     2.0000  1695.0000
 1158.7460    18.1875  2142.0000      .0415    59.1563    45.7031     2.0000  1715.0000
 1158.8984    18.0938  2142.0000      .0474    58.8125    49.4629     2.0098  1705.0000
 1159.0508    18.0938  2142.0000      .0488    62.2188    50.4395     2.0078  1650.0000
 1159.2032    18.1094  2142.0000      .0474    61.9688    51.0254     2.0176  1705.0000
 1159.3556    18.0938  2144.0000      .0405    66.1250    47.8516     2.0098  1740.0000
 1159.5080    18.2031  2146.0000      .0513    65.0000    46.9238     2.0352  1690.0000
 1159.6604    18.1875  2144.0000      .0537    60.1562    46.9727     2.0371  1725.0000
 1159.8128    18.0938  2142.0000      .0483    53.2500    46.1426     2.0332  1675.0000
 1159.9652    17.7813  2144.0000      .0293    45.2500    44.7754     2.0312  1720.0000
 1160.1176    17.6250  2144.0000      .0098    37.6875    40.1855     2.0332  1725.0000
 1160.2700    17.6094  2144.0000      .0034    27.1406    42.4805     2.0469  1715.0000
 1160.4224    17.6094  2144.0000     -.0029    23.1875    41.7480     2.0410  1690.0000
 1160.5748    17.6094  2142.0000      .0049    20.1875    41.9922     2.0547  1700.0000
 1160.7272    17.6406  2142.0000      .0054    19.0000    36.1328     2.0664  1680.0000
 1160.8796    17.6406  2144.0000      .0059    15.9922    36.6211     2.0723  1710.0000
 1161.0320    17.6250  2144.0000      .0063    16.5938    35.6445     2.0723  1685.0000
 1161.1844    17.6250  2144.0000      .0083    17.4531    37.2559     2.0625  1680.0000
 1161.3368    17.6094  2144.0000      .0020    17.1563    35.6934     2.0605  1690.0000
 1161.4892    17.6406  2144.0000      .0015    15.9688    33.1055     2.0703  1690.0000
 1161.6416    17.6406  2142.0000      .0000    17.2188    30.4199     2.0703  1695.0000
 1161.7940    17.6406  2142.0000      .0068    17.2031    32.0313     2.0801  1705.0000
 1161.9464    17.6406  2142.0000      .0132    16.2969    32.5195     2.0762  1655.0000
 1162.0988    17.6406  2142.0000      .0005    15.3906    35.2051     2.0684  1710.0000
 1162.2512    17.6250  2142.0000     -.0049    16.0000    33.3496     2.0625  1690.0000
 1162.4036    17.6250  2140.0000     -.0151    19.3438    34.6191     2.0527  1700.0000
 1162.5560    17.6406  2140.0000     -.0161    18.1250    35.7422     2.0586  1705.0000
 1162.7084    17.6406  2142.0000     -.0107    18.0938    36.8164     2.0684  1705.0000
 1162.8608    17.6406  2142.0000      .0010    15.6797    38.6230     2.0742  1700.0000
 1163.0132    17.6563  2140.0000      .0278    16.2813    37.1582     2.0898  1690.0000
 1163.1656    17.7344  2140.0000      .0347    17.8281    37.3535     2.0859  1675.0000
 1163.3180    17.8438  2140.0000      .0234    18.7031    36.0840     2.0742  1725.0000
 1163.4704    17.8906  2140.0000     -.0005    18.4219    36.3770     2.0488  1665.0000
 1163.6228    17.8750  2140.0000      .0132    19.3281    36.3770     2.0625  1675.0000
 1163.7752    17.8750  2140.0000      .0093    19.6406    36.8652     2.0547  1675.0000
 1163.9276    17.7969  2140.0000      .0029    21.7344    37.3047     2.0449  1695.0000
 1164.0800    17.9375  2140.0000     -.0112    25.6406    40.7715     2.0117  1720.0000
 1164.2324    18.1094  2140.0000     -.0044    37.1250    40.6738     1.9893  1695.0000
 1164.3848    17.7500  2142.0000      .0420    47.9687    41.6504     2.0156  1695.0000
 1164.5372    17.9531  2142.0000      .0850    58.1563    38.6719     2.0469  1650.0000
 1164.6896    18.0313  2142.0000      .0996    62.6875    41.2109     2.0605  1720.0000
 1164.8420    17.8906  2140.0000      .0845    64.3125    45.0195     2.0488  1700.0000
 1164.9944    18.1406  2140.0000      .0806    69.5000    47.0703     2.0566  1695.0000
 1165.1468    18.2031  2142.0000      .0781    72.5000    46.8750     2.0703  1705.0000
 1165.2992    18.2031  2142.0000      .0610    75.0625    46.4844     2.0527  1720.0000
 1165.4516    18.2500  2142.0000      .0449    72.3125    45.7031     2.0312  1775.0000
 1165.6040    18.1250  2142.0000      .0278    64.2500    45.2637     2.0176  1685.0000
 1165.7564    17.8906  2142.0000      .0205    50.6875    39.3555     2.0273  1700.0000
