~VERSION INFORMATION
VERS.                                                 2.0:   CWLS Log ASCII Standard-VERSION 2.0
WRAP.                                                  NO:   One line per depth step
~Well Information Block
STRT.M                                           625.0412:   Top Depth
STOP.M                                          4623.7124:   Bottom Depth
STEP.M                                             .15240:   Depth Increment
NULL.                                            -999.250:   Null Value
FLD .                                                   -:   Field Name
WELL.                                              15/2-1:   NAME
WBN .                                              15/2-1:   WELLBORE
NATI.                                                 NOR:   COUNTRY
CTRY.                                                 NOR:   COUNTRY
COMP.                                     NORSK HYDRO A/S:   OPERATOR
PROV.                                                   ?:   PROVINCE
COUN.                                             NORTRYM:   RIG NAME
SPUD.                                          1981/11/26:   SPUD DATE
LATI.                                       58 45 19.57 N:   SURF. LATITUDE
LONG.                                        1 35 40.54 E:   SURF. LONGITUDE
PBWE.                                              15/2-1:   PB WELL ID
APIN.                                              15/2-1:   PB WELLBORE ID
PBWS.                                                 all:   PB WELL NAME SET
~PARAMETER INFORMATION (log)
LNAM.                              FDC/CNL/GR  COMPOSITED:   NAME
LTYP.                                         DEPTH MATCH:   LOG TYPE
LSRV.                                            DEN/NEUT:   LOG SERVICE
LSOU.                                             SPT/NPD:   LOG SOURCE
LVSN.                                                   1:   LOG VERSION
BHIS.                                                   R:   BRIEF HISTORY
FHIS.                                             RAW-LIS:   FULL HISTORY
LCNM.                                        SCHLUMBERGER:   LOGGING CONTRACTOR
TOOL.                             FDC/CNL/GR (COMPOSITED):   TOOL STRING
~Curve Information Block
#MNEM.UNIT                                        API CODE    No Description
#=========                                        ========    == ===========
DEPT.M                                       00 001 00 00:     1  DEPTH
CALI.IN                                                  :     2  Caliper
CS.                                                      :     3  Cable Speed
DRHO.G/CC                                                :     4  Bulk density correction
GR.GAPI                                                  :     5  Gamma Ray
NPHI.%                                                   :     6  Neutron porosity
RHOB.G/CC                                                :     7  Bulk density
TENS.LB                                                  :     8  Cable Tension
~ASCII
# ...
 3273.9056    13.1094  2060.0000     -.0083    23.8906    16.8457     2.5703  2934.0000
 3274.0580    13.1094  2060.0000     -.0068    24.0625    17.8223     2.5664  2920.0000
 3274.2104    13.1094  2060.0000     -.0020    27.0469    19.7754     2.5703  2860.0000
 3274.3628    13.1094  2060.0000      .0029    27.0000    20.6055     2.5820  2924.0000
 3274.5152    13.1094  2058.0000      .0059    27.9531    18.2129     2.5898  3094.0000
 3274.6676    13.1094  2058.0000      .0161    27.9844    14.6973     2.5957  3294.0000
 3274.8200    13.1094  2058.0000      .0049    29.5625    12.7930     2.5840  3244.0000
 3274.9724    13.1094  2060.0000      .0093    32.0000    14.2090     2.6055  3210.0000
 3275.1248    13.1094  2060.0000      .0073    34.1250    16.7969     2.6016  3150.0000
 3275.2772    13.1094  2058.0000      .0195    35.9062    20.5566     2.5937  3104.0000
 3275.4296    13.1094  2058.0000      .0039    36.3125    21.7285     2.5645  3074.0000
 3275.5820    13.1094  2056.0000     -.0020    35.9688    23.0469     2.5703  3034.0000
 3275.7344    13.1094  2056.0000     -.0015    33.6250    22.1191     2.5762  2974.0000
 3275.8868    13.1484  2058.0000      .0024    29.8438    22.0215     2.5703  2934.0000
 3276.0392    13.1484  2058.0000     -.0010    26.2656    19.4824     2.5547  2890.0000
 3276.1916    13.1484  2058.0000     -.0049    27.0469    17.8711     2.5547  2894.0000
 3276.3440    13.1484  2058.0000      .0044    28.6875    17.8711     2.5742  2950.0000
 3276.4964    13.1484  2058.0000      .0317    32.3750    18.4082     2.5957  3084.0000
 3276.6488    13.1484  2058.0000      .0303    31.6094    18.1152     2.5898  3184.0000
 3276.8012    13.1484  2058.0000      .0083    30.4375    16.7969     2.5684  3114.0000
 3276.9536    13.1484  2056.0000     -.0093    26.7031    16.3086     2.5488  3080.0000
 3277.1060    13.1484  2058.0000      .0068    27.2031    15.6250     2.5781  3030.0000
 3277.2584    13.1484  2060.0000      .0234    26.4844    14.6973     2.5977  2974.0000
 3277.4108    13.1484  2060.0000      .0347    27.0313    15.2832     2.6152  2954.0000
 3277.5632    13.1484  2060.0000      .0239    25.2812    15.6738     2.5996  2964.0000
 3277.7156    13.1484  2062.0000      .0103    24.2969    15.7715     2.5859  2980.0000
 3277.8680    13.1484  2060.0000     -.0005    25.1250    14.5996     2.5742  2994.0000
 3278.0204    13.1484  2060.0000     -.0020    26.3594    14.9414     2.5742  2970.0000
 3278.1728    13.1563  2058.0000     -.0044    28.5938    15.1367     2.5469  2964.0000
 3278.3252    13.1797  2058.0000     -.0054    28.5000    17.1387     2.5449  2970.0000
 3278.4776    13.1797  2060.0000     -.0049    32.0313    17.7246     2.5449  2964.0000
 3278.6300    13.1797  2060.0000     -.0020    34.4063    19.4824     2.5625  2974.0000
 3278.7824    13.1797  2060.0000      .0103    35.9375    19.5313     2.5625  2950.0000
 3278.9348    13.1797  2062.0000      .0166    32.9375    20.5078     2.5664  2990.0000
 3279.0872    13.1953  2062.0000      .0244    29.9219    20.5078     2.5723  2980.0000
 3279.2396    13.2187  2060.0000      .0161    30.0313    21.8262     2.5801  2954.0000
 3279.3920    13.2187  2060.0000     -.0020    33.8125    21.1914     2.5469  2954.0000
 3279.5444    13.2344  2058.0000     -.0039    36.7813    21.7285     2.5469  2954.0000
 3279.6968    13.2344  2058.0000     -.0034    37.6875    20.8984     2.5332  2980.0000
 3279.8492    13.2422  2058.0000     -.0029    37.6250    21.1426     2.5293  2974.0000
 3280.0016    13.2578  2060.0000      .0000    37.3750    20.7031     2.5293  3004.0000
 3280.1540    13.2656  2060.0000      .0054    36.9063    20.0195     2.5449  2950.0000
 3280.3064    13.2656  2062.0000      .0098    35.2812    20.8496     2.5605  2954.0000
 3280.4588    13.2656  2062.0000     -.0024    35.6250    20.2148     2.5332  2904.0000
 3280.6112    13.2656  2060.0000     -.0024    35.1563    20.1172     2.5312  2924.0000
 3280.7636    13.2656  2060.0000      .0127    35.0938    19.2383     2.5508  2984.0000
 3280.9160    13.2656  2060.0000      .0112    35.4688    19.4336     2.5781  3050.0000
 3281.0684    13.2891  2060.0000     -.0010    37.7500    20.3125     2.5566  3004.0000
 3281.2208    13.3359  2062.0000     -.0044    39.0000    21.5820     2.5547  2964.0000
 3281.3732    13.3516  2062.0000      .0044    39.2500    23.3887     2.5703  2910.0000
 3281.5256    13.3516  2062.0000      .0283    40.7812    24.0723     2.6191  2884.0000
 3281.6780    13.3516  2062.0000      .0103    38.8125    23.3398     2.5937  2904.0000
 3281.8304    13.3516  2062.0000      .0083    36.5938    22.9980     2.5898  2954.0000
 3281.9828    13.3359  2060.0000     -.0029    35.6250    23.5352     2.5762  3204.0000
 3282.1352    13.3516  2058.0000     -.0063    38.6250    25.1953     2.5703  3274.0000
 3282.2876    13.3516  2058.0000      .0034    40.4375    24.1699     2.5527  3234.0000
 3282.4400    13.3516  2058.0000      .0000    41.2500    24.7559     2.5293  3204.0000
 3282.5924    13.8672  2058.0000     -.0049    40.5625    23.6816     2.5195  3130.0000
 3282.7448    13.2891  2058.0000     -.0049    41.6875    25.1465     2.5352  3084.0000
 3282.8972    13.2656  2060.0000     -.0054    42.0625    24.7559     2.5410  3034.0000
 3283.0496    13.2813  2062.0000      .0171    43.8438    25.0977     2.5781  2980.0000
 3283.2020    13.2813  2062.0000      .0166    44.0000    24.3164     2.5625  2950.0000
 3283.3544    13.2813  2060.0000      .0576    41.7187    22.9980     2.6035  2910.0000
 3283.5068    13.2813  2058.0000      .0586    42.6250    23.0469     2.5859  2930.0000
 3283.6592    13.2813  2058.0000      .0405    44.8125    22.7539     2.5684  2970.0000
 3283.8116    13.2578  2058.0000      .0103    44.7813    22.9492     2.5137  2970.0000
 3283.9640    13.3281  2060.0000      .0054    45.3438    23.1934     2.4805  2970.0000
 3284.1164    13.3125  2060.0000     -.0093    42.5938    23.7793     2.4277  2920.0000
 3284.2688    13.3281  2060.0000     -.0122    44.1250    22.7051     2.4082  2864.0000
 3284.4212    13.3281  2060.0000     -.0244    39.5938    23.4375     2.3945  2800.0000
 3284.5736    13.3281  2062.0000     -.0200    38.1250    24.5605     2.4004  2860.0000
 3284.7260    13.3125  2058.0000     -.0254    37.5000    26.0254     2.4023  2990.0000
 3284.8784    13.3125  2056.0000     -.0229    37.1562    23.9746     2.3984  3354.0000
 3285.0308    13.3125  2056.0000     -.0273    36.2500    23.5840     2.3945  3324.0000
 3285.1832    13.3281  2056.0000     -.0264    33.2813    22.4121     2.3887  3274.0000
 3285.3356    13.3281  2058.0000     -.0259    32.7812    23.6328     2.4062  3214.0000
 3285.4880    13.3125  2058.0000     -.0215    35.8750    22.5586     2.4473  3180.0000
 3285.6404    13.3125  2060.0000     -.0098    35.5000    23.2422     2.5059  3114.0000
 3285.7928    13.3125  2060.0000      .0088    36.8437    22.9004     2.5645  3090.0000
 3285.9452    13.3125  2060.0000      .0508    36.1875    23.4375     2.6309  3030.0000
 3286.0976    13.3984  2058.0000      .0488    39.6875    23.5840     2.6270  3000.0000
 3286.2500    13.4219  2056.0000      .0386    39.6875    22.6074     2.6250  2924.0000
 3286.4024    13.4219  2056.0000      .0127    39.0312    22.0703     2.5742  2930.0000
 3286.5548    13.4219  2058.0000      .0029    37.6875    21.2402     2.5684  2930.0000
 3286.7072    13.4609  2058.0000     -.0010    39.6562    22.4121     2.5449  2984.0000
 3286.8596    13.4609  2060.0000     -.0005    38.9688    22.6563     2.5332  3010.0000
 3287.0120    13.4688  2060.0000     -.0005    39.0625    22.8027     2.5332  2984.0000
 3287.1644    13.4609  2060.0000      .0049    36.0938    21.7285     2.5430  2954.0000
 3287.3168    13.4609  2060.0000     -.0010    38.9688    22.6563     2.5547  2944.0000
 3287.4692    13.4844  2058.0000      .0229    36.9063    23.4863     2.5625  2924.0000
 3287.6216    14.2031  2056.0000      .0322    36.8750    24.0723     2.5527  2920.0000
