~VERSION INFORMATION
VERS.                                                 2.0:   CWLS Log ASCII Standard-VERSION 2.0
WRAP.                                                  NO:   One line per depth step
~Well Information Block
STRT.M                                           625.0412:   Top Depth
STOP.M                                          4623.7124:   Bottom Depth
STEP.M                                             .15240:   Depth Increment
NULL.                                            -999.250:   Null Value
FLD .                                                   -:   Field Name
WELL.                                              15/2-1:   NAME
WBN .                                              15/2-1:   WELLBORE
NATI.                                                 NOR:   COUNTRY
CTRY.                                                 NOR:   COUNTRY
COMP.                                     NORSK HYDRO A/S:   OPERATOR
PROV.                                                   ?:   PROVINCE
COUN.                                             NORTRYM:   RIG NAME
SPUD.                                          1981/11/26:   SPUD DATE
LATI.                                       58 45 19.57 N:   SURF. LATITUDE
LONG.                                        1 35 40.54 E:   SURF. LONGITUDE
PBWE.                                              15/2-1:   PB WELL ID
APIN.                                              15/2-1:   PB WELLBORE ID
PBWS.                                                 all:   PB WELL NAME SET
~PARAMETER INFORMATION (log)
LNAM.                              FDC/CNL/GR  COMPOSITED:   NAME
LTYP.                                         DEPTH MATCH:   LOG TYPE
LSRV.                                            DEN/NEUT:   LOG SERVICE
LSOU.                                             SPT/NPD:   LOG SOURCE
LVSN.                                                   1:   LOG VERSION
BHIS.                                                   R:   BRIEF HISTORY
FHIS.                                             RAW-LIS:   FULL HISTORY
LCNM.                                        SCHLUMBERGER:   LOGGING CONTRACTOR
TOOL.                             FDC/CNL/GR (COMPOSITED):   TOOL STRING
~Curve Information Block
#MNEM.UNIT                                        API CODE    No Description
#=========                                        ========    == ===========
DEPT.M                                       00 001 00 00:     1  DEPTH
CALI.IN                                                  :     2  Caliper
CS.                                                      :     3  Cable Speed
DRHO.G/CC                                                :     4  Bulk density correction
GR.GAPI                                                  :     5  Gamma Ray
NPHI.%                                                   :     6  Neutron porosity
RHOB.G/CC                                                :     7  Bulk density
TENS.LB                                                  :     8  Cable Tension
~ASCII
# ...
 2219.9072    18.6719  1989.0000      .0444    53.9375    34.6680     2.2324  2720.0000
 2220.0596    18.6719  1989.0000      .0254    54.8437    36.5234     2.2285  2720.0000
 2220.2120    18.7656  1990.0000      .0117    51.3125    38.4277     2.2246  2750.0000
 2220.3644    18.8125  1991.0000     -.0005    46.9688    38.8184     2.2246  2734.0000
 2220.5168    18.8594  1992.0000      .0293    43.6563    37.9883     2.2480  2704.0000
 2220.6692    18.8125  1994.0000      .0396    44.1250    37.0117     2.2617  2684.0000
 2220.8216    18.7656  1992.0000      .0537    48.3125    36.9141     2.2715  2684.0000
 2220.9740    18.7813  1992.0000      .0601    51.2187    35.5469     2.2910  2690.0000
 2221.1264    18.5938  1991.0000      .0601    51.9688    32.1777     2.2734  2684.0000
 2221.2788    18.5156  1991.0000      .0596    51.3125    35.0586     2.2480  2710.0000
 2221.4312    18.5469  1989.0000      .0552    50.2188    35.1074     2.2090  2710.0000
 2221.5836    17.8594  1990.0000      .0464    53.5313    44.0918     2.1719  2704.0000
 2221.7360    17.7969  1990.0000      .0366    59.7813    44.2383     2.1406  2684.0000
 2221.8884    17.7969  1990.0000      .0322    63.5625    51.3184     2.1309  2684.0000
 2222.0408    17.7969  1992.0000      .0464    59.7813    46.8750     2.1484  2694.0000
 2222.1932    17.7969  1991.0000      .0469    55.0625    48.8281     2.1465  2700.0000
 2222.3456    17.7969  1990.0000      .0566    54.5312    47.2656     2.1484  2700.0000
 2222.4980    17.7500  1988.0000      .0513    53.1250    46.8262     2.1426  2720.0000
 2222.6504    17.5781  1988.0000      .0552    51.5938    41.1621     2.1504  2714.0000
 2222.8028    17.5781  1987.0000      .0259    51.7500    37.3535     2.1230  2684.0000
 2222.9552    18.6406  1986.0000      .0205    53.3750    37.8418     2.1289  2704.0000
 2223.1076    19.0938  1988.0000      .0171    54.7500    39.7949     2.1348  2710.0000
 2223.2600    17.9219  1988.0000      .0391    51.8750    42.9199     2.1680  2704.0000
 2223.4124    17.9219  1989.0000      .0557    53.6563    44.1406     2.1738  2694.0000
 2223.5648    17.8438  1990.0000      .0444    52.4063    44.2871     2.1582  2704.0000
 2223.7172    17.8594  1992.0000      .0415    51.2187    43.2617     2.1484  2730.0000
 2223.8696    17.8438  1992.0000      .0259    47.2500    42.7734     2.1328  2730.0000
 2224.0220    17.9063  1992.0000      .0254    45.1875    43.9941     2.1602  2754.0000
 2224.1744    17.9531  1992.0000      .0239    45.0938    41.5527     2.2109  2754.0000
 2224.3268    18.0781  1992.0000      .0332    43.5937    36.9141     2.2734  2730.0000
 2224.4792    18.1094  1990.0000      .0698    46.9375    31.3477     2.3125  2724.0000
 2224.6316    18.0000  1991.0000      .0688    46.0313    30.9082     2.2695  2720.0000
 2224.7840    17.9688  1991.0000      .0254    47.7500    33.6914     2.2285  2730.0000
 2224.9364    17.8438  1992.0000     -.0166    42.5000    33.4473     2.2539  2704.0000
 2225.0888    17.8438  1992.0000     -.0303    39.0000    30.9082     2.3984  2690.0000
 2225.2412    17.8906  1994.0000     -.0059    38.5000    27.0996     2.5977  2704.0000
 2225.3936    17.8750  1993.0000      .0576    38.7813    28.4180     2.7344  2714.0000
 2225.5460    17.7656  1993.0000      .1069    41.0625    30.4199     2.7461  2750.0000
 2225.6984    17.9219  1991.0000      .1157    39.3437    31.0547     2.6777  2744.0000
 2225.8508    18.2031  1991.0000      .1006    43.4062    32.2754     2.5586  2734.0000
 2226.0032    18.2188  1990.0000      .0645    47.0000    37.7441     2.4062  2710.0000
 2226.1556    18.2656  1991.0000      .0503    51.0313    40.7227     2.3223  2704.0000
 2226.3080    18.2656  1991.0000      .0112    53.1563    40.0879     2.2324  2680.0000
 2226.4604    18.1875  1991.0000      .0068    54.2813    41.6992     2.2266  2704.0000
 2226.6128    18.1094  1992.0000     -.0039    57.6250    41.8945     2.2109  2710.0000
 2226.7652    18.1094  1993.0000      .0269    56.6875    42.8223     2.2617  2730.0000
 2226.9176    18.1094  1995.0000      .0376    57.5625    37.5000     2.2695  2734.0000
 2227.0700    18.2188  1993.0000      .0454    54.3437    38.7695     2.2656  2714.0000
 2227.2224    18.1719  1993.0000      .0391    54.5938    40.6738     2.2383  2720.0000
 2227.3748    18.1094  1993.0000      .0342    52.7812    40.2832     2.2246  2730.0000
 2227.5272    18.2188  1992.0000      .0298    52.5313    41.1621     2.2207  2674.0000
 2227.6796    18.2969  1991.0000      .0078    50.0000    40.9668     2.2207  2700.0000
 2227.8320    18.5781  1992.0000      .0083    51.9688    45.1660     2.2266  2704.0000
 2227.9844    18.8594  1992.0000      .0122    56.2813    44.6777     2.2207  2764.0000
 2228.1368    19.5156  1993.0000      .0229    55.0000    45.1660     2.2070  2730.0000
 2228.2892    19.1875  1994.0000      .0127    55.6563    43.1152     2.1816  2724.0000
 2228.4416    19.1406  1994.0000      .0239    54.2187    42.4805     2.1973  2734.0000
 2228.5940    18.3281  1993.0000      .0381    61.5938    43.0664     2.2148  2730.0000
 2228.7464    18.1250  1991.0000      .0459    57.7188    46.3867     2.2461  2730.0000
 2228.8988    18.1250  1990.0000      .0132    51.4688    48.0469     2.2637  2720.0000
 2229.0512    18.1094  1989.0000     -.0029    41.2187    47.3145     2.3340  2700.0000
 2229.2036    18.2188  1989.0000      .0059    36.6563    40.0879     2.4082  2740.0000
 2229.3560    18.4844  1990.0000      .0308    36.0938    34.5703     2.4199  2740.0000
 2229.5084    18.4844  1990.0000      .0410    40.1250    32.3730     2.3516  2740.0000
 2229.6608    18.4531  1991.0000      .0283    41.5938    36.7188     2.3027  2704.0000
 2229.8132    18.2656  1992.0000      .0474    43.0313    40.0391     2.3105  2694.0000
 2229.9656    18.2813  1994.0000      .0566    44.6875    40.3320     2.3203  2724.0000
 2230.1180    18.2813  1994.0000      .0659    48.6563    38.9160     2.3242  2724.0000
 2230.2704    18.1250  1994.0000      .0483    53.3750    39.3066     2.2832  2720.0000
 2230.4228    18.0156  1994.0000      .0396    54.4063    40.0391     2.2520  2710.0000
 2230.5752    18.0469  1993.0000      .0396    57.3437    43.8965     2.2266  2724.0000
 2230.7276    18.0625  1992.0000      .0376    55.3125    45.9961     2.2012  2714.0000
 2230.8800    17.9063  1992.0000      .0264    53.0313    47.7051     2.1895  2734.0000
 2231.0324    17.6875  1993.0000      .0171    48.8750    44.6289     2.1875  2700.0000
 2231.1848    17.7656  1994.0000      .0132    48.7500    40.3320     2.1973  2704.0000
 2231.3372    17.6406  1994.0000      .0298    46.5625    36.8164     2.2344  2710.0000
 2231.4896    17.6563  1996.0000      .0278    44.4063    34.0332     2.2305  2704.0000
 2231.6420    17.6563  1994.0000      .0278    39.5313    31.4941     2.2383  2714.0000
 2231.7944    17.6406  1993.0000      .0234    36.5312    31.9336     2.2383  2734.0000
 2231.9468    17.6406  1992.0000      .0117    36.5312    29.9805     2.2168  2730.0000
 2232.0992    17.6406  1991.0000      .0171    40.1250    30.9082     2.2246  2720.0000
 2232.2516    17.5156  1990.0000      .0063    42.2500    30.7617     2.1992  2704.0000
 2232.4040    17.8438  1990.0000      .0195    47.4687    33.8379     2.2187  2700.0000
 2232.5564    18.0625  1990.0000      .0269    54.2813    37.9395     2.2285  2690.0000
 2232.7088    17.6875  1991.0000      .0327    59.9375    40.7715     2.2168  2700.0000
 2232.8612    17.6875  1992.0000      .0239    62.6562    43.3594     2.1855  2724.0000
 2233.0136    17.7188  1993.0000      .0190    61.0625    43.4082     2.1621  2754.0000
 2233.1660    17.8438  1994.0000      .0229    64.1875    45.2637     2.1738  2724.0000
 2233.3184    17.9531  1994.0000      .0127    59.4063    42.3828     2.1680  2734.0000
 2233.4708    18.0000  1993.0000      .0322    57.8438    41.5527     2.1973  2744.0000
 2233.6232    18.0000  1993.0000      .0381    55.2188    36.5234     2.2109  2714.0000
