~VERSION INFORMATION
VERS.                                                 2.0:   CWLS Log ASCII Standard-VERSION 2.0
WRAP.                                                  NO:   One line per depth step
~Well Information Block
STRT.M                                           625.0412:   Top Depth
STOP.M                                          4623.7124:   Bottom Depth
STEP.M                                             .15240:   Depth Increment
NULL.                                            -999.250:   Null Value
FLD .                                                   -:   Field Name
WELL.                                              15/2-1:   NAME
WBN .                                              15/2-1:   WELLBORE
NATI.                                                 NOR:   COUNTRY
CTRY.                                                 NOR:   COUNTRY
COMP.                                     NORSK HYDRO A/S:   OPERATOR
PROV.                                                   ?:   PROVINCE
COUN.                                             NORTRYM:   RIG NAME
SPUD.                                          1981/11/26:   SPUD DATE
LATI.                                       58 45 19.57 N:   SURF. LATITUDE
LONG.                                        1 35 40.54 E:   SURF. LONGITUDE
PBWE.                                              15/2-1:   PB WELL ID
APIN.                                              15/2-1:   PB WELLBORE ID
PBWS.                                                 all:   PB WELL NAME SET
~PARAMETER INFORMATION (log)
LNAM.                              FDC/CNL/GR  COMPOSITED:   NAME
LTYP.                                         DEPTH MATCH:   LOG TYPE
LSRV.                                            DEN/NEUT:   LOG SERVICE
LSOU.                                             SPT/NPD:   LOG SOURCE
LVSN.                                                   1:   LOG VERSION
BHIS.                                                   R:   BRIEF HISTORY
FHIS.                                             RAW-LIS:   FULL HISTORY
LCNM.                                        SCHLUMBERGER:   LOGGING CONTRACTOR
TOOL.                             FDC/CNL/GR (COMPOSITED):   TOOL STRING
~Curve Information Block
#MNEM.UNIT                                        API CODE    No Description
#=========                                        ========    == ===========
DEPT.M                                       00 001 00 00:     1  DEPTH
CALI.IN                                                  :     2  Caliper
CS.                                                      :     3  Cable Speed
DRHO.G/CC                                                :     4  Bulk density correction
GR.GAPI                                                  :     5  Gamma Ray
NPHI.%                                                   :     6  Neutron porosity
RHOB.G/CC                                                :     7  Bulk density
TENS.LB                                                  :     8  Cable Tension
~ASCII
# ...
 1415.5400    17.6250  2116.0000      .0283    54.1250    52.6855     1.9814  1965.0000
 1415.6924    17.6563  2114.0000      .0488    57.4063    49.9023     2.0039  1970.0000
 1415.8448    17.6719  2114.0000      .0366    56.8125    52.1973     1.9980  1930.0000
 1415.9972    17.6563  2116.0000      .0430    52.9687    51.8066     1.9912  1975.0000
 1416.1496    17.6563  2116.0000      .0049    47.8125    56.5430     1.9883  1950.0000
 1416.3020    17.6406  2118.0000     -.0015    42.4063    54.6387     2.0742  1965.0000
 1416.4544    17.6094  2118.0000      .0425    38.8750    55.9082     2.2285  1950.0000
 1416.6068    17.4688  2116.0000      .0747    45.0000    50.8301     2.1934  1940.0000
 1416.7592    17.4688  2116.0000      .0918    51.0000    51.4160     2.0977  1925.0000
 1416.9116    17.5156  2116.0000      .0293    56.0000    49.3164     1.9648  1925.0000
 1417.0640    17.5156  2118.0000      .0293    54.1250    50.4395     1.9629  1945.0000
 1417.2164    17.6719  2116.0000      .0107    52.3750    45.8984     1.9404  1930.0000
 1417.3688    17.6719  2116.0000      .0181    54.5312    47.1191     1.9443  1955.0000
 1417.5212    17.5156  2116.0000      .0112    52.1250    45.6055     1.9434  1915.0000
 1417.6736    17.6250  2116.0000      .0049    51.4688    49.7559     1.9424  1955.0000
 1417.8260    17.6719  2116.0000      .0010    48.6875    48.5840     1.9482  1985.0000
 1417.9784    17.6719  2118.0000     -.0005    51.3750    53.3691     1.9707  1955.0000
 1418.1308    17.6250  2118.0000      .0225    48.4688    51.4160     2.0371  1930.0000
 1418.2832    17.3594  2118.0000      .0527    46.5000    54.9805     2.1016  1925.0000
 1418.4356    17.2969  2118.0000      .0654    46.7813    49.7559     2.0840  1970.0000
 1418.5880    17.1719  2116.0000      .0317    49.7500    50.2441     2.0195  1955.0000
 1418.7404    17.1719  2116.0000      .0244    52.6562    47.5586     1.9971  1935.0000
 1418.8928    17.1719  2116.0000      .0249    53.0313    48.2422     2.0156  1940.0000
 1419.0452    17.1719  2118.0000      .0200    57.1875    47.5098     1.9971  1960.0000
 1419.1976    17.1719  2116.0000      .0039    59.5938    43.9453     1.9473  1965.0000
 1419.3500    17.2500  2116.0000      .0015    57.4063    48.0469     1.9258  1945.0000
 1419.5024    17.2969  2118.0000      .0176    56.5000    50.7812     1.9297  1915.0000
 1419.6548    17.4688  2118.0000      .0312    54.9375    53.8574     1.9521  1950.0000
 1419.8072    17.6250  2118.0000      .0469    58.0625    52.6855     1.9648  1965.0000
 1419.9596    17.7031  2116.0000      .0547    56.5938    49.1211     1.9883  1935.0000
 1420.1120    17.6719  2116.0000      .0513    56.0937    47.9492     1.9922  1910.0000
 1420.2644    17.5938  2116.0000      .0210    56.0937    53.1738     1.9717  1915.0000
 1420.4168    17.4688  2116.0000      .0195    57.5313    53.3691     1.9648  1970.0000
 1420.5692    17.4688  2118.0000      .0142    61.0937    55.5664     1.9551  1930.0000
 1420.7216    17.4844  2116.0000      .0273    62.8750    48.7793     1.9551  1930.0000
 1420.8740    17.5469  2116.0000      .0479    63.5000    51.7090     1.9727  1950.0000
 1421.0264    17.5625  2118.0000      .0557    57.7188    53.6133     1.9736  1980.0000
 1421.1788    17.5781  2118.0000      .0474    51.0937    52.4414     2.0176  1925.0000
 1421.3312    17.5781  2120.0000      .0312    45.3125    49.4629     2.0742  1940.0000
 1421.4836    17.5781  2120.0000      .0444    45.4063    44.8730     2.1465  1950.0000
 1421.6360    17.5781  2118.0000      .0376    46.3438    46.2891     2.0820  1935.0000
 1421.7884    17.5781  2118.0000      .0312    48.5625    51.6602     2.0078  1950.0000
 1421.9408    17.5000  2118.0000      .0132    50.0625    50.7812     1.9521  1945.0000
 1422.0932    17.5156  2118.0000      .0195    56.6563    51.1230     1.9570  1945.0000
 1422.2456    17.6563  2116.0000      .0171    57.1875    49.3652     1.9541  1965.0000
 1422.3980    17.6719  2116.0000      .0142    58.4688    52.5391     1.9551  1970.0000
 1422.5504    17.6719  2114.0000      .0229    51.5625    50.2441     1.9678  1955.0000
 1422.7028    17.6719  2114.0000      .0215    49.1563    49.7559     1.9717  1950.0000
 1422.8552    17.6875  2114.0000      .0269    49.9063    53.6133     1.9707  1960.0000
 1423.0076    17.6875  2116.0000      .0117    52.5625    59.7168     1.9482  1965.0000
 1423.1600    17.6875  2116.0000      .0103    55.6250    56.9824     1.9355  1945.0000
 1423.3124    17.6875  2114.0000      .0220    52.7188    52.1484     1.9512  1930.0000
 1423.4648    17.6875  2114.0000      .0293    52.4687    47.4121     1.9609  1945.0000
 1423.6172    17.6875  2114.0000      .0293    53.6563    47.4121     1.9590  1980.0000
 1423.7696    17.7344  2114.0000      .0386    52.6875    51.5625     1.9609  1935.0000
 1423.9220    17.7813  2114.0000      .0391    54.8125    53.6621     1.9521  1960.0000
 1424.0744    17.7656  2114.0000      .0635    55.0938    56.5918     1.9902  1955.0000
 1424.2268    17.7656  2114.0000      .0552    57.4063    53.6133     1.9902  1945.0000
 1424.3792    17.7500  2114.0000      .0464    55.8125    56.3477     1.9932  1945.0000
 1424.5316    17.7813  2116.0000      .0161    53.9375    56.5918     1.9658  1955.0000
 1424.6840    17.8281  2116.0000      .0088    52.4687    59.9609     1.9512  1935.0000
 1424.8364    17.8438  2116.0000      .0078    51.3750    59.9609     1.9434  1950.0000
 1424.9888    17.8438  2116.0000      .0068    53.0000    59.8633     1.9395  1985.0000
 1425.1412    17.8438  2116.0000      .0088    55.1562    55.6641     1.9531  1955.0000
 1425.2936    17.8906  2116.0000      .0259    54.5312    50.0000     1.9932  1940.0000
 1425.4460    17.8906  2116.0000      .0327    52.3125    50.8301     2.0137  1975.0000
 1425.5984    17.8438  2116.0000      .0303    49.3750    50.8301     2.0176  1955.0000
 1425.7508    17.8438  2114.0000      .0156    48.8438    52.4414     1.9863  1930.0000
 1425.9032    17.8438  2116.0000      .0161    48.3125    50.5859     1.9717  1920.0000
 1426.0556    17.8438  2116.0000      .0239    48.5000    47.3145     1.9658  1950.0000
 1426.2080    17.8906  2116.0000      .0054    46.8750    49.0723     1.9980  1970.0000
 1426.3604    17.7500  2118.0000      .0259    46.8125    51.8066     2.0762  1940.0000
 1426.5128    17.6875  2116.0000      .0444    44.5625    52.7832     2.1445  1915.0000
 1426.6652    17.8438  2116.0000      .0605    46.7813    49.6582     2.1270  1960.0000
 1426.8176    17.8906  2116.0000      .0410    48.0000    46.7285     2.0723  1980.0000
 1426.9700    17.7813  2116.0000      .0166    49.4375    50.1465     2.0215  1975.0000
 1427.1224    17.5469  2116.0000      .0166    51.1875    49.4629     2.0039  1915.0000
 1427.2748    17.5156  2116.0000      .0186    50.3438    48.5352     1.9980  1980.0000
 1427.4272    17.6094  2116.0000      .0303    51.0313    46.8750     2.0176  2005.0000
 1427.5796    17.6250  2116.0000      .0371    52.4687    49.2676     2.0273  1975.0000
 1427.7320    17.5781  2116.0000      .0220    51.5000    48.6816     2.0137  1930.0000
 1427.8844    17.6250  2116.0000     -.0029    51.3750    50.4395     2.0059  1925.0000
 1428.0368    17.7188  2118.0000     -.0161    46.6563    51.3672     2.0605  1940.0000
 1428.1892    17.8125  2116.0000     -.0073    42.2813    48.9746     2.1777  1980.0000
 1428.3416    18.0313  2116.0000      .0269    36.6250    41.5527     2.3359  1930.0000
 1428.4940    17.8906  2116.0000      .0986    30.0938    33.7891     2.4199  1980.0000
 1428.6464    17.6250  2114.0000      .0864    29.4844    35.2539     2.3164  1950.0000
 1428.7988    17.5469  2114.0000      .0518    28.8906    37.2070     2.1660  1935.0000
 1428.9512    17.5625  2114.0000      .0063    28.9063    41.8457     2.0664  1945.0000
 1429.1036    17.5469  2114.0000      .0049    26.8281    37.7930     2.0586  1950.0000
 1429.2560    17.5625  2112.0000      .0132    28.2344    38.7207     2.0684  1975.0000
