~VERSION INFORMATION
VERS.                                                 2.0:   CWLS Log ASCII Standard-VERSION 2.0
WRAP.                                                  NO:   One line per depth step
~Well Information Block
STRT.M                                           625.0412:   Top Depth
STOP.M                                          4623.7124:   Bottom Depth
STEP.M                                             .15240:   Depth Increment
NULL.                                            -999.250:   Null Value
FLD .                                                   -:   Field Name
WELL.                                              15/2-1:   NAME
WBN .                                              15/2-1:   WELLBORE
NATI.                                                 NOR:   COUNTRY
CTRY.                                                 NOR:   COUNTRY
COMP.                                     NORSK HYDRO A/S:   OPERATOR
PROV.                                                   ?:   PROVINCE
COUN.                                             NORTRYM:   RIG NAME
SPUD.                                          1981/11/26:   SPUD DATE
LATI.                                       58 45 19.57 N:   SURF. LATITUDE
LONG.                                        1 35 40.54 E:   SURF. LONGITUDE
PBWE.                                              15/2-1:   PB WELL ID
APIN.                                              15/2-1:   PB WELLBORE ID
PBWS.                                                 all:   PB WELL NAME SET
~PARAMETER INFORMATION (log)
LNAM.                              FDC/CNL/GR  COMPOSITED:   NAME
LTYP.                                         DEPTH MATCH:   LOG TYPE
LSRV.                                            DEN/NEUT:   LOG SERVICE
LSOU.                                             SPT/NPD:   LOG SOURCE
LVSN.                                                   1:   LOG VERSION
BHIS.                                                   R:   BRIEF HISTORY
FHIS.                                             RAW-LIS:   FULL HISTORY
LCNM.                                        SCHLUMBERGER:   LOGGING CONTRACTOR
TOOL.                             FDC/CNL/GR (COMPOSITED):   TOOL STRING
~Curve Information Block
#MNEM.UNIT                                        API CODE    No Description
#=========                                        ========    == ===========
DEPT.M                                       00 001 00 00:     1  DEPTH
CALI.IN                                                  :     2  Caliper
CS.                                                      :     3  Cable Speed
DRHO.G/CC                                                :     4  Bulk density correction
GR.GAPI                                                  :     5  Gamma Ray
NPHI.%                                                   :     6  Neutron porosity
RHOB.G/CC                                                :     7  Bulk density
TENS.LB                                                  :     8  Cable Tension
~ASCII
  625.0412    19.2969  2238.0000    -1.1934    35.8750    56.9824     1.5264  1195.0000
  625.1936    19.2969  2238.0000    -1.0967    31.4688    53.2227     1.6084  1185.0000
  625.3460    19.2969  2238.0000    -1.1445    31.4688    55.8105     1.5254  1210.0000
  625.4984    19.2969  2238.0000    -1.2227    30.8438    54.1504     1.4414  1180.0000
  625.6508    19.2969  2238.0000    -1.2441    29.8750    55.1758     1.3975  1230.0000
  625.8032    19.2969  2238.0000    -1.1943    29.2969    56.3477     1.4404  1190.0000
  625.9556    19.2969  2236.0000    -1.1211    28.3281    57.3242     1.5186  1190.0000
  626.1080    19.2969  2236.0000    -1.1025    29.2500    58.3008     1.5400  1175.0000
  626.2604    19.2969  2236.0000    -1.1260    29.5469    57.7637     1.5059  1215.0000
  626.4128    19.2969  2236.0000    -1.2246    28.9375    61.1816     1.3955  1190.0000
  626.5652    19.2969  2234.0000    -1.2666    29.9375    58.8867     1.3916  1195.0000
  626.7176    19.2969  2234.0000    -1.3291    31.7813    54.9316     1.3828  1185.0000
  626.8700    19.2969  2234.0000    -1.3262    32.7500    51.2207     1.4932  1185.0000
  627.0224    19.2500  2236.0000    -1.6338    31.1094    53.5156     1.2705  1200.0000
  627.1748    19.2500  2236.0000    -1.7520    31.4531    57.3242     1.2305  1190.0000
  627.3272    19.2500  2236.0000    -1.4609    32.3438    56.0059     1.5508  1200.0000
  627.4796    19.3125  2234.0000    -1.0957    35.8125    52.5391     1.8379  1175.0000
  627.6320    19.3125  2234.0000    -1.0322    32.9688    54.6387     1.8193  1215.0000
  627.7844    19.3281  2234.0000    -1.0166    29.5156    58.4473     1.7695  1165.0000
  627.9368    19.3281  2234.0000    -1.1201    26.3906    58.4473     1.6455  1210.0000
  628.0892    19.3281  2236.0000    -1.1006    27.4687    57.6660     1.6455  1190.0000
  628.2416    19.3125  2234.0000    -1.1816    31.8750    56.6895     1.5107  1205.0000
  628.3940    19.3281  2234.0000    -1.2109    33.0937    59.2285     1.4463  1195.0000
  628.5464    19.3281  2236.0000    -1.1738    33.2813    58.3496     1.4824  1210.0000
  628.6988    19.3281  2236.0000    -1.2344    29.8281    56.1523     1.4414  1180.0000
  628.8512    19.3281  2236.0000    -1.1016    29.8594    54.4922     1.6016  1230.0000
  629.0036    19.3281  2236.0000    -1.1133    31.7656    52.6367     1.5957  1195.0000
  629.1560    19.3281  2236.0000    -1.0117    34.3125    58.1055     1.6826  1230.0000
  629.3084    19.3281  2236.0000    -1.0693    34.5625    58.4473     1.6074  1165.0000
  629.4608    19.3125  2236.0000    -1.1250    33.6250    60.4004     1.5469  1230.0000
  629.6132    19.3281  2236.0000    -1.1133    34.5938    55.6641     1.5957  1200.0000
  629.7656    19.3125  2236.0000    -1.1748    35.0000    57.7637     1.5498  1180.0000
  629.9180    19.3125  2236.0000    -1.2666    31.5938    55.0781     1.4668  1205.0000
  630.0704    19.3281  2236.0000    -1.3037    30.5937    56.8359     1.4111  1190.0000
  630.2228    19.3281  2236.0000    -1.2559    31.7656    56.6895     1.4160  1235.0000
  630.3752    19.3281  2236.0000    -1.0898    34.8750    57.3730     1.5674  1190.0000
  630.5276    19.3281  2234.0000    -1.0264    36.1250    55.8594     1.6338  1225.0000
  630.6800    19.3281  2234.0000    -1.0010    34.5938    53.3691     1.6914  1190.0000
  630.8324    19.3281  2236.0000     -.9731    33.6250    53.8574     1.7539  1230.0000
  630.9848    19.3281  2236.0000    -1.0664    30.4844    53.6133     1.6611  1185.0000
  631.1372    19.3125  2234.0000    -1.0479    32.0000    55.2734     1.6621  1235.0000
  631.2896    19.3281  2234.0000    -1.0537    32.3125    56.9824     1.6309  1200.0000
  631.4420    19.3281  2234.0000    -1.0752    35.2188    55.8105     1.6006  1225.0000
  631.5944    19.3281  2234.0000    -1.0645    34.6875    57.5195     1.6211  1215.0000
  631.7468    19.3281  2234.0000    -1.0195    34.4063    57.2266     1.6797  1210.0000
  631.8992    19.3281  2234.0000     -.9854    32.1875    58.6426     1.6992  1205.0000
  632.0516    19.3281  2236.0000     -.9878    28.6563    55.0293     1.6787  1210.0000
  632.2040    19.3281  2236.0000    -1.1631    26.1250    53.1250     1.4863  1220.0000
  632.3564    19.3281  2238.0000    -1.2500    27.0469    55.8105     1.4063  1200.0000
  632.5088    19.3281  2238.0000    -1.2295    28.6406    53.4180     1.4971  1205.0000
  632.6612    19.3281  2238.0000    -1.1191    30.8594    53.4180     1.6455  1220.0000
  632.8136    19.3281  2238.0000    -1.0615    34.3125    51.7090     1.7314  1245.0000
  632.9660    19.3281  2236.0000    -1.1953    34.9063    55.3223     1.5693  1210.0000
  633.1184    19.3281  2236.0000    -1.2256    36.1563    52.5391     1.5537  1240.0000
  633.2708    19.3281  2236.0000    -1.1465    31.1563    53.6133     1.6328  1180.0000
  633.4232    19.3281  2236.0000    -1.1094    29.5938    51.2695     1.6699  1245.0000
  633.5756    19.3125  2236.0000    -1.0811    26.7656    57.0312     1.6875  1185.0000
  633.7280    19.3281  2236.0000    -1.1260    28.3125    54.5410     1.6523  1220.0000
  633.8804    19.3281  2236.0000    -1.1699    29.2031    57.7637     1.6016  1190.0000
  634.0328    19.3281  2236.0000    -1.2832    31.0625    55.4687     1.4785  1250.0000
  634.1852    19.3281  2236.0000    -1.3281    30.1250    57.9590     1.4111  1215.0000
  634.3376    19.3281  2236.0000    -1.2344    28.9375    56.1035     1.5117  1215.0000
  634.4900    19.3281  2236.0000    -1.2246    31.1406    56.1035     1.5352  1260.0000
  634.6424    19.3281  2236.0000    -1.2510    31.1250    55.0293     1.5244  1220.0000
  634.7948    19.3281  2236.0000    -1.2305    32.9375    54.5898     1.5459  1235.0000
  634.9472    19.3281  2236.0000    -1.1484    29.5156    52.6855     1.6074  1215.0000
  635.0996    19.3281  2236.0000    -1.1270    32.7500    49.9023     1.6094  1195.0000
  635.2520    19.3281  2234.0000    -1.2197    32.1875    55.7129     1.5156  1185.0000
  635.4044    19.3281  2236.0000    -1.1797    30.6250    54.1992     1.5771  1205.0000
  635.5568    19.3438  2236.0000    -1.1855    28.3906    54.4434     1.5889  1195.0000
  635.7092    19.3438  2236.0000    -1.1719    28.0625    54.9805     1.5771  1225.0000
  635.8616    19.3438  2236.0000    -1.2891    32.4687    55.5664     1.4209  1220.0000
  636.0140    19.3438  2238.0000    -1.4072    31.1719    59.4238     1.2998  1210.0000
  636.1664    19.3281  2238.0000    -1.4551    33.3438    55.5664     1.2813  1205.0000
  636.3188    19.3438  2238.0000    -1.4502    31.4844    60.2051     1.2881  1200.0000
  636.4712    19.3438  2236.0000    -1.4277    33.3750    54.6387     1.3086  1205.0000
  636.6236    19.3281  2236.0000    -1.4111    29.9687    57.1289     1.2900  1205.0000
  636.7760    19.3281  2236.0000    -1.3799    30.9062    57.5684     1.3262  1205.0000
  636.9284    19.3281  2236.0000    -1.3135    29.0156    60.4004     1.3848  1215.0000
  637.0808    19.3281  2238.0000    -1.3223    33.0313    55.9082     1.3906  1190.0000
  637.2332    19.3281  2238.0000    -1.2773    32.9688    57.4219     1.4395  1200.0000
  637.3856    19.3438  2238.0000    -1.2314    32.9688    56.2012     1.4912  1205.0000
  637.5380    19.3438  2238.0000    -1.1006    31.1094    62.0605     1.6230  1185.0000
  637.6904    19.3438  2238.0000    -1.1699    31.1406    59.3262     1.5361  1220.0000
  637.8428    19.3438  2238.0000    -1.1084    33.3438    62.2559     1.6064  1195.0000
  637.9952    19.3281  2238.0000    -1.1660    33.9688    57.6172     1.5674  1210.0000
  638.1476    19.3438  2236.0000    -1.1133    32.3438    56.5918     1.6387  1195.0000
  638.3000    19.3281  2236.0000    -1.2363    30.7500    58.7402     1.4854  1180.0000
  638.4524    19.3438  2236.0000    -1.2139    27.9219    57.5195     1.4648  1195.0000
  638.6048    19.3594  2236.0000    -1.2227    30.5469    59.1309     1.4209  1205.0000
  638.7572    19.3594  2236.0000    -1.2510    31.2344    56.0059     1.3369  1170.0000
