~VERSION INFORMATION
VERS.                                                 2.0:   CWLS Log ASCII Standard-VERSION 2.0
WRAP.                                                  NO:   One line per depth step
~Well Information Block
STRT.M                                           625.0412:   Top Depth
STOP.M                                          4623.7124:   Bottom Depth
STEP.M                                             .15240:   Depth Increment
NULL.                                            -999.250:   Null Value
FLD .                                                   -:   Field Name
WELL.                                              15/2-1:   NAME
WBN .                                              15/2-1:   WELLBORE
NATI.                                                 NOR:   COUNTRY
CTRY.                                                 NOR:   COUNTRY
COMP.                                     NORSK HYDRO A/S:   OPERATOR
PROV.                                                   ?:   PROVINCE
COUN.                                             NORTRYM:   RIG NAME
SPUD.                                          1981/11/26:   SPUD DATE
LATI.                                       58 45 19.57 N:   SURF. LATITUDE
LONG.                                        1 35 40.54 E:   SURF. LONGITUDE
PBWE.                                              15/2-1:   PB WELL ID
APIN.                                              15/2-1:   PB WELLBORE ID
PBWS.                                                 all:   PB WELL NAME SET
~PARAMETER INFORMATION (log)
LNAM.                              FDC/CNL/GR  COMPOSITED:   NAME
LTYP.                                         DEPTH MATCH:   LOG TYPE
LSRV.                                            DEN/NEUT:   LOG SERVICE
LSOU.                                             SPT/NPD:   LOG SOURCE
LVSN.                                                   1:   LOG VERSION
BHIS.                                                   R:   BRIEF HISTORY
FHIS.                                             RAW-LIS:   FULL HISTORY
LCNM.                                        SCHLUMBERGER:   LOGGING CONTRACTOR
TOOL.                             FDC/CNL/GR (COMPOSITED):   TOOL STRING
~Curve Information Block
#MNEM.UNIT                                        API CODE    No Description
#=========                                        ========    == ===========
DEPT.M                                       00 001 00 00:     1  DEPTH
CALI.IN                                                  :     2  Caliper
CS.                                                      :     3  Cable Speed
DRHO.G/CC                                                :     4  Bulk density correction
GR.GAPI                                                  :     5  Gamma Ray
NPHI.%                                                   :     6  Neutron porosity
RHOB.G/CC                                                :     7  Bulk density
TENS.LB                                                  :     8  Cable Tension
~ASCII
# ...
 1956.4076    22.2656  2039.0000      .0205    38.5313    50.8301     2.0293  2490.0000
 1956.5600    22.2656  2039.0000      .0234    37.3125    48.9746     2.0234  2480.0000
 1956.7124    22.2500  2038.0000      .0146    41.7500    46.3867     2.0215  2484.0000
 1956.8648    21.4375  2038.0000      .0156    41.7813    49.9023     2.0332  2500.0000
 1957.0172    22.2656  2039.0000      .0186    44.9063    54.1504     2.0469  2514.0000
 1957.1696    22.2656  2039.0000      .0312    44.1875    53.4180     2.0586  2464.0000
 1957.3220    22.2500  2039.0000      .0234    46.9688    49.3652     2.0430  2434.0000
 1957.4744    20.9844  2039.0000      .0220    46.1250    47.5586     2.0312  2444.0000
 1957.6268    20.4219  2041.0000      .0142    46.5312    49.5605     2.0215  2514.0000
 1957.7792    20.9375  2043.0000      .0083    44.2813    52.1973     2.0137  2530.0000
 1957.9316    22.2656  2044.0000      .0127    43.4688    48.1934     2.0234  2480.0000
 1958.0840    22.2656  2043.0000      .0210    43.6875    48.5352     2.0410  2480.0000
 1958.2364    22.0313  2042.0000      .0200    47.7500    44.7754     2.0488  2444.0000
 1958.3888    20.9844  2041.0000      .0166    45.4375    48.4863     2.0469  2424.0000
 1958.5412    20.7344  2040.0000      .0171    41.7187    51.9043     2.0410  2480.0000
 1958.6936    21.6094  2039.0000      .0190    36.1875    49.6094     2.0352  2610.0000
 1958.8460    21.8281  2038.0000      .0068    38.4062    49.5117     2.0098  2610.0000
 1958.9984    22.0469  2037.0000      .0054    42.1250    47.9980     1.9980  2524.0000
 1959.1508    21.4375  2037.0000      .0205    42.0938    51.7090     2.0078  2510.0000
 1959.3032    21.5469  2037.0000      .0293    41.0625    54.1992     2.0215  2484.0000
 1959.4556    21.8750  2039.0000      .0171    37.9063    53.8574     2.0195  2554.0000
 1959.6080    22.1719  2039.0000     -.0015    41.0937    52.4414     2.0137  2550.0000
 1959.7604    22.2656  2038.0000     -.0029    42.2188    50.8301     2.0254  2530.0000
 1959.9128    22.2656  2038.0000     -.0073    44.1875    49.3652     2.0215  2504.0000
 1960.0652    22.2656  2038.0000     -.0039    42.7500    51.2207     2.0312  2494.0000
 1960.2176    22.2656  2038.0000     -.0015    45.0625    46.8262     2.0312  2460.0000
 1960.3700    22.2656  2038.0000      .0029    47.3750    47.0215     2.0371  2460.0000
 1960.5224    22.2656  2037.0000     -.0015    49.9375    47.9980     2.0234  2540.0000
 1960.6748    22.2656  2038.0000     -.0029    50.1875    50.2441     2.0254  2694.0000
 1960.8272    22.2656  2040.0000      .0054    50.1562    48.6328     2.0391  2670.0000
 1960.9796    22.2656  2041.0000      .0142    54.8125    49.4141     2.0508  2594.0000
 1961.1320    22.2656  2043.0000      .0093    54.8750    48.1934     2.0410  2500.0000
 1961.2844    22.2656  2042.0000      .0078    53.1563    49.8535     2.0312  2480.0000
 1961.4368    22.2656  2041.0000      .0166    49.3750    47.1680     2.0352  2514.0000
 1961.5892    22.2656  2042.0000      .0376    51.9375    49.5605     2.0449  2500.0000
 1961.7416    22.2656  2041.0000      .0459    53.0937    50.4395     2.0547  2454.0000
 1961.8940    22.2656  2040.0000      .0308    55.5937    50.0977     2.0293  2460.0000
 1962.0464    22.2656  2039.0000      .0264    54.1563    49.0723     2.0293  2474.0000
 1962.1988    22.2656  2039.0000      .0361    52.7188    47.0215     2.0410  2530.0000
 1962.3512    22.2656  2040.0000      .0474    51.8750    45.9961     2.0645  2534.0000
 1962.5036    22.2656  2040.0000      .0400    49.4063    44.0918     2.0625  2514.0000
 1962.6560    22.2656  2041.0000      .0195    52.0625    43.2617     2.0430  2500.0000
 1962.8084    22.2500  2041.0000      .0088    53.6563    46.4355     2.0352  2474.0000
 1962.9608    22.2500  2041.0000      .0073    55.5937    49.4141     2.0391  2454.0000
 1963.1132    22.2656  2041.0000      .0146    56.4375    50.4883     2.0508  2444.0000
 1963.2656    22.2656  2041.0000      .0317    53.2812    47.9492     2.0664  2460.0000
 1963.4180    22.2656  2042.0000      .0254    55.1875    48.2910     2.0625  2494.0000
 1963.5704    22.2500  2041.0000      .0303    53.6875    49.7559     2.0703  2494.0000
 1963.7228    22.2656  2041.0000      .0195    53.5313    50.0977     2.0586  2504.0000
 1963.8752    22.2500  2042.0000      .0200    52.0938    47.9004     2.0547  2530.0000
 1964.0276    22.2656  2043.0000      .0195    51.2500    47.4121     2.0625  2484.0000
 1964.1800    22.2500  2043.0000      .0166    53.3438    47.4609     2.0723  2430.0000
 1964.3324    22.2656  2044.0000      .0205    53.0937    47.7051     2.0820  2430.0000
 1964.4848    22.2656  2043.0000      .0029    53.6250    50.2441     2.0547  2514.0000
 1964.6372    22.2656  2043.0000      .0181    51.8750    50.2441     2.0605  2500.0000
 1964.7896    22.2656  2044.0000      .0308    50.1562    52.5391     2.0625  2470.0000
 1964.9420    22.2500  2043.0000      .0449    50.4687    49.8047     2.0742  2490.0000
 1965.0944    22.2656  2042.0000      .0547    52.4687    50.9766     2.0898  2520.0000
 1965.2468    22.2656  2041.0000      .0269    56.1875    48.8281     2.0723  2500.0000
 1965.3992    22.2656  2041.0000      .0161    62.4063    48.1445     2.0762  2450.0000
 1965.5516    22.2500  2042.0000      .0034    62.4063    48.9258     2.0762  2470.0000
 1965.7040    22.2500  2043.0000      .0244    61.0625    49.4141     2.0957  2460.0000
 1965.8564    22.2500  2043.0000      .0264    55.1562    49.9512     2.0918  2434.0000
 1966.0088    22.2656  2042.0000      .0205    52.0938    49.0234     2.0664  2450.0000
 1966.1612    22.2500  2042.0000      .0054    50.5937    50.3906     2.0488  2460.0000
 1966.3136    22.2500  2041.0000      .0098    51.4688    51.2207     2.0488  2490.0000
 1966.4660    22.2656  2041.0000      .0117    51.7813    55.7617     2.0527  2510.0000
 1966.6184    22.2656  2040.0000      .0195    51.1875    52.8320     2.0625  2514.0000
 1966.7708    22.2500  2040.0000      .0239    53.4375    54.9316     2.0664  2464.0000
 1966.9232    22.2500  2040.0000      .0210    52.5000    49.6094     2.0664  2444.0000
 1967.0756    22.2656  2040.0000      .0225    54.7188    50.8789     2.0703  2474.0000
 1967.2280    22.2656  2041.0000      .0210    52.3125    47.2656     2.0703  2474.0000
 1967.3804    22.1250  2041.0000      .0234    53.5625    48.3887     2.0781  2454.0000
 1967.5328    21.8594  2041.0000      .0278    52.2188    49.4141     2.0898  2444.0000
 1967.6852    21.9844  2041.0000      .0117    53.8125    51.8555     2.0781  2484.0000
 1967.8376    21.8750  2040.0000      .0103    56.3438    48.4375     2.0703  2434.0000
 1967.9900    22.2500  2040.0000      .0029    57.1875    45.5566     2.0645  2444.0000
 1968.1424    22.2500  2040.0000      .0142    54.6562    41.5039     2.0762  2494.0000
 1968.2948    22.2656  2040.0000      .0146    50.5313    42.9199     2.0879  2504.0000
 1968.4472    22.2500  2040.0000      .0239    46.7187    47.6074     2.1016  2484.0000
 1968.5996    22.2500  2040.0000      .0195    45.7812    50.7812     2.0937  2464.0000
 1968.7520    21.9844  2040.0000      .0171    48.7500    52.0020     2.0801  2494.0000
 1968.9044    21.7656  2040.0000      .0044    49.6562    50.4883     2.0488  2500.0000
 1969.0568    21.0938  2041.0000      .0103    49.1563    50.1953     2.0566  2504.0000
 1969.2092    20.9531  2041.0000      .0156    46.5938    49.4141     2.0645  2480.0000
 1969.3616    20.9062  2041.0000      .0176    47.4375    47.8516     2.0723  2470.0000
 1969.5140    20.6250  2041.0000      .0322    48.3438    47.3633     2.0625  2500.0000
 1969.6664    20.5937  2041.0000      .0342    47.4375    45.5566     2.0371  2490.0000
 1969.8188    20.2344  2041.0000      .0430    46.0000    46.3867     2.0371  2490.0000
 1969.9712    20.5313  2041.0000      .0361    45.5625    46.6797     2.0508  2504.0000
 1970.1236    20.9062  2041.0000      .0273    45.8438    49.3164     2.0605  2500.0000
