~VERSION INFORMATION
VERS.                                                 2.0:   CWLS Log ASCII Standard-VERSION 2.0
WRAP.                                                  NO:   One line per depth step
~Well Information Block
STRT.M                                           625.0412:   Top Depth
STOP.M                                          4623.7124:   Bottom Depth
STEP.M                                             .15240:   Depth Increment
NULL.                                            -999.250:   Null Value
FLD .                                                   -:   Field Name
WELL.                                              15/2-1:   NAME
WBN .                                              15/2-1:   WELLBORE
NATI.                                                 NOR:   COUNTRY
CTRY.                                                 NOR:   COUNTRY
COMP.                                     NORSK HYDRO A/S:   OPERATOR
PROV.                                                   ?:   PROVINCE
COUN.                                             NORTRYM:   RIG NAME
SPUD.                                          1981/11/26:   SPUD DATE
LATI.                                       58 45 19.57 N:   SURF. LATITUDE
LONG.                                        1 35 40.54 E:   SURF. LONGITUDE
PBWE.                                              15/2-1:   PB WELL ID
APIN.                                              15/2-1:   PB WELLBORE ID
PBWS.                                                 all:   PB WELL NAME SET
~PARAMETER INFORMATION (log)
LNAM.                              FDC/CNL/GR  COMPOSITED:   NAME
LTYP.                                         DEPTH MATCH:   LOG TYPE
LSRV.                                            DEN/NEUT:   LOG SERVICE
LSOU.                                             SPT/NPD:   LOG SOURCE
LVSN.                                                   1:   LOG VERSION
BHIS.                                                   R:   BRIEF HISTORY
FHIS.                                             RAW-LIS:   FULL HISTORY
LCNM.                                        SCHLUMBERGER:   LOGGING CONTRACTOR
TOOL.                             FDC/CNL/GR (COMPOSITED):   TOOL STRING
~Curve Information Block
#MNEM.UNIT                                        API CODE    No Description
#=========                                        ========    == ===========
DEPT.M                                       00 001 00 00:     1  DEPTH
CALI.IN                                                  :     2  Caliper
CS.                                                      :     3  Cable Speed
DRHO.G/CC                                                :     4  Bulk density correction
GR.GAPI                                                  :     5  Gamma Ray
NPHI.%                                                   :     6  Neutron porosity
RHOB.G/CC                                                :     7  Bulk density
TENS.LB                                                  :     8  Cable Tension
~ASCII
# ...
 3010.4060    15.4062  2626.0000      .0225    37.6250    26.6602     2.4902  2850.0000
 3010.5584    15.1875  2626.0000      .0156    35.9375    23.2910     2.5020  2844.0000
 3010.7108    15.1953  2626.0000      .0322    33.3750    18.8965     2.5762  2800.0000
 3010.8632    15.8594  2628.0000      .0444    28.2188    15.6250     2.6094  2784.0000
 3011.0156    15.6797  2626.0000      .0449    28.3125    14.9902     2.5937  2760.0000
 3011.1680    15.0937  2626.0000      .0449    31.9375    16.5039     2.5840  2764.0000
 3011.3204    15.0937  2624.0000      .0166    35.8438    17.9688     2.5469  2764.0000
 3011.4728    15.5078  2622.0000      .0078    38.6875    21.0938     2.5586  2774.0000
 3011.6252    15.2734  2624.0000     -.0024    37.0313    20.2637     2.5332  2764.0000
 3011.7776    15.2812  2624.0000      .0347    39.2188    21.4844     2.5898  2790.0000
 3011.9300    16.0313  2624.0000      .0508    38.2188    21.6309     2.5781  2754.0000
 3012.0824    15.5000  2626.0000      .0610    38.5000    24.4629     2.5742  2780.0000
 3012.2348    15.5469  2626.0000      .0132    33.9688    25.0000     2.5098  2804.0000
 3012.3872    15.3203  2626.0000     -.0054    33.4062    24.0234     2.5117  2794.0000
 3012.5396    15.3438  2626.0000     -.0073    36.0938    22.7539     2.5332  2800.0000
 3012.6920    15.3516  2624.0000     -.0005    37.4375    22.6563     2.5508  2784.0000
 3012.8444    15.3672  2624.0000      .0029    37.6875    23.3887     2.5645  2780.0000
 3012.9968    15.3750  2624.0000     -.0020    33.7500    21.0938     2.5488  2774.0000
 3013.1492    15.3906  2624.0000      .0054    33.6875    17.7246     2.5566  2764.0000
 3013.3016    16.1094  2624.0000      .0474    35.2812    17.2363     2.6016  2790.0000
 3013.4540    15.8359  2626.0000      .0439    35.5937    20.5566     2.6211  2780.0000
 3013.6064    15.3906  2626.0000      .0386    37.2500    22.3633     2.6133  2764.0000
 3013.7588    15.5000  2626.0000     -.0029    38.9688    20.3613     2.5605  2774.0000
 3013.9112    15.8594  2624.0000     -.0024    40.6250    18.7988     2.5293  2770.0000
 3014.0636    15.3906  2622.0000     -.0132    40.3750    19.1406     2.5254  2770.0000
 3014.2160    15.4062  2620.0000      .0098    41.5625    20.4102     2.5605  2754.0000
 3014.3684    15.4062  2622.0000      .0190    42.4687    21.3379     2.5703  2764.0000
 3014.5208    15.4375  2622.0000      .0444    43.6875    22.7051     2.5957  2780.0000
 3014.6732    15.5312  2622.0000      .0156    37.2188    24.7559     2.5684  2754.0000
 3014.8256    15.5859  2624.0000     -.0098    34.2813    23.3398     2.5449  2784.0000
 3014.9780    15.5859  2626.0000     -.0142    28.4531    19.9707     2.5254  2794.0000
 3015.1304    15.5937  2626.0000     -.0127    30.4844    18.2617     2.5234  2824.0000
 3015.2828    15.7344  2624.0000     -.0020    29.2188    17.2363     2.5371  2800.0000
 3015.4352    15.5469  2622.0000     -.0078    32.5313    17.0410     2.5410  2810.0000
 3015.5876    15.5469  2622.0000     -.0142    33.0625    16.2109     2.5332  2814.0000
 3015.7400    15.5859  2622.0000     -.0205    36.5625    17.4316     2.5410  2820.0000
 3015.8924    15.7344  2622.0000     -.0103    37.5000    19.8242     2.5586  2824.0000
 3016.0448    15.6406  2622.0000     -.0039    36.2187    21.2891     2.5605  2810.0000
 3016.1972    15.6406  2624.0000      .0264    34.6250    19.5801     2.5957  2800.0000
 3016.3496    15.6563  2624.0000      .0117    33.9375    20.6055     2.5742  2790.0000
 3016.5020    15.7109  2624.0000      .0000    37.1875    19.5801     2.5469  2790.0000
 3016.6544    15.7109  2622.0000      .0005    37.8438    21.0449     2.5273  2794.0000
 3016.8068    15.7656  2620.0000      .0259    41.7500    20.8008     2.5527  2794.0000
 3016.9592    15.7109  2620.0000      .0156    40.7188    23.2422     2.5410  2770.0000
 3017.1116    15.7656  2620.0000     -.0059    41.5938    24.6582     2.5371  2794.0000
 3017.2640    16.1875  2620.0000     -.0205    37.2813    25.4395     2.5293  2764.0000
 3017.4164    15.7969  2620.0000     -.0059    35.2812    24.0234     2.5391  2790.0000
 3017.5688    15.7969  2620.0000      .0083    32.4063    23.0469     2.5586  2794.0000
 3017.7212    15.7969  2620.0000      .0298    32.4063    22.9980     2.5820  2794.0000
 3017.8736    15.7969  2620.0000      .0322    34.0938    21.6309     2.5840  2810.0000
 3018.0260    15.8594  2620.0000      .0312    40.8438    22.8027     2.5703  2790.0000
 3018.1784    16.2500  2618.0000     -.0010    41.8750    23.9746     2.5215  2810.0000
 3018.3308    15.7969  2618.0000      .0015    42.1250    29.2480     2.5332  2810.0000
 3018.4832    15.9219  2618.0000     -.0044    38.8750    29.8340     2.5273  2804.0000
 3018.6356    15.7344  2618.0000      .0195    39.1250    28.0762     2.5820  2834.0000
 3018.7880    15.7109  2618.0000      .0176    37.4687    24.8535     2.6074  2814.0000
 3018.9404    15.7109  2620.0000      .0283    34.8438    23.2910     2.6250  2774.0000
 3019.0928    15.7266  2620.0000      .0117    34.5625    21.1914     2.5996  2770.0000
 3019.2452    15.7266  2620.0000      .0117    33.3438    19.9707     2.5879  2764.0000
 3019.3976    15.7266  2618.0000      .0161    34.0625    19.0430     2.5898  2760.0000
 3019.5500    15.7266  2616.0000      .0244    33.4375    20.4590     2.5918  2764.0000
 3019.7024    15.7266  2616.0000      .0195    35.6250    21.0449     2.5859  2764.0000
 3019.8548    15.7266  2614.0000      .0161    34.9375    21.9727     2.5898  2774.0000
 3020.0072    15.7109  2614.0000      .0181    35.1875    20.7031     2.6113  2774.0000
 3020.1596    15.7734  2616.0000      .0161    32.5625    20.1172     2.6035  2774.0000
 3020.3120    15.7109  2616.0000      .0073    33.1563    20.0195     2.5918  2780.0000
 3020.4644    15.7109  2618.0000     -.0039    35.4063    19.0430     2.5684  2804.0000
 3020.6168    15.7500  2618.0000     -.0068    40.2812    18.0176     2.5527  2804.0000
 3020.7692    15.7500  2616.0000     -.0054    42.5313    17.7246     2.5645  2804.0000
 3020.9216    15.7656  2616.0000      .0000    39.9687    18.7012     2.5625  2804.0000
 3021.0740    15.7656  2614.0000      .0190    40.7812    19.6289     2.5937  2814.0000
 3021.2264    15.7734  2614.0000      .0103    42.3125    21.4355     2.5645  2814.0000
 3021.3788    15.8359  2614.0000      .0205    46.0625    24.4629     2.5898  2824.0000
 3021.5312    15.8437  2614.0000      .0020    45.9688    25.5371     2.5723  2800.0000
 3021.6836    15.8125  2614.0000      .0073    45.2500    25.5371     2.5898  2790.0000
 3021.8360    16.3281  2614.0000      .0039    43.0000    23.9746     2.5762  2790.0000
 3021.9884    15.7266  2614.0000      .0107    40.2188    23.2422     2.5898  2794.0000
 3022.1408    15.7109  2612.0000      .0098    39.3437    22.0703     2.5684  2784.0000
 3022.2932    15.7109  2612.0000      .0156    39.6250    21.0938     2.5762  2770.0000
 3022.4456    15.7109  2608.0000      .0176    39.7813    21.0938     2.5723  2750.0000
 3022.5980    15.7109  2608.0000      .0117    39.2813    20.9961     2.5645  2744.0000
 3022.7504    15.5859  2608.0000      .0181    36.9063    20.6543     2.5723  2760.0000
 3022.9028    15.5703  2608.0000      .0229    38.0000    20.6055     2.5820  2764.0000
 3023.0552    15.6172  2608.0000      .0430    37.1875    21.5820     2.6133  2780.0000
 3023.2076    15.7109  2608.0000      .0508    40.3125    21.8262     2.6191  2780.0000
 3023.3600    15.7109  2608.0000      .0615    40.9688    22.6074     2.6328  2790.0000
 3023.5124    15.7656  2606.0000      .0566    40.6250    24.6582     2.6328  2790.0000
 3023.6648    15.6172  2604.0000      .0181    42.3437    24.8047     2.5957  2770.0000
 3023.8172    15.6172  2602.0000     -.0117    42.3437    24.5605     2.5566  2754.0000
 3023.9696    15.6172  2602.0000     -.0137    44.2187    21.0938     2.5547  2750.0000
 3024.1220    15.6172  2600.0000     -.0054    43.5000    20.7031     2.5684  2764.0000
