~VERSION INFORMATION
VERS.                                                 2.0:   CWLS Log ASCII Standard-VERSION 2.0
WRAP.                                                  NO:   One line per depth step
~Well Information Block
STRT.M                                           625.0412:   Top Depth
STOP.M                                          4623.7124:   Bottom Depth
STEP.M                                             .15240:   Depth Increment
NULL.                                            -999.250:   Null Value
FLD .                                                   -:   Field Name
WELL.                                              15/2-1:   NAME
WBN .                                              15/2-1:   WELLBORE
NATI.                                                 NOR:   COUNTRY
CTRY.                                                 NOR:   COUNTRY
COMP.                                     NORSK HYDRO A/S:   OPERATOR
PROV.                                                   ?:   PROVINCE
COUN.                                             NORTRYM:   RIG NAME
SPUD.                                          1981/11/26:   SPUD DATE
LATI.                                       58 45 19.57 N:   SURF. LATITUDE
LONG.                                        1 35 40.54 E:   SURF. LONGITUDE
PBWE.                                              15/2-1:   PB WELL ID
APIN.                                              15/2-1:   PB WELLBORE ID
PBWS.                                                 all:   PB WELL NAME SET
~PARAMETER INFORMATION (log)
LNAM.                              FDC/CNL/GR  COMPOSITED:   NAME
LTYP.                                         DEPTH MATCH:   LOG TYPE
LSRV.                                            DEN/NEUT:   LOG SERVICE
LSOU.                                             SPT/NPD:   LOG SOURCE
LVSN.                                                   1:   LOG VERSION
BHIS.                                                   R:   BRIEF HISTORY
FHIS.                                             RAW-LIS:   FULL HISTORY
LCNM.                                        SCHLUMBERGER:   LOGGING CONTRACTOR
TOOL.                             FDC/CNL/GR (COMPOSITED):   TOOL STRING
~Curve Information Block
#MNEM.UNIT                                        API CODE    No Description
#=========                                        ========    == ===========
DEPT.M                                       00 001 00 00:     1  DEPTH
CALI.IN                                                  :     2  Caliper
CS.                                                      :     3  Cable Speed
DRHO.G/CC                                                :     4  Bulk density correction
GR.GAPI                                                  :     5  Gamma Ray
NPHI.%                                                   :     6  Neutron porosity
RHOB.G/CC                                                :     7  Bulk density
TENS.LB                                                  :     8  Cable Tension
~ASCII
# ...
 4078.2728     9.1250  1859.0000     -.0059   160.6250    34.1309     2.4570  3924.0000
 4078.4252     9.1328  1861.0000     -.0073   156.2500    34.5215     2.4707  3934.0000
 4078.5776     9.1484  1861.0000     -.0117   151.6250    33.2520     2.4863  3994.0000
 4078.7300     9.1484  1861.0000     -.0049   158.2500    33.0078     2.5020  3964.0000
 4078.8824     9.1406  1861.0000     -.0054   160.3750    34.1797     2.4922  3954.0000
 4079.0348     9.1406  1861.0000     -.0059   163.2500    35.3516     2.4941  3960.0000
 4079.1872     9.1406  1862.0000      .0029   160.3750    36.0840     2.5293  3964.0000
 4079.3396     9.1328  1862.0000     -.0107   158.7500    36.9141     2.5176  3944.0000
 4079.4920     9.1328  1863.0000     -.0142   146.3750    38.4277     2.5215  3960.0000
 4079.6444     9.1250  1863.0000     -.0288   114.8125    37.1094     2.5000  3934.0000
 4079.7968     9.1172  1863.0000     -.0063    81.8750    27.0996     2.5586  3944.0000
 4079.9492     9.1797  1862.0000     -.0117    75.6875    15.7715     2.5547  3930.0000
 4080.1016     9.1953  1862.0000     -.0039   100.0625    11.9141     2.5645  3924.0000
 4080.2540     9.1953  1861.0000     -.0122   137.1250    18.8965     2.5117  3924.0000
 4080.4064     9.1953  1860.0000      .0010   159.2500    29.5410     2.5020  3984.0000
 4080.5588     9.1875  1860.0000     -.0005   163.8750    33.9844     2.4785  4010.0000
 4080.7112     9.2031  1861.0000     -.0054   165.5000    37.4512     2.4785  3974.0000
 4080.8636     9.2266  1862.0000     -.0161   163.7500    37.5488     2.4746  3984.0000
 4081.0160     9.2344  1863.0000     -.0137   159.5000    39.4043     2.5020  3974.0000
 4081.1684     9.2266  1861.0000     -.0029   159.5000    40.1367     2.5137  3964.0000
 4081.3208     9.2266  1862.0000      .0029   153.8750    39.2578     2.5352  3950.0000
 4081.4732     9.2266  1862.0000      .0044   157.3750    38.7207     2.5332  3950.0000
 4081.6256     9.2344  1861.0000     -.0024   152.0000    36.7676     2.5293  3950.0000
 4081.7780     9.2422  1861.0000     -.0029   153.8750    35.4492     2.5215  3950.0000
 4081.9304     9.2422  1862.0000     -.0059   150.1250    35.0098     2.5195  3940.0000
 4082.0828     9.2422  1862.0000     -.0029   151.1250    34.2285     2.5371  3950.0000
 4082.2352     9.2422  1862.0000     -.0024   154.3750    34.8145     2.5449  3940.0000
 4082.3876     9.2422  1860.0000     -.0034   154.8750    33.3984     2.5293  3984.0000
 4082.5400     9.2422  1860.0000      .0078   159.3750    34.6680     2.5391  3960.0000
 4082.6924     9.2422  1859.0000     -.0005   157.8750    34.7168     2.5293  3974.0000
 4082.8448     9.2422  1859.0000      .0078   161.1250    36.3281     2.5449  3970.0000
 4082.9972     9.2422  1860.0000     -.0068   157.8750    36.8164     2.5312  3964.0000
 4083.1496     9.2422  1860.0000     -.0029   150.8750    36.6211     2.5273  3940.0000
 4083.3020     9.2500  1861.0000      .0063   149.1250    36.1328     2.5391  3954.0000
 4083.4544     9.2500  1861.0000      .0073   144.7500    34.4238     2.5332  3964.0000
 4083.6068     9.2500  1860.0000      .0166   145.2500    34.7656     2.5371  3984.0000
 4083.7592     9.2656  1860.0000     -.0063   146.8750    34.7168     2.4941  3960.0000
 4083.9116     9.2656  1860.0000     -.0107   149.1250    34.9121     2.4648  3974.0000
 4084.0640     9.2656  1860.0000     -.0254   159.0000    34.7656     2.4395  3960.0000
 4084.2164     9.2656  1860.0000     -.0259   154.2500    34.7656     2.4395  3960.0000
 4084.3688     9.2656  1860.0000     -.0210   153.0000    34.6191     2.4824  3964.0000
 4084.5212     9.2734  1861.0000     -.0117   143.8750    34.0820     2.5156  3974.0000
 4084.6736     9.2656  1862.0000     -.0015   141.7500    33.8867     2.5586  3974.0000
 4084.8260     9.2734  1861.0000      .0078   142.3750    33.7891     2.5684  3970.0000
 4084.9784     9.2734  1861.0000      .0220   146.5000    34.7656     2.5645  3970.0000
 4085.1308     9.2734  1861.0000      .0195   150.7500    33.7891     2.5391  3980.0000
 4085.2832     9.2734  1862.0000      .0024   150.0000    33.6426     2.4980  3854.0000
 4085.4356     9.2656  1862.0000     -.0073   148.7500    31.9336     2.4863  3924.0000
 4085.5880     9.2656  1862.0000     -.0127   142.0000    32.0313     2.4687  3954.0000
 4085.7404     9.2656  1863.0000     -.0127   135.7500    32.4219     2.4902  3964.0000
 4085.8928     9.2656  1863.0000     -.0049   129.5000    33.5449     2.5195  3950.0000
 4086.0452     9.2656  1862.0000      .0029   133.7500    33.7891     2.5566  3960.0000
 4086.1976     9.2656  1863.0000      .0220   138.5000    35.4492     2.5684  3964.0000
 4086.3500     9.2656  1863.0000      .0229   135.1250    36.5234     2.5684  3970.0000
 4086.5024     9.2656  1863.0000      .0332   134.3750    37.6953     2.5664  3954.0000
 4086.6548     9.2656  1863.0000      .0288   138.6250    36.7676     2.5586  3980.0000
 4086.8072     9.2656  1863.0000      .0137   147.8750    36.9141     2.5156  3974.0000
 4086.9596     9.2656  1864.0000     -.0083   150.5000    36.2305     2.4785  3990.0000
 4087.1120     9.2656  1864.0000     -.0127   149.7500    34.8145     2.4629  3950.0000
 4087.2644     9.2656  1862.0000     -.0093   152.0000    34.6680     2.4941  3944.0000
 4087.4168     9.2656  1862.0000     -.0010   151.8750    33.3496     2.5117  3944.0000
 4087.5692     9.2656  1862.0000      .0044   149.0000    34.0820     2.5352  3944.0000
 4087.7216     9.2656  1861.0000      .0039   145.0000    34.0332     2.5391  3940.0000
 4087.8740     9.2656  1861.0000     -.0044   141.5000    34.7656     2.5234  3994.0000
 4088.0264     9.2656  1862.0000     -.0024   135.6250    35.4004     2.5352  3980.0000
 4088.1788     9.2656  1862.0000     -.0088   130.6250    35.0098     2.5176  3974.0000
 4088.3312     9.2656  1862.0000      .0073   131.5000    35.4004     2.5703  3964.0000
 4088.4836     9.2656  1861.0000     -.0044   129.7500    35.6445     2.5410  3944.0000
 4088.6360     9.2656  1861.0000     -.0054   135.7500    34.7168     2.5488  3964.0000
 4088.7884     9.2656  1861.0000     -.0127   133.7500    35.4492     2.5176  3954.0000
 4088.9408     9.2656  1861.0000     -.0044   143.6250    34.6680     2.5332  3954.0000
 4089.0932     9.2656  1861.0000     -.0020   141.6250    34.8633     2.5508  3964.0000
 4089.2456     9.2656  1863.0000      .0034   141.6250    34.6680     2.5684  3970.0000
 4089.3980     9.2656  1864.0000      .0000   141.2500    35.4980     2.5723  3980.0000
 4089.5504     9.2656  1863.0000      .0044   152.7500    36.4258     2.5391  3974.0000
 4089.7028     9.2734  1862.0000     -.0015   155.6250    36.5234     2.5098  3964.0000
 4089.8552     9.2734  1862.0000     -.0010   151.8750    35.2539     2.4961  3960.0000
 4090.0076     9.2734  1862.0000     -.0020   135.8750    34.5215     2.5215  3960.0000
 4090.1600     9.2734  1862.0000      .0112   134.6250    34.3750     2.5723  3960.0000
 4090.3124     9.2734  1862.0000     -.0010   137.7500    35.4492     2.5781  3970.0000
 4090.4648     9.2656  1862.0000      .0137   140.0000    35.0098     2.5781  3964.0000
 4090.6172     9.2812  1864.0000     -.0024   134.8750    35.1563     2.5430  3964.0000
 4090.7696     9.2812  1864.0000      .0029   126.1250    35.8887     2.5371  3980.0000
 4090.9220     9.2891  1863.0000     -.0034   128.0000    36.5723     2.5293  3944.0000
 4091.0744     9.2812  1863.0000     -.0103   129.8750    36.9141     2.5176  3960.0000
 4091.2268     9.2812  1863.0000     -.0098   134.1250    35.5957     2.5117  3964.0000
 4091.3792     9.2734  1863.0000     -.0039   131.5000    36.0840     2.5293  3940.0000
 4091.5316     9.2812  1864.0000      .0103   132.0000    33.8379     2.5391  3944.0000
 4091.6840     9.2812  1865.0000      .0156   129.3750    33.2031     2.5527  3944.0000
 4091.8364     9.2891  1864.0000      .0083   127.3750    32.9590     2.5547  4004.0000
 4091.9888     9.2812  1864.0000      .0098   128.0000    33.8379     2.5703  3964.0000
