~VERSION INFORMATION
VERS.                                                 2.0:   CWLS Log ASCII Standard-VERSION 2.0
WRAP.                                                  NO:   One line per depth step
~Well Information Block
STRT.M                                           625.0412:   Top Depth
STOP.M                                          4623.7124:   Bottom Depth
STEP.M                                             .15240:   Depth Increment
NULL.                                            -999.250:   Null Value
FLD .                                                   -:   Field Name
WELL.                                              15/2-1:   NAME
WBN .                                              15/2-1:   WELLBORE
NATI.                                                 NOR:   COUNTRY
CTRY.                                                 NOR:   COUNTRY
COMP.                                     NORSK HYDRO A/S:   OPERATOR
PROV.                                                   ?:   PROVINCE
COUN.                                             NORTRYM:   RIG NAME
SPUD.                                          1981/11/26:   SPUD DATE
LATI.                                       58 45 19.57 N:   SURF. LATITUDE
LONG.                                        1 35 40.54 E:   SURF. LONGITUDE
PBWE.                                              15/2-1:   PB WELL ID
APIN.                                              15/2-1:   PB WELLBORE ID
PBWS.                                                 all:   PB WELL NAME SET
~PARAMETER INFORMATION (log)
LNAM.                              FDC/CNL/GR  COMPOSITED:   NAME
LTYP.                                         DEPTH MATCH:   LOG TYPE
LSRV.                                            DEN/NEUT:   LOG SERVICE
LSOU.                                             SPT/NPD:   LOG SOURCE
LVSN.                                                   1:   LOG VERSION
BHIS.                                                   R:   BRIEF HISTORY
FHIS.                                             RAW-LIS:   FULL HISTORY
LCNM.                                        SCHLUMBERGER:   LOGGING CONTRACTOR
TOOL.                             FDC/CNL/GR (COMPOSITED):   TOOL STRING
~Curve Information Block
#MNEM.UNIT                                        API CODE    No Description
#=========                                        ========    == ===========
DEPT.M                                       00 001 00 00:     1  DEPTH
CALI.IN                                                  :     2  Caliper
CS.                                                      :     3  Cable Speed
DRHO.G/CC                                                :     4  Bulk density correction
GR.GAPI                                                  :     5  Gamma Ray
NPHI.%                                                   :     6  Neutron porosity
RHOB.G/CC                                                :     7  Bulk density
TENS.LB                                                  :     8  Cable Tension
~ASCII
# ...
 2483.4068    17.5625  1940.0000      .0317    27.8438    30.0781     2.1914  2984.0000
 2483.5592    17.5625  1940.0000      .0156    28.3906    31.0059     2.1836  2984.0000
 2483.7116    17.5625  1940.0000      .0283    28.1406    29.9316     2.2090  2984.0000
 2483.8640    17.6406  1941.0000      .0342    27.3594    29.6875     2.2168  2980.0000
 2484.0164    17.6250  1941.0000      .0454    27.8750    27.9297     2.2285  2980.0000
 2484.1688    17.5000  1941.0000      .0312    28.1250    29.4922     2.1973  3004.0000
 2484.3212    17.5156  1941.0000      .0347    28.8906    28.3691     2.1953  2974.0000
 2484.4736    17.5469  1940.0000      .0361    28.9375    31.1523     2.1992  3014.0000
 2484.6260    17.4844  1939.0000      .0278    31.6563    30.7617     2.2012  2994.0000
 2484.7784    17.5000  1940.0000      .0107    32.7500    29.9805     2.1953  2980.0000
 2484.9308    17.6094  1940.0000      .0049    33.0625    28.6621     2.1973  2994.0000
 2485.0832    17.5625  1940.0000      .0225    30.9375    30.5664     2.2227  3010.0000
 2485.2356    17.4375  1940.0000      .0112    32.0625    30.4688     2.2070  3024.0000
 2485.3880    17.4219  1941.0000      .0142    34.2500    29.4434     2.2148  3030.0000
 2485.5404    17.4688  1941.0000     -.0039    36.6875    26.6113     2.2051  3010.0000
 2485.6928    17.6875  1940.0000      .0112    38.5000    27.3926     2.2324  2984.0000
 2485.8452    17.7500  1940.0000      .0122    44.4688    29.5898     2.2656  2984.0000
 2485.9976    17.5000  1940.0000      .0454    44.1563    32.7637     2.3125  2980.0000
 2486.1500    17.3438  1941.0000      .0615    39.8125    33.2520     2.3203  2984.0000
 2486.3024    17.3438  1940.0000      .0718    32.9688    35.2539     2.2832  2974.0000
 2486.4548    17.4219  1940.0000      .0586    31.4063    34.0820     2.2441  2980.0000
 2486.6072    17.5156  1941.0000      .0391    30.9375    35.5957     2.2109  3010.0000
 2486.7596    17.5000  1941.0000      .0254    29.8906    31.4453     2.1992  2990.0000
 2486.9120    17.4844  1943.0000      .0210    29.0781    30.4688     2.1895  2990.0000
 2487.0644    17.4688  1943.0000      .0322    31.7656    27.8809     2.2168  3004.0000
 2487.2168    17.4688  1942.0000      .0356    31.1719    28.5156     2.2168  2990.0000
 2487.3692    17.5625  1942.0000      .0542    29.4688    28.9063     2.2324  3004.0000
 2487.5216    17.4844  1941.0000      .0225    27.2813    31.0059     2.1875  2990.0000
 2487.6740    17.4219  1940.0000      .0083    26.7344    30.0781     2.1836  3014.0000
 2487.8264    17.5000  1940.0000     -.0020    28.9375    29.8828     2.1797  2970.0000
 2487.9788    17.5156  1941.0000      .0127    27.3438    29.5410     2.1992  2980.0000
 2488.1312    17.4844  1941.0000      .0269    28.2344    33.2031     2.2148  2990.0000
 2488.2836    17.4844  1941.0000      .0073    26.0469    34.2285     2.1895  3004.0000
 2488.4360    17.4688  1943.0000      .0088    28.2656    34.1797     2.1895  3000.0000
 2488.5884    17.4844  1941.0000      .0166    29.3125    30.8594     2.1777  2970.0000
 2488.7408    17.4844  1942.0000      .0146    29.8281    30.9082     2.1855  2990.0000
 2488.8932    17.4844  1942.0000      .0112    29.0000    30.1270     2.2012  2990.0000
 2489.0456    17.4844  1940.0000      .0176    28.9844    29.9805     2.2441  2994.0000
 2489.1980    17.4844  1939.0000      .0444    33.8438    28.2227     2.2715  2974.0000
 2489.3504    17.5000  1940.0000      .0610    33.5625    29.2480     2.2715  3004.0000
 2489.5028    17.4375  1940.0000      .0518    32.7500    29.5898     2.2422  3004.0000
 2489.6552    17.4219  1940.0000      .0234    29.8125    29.9805     2.2148  2980.0000
 2489.8076    17.4219  1942.0000      .0054    28.1563    28.5156     2.2090  2974.0000
 2489.9600    17.5156  1943.0000      .0010    26.7969    27.1484     2.2246  2984.0000
 2490.1124    17.5156  1944.0000      .0210    28.6875    29.5410     2.2637  3000.0000
 2490.2648    17.5313  1944.0000      .0225    31.6719    29.2480     2.2656  3000.0000
 2490.4172    17.5313  1943.0000      .0293    36.2813    31.2012     2.2461  2974.0000
 2490.5696    17.3594  1942.0000      .0195    34.0938    28.1738     2.2051  2964.0000
 2490.7220    17.3438  1942.0000     -.0010    35.4688    28.6621     2.1719  2964.0000
 2490.8744    17.4219  1942.0000     -.0049    31.6406    28.0273     2.1738  2974.0000
 2491.0268    17.4219  1940.0000     -.0010    31.9219    27.1484     2.2012  2980.0000
 2491.1792    17.4219  1941.0000      .0195    33.3438    28.8574     2.2109  2974.0000
 2491.3316    17.4219  1941.0000      .0151    36.4688    30.4199     2.2051  2974.0000
 2491.4840    17.4219  1941.0000      .0010    36.7813    33.6426     2.1777  2970.0000
 2491.6364    17.3750  1942.0000      .0020    36.8125    32.0313     2.1953  3004.0000
 2491.7888    17.4219  1942.0000     -.0034    36.4375    30.7129     2.1953  3000.0000
 2491.9412    17.4531  1942.0000      .0210    35.5625    28.1738     2.2344  2960.0000
 2492.0936    17.4375  1942.0000      .0220    31.1094    30.1758     2.2246  2984.0000
 2492.2460    17.4219  1941.0000      .0386    29.7031    30.2246     2.2344  2970.0000
 2492.3984    17.4063  1942.0000      .0283    29.4219    31.2012     2.2012  2980.0000
 2492.5508    17.3750  1943.0000      .0430    30.8438    29.1992     2.2207  2970.0000
 2492.7032    17.4219  1943.0000      .0586    30.8750    29.3457     2.2441  2980.0000
 2492.8556    17.4375  1943.0000      .0415    30.6094    28.6621     2.2402  2984.0000
 2493.0080    17.4844  1944.0000      .0298    31.3906    28.1250     2.2246  2970.0000
 2493.1604    17.4844  1945.0000      .0264    31.9688    28.4180     2.2266  2984.0000
 2493.3128    17.4531  1943.0000      .0293    35.7188    29.1992     2.2266  2984.0000
 2493.4652    17.4219  1943.0000      .0420    38.4688    34.6680     2.2500  2980.0000
 2493.6176    17.4219  1942.0000      .0386    44.9687    35.8887     2.2363  2974.0000
 2493.7700    17.4219  1941.0000      .0391    46.9063    37.4023     2.2402  2964.0000
 2493.9224    17.4219  1941.0000      .0464    46.3438    34.1797     2.2539  2974.0000
 2494.0748    17.4688  1942.0000      .0439    50.2500    34.9609     2.2637  2994.0000
 2494.2272    17.4844  1943.0000      .0786    50.0625    36.2305     2.3184  2970.0000
 2494.3796    17.4844  1943.0000      .0454    52.3437    36.7676     2.2773  2994.0000
 2494.5320    17.4844  1945.0000      .0371    46.3750    37.1094     2.2656  3010.0000
 2494.6844    17.4688  1945.0000      .0352    46.9063    37.6465     2.2461  2990.0000
 2494.8368    17.3594  1945.0000      .0283    47.0938    36.2793     2.2187  2980.0000
 2494.9892    17.3125  1944.0000      .0308    43.2500    34.6191     2.2168  2990.0000
 2495.1416    17.5000  1943.0000      .0215    44.3125    33.6426     2.2070  2974.0000
 2495.2940    17.5000  1942.0000      .0322    44.3125    36.5234     2.2363  2974.0000
 2495.4464    17.5156  1942.0000      .0312    43.4062    36.1816     2.2441  2970.0000
 2495.5988    17.6094  1943.0000      .0181    41.2187    36.3770     2.2285  3000.0000
 2495.7512    17.6094  1943.0000      .0249    40.4687    35.0586     2.2207  3014.0000
 2495.9036    17.6094  1944.0000      .0166    45.6563    36.3281     2.2109  3034.0000
 2496.0560    17.6094  1945.0000      .0186    47.2500    38.7695     2.2441  3004.0000
 2496.2084    17.6250  1945.0000      .0166    45.5313    39.8438     2.2715  2990.0000
 2496.3608    17.5938  1945.0000      .0410    46.5938    40.5762     2.3008  3000.0000
 2496.5132    17.6250  1944.0000      .0356    47.4375    36.3770     2.2871  2980.0000
 2496.6656    17.6406  1943.0000      .0273    49.8750    36.4746     2.2559  2984.0000
 2496.8180    17.5938  1942.0000      .0127    48.5000    36.6699     2.2266  3004.0000
 2496.9704    17.6094  1942.0000      .0171    46.5938    40.8691     2.2227  3004.0000
 2497.1228    17.5938  1942.0000      .0249    48.0625    40.0391     2.2500  3000.0000
