~VERSION INFORMATION
VERS.                                                 2.0:   CWLS Log ASCII Standard-VERSION 2.0
WRAP.                                                  NO:   One line per depth step
~Well Information Block
STRT.M                                           625.0412:   Top Depth
STOP.M                                          4623.7124:   Bottom Depth
STEP.M                                             .15240:   Depth Increment
NULL.                                            -999.250:   Null Value
FLD .                                                   -:   Field Name
WELL.                                              15/2-1:   NAME
WBN .                                              15/2-1:   WELLBORE
NATI.                                                 NOR:   COUNTRY
CTRY.                                                 NOR:   COUNTRY
COMP.                                     NORSK HYDRO A/S:   OPERATOR
PROV.                                                   ?:   PROVINCE
COUN.                                             NORTRYM:   RIG NAME
SPUD.                                          1981/11/26:   SPUD DATE
LATI.                                       58 45 19.57 N:   SURF. LATITUDE
LONG.                                        1 35 40.54 E:   SURF. LONGITUDE
PBWE.                                              15/2-1:   PB WELL ID
APIN.                                              15/2-1:   PB WELLBORE ID
PBWS.                                                 all:   PB WELL NAME SET
~PARAMETER INFORMATION (log)
LNAM.                              FDC/CNL/GR  COMPOSITED:   NAME
LTYP.                                         DEPTH MATCH:   LOG TYPE
LSRV.                                            DEN/NEUT:   LOG SERVICE
LSOU.                                             SPT/NPD:   LOG SOURCE
LVSN.                                                   1:   LOG VERSION
BHIS.                                                   R:   BRIEF HISTORY
FHIS.                                             RAW-LIS:   FULL HISTORY
LCNM.                                        SCHLUMBERGER:   LOGGING CONTRACTOR
TOOL.                             FDC/CNL/GR (COMPOSITED):   TOOL STRING
~Curve Information Block
#MNEM.UNIT                                        API CODE    No Description
#=========                                        ========    == ===========
DEPT.M                                       00 001 00 00:     1  DEPTH
CALI.IN                                                  :     2  Caliper
CS.                                                      :     3  Cable Speed
DRHO.G/CC                                                :     4  Bulk density correction
GR.GAPI                                                  :     5  Gamma Ray
NPHI.%                                                   :     6  Neutron porosity
RHOB.G/CC                                                :     7  Bulk density
TENS.LB                                                  :     8  Cable Tension
~ASCII
# ...
  888.5408    17.5781  2190.0000     -.0010    47.2500    43.2129     2.0352  1405.0000
  888.6932    17.6719  2190.0000      .0063    45.7188    43.8477     2.0488  1435.0000
  888.8456    17.7500  2190.0000      .0122    48.1563    45.3613     2.0703  1410.0000
  888.9980    17.7813  2190.0000      .0137    47.1875    46.2402     2.0859  1415.0000
  889.1504    17.7813  2188.0000      .0117    48.0937    45.7031     2.0859  1435.0000
  889.3028    17.7813  2190.0000      .0122    46.2813    45.0195     2.0879  1395.0000
  889.4552    17.7813  2190.0000      .0083    46.8750    41.9434     2.0781  1460.0000
  889.6076    17.7813  2188.0000      .0103    43.0937    41.7480     2.0723  1480.0000
  889.7600    17.7813  2188.0000      .0020    42.7812    39.8438     2.0664  1440.0000
  889.9124    17.7813  2190.0000      .0107    40.6563    40.4785     2.0723  1455.0000
  890.0648    17.7969  2188.0000      .0166    42.2500    40.6250     2.0859  1385.0000
  890.2172    17.8281  2190.0000      .0254    44.4688    42.7734     2.0977  1455.0000
  890.3696    17.8594  2190.0000      .0190    45.6875    44.8730     2.0957  1405.0000
  890.5220    17.8594  2190.0000      .0093    46.8750    46.9727     2.0840  1430.0000
  890.6744    17.8594  2190.0000      .0024    45.2812    50.0977     2.0605  1405.0000
  890.8268    17.8594  2190.0000      .0034    45.2812    47.9980     2.0469  1445.0000
  890.9792    17.8906  2190.0000      .0054    41.6250    44.1406     2.0391  1425.0000
  891.1316    17.9531  2190.0000      .0249    43.7500    39.3066     2.0625  1425.0000
  891.2840    18.0000  2190.0000      .0273    46.1250    35.5957     2.0742  1445.0000
  891.4364    18.0000  2190.0000      .0068    51.6250    37.6465     2.0605  1425.0000
  891.5888    17.9688  2188.0000      .0010    51.4375    39.8438     2.0508  1440.0000
  891.7412    17.9531  2188.0000      .0034    52.1562    44.3848     2.0586  1405.0000
  891.8936    17.9219  2188.0000      .0151    52.2188    44.8242     2.0762  1450.0000
  892.0460    17.9375  2188.0000      .0186    52.5000    44.9707     2.0898  1445.0000
  892.1984    17.9219  2190.0000      .0107    53.3750    45.0195     2.0820  1425.0000
  892.3508    17.9531  2190.0000      .0317    52.1250    45.2637     2.1133  1410.0000
  892.5032    17.9531  2190.0000      .0264    52.7500    44.0918     2.1035  1470.0000
  892.6556    17.9688  2190.0000      .0327    50.3438    43.3594     2.1035  1400.0000
  892.8080    17.9688  2192.0000      .0166    47.8438    43.0176     2.0684  1465.0000
  892.9604    18.0000  2192.0000      .0234    44.9687    43.3105     2.0781  1405.0000
  893.1128    18.0469  2190.0000      .0210    47.0625    42.2852     2.0723  1450.0000
  893.2652    18.0469  2192.0000      .0117    49.5938    40.8691     2.0625  1435.0000
  893.4176    18.0469  2190.0000     -.0024    49.6250    40.7227     2.0449  1435.0000
  893.5700    18.0469  2190.0000     -.0034    47.8750    39.5996     2.0449  1425.0000
  893.7224    18.0469  2190.0000      .0000    48.4688    42.1387     2.0508  1435.0000
  893.8748    18.0781  2188.0000      .0093    49.9687    43.1152     2.0723  1430.0000
  894.0272    18.1250  2188.0000      .0205    48.1250    45.5566     2.0957  1420.0000
  894.1796    18.1406  2188.0000      .0176    48.0625    44.1895     2.1035  1440.0000
  894.3320    18.1563  2188.0000      .0298    46.5625    42.7734     2.1172  1450.0000
  894.4844    18.1719  2190.0000      .0127    49.3750    42.2852     2.0898  1440.0000
  894.6368    18.1719  2192.0000      .0200    47.8750    42.5781     2.0996  1465.0000
  894.7892    18.2188  2192.0000      .0078    48.4062    44.2871     2.0840  1440.0000
  894.9416    18.2188  2192.0000      .0151    44.9687    42.9199     2.1016  1430.0000
  895.0940    17.9688  2192.0000      .0210    49.0625    41.2109     2.1074  1440.0000
  895.2464    17.9375  2190.0000      .0171    46.6563    39.2578     2.0977  1415.0000
  895.3988    17.9219  2192.0000      .0024    47.6250    40.3809     2.0742  1450.0000
  895.5512    17.9375  2192.0000      .0005    46.6250    41.6992     2.0684  1410.0000
  895.7036    17.9375  2192.0000      .0190    47.8438    41.0645     2.0918  1465.0000
  895.8560    17.9219  2192.0000      .0278    43.7500    42.8223     2.0996  1425.0000
  896.0084    17.9375  2192.0000      .0171    40.9688    43.7500     2.0879  1440.0000
  896.1608    17.9531  2192.0000      .0088    41.6250    44.2383     2.0879  1465.0000
  896.3132    17.9531  2194.0000      .0137    47.5313    41.0645     2.1016  1435.0000
  896.4656    17.9688  2192.0000      .0317    50.8438    41.3086     2.1211  1445.0000
  896.6180    17.9531  2192.0000      .0186    50.1562    44.3848     2.0918  1425.0000
  896.7704    18.0000  2192.0000      .0225    47.6875    45.3613     2.0937  1440.0000
  896.9228    18.0313  2192.0000      .0146    43.1563    42.5293     2.0781  1445.0000
  897.0752    18.0313  2190.0000      .0239    44.4688    40.2344     2.0937  1410.0000
  897.2276    18.0000  2192.0000      .0293    45.3750    37.1582     2.0937  1465.0000
  897.3800    18.0469  2192.0000      .0342    44.1250    40.0391     2.0937  1445.0000
  897.5324    18.1719  2190.0000      .0132    41.5625    39.5020     2.0586  1470.0000
  897.6848    18.2813  2190.0000      .0127    42.7500    47.3633     2.0508  1450.0000
  897.8372    18.3281  2192.0000      .0151    44.0000    48.6816     2.0469  1415.0000
  897.9896    18.0938  2192.0000      .0332    48.9375    48.4375     2.0645  1440.0000
  898.1420    17.9375  2192.0000      .0420    46.7500    43.8477     2.0605  1415.0000
  898.2944    17.8125  2192.0000      .0405    46.7187    40.5762     2.0527  1465.0000
  898.4468    17.8594  2192.0000      .0537    38.4688    43.7988     2.0645  1420.0000
  898.5992    17.9219  2190.0000      .0474    37.6875    43.6035     2.0703  1430.0000
  898.7516    17.9375  2190.0000      .0317    37.7188    40.0879     2.0664  1425.0000
  898.9040    17.9219  2192.0000      .0220    41.4375    39.2090     2.0645  1460.0000
  899.0564    17.9531  2192.0000      .0234    38.8750    41.8457     2.0742  1430.0000
  899.2088    17.9219  2192.0000      .0342    40.6875    47.6562     2.0801  1455.0000
  899.3612    17.9063  2190.0000      .0317    40.6250    47.1680     2.0820  1440.0000
  899.5136    17.9063  2192.0000      .0103    42.5000    42.8711     2.0527  1430.0000
  899.6660    17.9219  2192.0000      .0176    42.4375    40.6250     2.0723  1430.0000
  899.8184    17.9375  2194.0000      .0107    42.0938    40.3320     2.0645  1435.0000
  899.9708    17.9375  2192.0000      .0269    43.8125    40.2344     2.0898  1425.0000
  900.1232    17.9688  2192.0000      .0205    44.4375    40.6738     2.0957  1420.0000
  900.2756    17.9688  2192.0000      .0269    47.0000    40.4297     2.1074  1450.0000
  900.4280    17.9531  2192.0000      .0181    44.3750    42.5293     2.0898  1400.0000
  900.5804    17.9531  2192.0000      .0020    40.4375    43.7500     2.0605  1480.0000
  900.7328    18.0000  2192.0000     -.0029    41.6250    40.6250     2.0488  1405.0000
  900.8852    18.0000  2192.0000     -.0054    46.2500    44.9707     2.0449  1460.0000
  901.0376    18.0000  2190.0000     -.0024    50.1875    43.9453     2.0488  1435.0000
  901.1900    18.0000  2192.0000     -.0015    47.4375    47.6562     2.0508  1455.0000
  901.3424    17.9531  2192.0000     -.0068    45.2500    45.3125     2.0469  1405.0000
  901.4948    17.9219  2194.0000     -.0137    43.4062    45.6055     2.0312  1430.0000
  901.6472    17.9375  2192.0000     -.0117    43.5625    43.0664     2.0312  1410.0000
  901.7996    17.9531  2192.0000     -.0068    43.2812    40.7227     2.0332  1455.0000
  901.9520    17.9531  2192.0000      .0073    44.5625    41.9922     2.0586  1470.0000
  902.1044    18.0313  2192.0000      .0024    45.0000    44.1895     2.0391  1425.0000
  902.2568    18.0625  2192.0000      .0205    44.4063    42.5781     2.0527  1465.0000
