~VERSION INFORMATION
VERS.                                                 2.0:   CWLS Log ASCII Standard-VERSION 2.0
WRAP.                                                  NO:   One line per depth step
~Well Information Block
STRT.M                                           599.2856:   Top Depth
STOP.M                                          5052.7184:   Bottom Depth
STEP.M                                             .15240:   Depth Increment
NULL.                                            -999.250:   Null Value
FLD .                                                   -:   Field Name
WELL.                                              15/5-3:   NAME
WBN .                                              15/5-3:   WELLBORE
NATI.                                                 NOR:   COUNTRY
CTRY.                                                 NOR:   COUNTRY
COMP.                                     NORSK HYDRO A/S:   OPERATOR
PROV.                                                   -:   PROVINCE
COUN.                                             NORTRYM:   RIG NAME
SPUD.                                          1980/08/22:   SPUD DATE
LATI.                                       58 45 47.93 N:   SURF. LATITUDE
LONG.                                        1 38 12.05 E:   SURF. LONGITUDE
PBWE.                                              15/5-3:   PB WELL ID
APIN.                                              15/5-3:   PB WELLBORE ID
PBWS.                                                 all:   PB WELL NAME SET
~PARAMETER INFORMATION (log)
LNAM.                              FDC/CNL/GR  COMPOSITED:   NAME
LTYP.                                         DEPTH MATCH:   LOG TYPE
LSRV.                                            DEN/NEUT:   LOG SERVICE
LSOU.                                             SPT/NPD:   LOG SOURCE
LVSN.                                                   1:   LOG VERSION
BHIS.                                                   R:   BRIEF HISTORY
FHIS.                                             RAW-LIS:   FULL HISTORY
LCNM.                                        SCHLUMBERGER:   LOGGING CONTRACTOR
TOOL.                             FDC/CNL/GR (COMPOSITED):   TOOL STRING
~Curve Information Block
#MNEM.UNIT                                        API CODE    No Description
#=========                                        ========    == ===========
DEPT.M                                       00 001 00 00:     1  DEPTH
CALI.IN                                                  :     2  Caliper
CS.                                                      :     3  Cable Speed
DRHO.G/CC                                                :     4  Bulk density correction
GR.GAPI                                                  :     5  Gamma Ray
NPHI.%                                                   :     6  Neutron porosity
RHOB.G/CC                                                :     7  Bulk density
TENS.LB                                                  :     8  Cable Tension
~ASCII
# ...
 1778.0996    19.3906  2060.0000      .0020    41.6875  -999.2500     1.9209  2304.0000
 1778.2520    19.8750  2060.0000      .0107    43.8438  -999.2500     1.9385  2284.0000
 1778.4044    18.4219  2058.0000      .0000    44.1563  -999.2500     1.9199  2304.0000
 1778.5568    19.2813  2058.0000      .0005    49.9375  -999.2500     1.9258  2300.0000
 1778.7092    19.7969  2056.0000     -.0063    45.8125  -999.2500     1.9180  2294.0000
 1778.8616    20.4375  2056.0000     -.0059    43.4062  -999.2500     1.9336  2300.0000
 1779.0140    19.7188  2056.0000     -.0068    34.9375  -999.2500     1.9092  2284.0000
 1779.1664    19.3125  2056.0000     -.0054    41.3125  -999.2500     1.9414  2294.0000
 1779.3188    18.9219  2056.0000      .0122    42.2500  -999.2500     1.9805  2290.0000
 1779.4712    19.0000  2058.0000      .0093    43.6563  -999.2500     1.9951  2280.0000
 1779.6236    19.2344  2058.0000      .0107    40.9688  -999.2500     1.9697  2300.0000
 1779.7760    20.1719  2056.0000     -.0029    39.7500  -999.2500     1.9170  2300.0000
 1779.9284    20.6719  2052.0000     -.0054    40.4063  -999.2500     1.9033  2270.0000
 1780.0808    20.7031  2050.0000     -.0068    40.2188  -999.2500     1.8945  2304.0000
 1780.2332    20.8125  2050.0000     -.0068    38.6563  -999.2500     1.9053  2330.0000
 1780.3856    19.7344  2052.0000     -.0122    36.5938  -999.2500     1.9053  2324.0000
 1780.5380    18.7344  2054.0000     -.0107    39.9687  -999.2500     1.9141  2300.0000
 1780.6904    18.9375  2054.0000     -.0103    43.3125  -999.2500     1.9189  2284.0000
 1780.8428    18.9531  2054.0000     -.0063    42.7188  -999.2500     1.9346  2304.0000
 1780.9952    19.1094  2056.0000     -.0010    39.2813  -999.2500     1.9561  2304.0000
 1781.1476    18.5313  2058.0000      .0122    40.1562  -999.2500     1.9717  2284.0000
 1781.3000    19.0938  2060.0000      .0161    46.6875  -999.2500     1.9863  2280.0000
 1781.4524    19.0938  2060.0000     -.0005    46.9688  -999.2500     1.9717  2300.0000
 1781.6048    19.3594  2058.0000     -.0059    44.7188  -999.2500     1.9766  2300.0000
 1781.7572    19.0156  2056.0000      .0005    36.8750  -999.2500     1.9873  2274.0000
 1781.9096    19.2813  2058.0000      .0181    31.2031  -999.2500     1.9941  2294.0000
 1782.0620    19.1719  2058.0000     -.0005    31.1563  -999.2500     1.9346  2310.0000
 1782.2144    18.1250  2060.0000     -.0200    29.7969  -999.2500     1.9150  2300.0000
 1782.3668    18.2656  2060.0000     -.0225    33.3750  -999.2500     1.9395  2300.0000
 1782.5192    18.4063  2060.0000     -.0093    33.0313  -999.2500     2.0039  2290.0000
 1782.6716    19.0156  2060.0000      .0181    34.2188  -999.2500     2.0332  2300.0000
 1782.8240    19.0781  2060.0000      .0259    33.3438  -999.2500     2.0312  2284.0000
 1782.9764    19.5469  2060.0000     -.0010    35.8750  -999.2500     1.9609  2290.0000
 1783.1288    18.9063  2056.0000     -.0044    38.6875  -999.2500     1.9248  2304.0000
 1783.2812    18.7188  2056.0000     -.0142    38.5000  -999.2500     1.8926  2304.0000
 1783.4336    18.5781  2054.0000      .0000    37.3438  -999.2500     1.9238  2290.0000
 1783.5860    18.2656  2054.0000     -.0117    35.6875  -999.2500     1.9424  2304.0000
 1783.7384    17.8438  2054.0000     -.0063    33.6250  -999.2500     1.9756  2314.0000
 1783.8908    18.2344  2056.0000     -.0044    31.9375  -999.2500     2.0254  2290.0000
 1784.0432    18.7344  2056.0000      .0142    30.9375  -999.2500     2.0430  2310.0000
 1784.1956    19.0938  2054.0000      .0078    31.2031  -999.2500     2.0176  2304.0000
 1784.3480    17.8750  2054.0000     -.0005    30.4063  -999.2500     1.9766  2284.0000
 1784.5004    18.7813  2052.0000      .0000    30.2500  -999.2500     1.9658  2304.0000
 1784.6528    19.4688  2052.0000      .0005    30.5937  -999.2500     1.9473  2290.0000
 1784.8052    18.5469  2052.0000     -.0024    31.4844  -999.2500     1.9326  2314.0000
 1784.9576    19.6094  2052.0000     -.0029    32.4063  -999.2500     1.9336  2304.0000
 1785.1100    20.1406  2052.0000      .0024    34.8438  -999.2500     1.9668  2294.0000
 1785.2624    20.0938  2052.0000      .0000    35.5000  -999.2500     1.9375  2314.0000
 1785.4148    20.7969  2052.0000     -.0054    35.1250  -999.2500     1.8965  2290.0000
 1785.5672    19.2344  2052.0000     -.0083    32.6250  -999.2500     1.8750  2284.0000
 1785.7196    18.3750  2054.0000     -.0010    29.6562  -999.2500     1.9180  2310.0000
 1785.8720    19.6094  2056.0000      .0127    29.0312  -999.2500     1.9648  2290.0000
 1786.0244    19.1406  2054.0000      .0171    29.9687  -999.2500     1.9697  2304.0000
 1786.1768    19.8281  2054.0000     -.0020    33.5313  -999.2500     1.8799  2310.0000
 1786.3292    19.5781  2050.0000     -.0093    37.0625  -999.2500     1.8408  2300.0000
 1786.4816    19.2344  2050.0000     -.0146    35.6563  -999.2500     1.8359  2300.0000
 1786.6340    19.8750  2050.0000     -.0181    34.2500  -999.2500     1.9404  2300.0000
 1786.7864    18.7813  2052.0000     -.0020    30.4688  -999.2500     2.0645  2314.0000
 1786.9388    19.5469  2050.0000      .0220    33.2500  -999.2500     2.1133  2304.0000
 1787.0912    20.0313  2050.0000      .0347    31.7344  -999.2500     2.0605  2294.0000
 1787.2436    19.6094  2052.0000      .0244    33.4375  -999.2500     1.9785  2320.0000
 1787.3960    19.8906  2052.0000     -.0044    31.1094  -999.2500     1.8975  2300.0000
 1787.5484    19.6406  2054.0000     -.0122    30.7813  -999.2500     1.8359  2290.0000
 1787.7008    19.4219  2052.0000     -.0186    28.2188  -999.2500     1.8125  2330.0000
 1787.8532    18.8125  2048.0000     -.0137    27.6719  -999.2500     1.8525  2300.0000
 1788.0056    18.2344  2045.0000     -.0205    30.0313  -999.2500     1.9336  2324.0000
 1788.1580    18.3906  2044.0000     -.0132    31.2656  -999.2500     2.0293  2324.0000
 1788.3104    18.9375  2044.0000     -.0039    32.9688  -999.2500     2.0645  2310.0000
 1788.4628    18.9219  2045.0000      .0342    33.1250  -999.2500     2.0781  2300.0000
 1788.6152    18.9688  2046.0000      .0298    35.0000  -999.2500     2.0195  2300.0000
 1788.7676    19.6094  2045.0000      .0264    34.1563  -999.2500     1.9814  2300.0000
 1788.9200    20.0469  2046.0000      .0078    37.4687  -999.2500     1.9326  2310.0000
 1789.0724    19.9688  2048.0000      .0000    35.7500  -999.2500     1.9268  2310.0000
 1789.2248    20.6250  2050.0000      .0088    38.2813  -999.2500     1.9561  2294.0000
 1789.3772    19.0781  2050.0000      .0249    34.5000  -999.2500     1.9854  2320.0000
 1789.5296    19.9219  2046.0000      .0244    36.5625  -999.2500     1.9668  2320.0000
 1789.6820    20.6563  2045.0000      .0054    35.5313  -999.2500     1.9180  2300.0000
 1789.8344    20.1094  2045.0000     -.0049    34.8438  -999.2500     1.9072  2340.0000
 1789.9868    20.1875  2048.0000     -.0010    33.9375  -999.2500     1.9199  2304.0000
 1790.1392    19.8594  2050.0000     -.0059    33.8750  -999.2500     1.9229  2284.0000
 1790.2916    19.7031  2052.0000     -.0117    36.6250  -999.2500     1.9121  2330.0000
 1790.4440    19.3750  2054.0000     -.0137    36.6875  -999.2500     1.9150  2310.0000
 1790.5964    19.6406  2054.0000     -.0112    37.8125  -999.2500     1.9229  2294.0000
 1790.7488    18.8125  2054.0000     -.0034    38.3750  -999.2500     1.9414  2304.0000
 1790.9012    18.5000  2054.0000     -.0034    38.3438  -999.2500     1.9434  2300.0000
 1791.0536    18.7500  2052.0000      .0068    35.1563  -999.2500     1.9590  2300.0000
 1791.2060    18.7188  2050.0000      .0024    36.1250  -999.2500     1.9424  2310.0000
 1791.3584    18.4219  2048.0000      .0029    34.5625  -999.2500     1.9404  2300.0000
 1791.5108    19.1719  2048.0000      .0000    35.2812  -999.2500     1.9297  2280.0000
 1791.6632    19.1875  2050.0000     -.0024    31.7813  -999.2500     1.9287  2320.0000
 1791.8156    18.6719  2052.0000     -.0015    33.9688  -999.2500     1.9297  2310.0000
