~VERSION INFORMATION
VERS.                                                 2.0:   CWLS Log ASCII Standard-VERSION 2.0
WRAP.                                                  NO:   One line per depth step
~Well Information Block
STRT.M                                           599.2856:   Top Depth
STOP.M                                          5052.7184:   Bottom Depth
STEP.M                                             .15240:   Depth Increment
NULL.                                            -999.250:   Null Value
FLD .                                                   -:   Field Name
WELL.                                              15/5-3:   NAME
WBN .                                              15/5-3:   WELLBORE
NATI.                                                 NOR:   COUNTRY
CTRY.                                                 NOR:   COUNTRY
COMP.                                     NORSK HYDRO A/S:   OPERATOR
PROV.                                                   -:   PROVINCE
COUN.                                             NORTRYM:   RIG NAME
SPUD.                                          1980/08/22:   SPUD DATE
LATI.                                       58 45 47.93 N:   SURF. LATITUDE
LONG.                                        1 38 12.05 E:   SURF. LONGITUDE
PBWE.                                              15/5-3:   PB WELL ID
APIN.                                              15/5-3:   PB WELLBORE ID
PBWS.                                                 all:   PB WELL NAME SET
~PARAMETER INFORMATION (log)
LNAM.                              FDC/CNL/GR  COMPOSITED:   NAME
LTYP.                                         DEPTH MATCH:   LOG TYPE
LSRV.                                            DEN/NEUT:   LOG SERVICE
LSOU.                                             SPT/NPD:   LOG SOURCE
LVSN.                                                   1:   LOG VERSION
BHIS.                                                   R:   BRIEF HISTORY
FHIS.                                             RAW-LIS:   FULL HISTORY
LCNM.                                        SCHLUMBERGER:   LOGGING CONTRACTOR
TOOL.                             FDC/CNL/GR (COMPOSITED):   TOOL STRING
~Curve Information Block
#MNEM.UNIT                                        API CODE    No Description
#=========                                        ========    == ===========
DEPT.M                                       00 001 00 00:     1  DEPTH
CALI.IN                                                  :     2  Caliper
CS.                                                      :     3  Cable Speed
DRHO.G/CC                                                :     4  Bulk density correction
GR.GAPI                                                  :     5  Gamma Ray
NPHI.%                                                   :     6  Neutron porosity
RHOB.G/CC                                                :     7  Bulk density
TENS.LB                                                  :     8  Cable Tension
~ASCII
# ...
 2374.4408    12.3516  -999.2500      .0063    52.5313    30.2734     2.3223  2934.7686
 2374.5932    12.3750  -999.2500      .0142    54.1563    33.5938     2.3496  2937.2505
 2374.7456    12.3594  -999.2500     -.0078    52.3437    36.7188     2.3145  2944.5566
 2374.8980    12.3594  -999.2500     -.0176    52.4063    39.8926     2.2871  2951.8628
 2375.0504    12.3594  -999.2500     -.0151    47.5625    38.5784     2.2754  2959.1807
 2375.2028    12.3828  -999.2500     -.0044    47.1562    35.7422     2.3008  2963.2803
 2375.3552    12.3985  -999.2500      .0224    44.5331    34.0820     2.3495  2950.9712
 2375.5076    12.4066  -999.2500      .0083    45.0848    31.0547     2.3105  2938.6431
 2375.6600    12.5078  -999.2500      .0137    42.2813    32.0768     2.3027  2926.3340
 2375.8124    12.5859  -999.2500      .0122    41.1563    30.4688     2.2988  2917.6650
 2375.9648    12.6250  -999.2500      .0259    39.9687    30.8594     2.3555  2926.9893
 2376.1172    12.1562  -999.2500      .0107    40.0313    30.8594     2.3359  2936.3354
 2376.2696    12.2031  -999.2500     -.0083    37.1562    33.0078     2.3027  2959.4751
 2376.4220    12.1016  -999.2500     -.0210    34.9375    32.5195     2.2520  2982.5776
 2376.5744    12.0546  -999.2500     -.0224    34.3582    30.0293     2.2481  2965.8809
 2376.7268    12.0391  -999.2500     -.0161    38.8622    28.4180     2.2716  2941.4077
 2376.8792    12.0547  -999.2500     -.0054    44.6069    28.9551     2.3027  2917.1309
 2377.0316    12.0625  -999.2500     -.0093    48.7187    30.2692     2.3027  2922.0483
 2377.1840    12.0781  -999.2500     -.0068    49.1563    30.1270     2.3027  2926.9658
 2377.3364    12.1016  -999.2500     -.0195    48.9375    31.6895     2.2832  2931.8828
 2377.4888    12.0859  -999.2500     -.0190    44.8750    32.1289     2.2832  2936.8003
 2377.6412    12.1016  -999.2500     -.0205    46.0625    33.1543     2.2773  2947.6411
 2377.7936    12.1016  -999.2500     -.0117    41.6250    31.6895     2.2832  2942.8047
 2377.9460    12.1798  -999.2500     -.0083    41.6156    32.2266     2.2754  2942.9438
 2378.0984    12.2109  -999.2500     -.0098    38.6929    32.8125     2.2636  2943.0830
 2378.2508    12.2109  -999.2500     -.0132    40.3750    34.4187     2.2461  2943.2227
 2378.4032    12.1094  -999.2500      .0000    37.2188    32.5684     2.2480  2943.3613
 2378.5556    12.0156  -999.2500     -.0010    36.3438    32.0801     2.2207  2933.3101
 2378.7080    12.0625  -999.2500     -.0029    35.7500    29.6387     2.2031  2926.1616
 2378.8604    12.1094  -999.2500     -.0073    37.2500    27.4414     2.1973  2924.1387
 2379.0128    12.1328  -999.2500     -.0049    37.0625    26.1273     2.2051  2924.0146
 2379.1652    12.1641  -999.2500     -.0044    36.5625    26.9531     2.2168  2924.1538
 2379.3176    12.1797  -999.2500     -.0083    34.9932    29.7363     2.2051  2923.9819
 2379.4700    12.1795  -999.2500     -.0068    32.8730    32.4219     2.2070  2916.8950
 2379.6224    12.1094  -999.2500     -.0024    32.2500    31.8378     2.1914  2919.9297
 2379.7748    12.1875  -999.2500      .0005    33.3125    34.9609     2.1816  2934.6621
 2379.9272    12.3516  -999.2500     -.0010    31.7344    32.4707     2.1660  2934.8018
 2380.0796    12.4062  -999.2500     -.0083    29.1250    33.2520     2.1660  2936.7187
 2380.2320    12.2812  -999.2500     -.0137    25.3281    29.4922     2.1484  2941.8423
 2380.3844    12.1562  -999.2500     -.0181    26.3438    29.0039     2.1426  2945.1714
 2380.5368    12.1642  -999.2500     -.0122    28.3818    29.8340     2.1348  2935.3579
 2380.6892    12.2111  -999.2500     -.0073    30.4966    28.6621     2.1524  2930.1138
 2380.8416    12.2498  -999.2500     -.0083    29.4325    28.1250     2.1583  2925.4683
 2380.9940    12.2031  -999.2500     -.0024    27.8750    29.0984     2.1895  2918.1338
 2381.1464    12.2109  -999.2500     -.0083    28.4688    29.3457     2.1836  2916.0093
 2381.2988    12.2031  -999.2500     -.0132    29.6094    30.6641     2.1738  2916.1479
 2381.4512    12.1875  -999.2500     -.0283    31.3438    30.6641     2.1426  2917.2441
 2381.6036    12.2031  -999.2500     -.0264    30.9062    33.6426     2.1582  2926.4800
 2381.7560    12.2031  -999.2500     -.0215    31.4844    35.1563     2.1738  2929.6045
 2381.9084    12.2109  -999.2500     -.0171    27.5831    34.0332     2.1934  2932.1362
 2382.0608    12.2030  -999.2500     -.0181    29.1386    35.0586     2.1914  2936.7495
 2382.2132    12.1562  -999.2500     -.0151    28.5156    33.0144     2.2012  2931.9121
 2382.3656    12.1562  -999.2500     -.0166    29.5469    30.3711     2.1934  2931.4980
 2382.5180    12.1797  -999.2500     -.0103    31.1875    27.7344     2.1934  2924.5820
 2382.6704    12.2500  -999.2500     -.0059    29.5156    29.3945     2.1836  2917.3994
 2382.8228    12.2812  -999.2500      .0166    30.6719    32.5684     2.2109  2917.5386
 2382.9752    12.3125  -999.2500     -.0010    26.8594    32.9091     2.1895  2937.5845
 2383.1276    12.3359  -999.2500     -.0146    28.0313    31.2988     2.1855  2951.6621
 2383.2800    12.4063  -999.2500     -.0303    29.6441    30.9570     2.1719  2962.4731
 2383.4324    12.4218  -999.2500     -.0293    30.7152    32.2754     2.1699  2971.7495
 2383.5848    12.4062  -999.2500     -.0234    29.6094    32.5674     2.1621  2945.6870
 2383.7372    12.4219  -999.2500     -.0293    27.4531    31.0547     2.1523  2919.6665
 2383.8896    12.3594  -999.2500     -.0361    26.8437    28.3203     2.1523  2909.2524
 2384.0420    12.3281  -999.2500     -.0361    26.8125    29.5898     2.1602  2924.3223
 2384.1944    12.2734  -999.2500     -.0308    25.7031    31.0547     2.1680  2939.4136
 2384.3468    12.2891  -999.2500     -.0210    24.1250    32.8125     2.1836  2953.0503
 2384.4992    12.3126  -999.2500     -.0180    27.0108    32.5684     2.1875  2943.2319
 2384.6516    12.3358  -999.2500     -.0122    30.3783    32.6660     2.1914  2933.3965
 2384.8040    12.3046  -999.2500     -.0102    31.4039    32.1289     2.1817  2927.8037
 2384.9564    12.2891  -999.2500     -.0034    30.6719    31.8369     2.1875  2919.4858
 2385.1088    12.2109  -999.2500     -.0049    28.9219    28.9551     2.1758  2919.6245
 2385.2612    12.2109  -999.2500     -.0132    30.0781    30.2246     2.1777  2914.7866
 2385.4136    12.3125  -999.2500     -.0190    27.9219    28.1250     2.1875  2921.8281
 2385.5660    12.2266  -999.2500     -.0117    27.3281    29.3945     2.2187  2925.8569
 2385.7184    12.5000  -999.2500      .0015    27.7969    26.9531     2.2148  2930.1357
 2385.8708    12.3357  -999.2500      .0004    29.4451    27.8320     2.2030  2940.2290
 2386.0232    12.2733  -999.2500     -.0157    31.7903    29.0039     2.1739  2950.3228
 2386.1756    12.2345  -999.2500     -.0273    29.7396    28.9551     2.1916  2953.1597
 2386.3280    12.2891  -999.2500     -.0293    26.4844    28.3691     2.2461  2950.6016
 2386.4804    12.2734  -999.2500     -.0107    22.5469    23.8770     2.3379  2948.9697
 2386.6328    12.2031  -999.2500      .0005    22.9531    20.0684     2.4121  2940.9253
 2386.7852    12.1875  -999.2500      .0151    23.4844    17.0898     2.4336  2951.0195
 2386.9376    12.1797  -999.2500      .0039    24.0312    19.3774     2.3867  3012.2109
 2387.0900    12.1875  -999.2500     -.0117    24.0312    25.3906     2.2969  2997.3398
 2387.2424    12.2891  -999.2500     -.0166    26.2275    28.9063     2.2362  2959.4775
 2387.3948    12.3045  -999.2500     -.0146    28.9481    32.3242     2.2032  2949.6621
 2387.5472    12.2344  -999.2500     -.0063    27.3750    30.8154     2.2324  2932.3086
 2387.6996    12.1641  -999.2500     -.0029    26.9375    29.9805     2.2383  2919.9790
 2387.8520    12.1875  -999.2500     -.0020    25.8750    28.3203     2.2461  2912.1729
 2388.0044    12.2344  -999.2500      .0044    27.4844    27.9297     2.2383  2912.3120
 2388.1568    12.2266  -999.2500     -.0034    27.3438    26.8555     2.2227  2913.4937
