~VERSION INFORMATION
VERS.                                                 2.0:   CWLS Log ASCII Standard-VERSION 2.0
WRAP.                                                  NO:   One line per depth step
~Well Information Block
STRT.M                                           599.2856:   Top Depth
STOP.M                                          5052.7184:   Bottom Depth
STEP.M                                             .15240:   Depth Increment
NULL.                                            -999.250:   Null Value
FLD .                                                   -:   Field Name
WELL.                                              15/5-3:   NAME
WBN .                                              15/5-3:   WELLBORE
NATI.                                                 NOR:   COUNTRY
CTRY.                                                 NOR:   COUNTRY
COMP.                                     NORSK HYDRO A/S:   OPERATOR
PROV.                                                   -:   PROVINCE
COUN.                                             NORTRYM:   RIG NAME
SPUD.                                          1980/08/22:   SPUD DATE
LATI.                                       58 45 47.93 N:   SURF. LATITUDE
LONG.                                        1 38 12.05 E:   SURF. LONGITUDE
PBWE.                                              15/5-3:   PB WELL ID
APIN.                                              15/5-3:   PB WELLBORE ID
PBWS.                                                 all:   PB WELL NAME SET
~PARAMETER INFORMATION (log)
LNAM.                              FDC/CNL/GR  COMPOSITED:   NAME
LTYP.                                         DEPTH MATCH:   LOG TYPE
LSRV.                                            DEN/NEUT:   LOG SERVICE
LSOU.                                             SPT/NPD:   LOG SOURCE
LVSN.                                                   1:   LOG VERSION
BHIS.                                                   R:   BRIEF HISTORY
FHIS.                                             RAW-LIS:   FULL HISTORY
LCNM.                                        SCHLUMBERGER:   LOGGING CONTRACTOR
TOOL.                             FDC/CNL/GR (COMPOSITED):   TOOL STRING
~Curve Information Block
#MNEM.UNIT                                        API CODE    No Description
#=========                                        ========    == ===========
DEPT.M                                       00 001 00 00:     1  DEPTH
CALI.IN                                                  :     2  Caliper
CS.                                                      :     3  Cable Speed
DRHO.G/CC                                                :     4  Bulk density correction
GR.GAPI                                                  :     5  Gamma Ray
NPHI.%                                                   :     6  Neutron porosity
RHOB.G/CC                                                :     7  Bulk density
TENS.LB                                                  :     8  Cable Tension
~ASCII
# ...
 3858.3596     9.7457  2145.6763      .0102    13.5913    -1.6444     2.0937  3514.9541
 3858.5120     9.6582  2144.0103      .0012    13.3216    -1.5631     2.0844  3516.6250
 3858.6644     9.6963  2144.3345      .0055    13.0257    -1.5706     2.0892  3502.4458
 3858.8168     9.6825  2146.3228      .0117    12.2059    -1.6191     2.1041  3516.5957
 3858.9692     9.7586  2147.6582      .0117    10.3349    -1.6678     2.0951  3532.2329
 3859.1216     9.6816  2145.6826     -.0010     8.7734    -1.7086     2.0805  3543.2324
 3859.2740     9.6111  2144.0146     -.0045     7.9170    -1.6930     2.0733  3538.3687
 3859.4264     9.4610  2144.0000     -.0037     7.8330    -1.6281     2.0804  3529.0654
 3859.5788     9.6519  2144.3286      .0063     7.6195    -1.7161     2.0914  3522.3994
 3859.7312     9.6768  2146.3140      .0160     7.8924    -1.7574     2.0879  3511.7671
 3859.8836     9.6228  2147.9829      .0140     7.8480    -1.7498     2.0773  3502.4355
 3860.0360     9.4652  2148.3301      .0159     7.6970    -1.7334     2.0730  3512.2290
 3860.1884     9.7033  2150.3105      .0176     8.4003    -1.8620     2.0765  3507.3638
 3860.3408     9.6748  2151.9829      .0187     9.4283    -1.9038     2.0794  3521.5347
 3860.4932     9.6462  2152.3286      .0199     9.3964    -1.8884     2.0846  3514.0942
 3860.6456     9.6111  2153.6499      .0121     9.2556    -1.7999     2.0827  3535.3901
 3860.7980     9.5052  2152.0210      .0214    10.0837    -1.7584     2.1039  3539.9541
 3860.9504     9.5448  2151.3481      .0170    11.6415    -1.7657     2.1016  3523.5122
 3861.1028     9.6381  2147.7188      .0263    11.5539    -1.7982     2.1170  3536.4893
 3861.2552     9.5713  2145.6987      .0175    10.7727    -1.7585     2.0967  3523.5205
 3861.4076     9.6640  2144.0229      .0182     9.2837    -1.7657     2.0883  3536.4946
 3861.5600     9.7653  2143.6753      .0178     9.5608    -1.8060     2.0827  3521.8569
 3861.7124     9.8667  2142.0273      .0245     9.7293    -1.8066     2.0971  3526.6060
 3861.8648     9.9174  2142.0000      .0267    10.4836    -1.7909     2.1041  3511.9028
 3862.0172     9.7349  2142.3247      .0173    10.4816    -1.7103     2.0959  3520.5132
 3862.1696     9.6805  2144.2949      .0092    10.5420    -1.7168     2.0870  3520.0742
 3862.3220     9.6948  2145.9722      .0042     9.7438    -1.7649     2.0914  3498.7192
 3862.4744     9.7227  2146.3232     -.0027     9.6978    -1.7902     2.0889  3495.6567
 3862.6268     9.5077  2147.9683     -.0049     9.4878    -1.7184     2.0819  3526.6943
 3862.7792     9.6348  2148.3237     -.0054     9.6517    -1.7492     2.0686  3542.0835
 3862.9316     9.4247  2149.9683     -.0049     9.0940    -1.7175     2.0594  3535.1201
 3863.0840     9.4230  2150.0000     -.0011     8.8836    -1.7647     2.0643  3537.3198
 3863.2364     9.4779  2150.0000      .0090     9.1290    -1.8058     2.0791  3522.0146
 3863.3888     9.5088  2150.3218      .0239     9.2015    -1.7989     2.1043  3510.2368
 3863.5412     9.3982  2152.6045      .0251     9.7606    -1.7510     2.0985  3511.5962
 3863.6936     9.4069  2155.9238      .0085    10.2533    -1.7099     2.0805  3519.8096
 3863.8460     9.5459  2155.3599      .0046    11.4560    -1.7167     2.0737  3518.3989
 3863.9984     9.6073  2151.4292      .0042    12.1752    -1.7337     2.0911  3512.4282
 3864.1508     9.4665  2147.7563      .0121    12.8922    -1.6143     2.1022  3522.1357
 3864.3032     9.5675  2146.0381      .0195    12.7013    -1.6113     2.1153  3515.7764
 3864.4556     9.6266  2146.3188      .0185    12.9887    -1.6036     2.1070  3523.7988
 3864.6080     9.5075  2147.9575      .0202    13.1613    -1.5636     2.1033  3527.1797
 3864.7604     9.4472  2147.6816      .0198    13.7667    -1.5702     2.1022  3545.1904
 3864.9128     9.5917  2146.0400      .0243    14.1608    -1.6027     2.1072  3553.7983
 3865.0652     9.3845  2146.3169      .0255    15.1014    -1.5788     2.1123  3555.5845
 3865.2176     9.6618  2148.2725      .0058    15.8129    -1.6502     2.0864  3559.0244
 3865.3700     9.5976  2149.9556      .0002    13.9357    -1.6124     2.0748  3531.5000
 3865.5224     9.5155  2149.6860      .0040    11.7878    -1.6189     2.0767  3512.2485
 3865.6748     9.6574  2148.0464      .0097    10.2585    -1.6590     2.0800  3500.9580
 3865.8272     9.6107  2148.6294      .0076    10.8189    -1.6450     2.0810  3506.4209
 3865.9796     9.4131  2152.2227      .0063    11.9900    -1.5573     2.0883  3524.3643
 3866.1320     9.4311  2153.9531      .0089    14.4566    -1.5149     2.1037  3548.3555
 3866.2844     9.4976  2154.0000      .0122    16.4329    -1.4986     2.1156  3549.7573
 3866.4368     9.3873  2154.3135      .0099    16.3114    -1.4262     2.1074  3576.5767
 3866.5892     9.4209  2155.9492      .0089    13.4428    -1.4711     2.0951  3559.7021
 3866.7416     9.3644  2155.6870      .0142    10.1494    -1.5199     2.0885  3533.1963
 3866.8940     9.2768  2153.4297      .0146     8.2025    -1.5762     2.0828  3520.5269
 3867.0464     9.3663  2149.1748      .0253     7.8906    -1.6650     2.0962  3502.2158
 3867.1988     9.4275  2143.8535      .0271     8.3018    -1.7076     2.0987  3511.9048
 3867.3512     9.4602  2142.0527      .0139    10.5820    -1.7090     2.0857  3527.6860
 3867.5036     9.4328  2142.0000      .0146    11.6293    -1.7015     2.0925  3551.4448
 3867.6560     9.4632  2142.0000      .0162    12.1493    -1.6467     2.1008  3566.7036
 3867.8084     9.3763  2142.3096      .0241    10.2014    -1.5729     2.1167  3575.0625
 3867.9608     9.4152  2143.6353      .0200     7.8333    -1.6099     2.1054  3531.5474
 3868.1132     9.2972  2142.0571      .0126     6.7275    -1.6261     2.0928  3529.0791
 3868.2656     9.4599  2142.0000      .0180     7.1951    -1.7061     2.0956  3522.0415
 3868.4180     9.5926  2142.3052      .0212     8.8291    -1.7016     2.0993  3512.5684
 3868.5704     9.4746  2144.2432      .0325     9.3646    -1.6544     2.1169  3527.5366
 3868.7228     9.3892  2145.6338      .0320     9.0467    -1.6350     2.1091  3555.2983
 3868.8752     9.5588  2144.0615      .0331     8.5260    -1.7531     2.1006  3585.7393
 3869.0276     9.5222  2144.3042      .0195     8.5454    -1.7505     2.0733  3568.2041
 3869.1800     9.4281  2145.9341      .0142     8.9754    -1.7033     2.0743  3552.4033
 3869.3324     9.4370  2146.3042      .0191    10.2882    -1.6544     2.0885  3540.4463
 3869.4848     9.4280  2147.9360      .0224    12.0715    -1.6129     2.1051  3538.4814
 3869.6372     9.3818  2147.3955      .0188    13.1350    -1.6113     2.1079  3530.3403
 3869.7896     9.4158  2143.5317      .0115    12.7734    -1.6113     2.1118  3530.6040
 3869.9420     9.4565  2139.8286      .0134    11.7964    -1.6040     2.1166  3536.2930
 3870.0944     9.3740  2137.4648      .0249    11.9928    -1.5715     2.1244  3553.9785
 3870.2468     9.4647  2134.7349      .0272    11.6397    -1.6312     2.1222  3572.9927
 3870.3992     9.6484  2137.8560      .0356    10.7573    -1.7525     2.1148  3540.5415
 3870.5516     9.4886  2138.0000      .0281    10.1340    -1.7434     2.0994  3532.1177
 3870.7040     9.2398  2138.3003      .0271    11.0486    -1.6709     2.0919  3521.0923
 3870.8564     9.3042  2139.9272      .0130    12.0150    -1.7000     2.0809  3523.2607
 3871.0088     9.2329  2140.0000      .0118    11.4528    -1.6691     2.0799  3523.1367
 3871.1612     9.3802  2140.2983      .0049     9.8220    -1.6927     2.0689  3538.3594
 3871.3136     9.3058  2141.9253      .0087     9.7808    -1.6295     2.0684  3538.7051
 3871.4660     9.5735  2142.0000      .0122    11.4560    -1.6980     2.0687  3559.3037
 3871.6184     9.3720  2142.5938      .0131    12.3535    -1.6620     2.0726  3539.4565
 3871.7708     9.2971  2146.1392      .0111    12.5733    -1.6530     2.0847  3528.0200
 3871.9232     9.3098  2148.2207      .0002    11.3050    -1.6133     2.0851  3519.0781
 3872.0756     9.2464  2149.9214      .0034    12.5031    -1.5970     2.1008  3538.3794
