~VERSION INFORMATION
VERS.                                                 2.0:   CWLS Log ASCII Standard-VERSION 2.0
WRAP.                                                  NO:   One line per depth step
~Well Information Block
STRT.M                                           599.2856:   Top Depth
STOP.M                                          5052.7184:   Bottom Depth
STEP.M                                             .15240:   Depth Increment
NULL.                                            -999.250:   Null Value
FLD .                                                   -:   Field Name
WELL.                                              15/5-3:   NAME
WBN .                                              15/5-3:   WELLBORE
NATI.                                                 NOR:   COUNTRY
CTRY.                                                 NOR:   COUNTRY
COMP.                                     NORSK HYDRO A/S:   OPERATOR
PROV.                                                   -:   PROVINCE
COUN.                                             NORTRYM:   RIG NAME
SPUD.                                          1980/08/22:   SPUD DATE
LATI.                                       58 45 47.93 N:   SURF. LATITUDE
LONG.                                        1 38 12.05 E:   SURF. LONGITUDE
PBWE.                                              15/5-3:   PB WELL ID
APIN.                                              15/5-3:   PB WELLBORE ID
PBWS.                                                 all:   PB WELL NAME SET
~PARAMETER INFORMATION (log)
LNAM.                              FDC/CNL/GR  COMPOSITED:   NAME
LTYP.                                         DEPTH MATCH:   LOG TYPE
LSRV.                                            DEN/NEUT:   LOG SERVICE
LSOU.                                             SPT/NPD:   LOG SOURCE
LVSN.                                                   1:   LOG VERSION
BHIS.                                                   R:   BRIEF HISTORY
FHIS.                                             RAW-LIS:   FULL HISTORY
LCNM.                                        SCHLUMBERGER:   LOGGING CONTRACTOR
TOOL.                             FDC/CNL/GR (COMPOSITED):   TOOL STRING
~Curve Information Block
#MNEM.UNIT                                        API CODE    No Description
#=========                                        ========    == ===========
DEPT.M                                       00 001 00 00:     1  DEPTH
CALI.IN                                                  :     2  Caliper
CS.                                                      :     3  Cable Speed
DRHO.G/CC                                                :     4  Bulk density correction
GR.GAPI                                                  :     5  Gamma Ray
NPHI.%                                                   :     6  Neutron porosity
RHOB.G/CC                                                :     7  Bulk density
TENS.LB                                                  :     8  Cable Tension
~ASCII
# ...
 2970.7820    12.8268  -999.2500      .0082    33.3750    24.3815     2.5798  3425.5713
 2970.9344    12.8177  -999.2500     -.0011    35.3587    20.9625     2.5791  3439.2065
 2971.0868    12.8075  -999.2500      .0047    34.3541    19.2028     2.5770  3474.9399
 2971.2392    12.8543  -999.2500      .0270    34.3315    18.5715     2.5514  3503.0127
 2971.3916    13.0074  -999.2500      .0879    34.4300    18.9819     2.5805  3493.4165
 2971.5440    12.9443  -999.2500      .0626    36.6100    20.8928     2.5307  3477.7261
 2971.6964    12.8281  -999.2500      .0472    36.3178    22.6044     2.5486  3458.2739
 2971.8488    12.8267  -999.2500      .0341    34.2824    23.2206     2.5688  3438.3535
 2972.0012    12.8217  -999.2500      .0582    32.7375    23.9186     2.6247  3422.1904
 2972.1536    12.8281  -999.2500      .0389    32.1631    23.4375     2.6178  3423.6592
 2972.3060    12.8267  -999.2500      .0067    31.5361    22.9158     2.5913  3427.3687
 2972.4584    12.8203  -999.2500     -.0052    30.2621    20.4217     2.5797  3431.0786
 2972.6108    12.8218  -999.2500     -.0054    29.4693    19.8696     2.5796  3434.7837
 2972.7632    12.8266  -999.2500     -.0017    30.8696    20.2783     2.5889  3439.2690
 2972.9156    12.8203  -999.2500     -.0030    32.5664    21.5291     2.6012  3447.7280
 2973.0680    12.8173  -999.2500     -.0037    34.1933    22.9052     2.5989  3458.8936
 2973.2204    12.8047  -999.2500      .0006    35.2872    22.5285     2.6013  3466.2402
 2973.3728    12.8047  -999.2500      .0274    35.2284    22.4666     2.6284  3457.1357
 2973.5252    12.8047  -999.2500      .0414    34.3505    21.7046     2.6381  3446.0610
 2973.6776    12.8077  -999.2500      .0379    32.1384    20.6705     2.6164  3434.9653
 2973.8300    12.8172  -999.2500      .0280    32.2389    19.3552     2.5984  3426.2256
 2973.9824    12.8094  -999.2500      .0053    33.4854    19.3460     2.5699  3430.4341
 2974.1348    12.8329  -999.2500     -.0029    35.8582    19.1702     2.5727  3448.6968
 2974.2872    12.8547  -999.2500      .0064    36.8506    19.6774     2.5989  3466.6890
 2974.4396    12.8704  -999.2500      .0439    37.2752    19.0555     2.6336  3484.2144
 2974.5920    12.8956  -999.2500      .0458    36.1682    19.8075     2.6165  3499.0293
 2974.7444    12.9469  -999.2500      .0443    37.3420    21.0671     2.5603  3499.4287
 2974.8968    13.0710  -999.2500      .0380    38.3703    24.7655     2.5293  3483.6343
 2975.0492    13.4299  -999.2500      .0607    39.6434    28.2752     2.5358  3465.4185
 2975.2016    13.0281  -999.2500      .0637    37.7334    29.5175     2.5601  3447.2402
 2975.3540    12.8438  -999.2500      .0338    35.8677    26.6444     2.5607  3430.0049
 2975.5064    12.8404  -999.2500      .0163    35.4427    24.2525     2.5713  3419.2432
 2975.6588    12.8382  -999.2500      .0060    36.6072    23.6224     2.5862  3419.2227
 2975.8112    12.8852  -999.2500      .0248    36.8371    23.4991     2.6041  3419.2017
 2975.9636    12.9270  -999.2500      .0473    35.6847    23.0976     2.6107  3422.9512
 2976.1160    12.9470  -999.2500      .0499    33.4649    22.6467     2.5939  3440.5288
 2976.2684    12.9586  -999.2500      .0337    33.1550    22.0075     2.5621  3459.3398
 2976.4208    13.0835  -999.2500      .0287    35.3376    20.8864     2.5403  3476.4209
 2976.5732    13.3291  -999.2500      .0231    39.2917    20.8804     2.5163  3486.8696
 2976.7256    12.9009  -999.2500      .0194    42.9105    23.8584     2.5202  3492.6504
 2976.8780    12.8828  -999.2500      .0091    43.9529    25.3982     2.5550  3485.4688
 2977.0304    12.8828  -999.2500      .0048    42.9204    23.8149     2.5856  3465.5269
 2977.1828    12.8828  -999.2500      .0093    37.9730    20.9741     2.6172  3445.6318
 2977.3352    12.8828  -999.2500      .0109    34.7333    20.3875     2.6194  3428.8394
 2977.4876    12.8919  -999.2500      .0140    30.4623    20.7794     2.6224  3422.9795
 2977.6400    12.9219  -999.2500      .0035    30.1407    22.0974     2.6010  3422.7388
 2977.7924    12.9219  -999.2500     -.0063    30.2188    21.3867     2.5810  3434.0850
 2977.9448    12.9219  -999.2500     -.0009    32.2397    21.1885     2.5868  3445.4087
 2978.0972    12.9238  -999.2500      .0075    35.1484    20.7672     2.5957  3456.6577
 2978.2496    12.9278  -999.2500      .0126    36.5225    21.7865     2.5938  3467.6265
 2978.4020    12.9219  -999.2500      .0064    36.8138    22.7818     2.5865  3478.4551
 2978.5544    12.9181  -999.2500      .0023    37.3706    22.3407     2.5868  3489.2578
 2978.7068    12.9062  -999.2500      .0035    37.3825    22.0952     2.6049  3493.2891
 2978.8592    12.9062  -999.2500      .0090    38.4718    21.9853     2.6220  3476.0054
 2979.0116    12.9180  -999.2500      .0265    38.5060    21.8750     2.6416  3458.5854
 2979.1640    12.9964  -999.2500      .0289    40.6509    22.1934     2.6308  3448.4746
 2979.3164    13.0794  -999.2500      .0142    41.4102    23.7219     2.6015  3448.4541
 2979.4688    12.9414  -999.2500      .0048    40.2931    25.9658     2.5864  3451.4810
 2979.6212    12.9356  -999.2500      .0093    38.5702    27.1558     2.5997  3463.7256
 2979.7736    12.9571  -999.2500      .0213    37.3928    25.8132     2.6192  3478.0806
 2979.9260    12.9688  -999.2500      .0256    38.3973    24.9567     2.6280  3498.0698
 2980.0784    12.9748  -999.2500      .0208    38.1460    24.5456     2.6337  3515.8496
 2980.2308    12.9922  -999.2500      .0100    40.0880    25.0502     2.6234  3512.7891
 2980.3832    12.9984  -999.2500     -.0013    40.8056    23.8723     2.6083  3491.8623
 2980.5356    13.0198  -999.2500     -.0077    42.7776    22.4485     2.5776  3471.2256
 2980.6880    13.0292  -999.2500     -.0028    43.2357    21.7093     2.5736  3453.0327
 2980.8404    13.0816  -999.2500      .0163    44.8593    24.0246     2.5664  3439.7681
 2980.9928    13.1708  -999.2500      .0297    43.7896    26.6221     2.5522  3427.0142
 2981.1452    12.9808  -999.2500      .0126    42.8449    27.0639     2.5158  3419.4648
 2981.2976    12.9922  -999.2500     -.0001    39.4993    26.2400     2.5337  3421.9263
 2981.4500    13.0007  -999.2500      .0059    37.4351    23.7795     2.5802  3424.3896
 2981.6024    13.0299  -999.2500      .0187    36.5154    22.7481     2.6124  3427.1978
 2981.7548    13.0561  -999.2500      .0308    35.4533    20.8559     2.5876  3433.1855
 2981.9072    13.2484  -999.2500      .0482    36.1171    20.4156     2.5358  3445.0742
 2982.0596    13.6524  -999.2500      .0757    34.9306    21.4144     2.4605  3456.9629
 2982.2120    13.5712  -999.2500      .0750    36.4947    25.0761     2.3961  3462.8408
 2982.3644    13.5432  -999.2500      .0703    38.7000    29.8245     2.3772  3451.6992
 2982.5168    13.3478  -999.2500      .0406    40.2323    33.0707     2.3966  3437.9561
 2982.6692    13.2530  -999.2500      .0264    39.7876    33.7727     2.4433  3434.5073
 2982.8216    13.3885  -999.2500      .0351    38.6386    30.6844     2.4855  3449.3789
 2982.9740    13.2679  -999.2500      .0619    39.0373    28.4414     2.5119  3464.2813
 2983.1264    13.2780  -999.2500      .0776    40.9365    27.7198     2.4883  3478.1123
 2983.2788    13.2822  -999.2500      .0585    41.9431    28.8449     2.4534  3489.1982
 2983.4312    13.3021  -999.2500      .0497    43.9727    29.4650     2.4309  3499.6831
 2983.5836    13.3494  -999.2500      .0475    43.4756    30.1833     2.4365  3498.1587
 2983.7360    13.2247  -999.2500      .0204    42.3826    29.1610     2.4268  3467.3237
 2983.8884    13.1641  -999.2500      .0123    38.9281    27.6164     2.4596  3435.9014
 2984.0408    13.2013  -999.2500      .0129    38.1821    25.7573     2.5149  3413.5474
 2984.1932    13.2680  -999.2500      .0248    38.6616    25.5275     2.5669  3414.5063
 2984.3456    13.1951  -999.2500      .0240    41.4094    25.2578     2.5999  3420.1704
 2984.4980    13.1504  -999.2500      .0277    43.1178    24.3577     2.6165  3425.7969
