~VERSION INFORMATION
VERS.                                                 2.0:   CWLS Log ASCII Standard-VERSION 2.0
WRAP.                                                  NO:   One line per depth step
~Well Information Block
STRT.M                                           599.2856:   Top Depth
STOP.M                                          5052.7184:   Bottom Depth
STEP.M                                             .15240:   Depth Increment
NULL.                                            -999.250:   Null Value
FLD .                                                   -:   Field Name
WELL.                                              15/5-3:   NAME
WBN .                                              15/5-3:   WELLBORE
NATI.                                                 NOR:   COUNTRY
CTRY.                                                 NOR:   COUNTRY
COMP.                                     NORSK HYDRO A/S:   OPERATOR
PROV.                                                   -:   PROVINCE
COUN.                                             NORTRYM:   RIG NAME
SPUD.                                          1980/08/22:   SPUD DATE
LATI.                                       58 45 47.93 N:   SURF. LATITUDE
LONG.                                        1 38 12.05 E:   SURF. LONGITUDE
PBWE.                                              15/5-3:   PB WELL ID
APIN.                                              15/5-3:   PB WELLBORE ID
PBWS.                                                 all:   PB WELL NAME SET
~PARAMETER INFORMATION (log)
LNAM.                              FDC/CNL/GR  COMPOSITED:   NAME
LTYP.                                         DEPTH MATCH:   LOG TYPE
LSRV.                                            DEN/NEUT:   LOG SERVICE
LSOU.                                             SPT/NPD:   LOG SOURCE
LVSN.                                                   1:   LOG VERSION
BHIS.                                                   R:   BRIEF HISTORY
FHIS.                                             RAW-LIS:   FULL HISTORY
LCNM.                                        SCHLUMBERGER:   LOGGING CONTRACTOR
TOOL.                             FDC/CNL/GR (COMPOSITED):   TOOL STRING
~Curve Information Block
#MNEM.UNIT                                        API CODE    No Description
#=========                                        ========    == ===========
DEPT.M                                       00 001 00 00:     1  DEPTH
CALI.IN                                                  :     2  Caliper
CS.                                                      :     3  Cable Speed
DRHO.G/CC                                                :     4  Bulk density correction
GR.GAPI                                                  :     5  Gamma Ray
NPHI.%                                                   :     6  Neutron porosity
RHOB.G/CC                                                :     7  Bulk density
TENS.LB                                                  :     8  Cable Tension
~ASCII
# ...
 2665.6772    13.2957  -999.2500      .0126    45.4447    36.2887     2.2906  3226.3813
 2665.8296    13.2740  -999.2500      .0084    46.9655    36.6611     2.2987  3226.4692
 2665.9820    13.1742  -999.2500      .0140    46.5418    34.9039     2.3332  3226.3174
 2666.1344    13.1795  -999.2500      .0142    44.1139    31.6070     2.3588  3226.1650
 2666.2868    13.3253  -999.2500      .0424    42.1624    31.4951     2.3958  3226.0132
 2666.4392    13.4660  -999.2500      .0521    41.0535    31.2068     2.3773  3216.0923
 2666.5916    13.4463  -999.2500      .0608    41.3989    32.6882     2.3634  3225.5342
 2666.7440    13.6143  -999.2500      .0341    41.1911    31.5618     2.3114  3221.4297
 2666.8964    13.5711  -999.2500      .0246    41.2182    34.2816     2.3009  3224.8901
 2667.0488    13.0775  -999.2500     -.0107    36.5681    35.4330     2.2835  3225.2471
 2667.2012    12.7001  -999.2500     -.0204    34.4640    32.7982     2.3507  3215.2686
 2667.3536    12.4871  -999.2500     -.0017    31.2910    25.9193     2.4325  3192.0864
 2667.5060    13.2800  -999.2500      .0439    32.8259    22.2516     2.5070  3191.2002
 2667.6584    12.8790  -999.2500      .0744    30.8011    23.8609     2.4691  3196.3252
 2667.8108    12.9196  -999.2500      .0050    28.1931    28.3330     2.3971  3204.5063
 2667.9632    12.3181  -999.2500      .0040    23.4405    24.4458     2.4064  3221.0518
 2668.1156    12.5221  -999.2500      .0219    26.9769    18.9406     2.4761  3224.1689
 2668.2680    12.9277  -999.2500      .0662    30.5609    17.9246     2.4902  3219.5752
 2668.4204    13.1241  -999.2500      .0776    33.6725    22.0989     2.4844  3223.8643
 2668.5728    13.3197  -999.2500      .0504    33.6875    27.9597     2.4299  3213.8052
 2668.7252    13.6406  -999.2500      .0684    35.4063    30.0781     2.4609  3213.6216
 2668.8776    13.3437  -999.2500      .0552    38.6563    35.4492     2.4414  3213.4692
 2669.0300    13.5156  -999.2500      .0513    40.3125    36.0840     2.4531  3216.7275
 2669.1824    13.0060  -999.2500      .0350    37.5024    34.8067     2.4674  3213.1602
 2669.3348    12.7843  -999.2500      .0290    32.3044    28.1060     2.4817  3213.0024
 2669.4872    12.8087  -999.2500      .0178    30.6288    23.3405     2.4999  3212.4058
 2669.6396    12.7803  -999.2500      .0456    32.8568    20.5692     2.5320  3208.7661
 2669.7920    13.0924  -999.2500      .0474    34.7057    23.5111     2.5435  3207.0508
 2669.9444    12.8362  -999.2500      .0481    32.3342    27.5990     2.5169  3202.4121
 2670.0968    12.4084  -999.2500      .0023    28.2982    26.6344     2.4777  3202.2549
 2670.2492    12.4968  -999.2500      .0068    26.6944    21.6208     2.4946  3205.1343
 2670.4016    12.9818  -999.2500      .0223    28.5467    16.1715     2.5130  3210.2993
 2670.5540    13.1449  -999.2500      .0605    31.0671    17.7031     2.5035  3201.9595
 2670.7064    13.0296  -999.2500      .0700    31.0982    23.7814     2.4722  3196.8628
 2670.8588    12.9297  -999.2500      .0441    29.6954    29.1784     2.4286  3210.5337
 2671.0112    12.6949  -999.2500     -.0010    28.5863    29.2794     2.4091  3229.3340
 2671.1636    12.4531  -999.2500     -.0079    27.1782    24.1862     2.4525  3244.6504
 2671.3160    12.5508  -999.2500      .0168    26.4219    20.0823     2.5216  3250.7954
 2671.4684    12.6867  -999.2500      .0590    27.6568    19.9527     2.5540  3244.5815
 2671.6208    12.7708  -999.2500      .0459    29.1370    24.1994     2.5271  3228.4658
 2671.7732    12.4124  -999.2500      .0251    28.8103    25.5534     2.5192  3207.7676
 2671.9256    12.2118  -999.2500      .0122    24.7714    22.1531     2.5502  3186.2261
 2672.0780    12.3158  -999.2500      .0397    22.9960    16.9109     2.5946  3180.2861
 2672.2304    12.6131  -999.2500      .0591    24.1111    16.7142     2.5930  3187.3066
 2672.3828    12.7645  -999.2500      .0685    30.0844    20.9063     2.5654  3191.9243
 2672.5352    12.8835  -999.2500      .0643    33.8901    25.0469     2.5350  3207.4966
 2672.6876    13.1259  -999.2500      .0679    33.3144    27.2700     2.5277  3209.5366
 2672.8400    12.7996  -999.2500      .0466    30.2648    26.9775     2.5014  3209.3784
 2672.9924    12.5721  -999.2500      .0184    26.4334    26.0377     2.5020  3199.3931
 2673.1448    12.2550  -999.2500      .0141    24.2053    20.0235     2.5327  3211.0796
 2673.2972    12.4403  -999.2500      .0474    22.7283    16.2332     2.5836  3218.8667
 2673.4496    12.6016  -999.2500      .0850    24.0020    14.6035     2.5746  3218.7085
 2673.6020    12.6048  -999.2500      .0796    26.2793    18.6382     2.5411  3217.1611
 2673.7544    12.6208  -999.2500      .0658    30.7931    22.2729     2.5307  3209.7520
 2673.9068    12.6216  -999.2500      .0444    30.5531    24.0792     2.5425  3216.2393
 2674.0592    12.6399  -999.2500      .0351    28.5342    23.8145     2.5576  3218.0786
 2674.2116    12.4606  -999.2500      .0132    24.3583    23.1457     2.5430  3217.9209
 2674.3640    12.4222  -999.2500      .0180    24.7520    21.3990     2.5423  3217.7798
 2674.5164    12.5368  -999.2500      .0323    25.5458    18.9416     2.5381  3218.2324
 2674.6688    12.5325  -999.2500      .0290    25.7809    19.5702     2.5245  3218.4175
 2674.8212    12.2413  -999.2500      .0045    22.5761    22.4099     2.5109  3217.3276
 2674.9736    12.2650  -999.2500     -.0049    18.3076    21.4938     2.5266  3220.8193
 2675.1260    12.2812  -999.2500      .0012    16.1795    16.9984     2.5459  3230.9048
 2675.2784    12.3784  -999.2500      .0197    19.1114    14.1750     2.5358  3232.3848
 2675.4308    12.4717  -999.2500      .0139    23.7145    18.3848     2.4927  3221.4189
 2675.5832    12.3153  -999.2500      .0044    24.6276    24.5533     2.4797  3216.4990
 2675.7356    12.2431  -999.2500     -.0032    21.3078    25.1698     2.5077  3208.8071
 2675.8880    12.2907  -999.2500      .0324    18.4987    19.5710     2.5583  3190.1797
 2676.0404    12.5145  -999.2500      .0509    18.7834    15.0463     2.5306  3181.9214
 2676.1928    12.5312  -999.2500      .0339    22.9611    20.7809     2.4756  3186.0391
 2676.3452    12.2008  -999.2500     -.0041    25.6312    26.3185     2.4531  3212.2241
 2676.4976    12.1275  -999.2500     -.0133    24.4941    23.9349     2.5250  3224.9399
 2676.6500    12.1250  -999.2500     -.0023    20.8259    14.3370     2.6011  3231.3682
 2676.8024    12.2288  -999.2500      .0449    19.1484     7.6205     2.6674  3240.5454
 2676.9548    12.3757  -999.2500      .0741    24.3863     8.1473     2.6327  3225.0322
 2677.1072    12.6642  -999.2500      .0924    26.7014    13.7141     2.5933  3224.8159
 2677.2596    12.9272  -999.2500      .0680    30.1692    21.7445     2.5348  3222.5054
 2677.4120    12.7414  -999.2500      .0497    28.1203    25.5629     2.5207  3210.8750
 2677.5644    12.3897  -999.2500      .0555    26.4325    26.1467     2.5231  3198.4937
 2677.7168    12.3185  -999.2500      .0510    24.9124    24.8223     2.5290  3187.1890
 2677.8692    12.2734  -999.2500      .0110    24.9705    25.5064     2.5018  3195.6489
 2678.0216    12.2676  -999.2500     -.0121    23.8005    23.6593     2.5142  3202.7505
 2678.1740    12.2286  -999.2500     -.0102    20.6794    20.8826     2.5418  3215.6079
 2678.3264    12.1947  -999.2500      .0092    18.6207    18.0197     2.5811  3233.2246
 2678.4788    12.2031  -999.2500      .0078    18.0313    17.0917     2.5840  3246.3745
 2678.6312    12.2031  -999.2500      .0001    18.0071    16.2110     2.5785  3246.1733
 2678.7836    12.2354  -999.2500      .0131    18.3140    15.3608     2.5832  3237.6787
 2678.9360    12.2578  -999.2500      .0283    18.5412    16.5872     2.5902  3212.3828
 2679.0884    12.2100  -999.2500      .0183    17.4728    18.5263     2.5725  3188.5508
 2679.2408    12.1419  -999.2500     -.0031    16.5989    18.2509     2.5583  3182.8135
 2679.3932    12.0111  -999.2500     -.0013    17.6735    15.2962     2.5702  3182.6548
