~VERSION INFORMATION
VERS.                                                 2.0:   CWLS Log ASCII Standard-VERSION 2.0
WRAP.                                                  NO:   One line per depth step
~Well Information Block
STRT.M                                           599.2856:   Top Depth
STOP.M                                          5052.7184:   Bottom Depth
STEP.M                                             .15240:   Depth Increment
NULL.                                            -999.250:   Null Value
FLD .                                                   -:   Field Name
WELL.                                              15/5-3:   NAME
WBN .                                              15/5-3:   WELLBORE
NATI.                                                 NOR:   COUNTRY
CTRY.                                                 NOR:   COUNTRY
COMP.                                     NORSK HYDRO A/S:   OPERATOR
PROV.                                                   -:   PROVINCE
COUN.                                             NORTRYM:   RIG NAME
SPUD.                                          1980/08/22:   SPUD DATE
LATI.                                       58 45 47.93 N:   SURF. LATITUDE
LONG.                                        1 38 12.05 E:   SURF. LONGITUDE
PBWE.                                              15/5-3:   PB WELL ID
APIN.                                              15/5-3:   PB WELLBORE ID
PBWS.                                                 all:   PB WELL NAME SET
~PARAMETER INFORMATION (log)
LNAM.                              FDC/CNL/GR  COMPOSITED:   NAME
LTYP.                                         DEPTH MATCH:   LOG TYPE
LSRV.                                            DEN/NEUT:   LOG SERVICE
LSOU.                                             SPT/NPD:   LOG SOURCE
LVSN.                                                   1:   LOG VERSION
BHIS.                                                   R:   BRIEF HISTORY
FHIS.                                             RAW-LIS:   FULL HISTORY
LCNM.                                        SCHLUMBERGER:   LOGGING CONTRACTOR
TOOL.                             FDC/CNL/GR (COMPOSITED):   TOOL STRING
~Curve Information Block
#MNEM.UNIT                                        API CODE    No Description
#=========                                        ========    == ===========
DEPT.M                                       00 001 00 00:     1  DEPTH
CALI.IN                                                  :     2  Caliper
CS.                                                      :     3  Cable Speed
DRHO.G/CC                                                :     4  Bulk density correction
GR.GAPI                                                  :     5  Gamma Ray
NPHI.%                                                   :     6  Neutron porosity
RHOB.G/CC                                                :     7  Bulk density
TENS.LB                                                  :     8  Cable Tension
~ASCII
# ...
 5037.1736     5.3687  2426.4741      .0292    68.9584     5.8211     2.6989  4690.1309
 5037.3260     5.3696  2423.2397      .0259    79.8694     6.6552     2.7027  4700.0000
 5037.4784     5.3642  2421.2437      .0156    90.1006     8.0247     2.6865  4695.4609
 5037.6308     5.3638  2420.0000      .0163    91.9954     9.1748     2.6743  4692.5225
 5037.7832     5.3711  2420.0000      .0116    86.8984     9.4971     2.6636  4704.5000
 5037.9356     5.3624  2419.2588      .0146    79.3323     9.3569     2.6667  4714.9648
 5038.0880     5.3591  2417.2690      .0065    76.4770     9.2006     2.6644  4722.9375
 5038.2404     5.3946  2416.0000      .0097    76.3233     8.9844     2.6611  4732.3848
 5038.3928     5.4447  2416.0000      .0125    75.8053     8.9309     2.6632  4735.6152
 5038.5452     5.4844  2416.0000      .0129    75.3865     8.9090     2.6618  4732.3691
 5038.6976     5.4830  2415.2783      .0198    76.6889     9.1039     2.6722  4740.0000
 5038.8500     5.4819  2414.0000      .0222    78.7868     9.1584     2.6825  4735.6924
 5039.0024     5.4844  2414.0000      .0249    79.4111     9.2079     2.6882  4726.5693
 5039.1548     5.4844  2414.0000      .0166    79.6346     9.6778     2.6888  4722.5771
 5039.3072     5.4871  2414.0000      .0075    79.7752    10.2019     2.6827  4714.3594
 5039.4596     5.4894  2412.5942      .0043    81.0203    10.6102     2.6718  4702.5937
 5039.6120     5.4844  2407.9038     -.0012    81.1386    10.2910     2.6639  4702.7949
 5039.7644     5.4844  2401.9038     -.0033    80.0437     9.5756     2.6658  4712.1924
 5039.9168     5.4844  2396.6069     -.0027    79.9509     9.0288     2.6850  4713.0352
 5040.0692     5.4844  2394.0000      .0057    80.8327     8.7537     2.6936  4700.0000
 5040.2216     5.4844  2392.6406      .0255    83.3586     8.5274     2.7124  4702.7178
 5040.3740     5.4685  2389.3228      .0490    84.5321     8.3323     2.7272  4708.0000
 5040.5264     5.4533  2387.3267      .0480    83.7500     8.1538     2.7246  4706.6533
 5040.6788     5.4831  2386.0000      .0402    78.6458     8.0729     2.7168  4712.0000
 5040.8312     5.4583  2386.0000      .0308    75.9792     8.0404     2.7096  4726.6660
 5040.9836     5.4257  2385.3394      .0207    75.5457     7.9263     2.6902  4722.6787
 5041.1360     5.4609  2384.0000      .0088    80.4747     7.8616     2.6700  4716.0117
 5041.2884     5.4844  2383.3438      .0058    83.3536     7.7624     2.6581  4709.3164
 5041.4408     5.4844  2382.0000      .0171    77.5903     7.8958     2.6795  4715.8848
 5041.5932     5.4793  2382.0000      .0266    64.5985     7.6691     2.6920  4726.5820
 5041.7456     5.4725  2381.3608      .0309    58.4615     7.2986     2.6890  4735.8457
 5041.8980     5.4817  2380.0000      .0267    48.3609     6.9956     2.6667  4742.7305
 5042.0504     5.4831  2380.0000      .0155    41.6020     7.2216     2.6319  4740.0000
 5042.2028     5.4805  2378.1206      .0054    25.6884     7.4679     2.6153  4733.7178
 5042.3552     5.4805  2372.1152      .0054    16.1533     7.6144     2.6273  4716.2305
 5042.5076     5.4805  2366.1343      .0156    13.3064     7.6690     2.6639  4708.0000
 5042.6600     5.4805  2361.3818      .0133    19.9259     7.5835     2.6710  4709.2393
 5042.8124     5.4817  2360.0000      .0115    39.4674     7.5131     2.6682  4715.6533
 5042.9648     5.4844  2359.3975      .0095    53.1063     7.3940     2.6613  4724.0000
 5043.1172     5.4114  2356.7983      .0252    69.7316     7.7690     2.6912  4724.0000
 5043.2696     5.2923  2354.0000      .0260    77.4297     7.9059     2.6857  4724.0000
 5043.4220     5.4009  2353.4121      .0330    87.1435     7.5647     2.6901  4724.0000
 5043.5744     5.3789  2351.4185      .0268    87.0234     7.2815     2.6800  4722.8330
 5043.7268     5.3755  2350.0000      .0309    87.5000     7.2632     2.6890  4720.0000
 5043.8792     5.3649  2348.8462      .0274    89.3523     7.5417     2.6956  4720.0000
 5044.0316     5.3492  2345.4248      .0278    87.1731     7.7430     2.6903  4722.3076
 5044.1840     5.2930  2343.4297      .0252    81.2446     7.7429     2.6858  4723.4355
 5044.3364     5.2048  2342.0000      .0271    71.5269     7.6656     2.6783  4715.4141
 5044.4888     5.1797  2342.0000      .0197    57.5216     7.6898     2.6732  4728.5127
 5044.6412     5.1797  2342.0000      .0177    45.5862     7.2106     2.6740  4742.2305
 5044.7936     5.1602  2340.3511      .0051    36.0643     5.7433     2.6624  4748.0000
 5044.9460     5.1072  2334.9126      .0128    33.6250     1.5135     2.6804  4748.0000
 5045.0984     5.0994  2329.8203      .0110    33.6250     1.9575     2.6756  4748.0000
 5045.2508     5.0937  2322.9229      .0140    33.6250     3.8245     2.6744  4751.2607
 5045.4032     5.0769  2319.4629     -.0024    33.6250     8.3947     2.6398  4752.4619
 5045.5556     5.0001  2317.4678     -.0069    33.6250     8.1870     2.6275  4730.9355
 5045.7080     4.8995  2316.0000     -.0056    33.6250     7.9819     2.6341  4729.0615
 5045.8604     4.8440  2315.4756      .0045    33.6250     7.8973     2.6520  4735.1533
 5046.0128     4.7836  2314.0000      .0141    33.6250     7.8108     2.6621  4748.1406
 5046.1652     4.7224  2313.4937      .0182    33.6250     7.7160     2.6501  4760.0000
 5046.3176     4.6805  2312.0000      .0118    33.6250     7.8613     2.6177  4761.0254
 5046.4700     4.6582  2311.4937      .0197    33.6250     7.9108     2.6304  4766.0254
 5046.6224     4.6464  2310.0000      .0355    33.6250     8.0196     2.6573  4770.9893
 5046.7748     4.6143  2309.5010      .0522    33.6250     7.9712     2.6890  4764.0000
 5046.9272     4.5703  2307.5063      .0559    33.6250    10.0221     2.6851  4746.0771
 5047.0796     4.5694  2305.5127      .0535    33.6250    17.2619     2.6748  4717.1631
 5047.2320     4.5607  2304.4858      .0498    33.6250    23.4475     2.6617  4670.3584
 5047.3844     4.5355  2305.0415      .0360    33.6250    27.7231     2.6428  4622.2490
 5047.5368     4.4988  2300.5962      .0213    33.6250    26.7694     2.6282  4593.5830
 5047.6892     4.4505  2294.5796      .0207    33.6250    26.8182     2.6373  4550.5127
 5047.8416     4.4269  2289.0640      .0198    33.6250    26.8555     2.6287  4512.5127
 5047.9940     4.4107  2285.5386      .0121    33.6250    26.8555     2.6111  4482.3945
 5048.1464     4.3867  2284.0000      .0036    33.6250    26.8555     2.5968  4459.3838
 5048.2988     4.3867  2283.5449      .0032    33.6250    26.8555     2.6031  4436.7178
 5048.4512     4.3867  2281.5513      .0235    33.6250    26.8555     2.6388  4404.7295
 5048.6036     4.3893  2280.0000      .0313    33.6250    26.8555     2.6576  4371.9229
 5048.7560     4.4002  2280.0000      .0399    33.6250    26.8555     2.6648  4334.1436
 5048.9084     4.4019  2279.5581      .0147    33.6250    26.8555     2.6218  4292.9229
 5049.0608     4.3841  2277.1152      .0099    33.6250    26.8663     2.5996  4257.3848
 5049.2132     4.3750  2273.5640      .0071    33.6250    26.9043     2.5903  4212.0498
 5049.3656     4.3750  2271.5645      .0158    33.6250    26.9043     2.6114  4175.2822
 5049.5180     4.3767  2269.5718      .0306    33.6250    26.9043     2.6424  4141.4316
 5049.6704     4.3812  2268.0000      .0491    33.6250    26.9043     2.6765  4130.3096
 5049.8228     4.3750  2267.5840      .0414    33.6250    26.9043     2.6641  4119.8330
 5049.9752     4.3750  2265.5898      .0185    33.6250    26.9043     2.6296  4103.1797
 5050.1276     4.3766  2263.1924      .0047    33.6250    26.9043     2.6110  4096.7217
 5050.2800     4.3812  2258.7705      .0147    33.6250    26.9043     2.6212  4083.1792
 5050.4324     4.3750  2252.7881      .0278    33.6250    26.9043     2.6363  4077.9805
 5050.5848     4.3750  2247.2051      .0318    33.6250    26.9043     2.6336  4072.8237
 5050.7372     4.3765  2244.0000      .0225    33.6250    26.9043     2.6243  4084.0000
 5050.8896     4.3836  2244.0000      .0139    33.6250    26.8949     2.6043  4084.0000
