~VERSION INFORMATION
VERS.                                                 2.0:   CWLS Log ASCII Standard-VERSION 2.0
WRAP.                                                  NO:   One line per depth step
~Well Information Block
STRT.M                                           599.2856:   Top Depth
STOP.M                                          5052.7184:   Bottom Depth
STEP.M                                             .15240:   Depth Increment
NULL.                                            -999.250:   Null Value
FLD .                                                   -:   Field Name
WELL.                                              15/5-3:   NAME
WBN .                                              15/5-3:   WELLBORE
NATI.                                                 NOR:   COUNTRY
CTRY.                                                 NOR:   COUNTRY
COMP.                                     NORSK HYDRO A/S:   OPERATOR
PROV.                                                   -:   PROVINCE
COUN.                                             NORTRYM:   RIG NAME
SPUD.                                          1980/08/22:   SPUD DATE
LATI.                                       58 45 47.93 N:   SURF. LATITUDE
LONG.                                        1 38 12.05 E:   SURF. LONGITUDE
PBWE.                                              15/5-3:   PB WELL ID
APIN.                                              15/5-3:   PB WELLBORE ID
PBWS.                                                 all:   PB WELL NAME SET
~PARAMETER INFORMATION (log)
LNAM.                              FDC/CNL/GR  COMPOSITED:   NAME
LTYP.                                         DEPTH MATCH:   LOG TYPE
LSRV.                                            DEN/NEUT:   LOG SERVICE
LSOU.                                             SPT/NPD:   LOG SOURCE
LVSN.                                                   1:   LOG VERSION
BHIS.                                                   R:   BRIEF HISTORY
FHIS.                                             RAW-LIS:   FULL HISTORY
LCNM.                                        SCHLUMBERGER:   LOGGING CONTRACTOR
TOOL.                             FDC/CNL/GR (COMPOSITED):   TOOL STRING
~Curve Information Block
#MNEM.UNIT                                        API CODE    No Description
#=========                                        ========    == ===========
DEPT.M                                       00 001 00 00:     1  DEPTH
CALI.IN                                                  :     2  Caliper
CS.                                                      :     3  Cable Speed
DRHO.G/CC                                                :     4  Bulk density correction
GR.GAPI                                                  :     5  Gamma Ray
NPHI.%                                                   :     6  Neutron porosity
RHOB.G/CC                                                :     7  Bulk density
TENS.LB                                                  :     8  Cable Tension
~ASCII
# ...
 4149.5960     8.3976  2086.0000     -.0001     5.8160    -1.5625     2.0526  3764.0000
 4149.7484     8.3828  2086.0000      .0019     5.3876    -1.5625     2.0518  3746.2373
 4149.9008     8.3950  2087.0386      .0048     5.5231    -1.5625     2.0548  3724.8076
 4150.0532     8.4062  2089.0308      .0083     6.3168    -1.5374     2.0627  3730.3071
 4150.2056     8.3983  2091.0210      .0120     7.0723    -1.5137     2.0723  3757.3608
 4150.3580     8.3867  2092.0000      .0087     7.3914    -1.5137     2.0702  3766.8960
 4150.5104     8.3789  2092.0000      .0032     7.0729    -1.5137     2.0645  3754.9575
 4150.6628     8.3828  2093.0020      .0066     6.2965    -1.5381     2.0635  3755.0107
 4150.8152     8.3906  2095.0020      .0186     5.6787    -1.5381     2.0762  3751.9824
 4150.9676     8.3945  2095.0039      .0266     5.2246    -1.4894     2.0869  3739.0210
 4151.1200     8.4100  2092.0210      .0191     5.2304    -1.4889     2.0840  3722.1270
 4151.2724     8.4296  2088.0337      .0149     5.0904    -1.5376     2.0840  3719.8306
 4151.4248     8.4299  2084.0527      .0137     4.6486    -1.5625     2.0802  3730.0000
 4151.5772     8.4181  2082.0000      .0105     4.5036    -1.5625     2.0705  3746.3862
 4151.7296     8.4028  2082.9614      .0058     5.4328    -1.5391     2.0569  3754.3848
 4151.8820     8.4018  2084.0000     -.0032     6.5315    -1.5137     2.0404  3748.7754
 4152.0344     8.3991  2084.0000     -.0076     6.6759    -1.5369     2.0294  3752.0898
 4152.1868     8.3902  2084.9487     -.0057     6.3180    -1.5625     2.0292  3745.2563
 4152.3392     8.4058  2086.0000      .0032     6.1268    -1.5625     2.0432  3735.2881
 4152.4916     8.4141  2086.0000      .0156     6.2770    -1.5625     2.0658  3725.3203
 4152.6440     8.4104  2086.9297      .0223     6.3037    -1.5625     2.0834  3733.9424
 4152.7964     8.3991  2088.0000      .0237     6.2772    -1.5625     2.0918  3759.2012
 4152.9488     8.3906  2088.0000      .0236     6.7077    -1.5625     2.0909  3762.7178
 4153.1012     8.4012  2089.8076      .0211     7.4532    -1.5625     2.0819  3756.7114
 4153.2536     8.4141  2092.8975      .0180     7.9701    -1.5625     2.0740  3755.5127
 4153.4060     8.4141  2094.9004      .0146     7.4262    -1.5625     2.0744  3740.9976
 4153.5584     8.4141  2096.0000      .0110     6.3489    -1.5843     2.0740  3730.0000
 4153.7108     8.4141  2095.1123      .0141     5.9829    -1.5897     2.0779  3731.7749
 4153.8632     8.4175  2093.1187      .0141     6.4174    -1.5625     2.0792  3736.6436
 4154.0156     8.4219  2092.0000      .0089     6.8919    -1.5625     2.0739  3735.6401
 4154.1680     8.4219  2090.2759      .0012     7.0855    -1.5835     2.0633  3740.3438
 4154.3204     8.4286  2087.1445     -.0006     7.1305    -1.6113     2.0591  3749.7217
 4154.4728     8.4275  2086.8491      .0022     6.7743    -1.5907     2.0625  3744.0000
 4154.6252     8.4075  2088.0000      .0037     6.3745    -1.5420     2.0641  3742.3140
 4154.7776     8.4050  2087.1567      .0070     6.5294    -1.5137     2.0681  3748.4292
 4154.9300     8.4141  2086.0000      .0095     6.3655    -1.5341     2.0695  3755.8013
 4155.0824     8.4141  2086.0000      .0090     6.1667    -1.5625     2.0692  3747.5000
 4155.2348     8.4173  2086.0000      .0058     6.1452    -1.5826     2.0687  3744.0000
 4155.3872     8.4219  2086.8179      .0055     6.5112    -1.5914     2.0744  3742.3643
 4155.5396     8.4124  2088.8076      .0114     6.7976    -1.5625     2.0867  3740.0000
 4155.6920     8.4047  2091.6025      .0170     6.4359    -1.5625     2.0879  3731.9873
 4155.8444     8.4141  2094.7944      .0157     5.9625    -1.5625     2.0778  3723.9741
 4155.9968     8.4141  2096.0000      .0060     5.3469    -1.5625     2.0617  3730.0000
 4156.1492     8.4141  2096.0000      .0005     5.1569    -1.5625     2.0613  3735.5190
 4156.3016     8.4141  2096.0000     -.0007     5.0718    -1.5625     2.0671  3742.4360
 4156.4540     8.4080  2096.7754      .0033     5.4604    -1.5625     2.0757  3740.0000
 4156.6064     8.3954  2098.0000      .0063     5.0237    -1.5437     2.0759  3747.7285
 4156.7588     8.3906  2097.2358      .0084     5.1048    -1.5137     2.0708  3760.0000
 4156.9112     8.3936  2095.2461      .0098     5.1496    -1.5137     2.0669  3753.9702
 4157.0636     8.3955  2092.5049      .0106     5.6602    -1.5318     2.0630  3749.9785
 4157.2160     8.3906  2089.2588      .0065     5.9921    -1.5445     2.0584  3756.2949
 4157.3684     8.3906  2088.0000      .0007     6.2269    -1.5137     2.0561  3755.1870
 4157.5208     8.3906  2088.0000      .0028     6.2539    -1.5315     2.0629  3756.6533
 4157.6732     8.3906  2087.2715      .0083     6.1188    -1.5625     2.0753  3735.2607
 4157.8256     8.3934  2086.0000      .0114     5.9787    -1.5625     2.0805  3721.4438
 4157.9780     8.3956  2086.7153      .0035     6.1401    -1.5625     2.0721  3720.4224
 4158.1304     8.3906  2088.0000      .0022     6.0270    -1.5453     2.0684  3719.6553
 4158.2828     8.3934  2088.6987      .0087     5.6375    -1.5137     2.0752  3736.9868
 4158.4352     8.3957  2090.0000      .0180     5.3502    -1.5305     2.0906  3750.0000
 4158.5876     8.3906  2090.0000      .0193     5.5415    -1.5625     2.0970  3750.0000
 4158.7400     8.3987  2090.6860      .0154     5.6331    -1.5625     2.0929  3753.4292
 4158.8924     8.4114  2092.0000      .0101     5.8321    -1.5625     2.0748  3756.6025
 4159.0448     8.4089  2092.6729      .0072     5.9437    -1.5625     2.0651  3750.0000
 4159.1972     8.4141  2094.0000      .0116     6.3594    -1.5625     2.0664  3750.0000
 4159.3496     8.4166  2094.6582      .0172     6.8841    -1.5625     2.0690  3751.3159
 4159.5020     8.4193  2096.0000      .0171     7.2986    -1.5625     2.0685  3749.4678
 4159.6544     8.4141  2095.3589      .0066     7.5287    -1.5625     2.0585  3734.8716
 4159.8068     8.4165  2093.3652      .0056     6.9148    -1.5625     2.0650  3724.0000
 4159.9592     8.4243  2090.7344      .0117     6.5023    -1.5625     2.0722  3732.2256
 4160.1116     8.4247  2086.7344      .0196     6.5193    -1.5625     2.0805  3756.3271
 4160.2640     8.4190  2084.0000      .0200     6.6228    -1.5777     2.0843  3768.1206
 4160.4164     8.4248  2084.0000      .0100     6.7364    -1.5963     2.0747  3762.7598
 4160.5688     8.4189  2084.6138      .0107     6.4228    -1.5625     2.0795  3756.9316
 4160.7212     8.4297  2086.0000      .0138     6.0995    -1.5625     2.0852  3751.2104
 4160.8736     8.4297  2085.4053      .0290     5.5956    -1.5625     2.1016  3748.0552
 4161.0260     8.4343  2084.5879      .0352     4.9200    -1.5625     2.1010  3738.7051
 4161.1784     8.4521  2086.5815      .0346     4.9040    -1.5625     2.0973  3750.0000
 4161.3308     8.4687  2088.5815      .0292     5.1689    -1.5625     2.0895  3759.8901
 4161.4832     8.4665  2090.5767      .0149     5.8281    -1.5625     2.0795  3777.0767
 4161.6356     8.4654  2092.0000      .0006     5.8292    -1.5625     2.0661  3751.4424
 4161.7880     8.4766  2092.5640     -.0070     5.6569    -1.5762     2.0594  3738.4614
 4161.9404     8.4657  2094.0000     -.0077     5.2131    -1.5977     2.0583  3760.0000
 4162.0928     8.4396  2094.0000     -.0021     5.4742    -1.5625     2.0652  3754.5049
 4162.2452     8.4432  2095.0767      .0087     6.3146    -1.5625     2.0749  3746.4614
 4162.3976     8.4437  2098.0000      .0171     6.7677    -1.5625     2.0805  3769.3203
 4162.5500     8.4589  2096.9487      .0147     6.3679    -1.5625     2.0751  3784.0000
 4162.7024     8.4490  2092.9487      .0113     5.2294    -1.5625     2.0712  3781.3716
 4162.8548     8.4436  2089.4805      .0090     5.3979    -1.5625     2.0699  3762.5767
 4163.0072     8.4609  2086.9741      .0098     5.8947    -1.5625     2.0757  3735.1279
 4163.1596     8.4649  2084.5117      .0075     5.7681    -1.5625     2.0781  3752.5586
 4163.3120     8.4746  2085.4946      .0036     5.0113    -1.5625     2.0752  3761.0107
