~VERSION INFORMATION
VERS.                                                 2.0:   CWLS Log ASCII Standard-VERSION 2.0
WRAP.                                                  NO:   One line per depth step
~Well Information Block
STRT.M                                           599.2856:   Top Depth
STOP.M                                          5052.7184:   Bottom Depth
STEP.M                                             .15240:   Depth Increment
NULL.                                            -999.250:   Null Value
FLD .                                                   -:   Field Name
WELL.                                              15/5-3:   NAME
WBN .                                              15/5-3:   WELLBORE
NATI.                                                 NOR:   COUNTRY
CTRY.                                                 NOR:   COUNTRY
COMP.                                     NORSK HYDRO A/S:   OPERATOR
PROV.                                                   -:   PROVINCE
COUN.                                             NORTRYM:   RIG NAME
SPUD.                                          1980/08/22:   SPUD DATE
LATI.                                       58 45 47.93 N:   SURF. LATITUDE
LONG.                                        1 38 12.05 E:   SURF. LONGITUDE
PBWE.                                              15/5-3:   PB WELL ID
APIN.                                              15/5-3:   PB WELLBORE ID
PBWS.                                                 all:   PB WELL NAME SET
~PARAMETER INFORMATION (log)
LNAM.                              FDC/CNL/GR  COMPOSITED:   NAME
LTYP.                                         DEPTH MATCH:   LOG TYPE
LSRV.                                            DEN/NEUT:   LOG SERVICE
LSOU.                                             SPT/NPD:   LOG SOURCE
LVSN.                                                   1:   LOG VERSION
BHIS.                                                   R:   BRIEF HISTORY
FHIS.                                             RAW-LIS:   FULL HISTORY
LCNM.                                        SCHLUMBERGER:   LOGGING CONTRACTOR
TOOL.                             FDC/CNL/GR (COMPOSITED):   TOOL STRING
~Curve Information Block
#MNEM.UNIT                                        API CODE    No Description
#=========                                        ========    == ===========
DEPT.M                                       00 001 00 00:     1  DEPTH
CALI.IN                                                  :     2  Caliper
CS.                                                      :     3  Cable Speed
DRHO.G/CC                                                :     4  Bulk density correction
GR.GAPI                                                  :     5  Gamma Ray
NPHI.%                                                   :     6  Neutron porosity
RHOB.G/CC                                                :     7  Bulk density
TENS.LB                                                  :     8  Cable Tension
~ASCII
# ...
 1486.8632    17.6250  2118.0000     -.0117    38.2500  -999.2500     1.9795  2050.0000
 1487.0156    17.6250  2118.0000     -.0039    44.2187  -999.2500     1.9873  2025.0000
 1487.1680    17.5156  2118.0000     -.0010    46.9688  -999.2500     1.9873  2060.0000
 1487.3204    17.5938  2116.0000      .0020    53.6250  -999.2500     2.0078  2064.0000
 1487.4728    17.7031  2114.0000     -.0063    54.9687  -999.2500     2.0156  2005.0000
 1487.6252    17.7344  2114.0000      .0000    55.1875  -999.2500     2.0488  2060.0000
 1487.7776    17.7344  2114.0000      .0054    49.4375  -999.2500     2.0605  2084.0000
 1487.9300    17.7188  2118.0000      .0024    47.8750  -999.2500     2.0781  2030.0000
 1488.0824    17.8281  2118.0000     -.0063    47.7812  -999.2500     2.0781  2035.0000
 1488.2348    17.8438  2120.0000     -.0044    46.2187  -999.2500     2.0801  2110.0000
 1488.3872    17.8438  2120.0000      .0010    48.2812  -999.2500     2.0625  2070.0000
 1488.5396    17.8594  2116.0000      .0098    45.9688  -999.2500     2.0449  2054.0000
 1488.6920    18.4531  2114.0000      .0098    49.9687  -999.2500     2.0352  2100.0000
 1488.8444    18.8438  2114.0000     -.0054    47.0938  -999.2500     1.9609  2074.0000
 1488.9968    19.0156  2116.0000     -.0127    47.6875  -999.2500     1.9287  2054.0000
 1489.1492    17.8750  2116.0000     -.0190    46.1563  -999.2500     1.9141  2114.0000
 1489.3016    17.8906  2118.0000     -.0112    47.4687  -999.2500     1.9814  2010.0000
 1489.4540    17.9375  2120.0000     -.0039    47.1250  -999.2500     2.0156  2050.0000
 1489.6064    18.3594  2120.0000     -.0015    47.4687  -999.2500     2.0078  2160.0000
 1489.7588    19.3594  2120.0000     -.0063    43.0000  -999.2500     1.9834  2060.0000
 1489.9112    17.8438  2120.0000     -.0146    42.4687  -999.2500     1.9902  2050.0000
 1490.0636    17.7969  2116.0000     -.0112    40.9062  -999.2500     2.0332  2104.0000
 1490.2160    17.7656  2116.0000     -.0088    43.5625  -999.2500     2.0586  2020.0000
 1490.3684    17.7656  2118.0000     -.0015    43.0625  -999.2500     2.0625  2054.0000
 1490.5208    17.7656  2120.0000     -.0039    39.0000  -999.2500     2.0391  2140.0000
 1490.6732    17.7656  2124.0000      .0039    34.8125  -999.2500     2.0391  2064.0000
 1490.8256    17.7656  2126.0000     -.0015    28.0937  -999.2500     2.0195  2040.0000
 1490.9780    17.7656  2126.0000     -.0029    24.3750  -999.2500     2.0098  2054.0000
 1491.1304    17.7656  2122.0000     -.0020    21.1406  -999.2500     2.0098  2100.0000
 1491.2828    17.7656  2122.0000     -.0005    20.6563  -999.2500     2.0117  2050.0000
 1491.4352    17.7813  2124.0000     -.0034    23.6094  -999.2500     2.0117  2030.0000
 1491.5876    17.7813  2124.0000     -.0088    23.8750  -999.2500     2.0059  2050.0000
 1491.7400    17.7656  2124.0000     -.0112    24.3594  -999.2500     2.0020  2064.0000
 1491.8924    17.7813  2120.0000     -.0039    23.2188  -999.2500     2.0117  2035.0000
 1492.0448    17.7813  2120.0000      .0044    24.5000  -999.2500     2.0215  2054.0000
 1492.1972    17.7813  2120.0000      .0088    23.4062  -999.2500     2.0273  2070.0000
 1492.3496    17.7813  2122.0000      .0010    22.2188  -999.2500     2.0117  2045.0000
 1492.5020    17.7813  2122.0000     -.0073    20.3281  -999.2500     1.9912  2035.0000
 1492.6544    17.7813  2122.0000     -.0127    21.7031  -999.2500     1.9795  2054.0000
 1492.8068    17.7656  2122.0000     -.0151    23.1563  -999.2500     1.9785  2060.0000
 1492.9592    17.7969  2124.0000     -.0151    24.0625  -999.2500     1.9902  2025.0000
 1493.1116    17.7969  2124.0000     -.0127    24.4375  -999.2500     2.0000  2050.0000
 1493.2640    17.7969  2122.0000     -.0093    20.5937  -999.2500     2.0117  2060.0000
 1493.4164    17.7969  2122.0000     -.0093    23.5469  -999.2500     2.0039  2054.0000
 1493.5688    17.7969  2120.0000     -.0093    22.6563  -999.2500     1.9922  2054.0000
 1493.7212    17.7969  2120.0000     -.0122    25.4063  -999.2500     1.9863  2045.0000
 1493.8736    17.7969  2118.0000     -.0107    22.2344  -999.2500     1.9951  2060.0000
 1494.0260    17.7969  2118.0000     -.0078    22.1875  -999.2500     2.0000  2070.0000
 1494.1784    17.7969  2118.0000     -.0020    21.1563  -999.2500     2.0137  2050.0000
 1494.3308    17.7969  2120.0000      .0029    20.4844  -999.2500     2.0195  2040.0000
 1494.4832    17.7969  2120.0000     -.0044    20.5000  -999.2500     2.0137  2054.0000
 1494.6356    17.7969  2118.0000     -.0137    19.6719  -999.2500     1.9971  2040.0000
 1494.7880    17.7969  2118.0000     -.0234    20.0469  -999.2500     1.9766  2040.0000
 1494.9404    17.7969  2120.0000     -.0225    19.2031  -999.2500     1.9814  2050.0000
 1495.0928    17.7969  2120.0000     -.0171    18.9063  -999.2500     1.9932  2050.0000
 1495.2452    17.7969  2120.0000     -.0117    18.6094  -999.2500     1.9980  2074.0000
 1495.3976    17.7969  2120.0000     -.0151    20.0781  -999.2500     1.9893  2050.0000
 1495.5500    17.7969  2122.0000     -.0161    21.3281  -999.2500     1.9883  2045.0000
 1495.7024    17.7969  2122.0000     -.0234    21.5625  -999.2500     1.9844  2060.0000
 1495.8548    17.7969  2122.0000     -.0156    22.4219  -999.2500     1.9941  2030.0000
 1496.0072    17.7969  2120.0000     -.0122    22.0781  -999.2500     1.9941  2030.0000
 1496.1596    17.7969  2122.0000     -.0063    22.0781  -999.2500     1.9990  2060.0000
 1496.3120    17.7969  2122.0000     -.0034    20.2969  -999.2500     1.9980  2060.0000
 1496.4644    17.7969  2120.0000      .0000    20.0313  -999.2500     2.0059  2035.0000
 1496.6168    17.7969  2118.0000      .0029    19.4688  -999.2500     2.0137  2070.0000
 1496.7692    17.8281  2118.0000     -.0059    20.1250  -999.2500     2.0039  2060.0000
 1496.9216    17.8281  2120.0000     -.0161    22.8281  -999.2500     1.9883  2045.0000
 1497.0740    17.8281  2120.0000     -.0161    23.7031  -999.2500     1.9893  2064.0000
 1497.2264    17.8281  2120.0000     -.0127    23.9531  -999.2500     1.9951  2060.0000
 1497.3788    17.8281  2118.0000     -.0059    22.7031  -999.2500     2.0078  2054.0000
 1497.5312    17.8281  2118.0000     -.0024    23.3125  -999.2500     2.0078  2060.0000
 1497.6836    17.8281  2120.0000      .0020    21.8906  -999.2500     2.0176  2045.0000
 1497.8360    17.8281  2122.0000     -.0024    20.9844  -999.2500     2.0078  2045.0000
 1497.9884    17.8281  2122.0000     -.0117    20.3281  -999.2500     1.9980  2040.0000
 1498.1408    17.8438  2120.0000     -.0195    21.7188  -999.2500     1.9775  2054.0000
 1498.2932    17.8281  2116.0000     -.0166    23.1406  -999.2500     1.9766  2060.0000
 1498.4456    17.8281  2116.0000     -.0127    23.7813  -999.2500     1.9756  2045.0000
 1498.5980    17.8281  2118.0000     -.0093    22.8906  -999.2500     1.9834  2045.0000
 1498.7504    17.8281  2120.0000     -.0142    23.3281  -999.2500     1.9814  2050.0000
 1498.9028    17.8281  2120.0000     -.0132    24.1406  -999.2500     1.9795  2045.0000
 1499.0552    17.8281  2122.0000     -.0112    24.1406  -999.2500     1.9854  2045.0000
 1499.2076    17.8281  2122.0000     -.0024    22.2656  -999.2500     1.9932  2054.0000
 1499.3600    17.8281  2122.0000     -.0020    19.0313  -999.2500     1.9971  2064.0000
 1499.5124    17.8281  2124.0000     -.0039    19.9375  -999.2500     1.9863  2045.0000
 1499.6648    17.8281  2124.0000     -.0078    20.8125  -999.2500     1.9795  2054.0000
 1499.8172    17.8438  2120.0000     -.0103    24.0312  -999.2500     1.9746  2040.0000
 1499.9696    17.8438  2120.0000     -.0142    23.4531  -999.2500     1.9707  2030.0000
 1500.1220    17.8438  2120.0000     -.0117    22.0938  -999.2500     1.9756  2040.0000
 1500.2744    17.8438  2124.0000     -.0117    19.3125  -999.2500     1.9844  2040.0000
 1500.4268    17.8438  2126.0000     -.0083    19.9219  -999.2500     1.9844  2060.0000
 1500.5792    17.8438  2126.0000     -.0078    24.0000  -999.2500     1.9854  2045.0000
