~VERSION INFORMATION
VERS.                                                 2.0:   CWLS Log ASCII Standard-VERSION 2.0
WRAP.                                                  NO:   One line per depth step
~Well Information Block
STRT.M                                           599.2856:   Top Depth
STOP.M                                          5052.7184:   Bottom Depth
STEP.M                                             .15240:   Depth Increment
NULL.                                            -999.250:   Null Value
FLD .                                                   -:   Field Name
WELL.                                              15/5-3:   NAME
WBN .                                              15/5-3:   WELLBORE
NATI.                                                 NOR:   COUNTRY
CTRY.                                                 NOR:   COUNTRY
COMP.                                     NORSK HYDRO A/S:   OPERATOR
PROV.                                                   -:   PROVINCE
COUN.                                             NORTRYM:   RIG NAME
SPUD.                                          1980/08/22:   SPUD DATE
LATI.                                       58 45 47.93 N:   SURF. LATITUDE
LONG.                                        1 38 12.05 E:   SURF. LONGITUDE
PBWE.                                              15/5-3:   PB WELL ID
APIN.                                              15/5-3:   PB WELLBORE ID
PBWS.                                                 all:   PB WELL NAME SET
~PARAMETER INFORMATION (log)
LNAM.                              FDC/CNL/GR  COMPOSITED:   NAME
LTYP.                                         DEPTH MATCH:   LOG TYPE
LSRV.                                            DEN/NEUT:   LOG SERVICE
LSOU.                                             SPT/NPD:   LOG SOURCE
LVSN.                                                   1:   LOG VERSION
BHIS.                                                   R:   BRIEF HISTORY
FHIS.                                             RAW-LIS:   FULL HISTORY
LCNM.                                        SCHLUMBERGER:   LOGGING CONTRACTOR
TOOL.                             FDC/CNL/GR (COMPOSITED):   TOOL STRING
~Curve Information Block
#MNEM.UNIT                                        API CODE    No Description
#=========                                        ========    == ===========
DEPT.M                                       00 001 00 00:     1  DEPTH
CALI.IN                                                  :     2  Caliper
CS.                                                      :     3  Cable Speed
DRHO.G/CC                                                :     4  Bulk density correction
GR.GAPI                                                  :     5  Gamma Ray
NPHI.%                                                   :     6  Neutron porosity
RHOB.G/CC                                                :     7  Bulk density
TENS.LB                                                  :     8  Cable Tension
~ASCII
  599.2856    19.5625  2140.0000    -1.0088    28.1406  -999.2500     1.7354  1245.0000
  599.4380    19.5625  2138.0000    -1.1436    29.7500  -999.2500     1.5811  1245.0000
  599.5904    19.5625  2140.0000    -1.0264    32.3750  -999.2500     1.7090  1235.0000
  599.7428    19.5625  2138.0000    -1.0859    32.3125  -999.2500     1.5615  1245.0000
  599.8952    19.5625  2138.0000    -1.0879    29.3906  -999.2500     1.4854  1235.0000
  600.0476    19.5469  2138.0000    -1.2402    27.8594  -999.2500     1.2617  1230.0000
  600.2000    19.5625  2134.0000    -1.2656    27.0625  -999.2500     1.2373  1240.0000
  600.3524    19.5625  2132.0000    -1.2725    27.0625  -999.2500     1.2676  1240.0000
  600.5048    19.5625  2132.0000    -1.1885    26.0000  -999.2500     1.4297  1255.0000
  600.6572    19.5625  2134.0000    -1.1260    29.0469  -999.2500     1.5488  1255.0000
  600.8096    19.5625  2136.0000    -1.1133    29.9687  -999.2500     1.5781  1240.0000
  600.9620    19.5625  2138.0000    -1.1660    28.9844  -999.2500     1.5000  1260.0000
  601.1144    19.5625  2138.0000    -1.1836    27.0625  -999.2500     1.4316  1245.0000
  601.2668    19.5625  2138.0000    -1.1553    28.1875  -999.2500     1.4502  1245.0000
  601.4192    19.5625  2138.0000    -1.1123    32.0000  -999.2500     1.5313  1245.0000
  601.5716    19.5625  2136.0000    -1.1396    31.6875  -999.2500     1.5508  1240.0000
  601.7240    19.5781  2136.0000    -1.0752    29.1250  -999.2500     1.6689  1250.0000
  601.8764    19.5625  2134.0000    -1.1758    27.4531  -999.2500     1.5352  1250.0000
  602.0288    19.5781  2134.0000    -1.2354    27.2031  -999.2500     1.4814  1245.0000
  602.1812    19.5625  2134.0000    -1.4043    28.0625  -999.2500     1.2773  1260.0000
  602.3336    19.5781  2136.0000    -1.2539    26.5000  -999.2500     1.4717  1240.0000
  602.4860    19.5625  2136.0000    -1.1641    27.4687  -999.2500     1.5576  1255.0000
  602.6384    19.5625  2140.0000    -1.0742    26.6094  -999.2500     1.6328  1240.0000
  602.7908    19.5625  2142.0000    -1.1729    28.1250  -999.2500     1.5078  1250.0000
  602.9432    19.5938  2140.0000    -1.2510    31.0000  -999.2500     1.4385  1240.0000
  603.0956    19.5625  2136.0000    -1.2939    34.2813  -999.2500     1.4404  1245.0000
  603.2480    19.5781  2132.0000    -1.2324    34.5938  -999.2500     1.5518  1260.0000
  603.4004    19.5625  2128.0000    -1.1357    34.2500  -999.2500     1.6904  1240.0000
  603.5528    19.5938  2130.0000    -1.0898    31.7188  -999.2500     1.7461  1255.0000
  603.7052    19.5625  2132.0000    -1.0156    32.3125  -999.2500     1.7969  1245.0000
  603.8576    19.5625  2132.0000    -1.0400    29.4531  -999.2500     1.7686  1245.0000
  604.0100    19.5781  2134.0000    -1.1006    32.5938  -999.2500     1.7148  1245.0000
  604.1624    19.5781  2134.0000    -1.1455    31.7188  -999.2500     1.7051  1250.0000
  604.3148    19.5938  2138.0000    -1.1182    34.9687  -999.2500     1.7383  1250.0000
  604.4672    19.5938  2140.0000    -1.0479    39.2500  -999.2500     1.8125  1250.0000
  604.6196    19.5938  2140.0000    -1.1045    41.8750  -999.2500     1.7051  1255.0000
  604.7720    19.5781  2138.0000    -1.1270    41.5000  -999.2500     1.6875  1245.0000
  604.9244    19.5938  2138.0000    -1.1504    35.9062  -999.2500     1.6719  1250.0000
  605.0768    19.5938  2136.0000    -1.0313    34.8750  -999.2500     1.8457  1260.0000
  605.2292    19.5938  2134.0000    -1.2207    33.0937  -999.2500     1.7002  1240.0000
  605.3816    19.5938  2134.0000    -1.2666    33.5625  -999.2500     1.6553  1245.0000
  605.5340    19.8281  2136.0000    -1.4346    30.2500  -999.2500     1.5283  1260.0000
  605.6864    20.0781  2136.0000     -.8110    30.4688  -999.2500     1.9785  1250.0000
  605.8388    20.1719  2136.0000     -.1050    32.2188  -999.2500     2.4902  1250.0000
  605.9912    21.6875  2138.0000      .0278    37.5313  -999.2500     2.3281  1240.0000
  606.1436    22.6563  2140.0000      .1099    40.1875  -999.2500     2.1738  1275.0000
  606.2960    23.2031  2138.0000      .0459    40.6875  -999.2500     1.9922  1240.0000
  606.4484    22.7812  2140.0000      .0059    42.7812  -999.2500     1.9121  1265.0000
  606.6008    23.0000  2138.0000      .0176    45.7188  -999.2500     1.9473  1285.0000
  606.7532    23.5156  2134.0000      .0044    49.9063  -999.2500     1.9219  1230.0000
  606.9056    23.7500  2136.0000     -.0020    49.1250  -999.2500     1.9102  1305.0000
  607.0580    23.7656  2134.0000     -.0039    50.5313  -999.2500     1.9023  1235.0000
  607.2104    23.6719  2134.0000     -.0068    50.5313  -999.2500     1.9141  1305.0000
  607.3628    22.1250  2138.0000     -.0049    50.0000  -999.2500     1.9287  1270.0000
  607.5152    22.1250  2138.0000     -.0049    53.5000  -999.2500     1.9463  1245.0000
  607.6676    22.2188  2142.0000      .0093    57.0312  -999.2500     1.9795  1270.0000
  607.8200    22.3594  2140.0000      .0122    59.6250  -999.2500     1.9873  1250.0000
  607.9724    22.3750  2138.0000      .0234    58.3125  -999.2500     1.9941  1230.0000
  608.1248    21.7656  2138.0000      .0181    57.9375  -999.2500     1.9824  1240.0000
  608.2772    21.6563  2138.0000      .0210    59.1563  -999.2500     1.9854  1260.0000
  608.4296    21.7969  2138.0000      .0146    61.5312  -999.2500     1.9834  1250.0000
  608.5820    21.7969  2136.0000      .0273    61.9688  -999.2500     1.9980  1260.0000
  608.7344    22.4063  2134.0000      .0288    63.5937  -999.2500     1.9980  1250.0000
  608.8868    22.1250  2134.0000      .0288    63.1563  -999.2500     1.9873  1245.0000
  609.0392    21.0625  2136.0000      .0200    63.2500  -999.2500     1.9766  1260.0000
  609.1916    21.1250  2134.0000      .0181    63.4062  -999.2500     1.9580  1245.0000
  609.3440    21.5469  2134.0000      .0068    58.7500  -999.2500     1.9395  1270.0000
  609.4964    22.2969  2136.0000      .0044    59.5938  -999.2500     1.9258  1255.0000
  609.6488    23.1719  2138.0000      .0166    59.6875  -999.2500     1.9492  1270.0000
  609.8012    23.7187  2138.0000      .0322    64.3125  -999.2500     1.9668  1250.0000
  609.9536    22.6875  2138.0000      .0439    63.9375  -999.2500     1.9873  1240.0000
  610.1060    22.5156  2136.0000      .0371    63.7813  -999.2500     1.9766  1270.0000
  610.2584    22.8438  2136.0000      .0278    62.9375  -999.2500     1.9551  1260.0000
  610.4108    22.9219  2136.0000      .0151    61.9688  -999.2500     1.9150  1265.0000
  610.5632    22.7188  2134.0000      .0024    64.0625  -999.2500     1.8936  1265.0000
  610.7156    23.0625  2134.0000      .0127    62.4063  -999.2500     1.9092  1260.0000
  610.8680    23.2500  2136.0000      .0176    60.3750  -999.2500     1.9102  1250.0000
  611.0204    22.5000  2138.0000      .0156    56.0937  -999.2500     1.8887  1260.0000
  611.1728    22.8438  2142.0000     -.0005    57.7188  -999.2500     1.8662  1275.0000
  611.3252    22.7500  2144.0000     -.0083    60.4687  -999.2500     1.8701  1265.0000
  611.4776    22.8594  2144.0000     -.0078    61.5625  -999.2500     1.8721  1260.0000
  611.6300    22.6094  2140.0000     -.0044    57.5625  -999.2500     1.8838  1275.0000
  611.7824    22.6563  2136.0000     -.0029    55.4063  -999.2500     1.8916  1260.0000
  611.9348    21.0781  2136.0000     -.0054    53.4688  -999.2500     1.9043  1270.0000
  612.0872    21.6563  2134.0000     -.0068    57.1875  -999.2500     1.9092  1250.0000
  612.2396    22.7500  2132.0000     -.0015    56.9375  -999.2500     1.9238  1270.0000
  612.3920    22.7500  2132.0000      .0049    59.5312  -999.2500     1.9268  1265.0000
  612.5444    21.6406  2132.0000      .0068    60.5000  -999.2500     1.9209  1270.0000
  612.6968    22.3125  2132.0000      .0020    63.0313  -999.2500     1.8984  1245.0000
  612.8492    22.2344  2132.0000      .0024    65.0625  -999.2500     1.9131  1270.0000
  613.0016    22.6719  2134.0000      .0093    64.4375  -999.2500     1.9346  1270.0000
