~VERSION INFORMATION
VERS.                                                 2.0:   CWLS Log ASCII Standard-VERSION 2.0
WRAP.                                                  NO:   One line per depth step
~Well Information Block
STRT.M                                           599.2856:   Top Depth
STOP.M                                          5052.7184:   Bottom Depth
STEP.M                                             .15240:   Depth Increment
NULL.                                            -999.250:   Null Value
FLD .                                                   -:   Field Name
WELL.                                              15/5-3:   NAME
WBN .                                              15/5-3:   WELLBORE
NATI.                                                 NOR:   COUNTRY
CTRY.                                                 NOR:   COUNTRY
COMP.                                     NORSK HYDRO A/S:   OPERATOR
PROV.                                                   -:   PROVINCE
COUN.                                             NORTRYM:   RIG NAME
SPUD.                                          1980/08/22:   SPUD DATE
LATI.                                       58 45 47.93 N:   SURF. LATITUDE
LONG.                                        1 38 12.05 E:   SURF. LONGITUDE
PBWE.                                              15/5-3:   PB WELL ID
APIN.                                              15/5-3:   PB WELLBORE ID
PBWS.                                                 all:   PB WELL NAME SET
~PARAMETER INFORMATION (log)
LNAM.                              FDC/CNL/GR  COMPOSITED:   NAME
LTYP.                                         DEPTH MATCH:   LOG TYPE
LSRV.                                            DEN/NEUT:   LOG SERVICE
LSOU.                                             SPT/NPD:   LOG SOURCE
LVSN.                                                   1:   LOG VERSION
BHIS.                                                   R:   BRIEF HISTORY
FHIS.                                             RAW-LIS:   FULL HISTORY
LCNM.                                        SCHLUMBERGER:   LOGGING CONTRACTOR
TOOL.                             FDC/CNL/GR (COMPOSITED):   TOOL STRING
~Curve Information Block
#MNEM.UNIT                                        API CODE    No Description
#=========                                        ========    == ===========
DEPT.M                                       00 001 00 00:     1  DEPTH
CALI.IN                                                  :     2  Caliper
CS.                                                      :     3  Cable Speed
DRHO.G/CC                                                :     4  Bulk density correction
GR.GAPI                                                  :     5  Gamma Ray
NPHI.%                                                   :     6  Neutron porosity
RHOB.G/CC                                                :     7  Bulk density
TENS.LB                                                  :     8  Cable Tension
~ASCII
# ...
 3262.0184    13.2891  -999.2500     -.0087    35.2695    18.3242     2.5490  3653.6841
 3262.1708    13.2964  -999.2500     -.0116    33.6799    18.5346     2.5361  3681.7305
 3262.3232    13.2896  -999.2500     -.0081    34.4645    18.9638     2.5479  3706.8037
 3262.4756    13.3109  -999.2500     -.0019    35.1703    18.9034     2.5652  3725.4922
 3262.6280    13.3198  -999.2500      .0135    34.6670    18.4434     2.5827  3714.4907
 3262.7804    13.3276  -999.2500      .0255    33.4361    18.5443     2.5912  3691.7725
 3262.9328    13.3281  -999.2500      .0277    33.6912    18.0572     2.5918  3674.9619
 3263.0852    13.3210  -999.2500      .0071    33.1416    17.7466     2.5665  3647.5015
 3263.2376    13.3492  -999.2500      .0140    33.6106    16.3249     2.5789  3656.2490
 3263.3900    13.3516  -999.2500      .0165    32.6490    17.7460     2.5711  3660.1348
 3263.5424    13.3516  -999.2500      .0292    33.4570    19.2213     2.5956  3675.2788
 3263.6948    13.3516  -999.2500      .0042    32.5811    20.7753     2.5563  3683.9712
 3263.8472    13.3516  -999.2500     -.0016    32.4713    20.4943     2.5527  3671.4600
 3263.9996    13.3731  -999.2500     -.0011    32.4687    20.3245     2.5420  3666.9707
 3264.1520    13.3678  -999.2500      .0129    33.4444    20.2228     2.5590  3670.0166
 3264.3044    13.3887  -999.2500      .0079    34.5915    19.2301     2.5552  3680.7231
 3264.4568    13.4193  -999.2500      .0024    36.4631    19.1853     2.5708  3691.9497
 3264.6092    13.4362  -999.2500     -.0038    36.5665    19.1001     2.5740  3690.4634
 3264.7616    13.4446  -999.2500     -.0026    36.1626    19.9380     2.5653  3690.2388
 3264.9140    13.4524  -999.2500     -.0078    35.0117    19.3517     2.5395  3690.2388
 3265.0664    13.4531  -999.2500     -.0056    35.8465    19.4651     2.5371  3683.5142
 3265.2188    13.4531  -999.2500     -.0045    37.5304    19.6157     2.5567  3665.8599
 3265.3712    13.4673  -999.2500      .0023    37.3462    19.8067     2.5621  3643.5654
 3265.5236    13.4688  -999.2500      .0025    36.6878    19.3362     2.5714  3640.5386
 3265.6760    13.4546  -999.2500     -.0002    34.1306    19.5528     2.5528  3640.4385
 3265.8284    13.4531  -999.2500     -.0022    33.9827    19.4474     2.5490  3644.0596
 3265.9808    13.4531  -999.2500      .0055    32.2162    19.6546     2.5524  3649.8320
 3266.1332    13.4531  -999.2500      .0090    31.6497    20.5151     2.5580  3650.3984
 3266.2856    13.4531  -999.2500      .0088    30.5925    20.8698     2.5780  3659.4004
 3266.4380    13.4743  -999.2500      .0004    30.7522    20.1057     2.5783  3669.3452
 3266.5904    13.4766  -999.2500      .0022    33.0329    18.1732     2.5887  3668.6792
 3266.7428    13.4906  -999.2500      .0046    34.2663    17.6169     2.5951  3682.8428
 3266.8952    13.5133  -999.2500      .0132    36.8474    18.6756     2.5992  3689.6528
 3267.0476    13.5577  -999.2500      .0164    38.2830    20.1572     2.6014  3690.2388
 3267.2000    13.5695  -999.2500      .0253    40.8709    22.2379     2.6085  3687.0840
 3267.3524    13.5703  -999.2500      .0041    40.1191    22.9421     2.5902  3665.6914
 3267.5048    13.5703  -999.2500      .0041    39.1331    22.8234     2.5914  3647.9175
 3267.6572    13.5703  -999.2500      .0022    39.0033    21.3208     2.5761  3649.9453
 3267.8096    13.5843  -999.2500      .0264    38.8048    21.2297     2.6038  3650.3984
 3267.9620    13.5929  -999.2500      .0210    38.1408    20.8053     2.5900  3641.5205
 3268.1144    13.6146  -999.2500      .0013    35.3059    20.5779     2.5740  3667.0303
 3268.2668    13.6172  -999.2500     -.0101    35.9138    19.8618     2.5497  3661.4507
 3268.4192    13.6172  -999.2500     -.0086    35.7318    19.7754     2.5695  3669.2085
 3268.5716    13.6241  -999.2500      .0073    37.4941    20.5546     2.5949  3670.9868
 3268.7240    13.6250  -999.2500      .0179    38.7162    20.6543     2.6150  3676.8120
 3268.8764    13.6250  -999.2500      .0074    40.5031    22.5972     2.5843  3671.1504
 3269.0288    13.6388  -999.2500      .0011    44.7263    23.6708     2.5835  3670.3188
 3269.1812    13.6268  -999.2500      .0039    47.6773    24.8136     2.5805  3678.8599
 3269.3336    13.6181  -999.2500      .0237    50.2830    24.6500     2.5973  3655.5562
 3269.4860    13.6241  -999.2500      .0234    47.5088    23.2771     2.5772  3659.3989
 3269.6384    13.6387  -999.2500      .0113    44.0377    22.9239     2.5587  3647.5029
 3269.7908    13.6269  -999.2500     -.0018    42.1169    21.1851     2.5481  3641.0845
 3269.9432    13.6181  -999.2500      .0004    42.5404    19.7911     2.5658  3640.9863
 3270.0956    13.6172  -999.2500      .0014    43.5568    18.4321     2.5803  3654.9658
 3270.2480    13.6172  -999.2500      .0104    41.3359    19.1158     2.6077  3651.2139
 3270.4004    13.6172  -999.2500      .0062    41.9021    21.0721     2.5960  3650.3984
 3270.5528    13.6172  -999.2500      .0113    42.3586    21.1248     2.5989  3654.5806
 3270.7052    13.6172  -999.2500      .0071    42.9239    19.8576     2.5741  3681.2485
 3270.8576    13.6172  -999.2500      .0038    40.0073    19.2951     2.5771  3685.1089
 3271.0100    13.6172  -999.2500      .0009    38.2321    20.4705     2.5680  3689.5757
 3271.1624    13.6240  -999.2500      .0119    38.5791    21.5449     2.5782  3690.2354
 3271.3148    13.6250  -999.2500      .0061    40.2017    22.0609     2.5564  3688.1201
 3271.4672    13.6250  -999.2500      .0023    41.1965    22.0345     2.5510  3685.5957
 3271.6196    13.6385  -999.2500     -.0069    41.7721    22.6128     2.5508  3683.1040
 3271.7720    13.7891  -999.2500      .0001    42.7615    21.9881     2.5693  3684.9141
 3271.9244    14.4195  -999.2500      .0133    43.9854    22.1279     2.6026  3680.9561
 3272.0768    13.7006  -999.2500      .0278    45.5303    22.4209     2.6192  3671.7007
 3272.2292    13.5703  -999.2500      .0092    46.3150    22.9654     2.5824  3670.3208
 3272.3816    13.5703  -999.2500     -.0034    45.8378    22.3745     2.5476  3670.3188
 3272.5340    13.5703  -999.2500     -.0103    44.5415    22.6431     2.5279  3678.8745
 3272.6864    13.5703  -999.2500     -.0075    44.1828    22.1613     2.5405  3680.2788
 3272.8388    13.5703  -999.2500      .0040    45.9246    21.4427     2.5547  3680.2788
 3272.9912    13.6104  -999.2500      .0079    46.4059    21.0455     2.5566  3680.2788
 3273.1436    13.6572  -999.2500      .0262    45.2363    21.3298     2.5566  3680.2788
 3273.2960    13.6441  -999.2500      .0389    42.4203    21.5951     2.5367  3671.7827
 3273.4484    14.0203  -999.2500      .0751    42.0753    20.8399     2.5499  3670.3188
 3273.6008    14.1924  -999.2500      .0768    42.1286    22.2414     2.5527  3670.3188
 3273.7532    14.2358  -999.2500      .0470    44.7056    25.0028     2.5344  3677.4922
 3273.9056    13.7180  -999.2500      .0129    45.4996    26.3933     2.5180  3684.6611
 3274.0580    13.6184  -999.2500      .0024    45.0320    26.5212     2.5355  3721.7822
 3274.2104    13.6172  -999.2500      .0106    44.9110    24.2000     2.5771  3759.7900
 3274.3628    13.6172  -999.2500      .0184    45.1970    23.2425     2.6022  3779.0161
 3274.5152    13.6172  -999.2500      .0179    45.4083    21.3723     2.5956  3719.2344
 3274.6676    13.6238  -999.2500      .0106    44.3818    21.7047     2.5806  3647.0913
 3274.8200    13.6250  -999.2500     -.0002    43.5816    22.4436     2.5633  3652.6611
 3274.9724    13.6250  -999.2500      .0042    42.7273    22.1889     2.5704  3672.3262
 3275.1248    13.6250  -999.2500      .0008    41.0198    21.0524     2.5640  3681.0249
 3275.2772    13.6251  -999.2500     -.0033    41.8456    20.6036     2.5559  3687.6558
 3275.4296    13.6447  -999.2500     -.0096    41.5642    21.0887     2.5416  3693.9980
 3275.5820    13.6877  -999.2500     -.0026    40.3428    21.5590     2.5636  3687.3013
 3275.7344    13.7280  -999.2500      .0137    37.2773    21.0185     2.5961  3678.1147
