~VERSION INFORMATION
VERS.                                                 2.0:   CWLS Log ASCII Standard-VERSION 2.0
WRAP.                                                  NO:   One line per depth step
~Well Information Block
STRT.M                                           599.2856:   Top Depth
STOP.M                                          5052.7184:   Bottom Depth
STEP.M                                             .15240:   Depth Increment
NULL.                                            -999.250:   Null Value
FLD .                                                   -:   Field Name
WELL.                                              15/5-3:   NAME
WBN .                                              15/5-3:   WELLBORE
NATI.                                                 NOR:   COUNTRY
CTRY.                                                 NOR:   COUNTRY
COMP.                                     NORSK HYDRO A/S:   OPERATOR
PROV.                                                   -:   PROVINCE
COUN.                                             NORTRYM:   RIG NAME
SPUD.                                          1980/08/22:   SPUD DATE
LATI.                                       58 45 47.93 N:   SURF. LATITUDE
LONG.                                        1 38 12.05 E:   SURF. LONGITUDE
PBWE.                                              15/5-3:   PB WELL ID
APIN.                                              15/5-3:   PB WELLBORE ID
PBWS.                                                 all:   PB WELL NAME SET
~PARAMETER INFORMATION (log)
LNAM.                              FDC/CNL/GR  COMPOSITED:   NAME
LTYP.                                         DEPTH MATCH:   LOG TYPE
LSRV.                                            DEN/NEUT:   LOG SERVICE
LSOU.                                             SPT/NPD:   LOG SOURCE
LVSN.                                                   1:   LOG VERSION
BHIS.                                                   R:   BRIEF HISTORY
FHIS.                                             RAW-LIS:   FULL HISTORY
LCNM.                                        SCHLUMBERGER:   LOGGING CONTRACTOR
TOOL.                             FDC/CNL/GR (COMPOSITED):   TOOL STRING
~Curve Information Block
#MNEM.UNIT                                        API CODE    No Description
#=========                                        ========    == ===========
DEPT.M                                       00 001 00 00:     1  DEPTH
CALI.IN                                                  :     2  Caliper
CS.                                                      :     3  Cable Speed
DRHO.G/CC                                                :     4  Bulk density correction
GR.GAPI                                                  :     5  Gamma Ray
NPHI.%                                                   :     6  Neutron porosity
RHOB.G/CC                                                :     7  Bulk density
TENS.LB                                                  :     8  Cable Tension
~ASCII
# ...
 3553.2548    12.7344  2020.5637      .0238    36.9483    18.0396     2.5478  3107.1816
 3553.4072    12.7301  2021.7244      .0130    38.3533    17.7288     2.5325  3133.0571
 3553.5596    12.7187  2020.7307      .0112    38.5661    16.9596     2.5317  3374.4683
 3553.7120    12.7187  2021.0493      .0209    38.1029    16.9696     2.5560  3785.0811
 3553.8644    12.7187  2024.5110      .0325    37.3139    17.9905     2.5802  3748.2441
 3554.0168    12.7246  2026.4968      .0411    37.6087    18.1369     2.5918  3701.5796
 3554.1692    12.7460  2027.7578      .0489    37.7106    19.0095     2.5918  3650.9297
 3554.3216    12.7707  2026.5293      .0508    36.7353    20.3033     2.5886  3608.5884
 3554.4740    12.8107  2025.4602      .0421    35.6377    22.6256     2.5826  3593.8730
 3554.6264    12.8047  2027.6641      .0384    35.1758    23.5006     2.5955  3547.6050
 3554.7788    12.7862  2029.7849      .0147    36.1825    22.8255     2.5778  3492.3916
 3554.9312    13.0675  2028.3740     -.0038    35.4764    20.5404     2.5365  3443.7417
 3555.0836    13.9375  2025.7964     -.0125    34.5034    20.3457     2.5211  3403.7202
 3555.2360    12.1687  2025.1958      .0004    32.5844    23.1863     2.5388  3330.9902
 3555.3884    12.1314  2026.1887      .0227    33.4295    25.1796     2.5926  3283.7998
 3555.5408    11.8906  2027.5444      .0427    34.8261    26.3751     2.6218  3220.0317
 3555.6932    11.8879  2029.4753      .0423    36.7435    24.0767     2.6250  3137.6943
 3555.8456    11.8750  2027.0000      .0364    38.2671    21.7854     2.6243  3196.0791
 3555.9980    11.8750  2026.1877      .0303    39.0471    18.2125     2.6170  3353.7007
 3556.1504    11.8750  2020.7556      .0148    40.7368    17.4356     2.5960  3605.9556
 3556.3028    11.8681  2014.8884      .0131    38.8299    18.8853     2.5971  3570.0796
 3556.4552    11.8248  2019.8569      .0127    38.1162    19.2126     2.5946  3487.7104
 3556.6076    11.7952  2019.0000      .0139    38.7900    17.8057     2.5996  3463.9839
 3556.7600    11.7334  2019.0000      .0213    39.8841    15.4847     2.5983  3394.8408
 3556.9124    11.7294  2018.5110      .0210    39.9500    15.5391     2.5889  3351.9331
 3557.0648    11.7273  2015.4641      .0289    38.2475    15.7945     2.5843  3288.8936
 3557.2172    11.5471  2019.0000      .0310    36.3899    17.0599     2.6007  3253.2480
 3557.3696    11.4836  2018.4905      .0127    34.9815    16.8164     2.5969  3281.0190
 3557.5220    11.4743  2014.2866      .0111    35.2669    16.4933     2.6228  3288.4712
 3557.6744    11.4531  2016.9109     -.0037    36.9925    15.8116     2.6016  3276.3145
 3557.8268    11.4538  2016.2476      .0032    37.8544    14.7487     2.5996  3299.5049
 3557.9792    11.4457  2019.1497      .0017    37.6390    15.3215     2.5787  3293.2515
 3558.1316    11.2541  2021.0684      .0101    37.9730    15.8822     2.5842  3283.0415
 3558.2840    11.1963  2022.1863     -.0053    40.0728    16.7333     2.5610  3270.0000
 3558.4364    11.0920  2025.0000     -.0049    38.8465    16.4606     2.5687  3269.6563
 3558.5888    11.0625  2025.1433     -.0039    39.2913    15.7249     2.5757  3264.7642
 3558.7412    11.0602  2028.1240      .0072    37.0582    15.7285     2.6060  3280.0000
 3558.8936    11.0078  2031.0349      .0161    38.4446    15.8675     2.6180  3280.0000
 3559.0460    11.0078  2031.8855      .0016    39.5080    15.8032     2.5879  3279.5420
 3559.1984    11.0078  2027.7993      .0053    39.8433    15.1745     2.5877  3264.8022
 3559.3508    11.0053  2018.9856      .0009    42.5446    14.6031     2.5789  3299.7705
 3559.5032    10.8359  2018.0078      .0278    41.3060    14.8325     2.6308  3283.9683
 3559.6556    10.8359  2019.0000      .0190    40.5000    13.4277     2.6270  3280.0000
 3559.8080    10.8204  2019.9968      .0181    37.0423    12.1683     2.6270  3293.9551
 3559.9604    10.7971  2020.9888      .0070    35.9497    11.9176     2.6173  3299.9331
 3560.1128    10.7969  2019.0381      .0174    36.8571    13.3029     2.6191  3260.7617
 3560.2652    10.7893  2020.9490      .0162    38.6718    15.3760     2.6229  3244.4077
 3560.4176    10.7739  2019.0605      .0246    39.6279    15.1933     2.6155  3259.5156
 3560.5700    10.7659  2020.9236      .0319    40.8586    15.2324     2.6171  3283.0840
 3560.7224    10.7731  2022.9109      .0355    40.0404    14.7221     2.6004  3270.6240
 3560.8748    10.6698  2023.9475      .0218    39.4966    16.0849     2.5774  3283.2666
 3561.0272    10.6788  2024.9409      .0100    39.6452    16.8053     2.5560  3302.8218
 3561.1796    10.6797  2025.0000      .0125    39.6562    16.4818     2.5711  3309.6089
 3561.3320    10.6797  2023.1433      .0195    38.4378    14.7360     2.5922  3291.4331
 3561.4844    10.6797  2031.2976      .0259    36.9320    13.6561     2.6190  3290.0000
 3561.6368    10.6797  2034.7468      .0246    34.3804    13.4404     2.6122  3280.8437
 3561.7892    10.6655  2038.6370      .0231    36.1452    14.1822     2.6078  3310.9141
 3561.9416    10.6641  2038.0984      .0251    36.2029    14.0385     2.6145  3268.9282
 3562.0940    10.6641  2032.6306      .0123    38.3968    13.9265     2.6065  3260.4204
 3562.2464    10.6571  2028.4458      .0081    38.1842    13.6130     2.5881  3260.0000
 3562.3988    10.6632  2022.6975      .0069    41.5772    14.3923     2.5790  3263.5347
 3562.5512    10.6641  2020.2512      .0090    40.8563    15.0560     2.5764  3295.4785
 3562.7036    10.6641  2023.4712      .0038    41.2028    15.7709     2.5880  3312.1494
 3562.8560    10.6641  2021.4155      .0181    38.4276    16.2468     2.6117  3314.0000
 3563.0084    10.6641  2021.8550      .0330    36.3654    15.8921     2.6253  3305.4487
 3563.1608    10.6574  2024.5469      .0459    36.0672    16.4398     2.6286  3295.5103
 3563.3132    10.6628  2025.0000      .0331    36.0099    16.4296     2.6026  3268.7769
 3563.4656    10.6771  2025.8342      .0242    38.1381    17.3816     2.5993  3272.3438
 3563.6180    10.6797  2026.8279      .0217    38.1226    16.6103     2.6125  3240.8789
 3563.7704    10.6797  2023.7070      .0050    38.0827    16.1256     2.5911  3250.4648
 3563.9228    10.6797  2023.0000      .0023    38.3486    15.6281     2.5843  3286.6230
 3564.0752    10.6860  2028.6555     -.0011    37.2196    15.4880     2.5698  3315.0063
 3564.2276    10.6687  2030.0000      .0059    37.4631    14.8155     2.5867  3331.2134
 3564.3800    10.6641  2029.2039      .0016    39.0617    14.2608     2.5856  3318.0762
 3564.5324    10.6641  2028.2114      .0112    41.0146    14.2752     2.5948  3295.0747
 3564.6848    10.6396  2027.2180      .0142    40.5091    14.2686     2.5854  3269.6719
 3564.8372    10.6147  2031.6475      .0229    38.5798    15.0129     2.5926  3260.9014
 3564.9896    10.6094  2034.5349      .0153    38.8613    15.9816     2.5852  3270.7451
 3565.1420    10.6153  2028.9077      .0167    39.2603    18.0994     2.5895  3304.4609
 3565.2944    10.6113  2026.2451      .0218    41.4353    19.3257     2.6036  3310.9810
 3565.4468    10.6152  2022.2578      .0094    42.8500    19.8955     2.5899  3302.5156
 3565.5992    10.6114  2021.0000      .0067    43.6729    20.0195     2.5796  3302.9648
 3565.7516    10.6151  2021.0000      .0027    41.9898    19.6611     2.5638  3301.0571
 3565.9040    10.6001  2019.5437      .0131    38.9915    20.3100     2.5757  3278.1558
 3566.0564    10.6050  2021.8853      .0126    39.3197    20.1141     2.5694  3280.0986
 3566.2088    10.5982  2021.5701      .0181    41.8368    20.8959     2.5742  3284.0000
 3566.3612    10.6048  2019.5808      .0265    43.3658    21.2545     2.5767  3291.0952
 3566.5136    10.6094  2021.1033      .0226    43.2619    22.4346     2.5816  3298.2065
 3566.6660    10.6094  2022.0000      .0170    41.7486    22.2737     2.5758  3295.8345
 3566.8184    10.5986  2022.0000      .0163    41.9301    21.2030     2.5790  3298.1274
 3566.9708    10.6044  2020.6370      .0203    42.2813    20.3192     2.5860  3306.8149
