~VERSION INFORMATION
VERS.                                                 2.0:   CWLS Log ASCII Standard-VERSION 2.0
WRAP.                                                  NO:   One line per depth step
~Well Information Block
STRT.M                                           599.2856:   Top Depth
STOP.M                                          5052.7184:   Bottom Depth
STEP.M                                             .15240:   Depth Increment
NULL.                                            -999.250:   Null Value
FLD .                                                   -:   Field Name
WELL.                                              15/5-3:   NAME
WBN .                                              15/5-3:   WELLBORE
NATI.                                                 NOR:   COUNTRY
CTRY.                                                 NOR:   COUNTRY
COMP.                                     NORSK HYDRO A/S:   OPERATOR
PROV.                                                   -:   PROVINCE
COUN.                                             NORTRYM:   RIG NAME
SPUD.                                          1980/08/22:   SPUD DATE
LATI.                                       58 45 47.93 N:   SURF. LATITUDE
LONG.                                        1 38 12.05 E:   SURF. LONGITUDE
PBWE.                                              15/5-3:   PB WELL ID
APIN.                                              15/5-3:   PB WELLBORE ID
PBWS.                                                 all:   PB WELL NAME SET
~PARAMETER INFORMATION (log)
LNAM.                              FDC/CNL/GR  COMPOSITED:   NAME
LTYP.                                         DEPTH MATCH:   LOG TYPE
LSRV.                                            DEN/NEUT:   LOG SERVICE
LSOU.                                             SPT/NPD:   LOG SOURCE
LVSN.                                                   1:   LOG VERSION
BHIS.                                                   R:   BRIEF HISTORY
FHIS.                                             RAW-LIS:   FULL HISTORY
LCNM.                                        SCHLUMBERGER:   LOGGING CONTRACTOR
TOOL.                             FDC/CNL/GR (COMPOSITED):   TOOL STRING
~Curve Information Block
#MNEM.UNIT                                        API CODE    No Description
#=========                                        ========    == ===========
DEPT.M                                       00 001 00 00:     1  DEPTH
CALI.IN                                                  :     2  Caliper
CS.                                                      :     3  Cable Speed
DRHO.G/CC                                                :     4  Bulk density correction
GR.GAPI                                                  :     5  Gamma Ray
NPHI.%                                                   :     6  Neutron porosity
RHOB.G/CC                                                :     7  Bulk density
TENS.LB                                                  :     8  Cable Tension
~ASCII
# ...
 4745.9372     9.0256  2971.7002     -.0020    17.5146    -1.3109     2.2129  4526.9131
 4746.0896     9.0942  2971.9438      .0118    18.4616    -1.3198     2.2210  4531.4004
 4746.2420     9.1616  2970.1875      .0060    15.7833    -1.3612     2.2159  4532.0000
 4746.3944     9.1783  2966.4980      .0074    12.9878    -1.4128     2.2093  4531.4443
 4746.5468     9.1724  2962.6108      .0004    10.0668    -1.5398     2.1923  4514.7217
 4746.6992     9.1516  2962.0000     -.0012     9.8881    -1.5639     2.1849  4502.0557
 4746.8516     9.1326  2962.1104      .0040     9.2933    -1.5998     2.1976  4507.1074
 4747.0040     9.0513  2965.3843      .0183     9.1879    -1.4861     2.2222  4518.1533
 4747.1564     8.9664  2965.9482      .0154    10.1997    -1.4210     2.2215  4520.1025
 4747.3088     8.9533  2964.3037      .0070    13.0058    -1.3334     2.2175  4523.5820
 4747.4612     8.9620  2964.0000     -.0013    17.9225    -1.3129     2.2225  4530.2754
 4747.6136     9.0359  2964.0000      .0080    22.2957    -1.1488     2.2462  4515.3271
 4747.7660     9.1140  2964.0000      .0141    28.0634     -.9913     2.2616  4522.5225
 4747.9184     9.1655  2964.0000      .0228    34.1390     -.7246     2.2650  4537.7090
 4748.0708     9.2051  2964.0469      .0224    37.3736     -.5151     2.2538  4546.5723
 4748.2232     9.2163  2965.7373      .0247    39.3786     -.3633     2.2439  4541.2393
 4748.3756     9.1720  2967.6899      .0183    40.3819     -.3005     2.2490  4540.1875
 4748.5280     9.1430  2968.0469      .0268    43.6754     -.2907     2.2579  4546.8545
 4748.6804     9.0911  2969.6938      .0116    43.1163     -.2116     2.2456  4551.3018
 4748.8328     8.9599  2969.9136      .0127    40.7180     -.2366     2.2088  4548.8701
 4748.9852     8.9244  2966.6118     -.0060    41.3482     -.2441     2.1784  4557.8203
 4749.1376     8.9285  2965.9146     -.0074    43.8951     -.2419     2.1794  4546.4023
 4749.2900     8.9302  2962.5811     -.0108    45.1555     -.1631     2.2050  4540.6240
 4749.4424     8.9535  2960.3545     -.0043    40.0414     -.1939     2.2301  4539.8291
 4749.5948     9.1119  2961.6860     -.0037    32.0421     -.4488     2.2223  4533.4102
 4749.7472     9.1734  2961.9614     -.0031    23.7150     -.7802     2.1972  4538.2051
 4749.8996     9.1731  2960.3447     -.0045    17.9384     -.9985     2.1752  4516.6182
 4750.0520     9.1711  2961.6919     -.0022    14.8914    -1.1902     2.1730  4525.5352
 4750.2044     9.1369  2962.0771      .0086    15.0839    -1.2197     2.2210  4527.9219
 4750.3568     9.0467  2965.3735      .0193    13.3068    -1.1797     2.2812  4524.9316
 4750.5092     9.0113  2966.0000      .0538    12.9450    -1.1737     2.3609  4537.4697
 4750.6616     8.9945  2966.1025      .0628    11.6677    -1.2566     2.3474  4540.0000
 4750.8140     8.9867  2971.0171      .0557    11.4220    -1.3954     2.2797  4540.0000
 4750.9664     9.0362  2970.2817      .0334    11.4223    -1.5402     2.1898  4540.0000
 4751.1188     9.0087  2968.3159      .0137    11.1331    -1.6036     2.1346  4540.2031
 4751.2712     9.0662  2968.0000      .0074    11.3721    -1.6099     2.1239  4550.0615
 4751.4236     9.1040  2968.0303      .0028    11.8069    -1.5283     2.1385  4548.3223
 4751.5760     9.0839  2969.5972      .0048    13.5072    -1.4701     2.1755  4531.1221
 4751.7284     9.1307  2964.9219      .0017    16.1319    -1.3402     2.1968  4527.9395
 4751.8808     9.1403  2962.3184      .0049    18.7798    -1.2340     2.2205  4524.6963
 4752.0332     9.1198  2962.0298     -.0030    20.7998    -1.0958     2.2232  4527.3037
 4752.1856     9.0512  2963.6797      .0049    23.2523     -.9493     2.2357  4524.4355
 4752.3380     9.0119  2964.0000      .0007    25.3265     -.8028     2.2318  4510.8203
 4752.4904     8.9488  2964.0000     -.0005    29.4393     -.6570     2.2340  4524.7939
 4752.6428     8.9375  2964.0000     -.0028    30.4755     -.5512     2.2493  4528.0000
 4752.7952     8.9382  2964.0259      .0064    33.9248     -.4565     2.2570  4528.0518
 4752.9476     8.9842  2965.7051      .0309    33.2532     -.5240     2.2624  4531.5391
 4753.1000     9.0454  2967.6567      .0378    33.0388     -.7025     2.2370  4545.5977
 4753.2524     9.1141  2966.3438      .0200    29.9490     -.8550     2.1945  4561.3760
 4753.4048     9.1578  2967.6772      .0014    28.3624     -.8779     2.1695  4560.6445
 4753.5572     9.1710  2968.0215     -.0062    29.1525     -.7954     2.1713  4560.2139
 4753.7096     9.2030  2969.6772      .0103    33.4963     -.6563     2.2014  4576.5596
 4753.8620     9.0797  2970.0127      .0136    40.0873     -.4695     2.2103  4563.1279
 4754.0144     9.0546  2971.6987      .0099    46.8126     -.2715     2.2160  4549.8418
 4754.1668     9.0474  2973.6641     -.0002    51.1749      .0866     2.2318  4541.2734
 4754.3192     8.9746  2972.3013     -.0022    53.7642      .3932     2.2591  4540.0000
 4754.4716     8.9609  2970.3066      .0094    50.2601      .5180     2.2700  4539.8975
 4754.6240     8.9610  2968.3076      .0134    47.0479      .2905     2.2501  4529.9492
 4754.7764     8.9680  2966.3140      .0142    41.8244      .1194     2.2331  4528.0771
 4754.9288     9.0412  2964.3140      .0252    45.4818     -.1892     2.2402  4538.0635
 4755.0812     9.1333  2962.3394      .0287    44.4313     -.3673     2.2323  4543.2695
 4755.2336     9.1681  2963.6772      .0398    45.5663     -.4726     2.2238  4534.0049
 4755.3860     9.1721  2963.9868      .0239    43.6861     -.5292     2.2013  4545.4609
 4755.5384     9.2052  2962.3203      .0099    41.8521     -.5374     2.1925  4551.4609
 4755.6908     9.2825  2962.0171      .0205    39.9852     -.5778     2.2077  4565.3760
 4755.8432     9.2436  2965.3501      .0233    36.7711     -.5853     2.1946  4568.0166
 4755.9956     9.0253  2967.6797      .0185    37.7233     -.5039     2.1800  4571.3242
 4756.1480     8.9452  2969.6709      .0045    42.1989     -.4061     2.1828  4568.6406
 4756.3004     8.9376  2970.0000      .0069    42.1336     -.2689     2.2211  4564.6064
 4756.4528     8.9570  2970.0000      .0086    40.0156     -.3662     2.2285  4554.0000
 4756.6052     9.0198  2971.6729      .0047    36.4096     -.4722     2.1958  4552.0000
 4756.7576     8.9594  2972.0000     -.0030    40.3038     -.4870     2.1568  4548.6533
 4756.9100     9.0368  2972.0000     -.0048    46.8864     -.2429     2.1618  4541.3076
 4757.0624     9.1459  2966.9966     -.0024    48.7557     -.0733     2.1966  4546.6709
 4757.2148     9.2422  2966.0000      .0216    48.3854     -.0497     2.2536  4541.3330
 4757.3672     9.3490  2964.3330      .0211    42.7083     -.2116     2.2425  4530.0000
 4757.5196     9.2565  2964.0000      .0103    38.2604     -.4883     2.1976  4528.0000
 4757.6720     9.1758  2964.0000     -.0039    33.2188     -.6999     2.1488  4528.0000
 4757.8244     9.0072  2964.0000     -.0035    35.5331     -.7324     2.1439  4528.0000
 4757.9768     8.9044  2964.0000      .0016    36.4608     -.5687     2.1594  4528.0518
 4758.1292     8.8776  2964.0000      .0037    39.6900     -.4954     2.1967  4538.2314
 4758.2816     8.8885  2964.0342      .0099    42.2249     -.4064     2.2265  4560.2119
 4758.4340     8.9315  2967.3354      .0307    42.4849     -.3919     2.2711  4567.5273
 4758.5864     9.0564  2966.3223      .0290    38.0113     -.4748     2.2497  4581.3760
 4758.7388     9.1506  2966.0259      .0315    30.1867     -.6548     2.2333  4580.4854
 4758.8912     9.1848  2967.7119      .0066    29.4680     -.8471     2.1703  4569.7891
 4759.0436     9.2466  2969.6836      .0095    31.6011     -.8361     2.1765  4560.9893
 4759.1960     9.2505  2970.0000      .0010    35.2504     -.7431     2.1921  4546.4121
 4759.3484     9.2159  2970.0000      .0022    36.7595     -.5238     2.2370  4540.2666
 4759.5008     9.1669  2970.0947      .0150    39.5751     -.4031     2.2706  4526.3359
 4759.6532     9.0091  2973.2930      .0377    41.0815     -.3079     2.2729  4520.9131
