~VERSION INFORMATION
VERS.                                                 2.0:   CWLS Log ASCII Standard-VERSION 2.0
WRAP.                                                  NO:   One line per depth step
~Well Information Block
STRT.M                                           599.2856:   Top Depth
STOP.M                                          5052.7184:   Bottom Depth
STEP.M                                             .15240:   Depth Increment
NULL.                                            -999.250:   Null Value
FLD .                                                   -:   Field Name
WELL.                                              15/5-3:   NAME
WBN .                                              15/5-3:   WELLBORE
NATI.                                                 NOR:   COUNTRY
CTRY.                                                 NOR:   COUNTRY
COMP.                                     NORSK HYDRO A/S:   OPERATOR
PROV.                                                   -:   PROVINCE
COUN.                                             NORTRYM:   RIG NAME
SPUD.                                          1980/08/22:   SPUD DATE
LATI.                                       58 45 47.93 N:   SURF. LATITUDE
LONG.                                        1 38 12.05 E:   SURF. LONGITUDE
PBWE.                                              15/5-3:   PB WELL ID
APIN.                                              15/5-3:   PB WELLBORE ID
PBWS.                                                 all:   PB WELL NAME SET
~PARAMETER INFORMATION (log)
LNAM.                              FDC/CNL/GR  COMPOSITED:   NAME
LTYP.                                         DEPTH MATCH:   LOG TYPE
LSRV.                                            DEN/NEUT:   LOG SERVICE
LSOU.                                             SPT/NPD:   LOG SOURCE
LVSN.                                                   1:   LOG VERSION
BHIS.                                                   R:   BRIEF HISTORY
FHIS.                                             RAW-LIS:   FULL HISTORY
LCNM.                                        SCHLUMBERGER:   LOGGING CONTRACTOR
TOOL.                             FDC/CNL/GR (COMPOSITED):   TOOL STRING
~Curve Information Block
#MNEM.UNIT                                        API CODE    No Description
#=========                                        ========    == ===========
DEPT.M                                       00 001 00 00:     1  DEPTH
CALI.IN                                                  :     2  Caliper
CS.                                                      :     3  Cable Speed
DRHO.G/CC                                                :     4  Bulk density correction
GR.GAPI                                                  :     5  Gamma Ray
NPHI.%                                                   :     6  Neutron porosity
RHOB.G/CC                                                :     7  Bulk density
TENS.LB                                                  :     8  Cable Tension
~ASCII
# ...
 4440.8324     9.2509  3047.9473      .0084    45.4569      .0488     2.2294  4286.7666
 4440.9848     9.2152  3044.1880      .0049    47.0224      .0488     2.2133  4297.3330
 4441.1372     9.2347  3042.6919      .0008    45.5029      .0374     2.2146  4292.3760
 4441.2896     9.3640  3045.8120      .0099    44.0991     -.0555     2.2273  4287.4697
 4441.4420     9.4899  3047.5464      .0124    43.8836     -.1738     2.2308  4281.3379
 4441.5944     9.4012  3046.2139      .0175    44.7114     -.1518     2.2196  4284.0381
 4441.7468     9.3627  3045.7627      .0031    44.1598     -.1465     2.1910  4285.2031
 4441.8992     9.3594  3044.2114      .0063    41.5502     -.1350     2.1855  4268.2178
 4442.0516     9.3603  3044.0000      .0052    42.0695     -.0708     2.1877  4255.1123
 4442.2040     9.3590  3044.0000      .0206    44.1025     -.1414     2.2132  4263.6494
 4442.3564     9.3133  3044.4614      .0185    44.7117     -.2013     2.2175  4272.5127
 4442.5088     9.3033  3047.5640      .0281    40.7827     -.2655     2.2216  4283.6152
 4442.6612     9.1993  3048.2305      .0319    37.4742     -.1515     2.2196  4290.6660
 4442.8136     9.1721  3050.0127      .0355    38.8309     -.0485     2.2195  4286.5850
 4442.9660     9.2193  3051.7842      .0195    43.0079      .0270     2.2006  4273.2695
 4443.1184     9.3192  3052.0000      .0070    44.7782     -.0495     2.1916  4269.8174
 4443.2708     9.3569  3051.7710      .0112    43.1578     -.1471     2.2006  4277.3330
 4443.4232     9.3708  3049.7598      .0282    42.5013     -.2334     2.2211  4270.6621
 4443.5756     9.3975  3046.2119      .0468    42.6557     -.2332     2.2387  4277.3242
 4443.7280     9.3688  3043.9932      .0383    44.9173     -.1573     2.2240  4269.3203
 4443.8804     9.3454  3042.2197      .0453    44.2908     -.1519     2.2385  4268.0000
 4444.0328     9.3210  3041.7749      .0452    44.1825     -.1899     2.2487  4267.5498
 4444.1852     9.2056  3040.2197      .0493    43.2419     -.1899     2.2689  4264.8799
 4444.3376     9.1545  3040.2197      .0348    42.6352     -.1360     2.2474  4269.3203
 4444.4900     9.1642  3042.0063      .0266    40.5668     -.0109     2.2296  4281.8076
 4444.6424     9.2355  3043.7817      .0282    43.2793      .0597     2.2235  4280.8848
 4444.7948     9.3031  3044.0000      .0289    44.4487      .1899     2.2361  4283.5635
 4444.9472     9.2698  3044.6538      .0197    48.4846      .2874     2.2365  4284.0000
 4445.0996     9.3641  3049.3267      .0082    47.3393      .3310     2.2359  4285.7432
 4445.2520     9.4845  3050.0000      .0066    49.2790      .3141     2.2333  4296.8975
 4445.4044     9.4013  3049.7813      .0137    46.7633      .4281     2.2382  4288.9131
 4445.5568     9.3662  3048.0063      .0304    47.3750      .4932     2.2510  4286.1699
 4445.7092     9.3820  3046.6602      .0109    47.0545      .5484     2.2213  4299.1201
 4445.8616     9.3329  3049.7715      .0037    48.9570      .3745     2.2168  4304.0908
 4446.0140     9.2152  3051.5625     -.0006    46.1339      .3695     2.2170  4283.1104
 4446.1664     9.2130  3050.2256      .0065    44.5957      .2559     2.2148  4279.1455
 4446.3188     9.1468  3049.3589      .0031    45.1225      .1804     2.1851  4273.7607
 4446.4712     9.1589  3044.4658      .0024    45.0391      .0121     2.1636  4277.3838
 4446.6236     9.1535  3042.2271      .0056    47.5434     -.1018     2.1673  4266.2422
 4446.7760     9.1868  3042.2100      .0079    47.5273     -.2324     2.1707  4267.5410
 4446.9284     9.2689  3043.7734      .0110    47.4978     -.2873     2.1794  4265.5146
 4447.0808     9.2801  3043.7886      .0135    41.9141     -.2827     2.1883  4248.8047
 4447.2332     9.3195  3042.2241      .0170    41.3754     -.2116     2.2010  4263.4492
 4447.3856     9.2966  3042.4214      .0134    40.3654     -.2284     2.1988  4279.0488
 4447.5380     9.2084  3045.5400      .0131    40.3893     -.1629     2.1927  4286.2588
 4447.6904     9.1502  3045.7949      .0083    37.5409     -.1996     2.1919  4280.9229
 4447.8428     9.1606  3044.2305     -.0001    36.2772     -.2914     2.1690  4282.0508
 4447.9952     9.1539  3044.0000     -.0003    35.0701     -.3842     2.1632  4294.0000
 4448.1476     9.1309  3044.2026      .0003    32.9713     -.4387     2.1693  4267.7061
 4448.3000     9.1458  3046.1738      .0098    32.2159     -.4826     2.1872  4263.2783
 4448.4524     9.1500  3049.5430      .0199    35.2841     -.4933     2.2048  4284.8018
 4448.6048     9.1639  3049.7969      .0368    37.1984     -.5265     2.2054  4288.0000
 4448.7572     9.1826  3048.8345      .0254    36.9973     -.4940     2.1920  4288.4043
 4448.9096     9.2188  3053.1025      .0164    33.3110     -.4931     2.1809  4291.1338
 4449.0620     9.2059  3051.8311      .0147    32.0222     -.5314     2.1776  4286.4570
 4449.2144     9.1992  3048.0679      .0217    32.1708     -.5419     2.1756  4269.9365
 4449.3668     9.1664  3044.2739      .0316    34.1867     -.5754     2.1861  4265.2598
 4449.5192     9.1396  3042.6206      .0354    35.4202     -.5476     2.1904  4271.0693
 4449.6716     9.1061  3045.5391      .0431    33.4146     -.5706     2.1983  4270.8086
 4449.8240     9.1039  3046.0000      .0369    33.1377     -.5046     2.1862  4261.7793
 4449.9764     9.1223  3046.1982      .0192    32.0653     -.5218     2.1752  4265.1270
 4450.1288     9.1310  3047.5737      .0080    33.7725     -.4414     2.1755  4276.5908
 4450.2812     9.1824  3046.4287      .0092    32.3515     -.3397     2.1878  4266.2754
 4450.4336     9.2059  3047.9551      .0082    32.7492     -.2128     2.1769  4267.9102
 4450.5860     9.1963  3049.7627      .0080    32.8901     -.2091     2.1651  4272.6797
 4450.7384     9.2509  3049.8071     -.0038    30.7249     -.3426     2.1347  4282.5732
 4450.8908     9.3244  3048.2354     -.0037    27.2089     -.5137     2.1385  4284.3770
 4451.0432     9.3244  3048.0000      .0018    24.7874     -.5465     2.1348  4285.6318
 4451.1956     9.3336  3048.3794      .0143    25.5902     -.6323     2.1428  4269.5869
 4451.3480     9.2541  3051.7197      .0187    25.2114     -.7162     2.1409  4263.5879
 4451.5004     9.0781  3053.7612      .0170    25.6722     -.6941     2.1395  4284.2842
 4451.6528     9.0987  3053.6240      .0205    25.5138     -.7220     2.1429  4284.4785
 4451.8052     9.1366  3050.1152      .0171    25.7596     -.6940     2.1349  4285.4697
 4451.9576     9.1511  3046.2988      .0088    24.8833     -.7310     2.1252  4298.0684
 4452.1100     9.1970  3044.2388      .0099    24.1562     -.7797     2.1296  4297.4629
 4452.2624     9.3244  3043.8188      .0157    23.6892     -.8241     2.1288  4273.1699
 4452.4148     9.3224  3042.2368      .0335    24.1005     -.8166     2.1400  4253.0674
 4452.5672     9.2112  3042.3711      .0323    23.9490     -.7013     2.1370  4268.7871
 4452.7196     9.3056  3045.5220      .0307    24.9172     -.6791     2.1470  4267.0322
 4452.8720     9.3367  3046.1792      .0254    25.6563     -.6276     2.1512  4255.0195
 4453.0244     9.2710  3047.7563      .0264    28.2136     -.4934     2.1617  4264.3330
 4453.1768     9.0064  3047.8203      .0307    28.9353     -.3683     2.1743  4279.4102
 4453.3292     9.1215  3046.2441      .0424    29.1166     -.4360     2.1922  4261.4893
 4453.4816     9.1306  3046.1758      .0384    27.0507     -.5294     2.1900  4247.3379
 4453.6340     9.1565  3047.7568      .0335    27.0439     -.5799     2.1854  4260.4717
 4453.7864     9.2092  3048.3535      .0074    27.0913     -.5988     2.1641  4284.2715
 4453.9388     9.3206  3051.3408      .0060    24.7907     -.7230     2.1682  4284.8359
 4454.0912     9.3428  3050.4170      .0233    23.1520     -.8266     2.1803  4289.6338
 4454.2436     9.3458  3051.7549      .0369    22.2581     -.9198     2.1825  4308.3594
 4454.3960     9.3663  3052.0000      .0376    21.0884     -.9747     2.1560  4303.9658
 4454.5484     9.3810  3051.4868      .0221    19.2668    -1.0152     2.1161  4294.1709
