~VERSION INFORMATION
VERS.                                                 2.0:   CWLS Log ASCII Standard-VERSION 2.0
WRAP.                                                  NO:   One line per depth step
~Well Information Block
STRT.M                                           599.2856:   Top Depth
STOP.M                                          5052.7184:   Bottom Depth
STEP.M                                             .15240:   Depth Increment
NULL.                                            -999.250:   Null Value
FLD .                                                   -:   Field Name
WELL.                                              15/5-3:   NAME
WBN .                                              15/5-3:   WELLBORE
NATI.                                                 NOR:   COUNTRY
CTRY.                                                 NOR:   COUNTRY
COMP.                                     NORSK HYDRO A/S:   OPERATOR
PROV.                                                   -:   PROVINCE
COUN.                                             NORTRYM:   RIG NAME
SPUD.                                          1980/08/22:   SPUD DATE
LATI.                                       58 45 47.93 N:   SURF. LATITUDE
LONG.                                        1 38 12.05 E:   SURF. LONGITUDE
PBWE.                                              15/5-3:   PB WELL ID
APIN.                                              15/5-3:   PB WELLBORE ID
PBWS.                                                 all:   PB WELL NAME SET
~PARAMETER INFORMATION (log)
LNAM.                              FDC/CNL/GR  COMPOSITED:   NAME
LTYP.                                         DEPTH MATCH:   LOG TYPE
LSRV.                                            DEN/NEUT:   LOG SERVICE
LSOU.                                             SPT/NPD:   LOG SOURCE
LVSN.                                                   1:   LOG VERSION
BHIS.                                                   R:   BRIEF HISTORY
FHIS.                                             RAW-LIS:   FULL HISTORY
LCNM.                                        SCHLUMBERGER:   LOGGING CONTRACTOR
TOOL.                             FDC/CNL/GR (COMPOSITED):   TOOL STRING
~Curve Information Block
#MNEM.UNIT                                        API CODE    No Description
#=========                                        ========    == ===========
DEPT.M                                       00 001 00 00:     1  DEPTH
CALI.IN                                                  :     2  Caliper
CS.                                                      :     3  Cable Speed
DRHO.G/CC                                                :     4  Bulk density correction
GR.GAPI                                                  :     5  Gamma Ray
NPHI.%                                                   :     6  Neutron porosity
RHOB.G/CC                                                :     7  Bulk density
TENS.LB                                                  :     8  Cable Tension
~ASCII
# ...
 1195.6268    18.6250  2058.0000     -.0098    40.4063  -999.2500     1.8223  1810.0000
 1195.7792    18.7344  2060.0000     -.0049    40.0313  -999.2500     1.8301  1765.0000
 1195.9316    19.7656  2058.0000     -.0044    44.3437  -999.2500     1.7988  1830.0000
 1196.0840    18.5781  2054.0000     -.0107    45.5313  -999.2500     1.7822  1760.0000
 1196.2364    19.0781  2054.0000     -.0083    43.5937  -999.2500     1.7764  1790.0000
 1196.3888    20.3906  2052.0000     -.0093    43.2500  -999.2500     1.7998  1810.0000
 1196.5412    19.6094  2052.0000     -.0054    45.1562  -999.2500     1.7959  1760.0000
 1196.6936    20.7969  2050.0000     -.0171    44.7188  -999.2500     1.7607  1850.0000
 1196.8460    19.0000  2050.0000     -.0244    44.9687  -999.2500     1.7383  1750.0000
 1196.9984    19.5156  2052.0000     -.0264    45.2188  -999.2500     1.7656  1800.0000
 1197.1508    18.4688  2054.0000     -.0112    50.6563  -999.2500     1.8311  1810.0000
 1197.3032    20.1094  2054.0000      .0059    50.7188  -999.2500     1.8711  1775.0000
 1197.4556    19.6406  2056.0000      .0166    48.6250  -999.2500     1.8604  1830.0000
 1197.6080    20.4844  2054.0000      .0063    45.6563  -999.2500     1.8398  1770.0000
 1197.7604    20.8438  2050.0000     -.0005    44.5312  -999.2500     1.8154  1840.0000
 1197.9128    21.7813  2047.0000     -.0117    45.1250  -999.2500     1.8164  1755.0000
 1198.0652    21.2656  2048.0000     -.0103    46.4062  -999.2500     1.8105  1810.0000
 1198.2176    21.1250  2050.0000     -.0132    46.5938  -999.2500     1.8125  1800.0000
 1198.3700    20.6875  2050.0000     -.0093    46.1250  -999.2500     1.8066  1815.0000
 1198.5224    18.8750  2052.0000     -.0073    48.9688  -999.2500     1.8213  1765.0000
 1198.6748    18.4844  2052.0000     -.0010    52.3125  -999.2500     1.8311  1815.0000
 1198.8272    20.1875  2052.0000     -.0039    52.8438  -999.2500     1.8115  1775.0000
 1198.9796    19.5000  2054.0000     -.0161    49.5938  -999.2500     1.7559  1810.0000
 1199.1320    20.7969  2056.0000     -.0166    44.3125  -999.2500     1.7334  1775.0000
 1199.2844    19.4688  2054.0000     -.0098    46.3750  -999.2500     1.7490  1780.0000
 1199.4368    19.0000  2052.0000     -.0034    46.9375  -999.2500     1.7852  1760.0000
 1199.5892    21.0469  2050.0000      .0005    49.2500  -999.2500     1.8213  1830.0000
 1199.7416    19.5781  2050.0000      .0068    46.3438  -999.2500     1.8340  1760.0000
 1199.8940    20.7500  2052.0000      .0024    46.3125  -999.2500     1.8105  1810.0000
 1200.0464    19.3750  2054.0000     -.0073    48.4062  -999.2500     1.7949  1770.0000
 1200.1988    18.4688  2054.0000     -.0112    51.0000  -999.2500     1.7949  1785.0000
 1200.3512    18.5469  2054.0000     -.0078    52.5625  -999.2500     1.8213  1820.0000
 1200.5036    20.0469  2052.0000     -.0049    48.7187  -999.2500     1.8271  1790.0000
 1200.6560    20.7031  2056.0000     -.0049    48.9375  -999.2500     1.8271  1805.0000
 1200.8084    21.8125  2058.0000      .0029    48.6875  -999.2500     1.8496  1785.0000
 1200.9608    22.1406  2056.0000      .0034    51.8125  -999.2500     1.8408  1795.0000
 1201.1132    20.7500  2054.0000     -.0024    49.3750  -999.2500     1.8115  1770.0000
 1201.2656    21.4531  2054.0000     -.0088    50.0313  -999.2500     1.7949  1820.0000
 1201.4180    19.2031  2052.0000     -.0059    49.5625  -999.2500     1.8125  1805.0000
 1201.5704    19.5156  2054.0000     -.0015    48.4375  -999.2500     1.8193  1790.0000
 1201.7228    20.7656  2056.0000     -.0024    45.0313  -999.2500     1.7764  1830.0000
 1201.8752    18.8594  2056.0000     -.0137    43.2188  -999.2500     1.7236  1760.0000
 1202.0276    19.0781  2058.0000     -.0225    46.1250  -999.2500     1.7002  1820.0000
 1202.1800    19.1094  2060.0000     -.0225    47.5313  -999.2500     1.7314  1795.0000
 1202.3324    19.5000  2060.0000     -.0142    48.5313  -999.2500     1.7627  1750.0000
 1202.4848    20.3438  2064.0000     -.0127    47.3750  -999.2500     1.7939  1845.0000
 1202.6372    18.8125  2062.0000     -.0044    46.8750  -999.2500     1.8066  1755.0000
 1202.7896    20.7656  2060.0000     -.0044    46.3438  -999.2500     1.8008  1805.0000
 1202.9420    22.7969  2058.0000      .0005    44.8125  -999.2500     1.7979  1795.0000
 1203.0944    22.5625  2058.0000     -.0083    44.0312  -999.2500     1.7881  1780.0000
 1203.2468    23.3281  2058.0000     -.0117    42.1875  -999.2500     1.7822  1805.0000
 1203.3992    22.9688  2058.0000     -.0161    43.8750  -999.2500     1.7422  1795.0000
 1203.5516    20.9688  2060.0000     -.0210    47.0312  -999.2500     1.7227  1800.0000
 1203.7040    21.2656  2060.0000     -.0171    47.9375  -999.2500     1.7402  1825.0000
 1203.8564    20.2969  2060.0000     -.0127    46.2187  -999.2500     1.7881  1780.0000
 1204.0088    21.6250  2062.0000     -.0020    43.1250  -999.2500     1.8076  1825.0000
 1204.1612    22.3750  2060.0000     -.0015    45.2812  -999.2500     1.8320  1790.0000
 1204.3136    19.0938  2058.0000      .0098    46.3125  -999.2500     1.8584  1785.0000
 1204.4660    20.8750  2056.0000      .0049    45.3125  -999.2500     1.8623  1815.0000
 1204.6184    20.8281  2056.0000      .0117    44.7188  -999.2500     1.8467  1770.0000
 1204.7708    21.0781  2056.0000     -.0073    45.0313  -999.2500     1.8096  1795.0000
 1204.9232    20.5313  2054.0000     -.0049    46.3438  -999.2500     1.8291  1825.0000
 1205.0756    18.8594  2054.0000     -.0024    49.0000  -999.2500     1.8662  1755.0000
 1205.2280    21.1250  2054.0000      .0200    51.4688  -999.2500     1.9336  1840.0000
 1205.3804    21.8594  2058.0000      .0273    53.9375  -999.2500     1.9219  1780.0000
 1205.5328    20.0938  2060.0000      .0225    51.8437  -999.2500     1.8936  1825.0000
 1205.6852    20.9375  2060.0000      .0225    52.1875  -999.2500     1.8721  1835.0000
 1205.8376    18.8594  2058.0000     -.0005    49.1875  -999.2500     1.8340  1755.0000
 1205.9900    19.0781  2056.0000     -.0127    51.2500  -999.2500     1.7988  1820.0000
 1206.1424    19.4375  2054.0000     -.0210    48.9375  -999.2500     1.7930  1820.0000
 1206.2948    18.4375  2052.0000     -.0098    51.5938  -999.2500     1.8203  1780.0000
 1206.4472    18.7188  2052.0000      .0000    49.2813  -999.2500     1.8457  1815.0000
 1206.5996    20.1875  2052.0000      .0093    51.3750  -999.2500     1.8613  1775.0000
 1206.7520    20.6719  2052.0000     -.0015    50.8750  -999.2500     1.8643  1780.0000
 1206.9044    21.9063  2050.0000      .0029    53.2188  -999.2500     1.8828  1820.0000
 1207.0568    18.8125  2052.0000      .0000    53.4375  -999.2500     1.8779  1795.0000
 1207.2092    19.3594  2052.0000      .0029    52.4687  -999.2500     1.8730  1810.0000
 1207.3616    20.7500  2056.0000     -.0068    49.5312  -999.2500     1.8750  1820.0000
 1207.5140    20.7813  2054.0000     -.0015    48.3438  -999.2500     1.8896  1755.0000
 1207.6664    22.3281  2050.0000      .0049    47.4687  -999.2500     1.8916  1865.0000
 1207.8188    23.2969  2045.0000      .0049    46.1563  -999.2500     1.8799  1780.0000
 1207.9712    23.5156  2044.0000     -.0054    44.4688  -999.2500     1.8682  1815.0000
 1208.1236    21.6563  2044.0000     -.0151    43.2500  -999.2500     1.8838  1810.0000
 1208.2760    21.4844  2045.0000     -.0122    45.6875  -999.2500     1.9258  1800.0000
 1208.4284    21.5625  2047.0000     -.0103    44.3750  -999.2500     1.9609  1820.0000
 1208.5808    21.6250  2047.0000      .0068    45.3125  -999.2500     1.9834  1805.0000
 1208.7332    21.2969  2047.0000      .0171    44.7500  -999.2500     1.9844  1805.0000
 1208.8856    20.4844  2048.0000      .0361    49.1563  -999.2500     1.9883  1785.0000
 1209.0380    21.6406  2050.0000      .0259    50.4375  -999.2500     1.9766  1805.0000
 1209.1904    21.4531  2048.0000      .0298    50.6875  -999.2500     1.9668  1785.0000
 1209.3428    20.9844  2047.0000      .0122    50.3750  -999.2500     1.9375  1820.0000
