~VERSION INFORMATION
VERS.                                                 2.0:   CWLS Log ASCII Standard-VERSION 2.0
WRAP.                                                  NO:   One line per depth step
~Well Information Block
STRT.M                                           599.2856:   Top Depth
STOP.M                                          5052.7184:   Bottom Depth
STEP.M                                             .15240:   Depth Increment
NULL.                                            -999.250:   Null Value
FLD .                                                   -:   Field Name
WELL.                                              15/5-3:   NAME
WBN .                                              15/5-3:   WELLBORE
NATI.                                                 NOR:   COUNTRY
CTRY.                                                 NOR:   COUNTRY
COMP.                                     NORSK HYDRO A/S:   OPERATOR
PROV.                                                   -:   PROVINCE
COUN.                                             NORTRYM:   RIG NAME
SPUD.                                          1980/08/22:   SPUD DATE
LATI.                                       58 45 47.93 N:   SURF. LATITUDE
LONG.                                        1 38 12.05 E:   SURF. LONGITUDE
PBWE.                                              15/5-3:   PB WELL ID
APIN.                                              15/5-3:   PB WELLBORE ID
PBWS.                                                 all:   PB WELL NAME SET
~PARAMETER INFORMATION (log)
LNAM.                              FDC/CNL/GR  COMPOSITED:   NAME
LTYP.                                         DEPTH MATCH:   LOG TYPE
LSRV.                                            DEN/NEUT:   LOG SERVICE
LSOU.                                             SPT/NPD:   LOG SOURCE
LVSN.                                                   1:   LOG VERSION
BHIS.                                                   R:   BRIEF HISTORY
FHIS.                                             RAW-LIS:   FULL HISTORY
LCNM.                                        SCHLUMBERGER:   LOGGING CONTRACTOR
TOOL.                             FDC/CNL/GR (COMPOSITED):   TOOL STRING
~Curve Information Block
#MNEM.UNIT                                        API CODE    No Description
#=========                                        ========    == ===========
DEPT.M                                       00 001 00 00:     1  DEPTH
CALI.IN                                                  :     2  Caliper
CS.                                                      :     3  Cable Speed
DRHO.G/CC                                                :     4  Bulk density correction
GR.GAPI                                                  :     5  Gamma Ray
NPHI.%                                                   :     6  Neutron porosity
RHOB.G/CC                                                :     7  Bulk density
TENS.LB                                                  :     8  Cable Tension
~ASCII
# ...
 2083.2044    13.0162  -999.2500      .0735    27.9201    39.8438     2.3825  2712.4429
 2083.3568    13.2031  -999.2500      .0063    27.3750    39.3570     2.2754  2707.6050
 2083.5092    13.5938  -999.2500      .0151    29.0312    41.9434     2.2168  2702.5693
 2083.6616    13.2656  -999.2500      .0024    28.9688    43.4082     2.1914  2694.3818
 2083.8140    13.2422  -999.2500      .0127    34.0312    42.4805     2.2051  2692.6875
 2083.9664    13.2031  -999.2500      .0107    35.8125    39.5020     2.2559  2697.5103
 2084.1188    13.4141  -999.2500      .0303    36.5938    39.4043     2.2812  2717.5337
 2084.2712    13.8176  -999.2500      .0410    34.9300    39.7949     2.2733  2713.3926
 2084.4236    12.9795  -999.2500      .0312    32.5894    38.9160     2.2363  2692.6875
 2084.5760    13.8828  -999.2500      .0215    31.2187    34.0001     2.2383  2678.0078
 2084.7284    13.0703  -999.2500      .0190    30.6406    39.7949     2.2852  2663.0435
 2084.8808    13.4922  -999.2500      .0356    33.5313    42.1875     2.3379  2660.9790
 2085.0332    13.5156  -999.2500      .0347    31.3594    44.3848     2.3398  2678.7485
 2085.1856    13.8203  -999.2500      .0249    30.7813    39.9414     2.3008  2702.6011
 2085.3380    13.2031  -999.2500      .0244    28.4531    40.1848     2.3145  2722.3320
 2085.4904    13.1953  -999.2500      .0479    30.6094    40.8691     2.3398  2712.4502
 2085.6428    13.2971  -999.2500      .0600    34.1365    39.5996     2.3220  2705.1431
 2085.7952    13.3754  -999.2500      .0380    37.7262    42.6270     2.2401  2692.6875
 2085.9476    13.5000  -999.2500      .0054    40.0625    46.4234     2.2051  2682.8062
 2086.1000    13.3437  -999.2500     -.0015    38.7813    47.6074     2.2246  2682.8062
 2086.2524    13.3906  -999.2500      .0171    37.9688    49.8535     2.2695  2692.6875
 2086.4048    13.4453  -999.2500      .0156    39.5313    43.9453     2.2578  2692.6875
 2086.5572    13.3437  -999.2500      .0122    38.5000    48.1445     2.2422  2692.6875
 2086.7096    13.1484  -999.2500      .0200    39.0938    39.9902     2.2285  2692.6875
 2086.8620    13.1410  -999.2500      .0068    37.4703    44.0918     2.2187  2692.6875
 2087.0144    13.2512  -999.2500     -.0000    37.9358    47.6074     2.2050  2692.6875
 2087.1668    13.6244  -999.2500     -.0058    37.4082    49.7070     2.1894  2688.6201
 2087.3192    13.4453  -999.2500      .0039    38.0313    52.5787     2.1582  2690.0874
 2087.4716    13.2969  -999.2500      .0054    38.7187    51.7090     2.1172  2690.0747
 2087.6240    13.3984  -999.2500     -.0078    39.7813    53.7598     2.1016  2692.6875
 2087.7764    13.5625  -999.2500     -.0073    39.1250    52.8320     2.1191  2692.6875
 2087.9288    13.8437  -999.2500      .0044    39.5625    46.8750     2.1699  2680.4780
 2088.0812    14.7578  -999.2500      .0112    35.6875    49.8047     2.1367  2682.8062
 2088.2336    14.1133  -999.2500     -.0054    32.9600    50.9766     2.1015  2697.2959
 2088.3860    12.9036  -999.2500     -.0263    30.2519    48.7793     2.0902  2712.4502
 2088.5384    12.0859  -999.2500     -.0132    30.8438    38.8015     2.1934  2722.3320
 2088.6908    12.1484  -999.2500      .0117    33.6250    31.1035     2.3086  2722.3320
 2088.8432    12.1875  -999.2500      .0415    34.8125    32.8613     2.3848  2707.8423
 2088.9956    12.1562  -999.2500      .0039    33.6875    40.3809     2.3379  2684.3057
 2089.1480    11.9063  -999.2500     -.0103    26.9531    41.3086     2.3184  2662.0835
 2089.3004    11.8281  -999.2500     -.0103    21.8437    34.4459     2.3105  2658.1025
 2089.4528    11.9063  -999.2500      .0068    16.7656    26.3672     2.3379  2658.1025
 2089.6052    11.9141  -999.2500      .0283    17.8646    22.6074     2.3221  2658.1025
 2089.7576    11.9142  -999.2500      .0112    19.4915    26.4648     2.2773  2658.1025
 2089.9100    11.9531  -999.2500      .0098    21.7188    25.1994     2.2676  2658.1025
 2090.0624    11.9531  -999.2500     -.0010    20.0938    30.9570     2.2520  2658.1025
 2090.2148    11.9531  -999.2500     -.0010    19.0156    31.2500     2.2500  2658.1025
 2090.3672    11.9375  -999.2500     -.0161    19.0781    33.0566     2.2207  2673.4893
 2090.5196    11.9375  -999.2500     -.0146    18.5000    28.1738     2.2363  2689.1006
 2090.6720    11.9375  -999.2500     -.0176    19.0469    24.7070     2.2246  2704.6870
 2090.8244    11.9375  -999.2500     -.0098    19.0210    24.7070     2.2343  2702.1177
 2090.9768    11.9375  -999.2500     -.0166    20.6943    23.9746     2.2110  2695.5337
 2091.1292    11.9297  -999.2500     -.0112    17.9356    26.0254     2.2226  2688.9390
 2091.2816    11.9375  -999.2500     -.0088    17.3438    24.7113     2.2129  2682.3550
 2091.4340    11.9375  -999.2500     -.0093    18.3906    26.0742     2.2109  2675.7710
 2091.5864    11.9531  -999.2500     -.0088    20.0313    26.9531     2.2051  2669.1870
 2091.7388    11.9766  -999.2500     -.0132    18.9531    27.6367     2.1992  2680.0908
 2091.8912    11.9609  -999.2500     -.0151    18.5313    28.3203     2.1973  2694.9277
 2092.0436    11.9609  -999.2500     -.0122    20.2656    27.1973     2.2031  2705.4492
 2092.1960    12.0079  -999.2500     -.0151    21.3294    28.5645     2.2052  2691.7725
 2092.3484    12.0315  -999.2500     -.0015    21.7467    27.6855     2.2304  2678.0957
 2092.5008    12.1100  -999.2500     -.0078    25.6016    25.8789     2.2227  2664.3970
 2092.6532    12.3047  -999.2500     -.0029    32.9375    24.9512     2.2207  2650.7202
 2092.8056    12.6563  -999.2500     -.0078    42.0625    32.0801     2.2051  2648.2212
 2092.9580    12.8203  -999.2500      .0000    50.3750    37.5977     2.2187  2648.2212
 2093.1104    12.8828  -999.2500      .0107    51.9688    43.3105     2.2422  2658.6118
 2093.2628    12.8203  -999.2500      .0229    52.5313    43.6026     2.2422  2680.1870
 2093.4152    12.6250  -999.2500      .0132    46.0000    48.2910     2.2246  2701.7275
 2093.5676    12.1092  -999.2500     -.0025    42.7649    47.1680     2.2090  2723.2681
 2093.7200    12.0548  -999.2500     -.0098    37.6890    40.5762     2.2168  2718.2251
 2093.8724    12.0781  -999.2500     -.0063    38.1563    34.8815     2.2187  2707.0942
 2094.0248    12.1484  -999.2500     -.0010    40.2500    38.0859     2.2344  2695.9810
 2094.1772    12.1797  -999.2500     -.0034    41.8437    42.4316     2.2129  2684.8677
 2094.3296    12.6953  -999.2500      .0020    41.8437    42.2363     2.2246  2673.7544
 2094.4820    13.4531  -999.2500      .0059    43.0000    44.4824     2.2109  2663.9150
 2094.6344    13.1016  -999.2500      .0059    46.9375    47.1191     2.2109  2662.2388
 2094.7868    13.3281  -999.2500      .0024    48.0385    50.3906     2.2031  2675.4072
 2094.9392    13.3210  -999.2500      .0015    50.2655    46.4844     2.1993  2688.5752
 2095.0916    13.5481  -999.2500      .0210    45.3751    41.0645     2.2206  2699.9546
 2095.2440    13.9219  -999.2500      .0161    45.4063    43.1573     2.1953  2707.3594
 2095.3964    13.3281  -999.2500      .0073    44.3125    45.8008     2.1738  2714.7646
 2095.5488    13.3437  -999.2500     -.0107    45.8750    52.4414     2.1445  2722.1699
 2095.7012    13.3906  -999.2500     -.0166    44.7500    55.3711     2.1250  2723.7061
 2095.8536    12.7500  -999.2500     -.0161    39.6875    55.6152     2.1445  2712.2158
 2096.0060    12.1250  -999.2500     -.0132    37.4375    47.5586     2.1895  2700.7446
 2096.1584    12.1815  -999.2500      .0025    36.9482    35.2539     2.2539  2689.2729
 2096.3108    12.7359  -999.2500      .0097    40.2850    29.3457     2.2556  2677.8013
 2096.4632    13.2215  -999.2500     -.0025    41.4392    37.7930     2.1717  2668.4390
 2096.6156    14.0938  -999.2500     -.0142    41.9688    45.8008     2.1152  2671.5576
 2096.7680    13.0312  -999.2500     -.0186    37.4687    51.8555     2.1191  2674.6768
 2096.9204    12.2578  -999.2500     -.0132    39.1250    48.5352     2.1914  2677.7954
