~VERSION INFORMATION
VERS.                                                 2.0:   CWLS Log ASCII Standard-VERSION 2.0
WRAP.                                                  NO:   One line per depth step
~Well Information Block
STRT.M                                           599.2856:   Top Depth
STOP.M                                          5052.7184:   Bottom Depth
STEP.M                                             .15240:   Depth Increment
NULL.                                            -999.250:   Null Value
FLD .                                                   -:   Field Name
WELL.                                              15/5-3:   NAME
WBN .                                              15/5-3:   WELLBORE
NATI.                                                 NOR:   COUNTRY
CTRY.                                                 NOR:   COUNTRY
COMP.                                     NORSK HYDRO A/S:   OPERATOR
PROV.                                                   -:   PROVINCE
COUN.                                             NORTRYM:   RIG NAME
SPUD.                                          1980/08/22:   SPUD DATE
LATI.                                       58 45 47.93 N:   SURF. LATITUDE
LONG.                                        1 38 12.05 E:   SURF. LONGITUDE
PBWE.                                              15/5-3:   PB WELL ID
APIN.                                              15/5-3:   PB WELLBORE ID
PBWS.                                                 all:   PB WELL NAME SET
~PARAMETER INFORMATION (log)
LNAM.                              FDC/CNL/GR  COMPOSITED:   NAME
LTYP.                                         DEPTH MATCH:   LOG TYPE
LSRV.                                            DEN/NEUT:   LOG SERVICE
LSOU.                                             SPT/NPD:   LOG SOURCE
LVSN.                                                   1:   LOG VERSION
BHIS.                                                   R:   BRIEF HISTORY
FHIS.                                             RAW-LIS:   FULL HISTORY
LCNM.                                        SCHLUMBERGER:   LOGGING CONTRACTOR
TOOL.                             FDC/CNL/GR (COMPOSITED):   TOOL STRING
~Curve Information Block
#MNEM.UNIT                                        API CODE    No Description
#=========                                        ========    == ===========
DEPT.M                                       00 001 00 00:     1  DEPTH
CALI.IN                                                  :     2  Caliper
CS.                                                      :     3  Cable Speed
DRHO.G/CC                                                :     4  Bulk density correction
GR.GAPI                                                  :     5  Gamma Ray
NPHI.%                                                   :     6  Neutron porosity
RHOB.G/CC                                                :     7  Bulk density
TENS.LB                                                  :     8  Cable Tension
~ASCII
# ...
  890.5220    19.6406  2098.0000      .0390    44.7378  -999.2500     1.9251  1509.7458
  890.6744    19.8072  2098.0000      .0234    43.0051  -999.2500     1.8746  1516.4226
  890.8268    19.5266  2096.4785      .0101    43.5996  -999.2500     1.8442  1504.7859
  890.9792    19.3151  2097.5190      .0025    44.2623  -999.2500     1.8433  1530.3840
  891.1316    19.3879  2099.5171      .0047    45.6550  -999.2500     1.8677  1524.8301
  891.2840    19.4929  2100.0000      .0040    44.2402  -999.2500     1.8824  1512.4270
  891.4364    19.5511  2100.0000      .0082    44.1998  -999.2500     1.8914  1517.5627
  891.5888    19.4563  2098.4893      .0112    44.3750  -999.2500     1.8980  1516.2234
  891.7412    19.4219  2094.9829      .0187    49.4901  -999.2500     1.9083  1503.6853
  891.8936    19.4336  2094.0000      .0151    50.0498  -999.2500     1.9170  1515.0659
  892.0460    19.3905  2094.0000      .0202    49.1942  -999.2500     1.9351  1516.2415
  892.1984    19.4102  2095.5015      .0247    46.3334  -999.2500     1.9478  1526.2605
  892.3508    19.4219  2097.4990      .0316    46.9599  -999.2500     1.9539  1515.0100
  892.5032    19.3868  2098.0000      .0315    49.1293  -999.2500     1.9565  1517.4839
  892.6556    19.3750  2098.0000      .0260    53.0989  -999.2500     1.9461  1512.5229
  892.8080    19.1650  2098.0000      .0168    53.2002  -999.2500     1.9336  1513.7324
  892.9604    19.0821  2096.5093      .0233    52.6341  -999.2500     1.9459  1511.2734
  893.1128    19.0898  2094.5117      .0296    49.7721  -999.2500     1.9817  1513.7205
  893.2652    18.9544  2094.0000      .0442    49.5092  -999.2500     2.0314  1507.5688
  893.4176    19.0338  2095.4839      .0438    46.9903  -999.2500     2.0507  1512.4209
  893.5700    19.2981  2096.0000      .0416    45.4061  -999.2500     2.0469  1500.1819
  893.7224    19.6063  2096.0000      .0383    41.9727  -999.2500     2.0276  1517.2031
  893.8748    19.6875  2097.4775      .0274    41.7443  -999.2500     2.0034  1532.3889
  894.0272    19.5607  2098.0000      .0221    39.8731  -999.2500     2.0007  1509.1877
  894.1796    19.5731  2098.0000      .0143    39.9221  -999.2500     2.0091  1533.1333
  894.3320    19.6282  2098.0000      .0135    41.5970  -999.2500     2.0275  1519.2717
  894.4844    19.6292  2098.0000      .0081    44.8707  -999.2500     2.0346  1535.7039
  894.6368    19.8083  2098.0000      .0205    46.0583  -999.2500     2.0495  1523.0007
  894.7892    19.9436  2096.5356      .0244    43.0135  -999.2500     2.0590  1533.3027
  894.9416    19.8317  2096.0000      .0350    40.2528  -999.2500     2.0720  1525.3774
  895.0940    19.9181  2094.5400      .0326    40.1353  -999.2500     2.0619  1530.9487
  895.2464    20.1738  2094.0000      .0370    40.2897  -999.2500     2.0467  1524.0662
  895.3988    19.8064  2094.0000      .0332    39.8263  -999.2500     2.0273  1523.6396
  895.5512    19.5384  2092.5459      .0297    40.6785  -999.2500     2.0229  1532.2690
  895.7036    19.6474  2093.4512      .0385    42.4459  -999.2500     2.0475  1520.4858
  895.8560    19.6126  2094.0000      .0530    44.9379  -999.2500     2.0665  1515.0000
  896.0084    20.0639  2095.4463      .0652    43.7668  -999.2500     2.0647  1522.2307
  896.1608    20.3741  2096.0000      .0571    42.0609  -999.2500     2.0385  1521.3894
  896.3132    20.2641  2096.0000      .0482    39.4563  -999.2500     2.0152  1501.9700
  896.4656    20.2369  2094.5596      .0365    39.4039  -999.2500     1.9971  1523.8044
  896.6180    19.7108  2092.5620      .0285    40.3253  -999.2500     1.9796  1517.0271
  896.7704    19.5673  2092.0000      .0335    41.9984  -999.2500     1.9788  1517.1792
  896.9228    19.3698  2093.4336      .0396    43.4584  -999.2500     1.9882  1537.9185
  897.0752    19.3483  2094.0000      .0438    43.2533  -999.2500     1.9989  1505.6357
  897.2276    19.4532  2092.5703      .0418    42.8749  -999.2500     2.0075  1532.8845
  897.3800    19.6516  2089.1455      .0346    42.9240  -999.2500     2.0070  1510.7551
  897.5324    19.9303  2089.4248      .0388    44.6164  -999.2500     2.0198  1527.0632
  897.6848    19.4709  2091.4229      .0384    47.5269  -999.2500     2.0240  1511.5405
  897.8372    19.0836  2093.4199      .0454    49.3249  -999.2500     2.0373  1517.7471
  897.9896    19.1264  2095.4180      .0436    49.2444  -999.2500     2.0402  1521.4553
  898.1420    19.2272  2096.0000      .0412    46.6955  -999.2500     2.0294  1512.9211
  898.2944    19.3163  2094.5864      .0317    44.9899  -999.2500     2.0033  1538.2720
  898.4468    19.4430  2092.5879      .0285    44.4448  -999.2500     1.9810  1514.7021
  898.5992    19.2862  2092.0000      .0329    45.8193  -999.2500     1.9832  1521.1426
  898.7516    19.4450  2093.4072      .0360    45.1403  -999.2500     1.9925  1515.9287
  898.9040    19.5798  2094.0000      .0318    44.7255  -999.2500     1.9841  1531.0754
  899.0564    19.4841  2095.4028      .0243    42.2381  -999.2500     1.9658  1511.9375
  899.2088    19.3062  2096.0000      .0261    41.7034  -999.2500     1.9627  1535.0178
  899.3612    19.2500  2097.3984      .0275    41.2382  -999.2500     1.9734  1508.0408
  899.5136    19.4027  2098.0000      .0273    42.3122  -999.2500     1.9884  1535.3882
  899.6660    19.4688  2096.6055      .0168    42.5141  -999.2500     1.9891  1530.6023
  899.8184    19.4796  2096.0000      .0153    44.2357  -999.2500     1.9961  1516.5205
  899.9708    19.3758  2096.0000      .0149    44.8888  -999.2500     2.0000  1518.4734
  900.1232    19.2631  2094.6128      .0264    46.6979  -999.2500     2.0068  1516.5325
  900.2756    19.2344  2094.0000      .0277    45.3888  -999.2500     1.9956  1521.9250
  900.4280    19.1372  2095.3828      .0333    41.9098  -999.2500     1.9866  1514.6301
  900.5804    18.9643  2097.3804      .0272    37.8260  -999.2500     1.9766  1527.2568
  900.7328    19.1216  2098.0000      .0229    36.4569  -999.2500     1.9767  1510.8823
  900.8852    19.2725  2098.0000      .0186    38.3517  -999.2500     1.9792  1520.6475
  901.0376    19.7157  2096.6250      .0263    38.0374  -999.2500     1.9889  1505.9436
  901.1900    19.6275  2096.0000      .0368    38.6793  -999.2500     1.9932  1512.1531
  901.3424    19.7675  2096.0000      .0282    38.4054  -999.2500     1.9724  1513.1506
  901.4948    19.6235  2094.6318      .0146    40.8950  -999.2500     1.9509  1537.3550
  901.6472    19.2759  2094.0000      .0031    41.4289  -999.2500     1.9440  1515.8462
  901.7996    19.0973  2092.6367      .0138    41.4458  -999.2500     1.9740  1540.8882
  901.9520    19.1475  2090.6392      .0238    39.3503  -999.2500     2.0029  1519.1836
  902.1044    19.3361  2088.6411      .0370    37.6444  -999.2500     2.0164  1533.9663
  902.2568    19.4168  2088.0000      .0259    36.1570  -999.2500     2.0023  1529.6560
  902.4092    19.4748  2088.0000      .0214    39.5292  -999.2500     2.0034  1520.0000
  902.5616    19.3522  2088.0000      .0091    41.9976  -999.2500     2.0118  1513.2412
  902.7140    19.0071  2088.0000      .0057    44.2217  -999.2500     2.0348  1526.8733
  902.8664    18.7697  2089.3477     -.0002    43.2817  -999.2500     2.0462  1535.0000
  903.0188    18.7924  2088.6538     -.0023    41.3446  -999.2500     2.0548  1524.9060
  903.1712    18.7756  2086.6563     -.0028    40.6548  -999.2500     2.0547  1533.4346
  903.3236    18.6766  2086.0000      .0018    37.6074  -999.2500     2.0606  1526.5867
  903.4760    18.6406  2086.0000      .0050    37.7472  -999.2500     2.0710  1523.3494
  903.6284    18.6511  2086.0000      .0090    39.3666  -999.2500     2.0886  1514.9758
  903.7808    18.6979  2086.0000      .0016    41.3864  -999.2500     2.0918  1530.0120
  903.9332    18.6875  2086.0000     -.0023    43.3532  -999.2500     2.0963  1546.6611
  904.0856    18.6511  2086.0000     -.0023    44.1453  -999.2500     2.1009  1526.7273
  904.2380    18.6406  2088.6553      .0002    45.4325  -999.2500     2.1080  1528.2773
