~VERSION INFORMATION
VERS.                                                 2.0:   CWLS Log ASCII Standard-VERSION 2.0
WRAP.                                                  NO:   One line per depth step
~Well Information Block
STRT.M                                           393.6980:   Top Depth
STOP.M                                          3949.6472:   Bottom Depth
STEP.M                                             .15240:   Depth Increment
NULL.                                            -999.250:   Null Value
FLD .                                         EXPLORATION:   Field Name
WELL.                                              15/9-6:   NAME
WBN .                                              15/9-6:   WELLBORE
NATI.                                                 NOR:   COUNTRY
BHT1.DEGF                                            70.0:   BH TEMP 1
BHT2.DEGF                                           160.0:   BH TEMP 2
BHT3.DEGF                                           225.0:   BH TEMP 3
BS1 .IN                                             17.50:   BIT SIZE 1
CTRY.                                                 NOR:   COUNTRY
CBD1.M                                              186.0:   CSG 1 DRILL DEP
CBL1.M                                              186.0:   CSG 1 LOG DEP
CS1 .IN                                              30.0:   CSG 1 SIZE
COMP.                                             STATOIL:   OPERATOR
PDAT.                                                 MSL:   PERM DATUM
PROV.                                                   ?:   PROVINCE
COUN.                                            NORSKALD:   RIG NAME
SPUD.                                                 N/A:   SPUD DATE
LATI.                                       58 27 13.50 N:   SURF. LATITUDE
LONG.                                        1 41 31.40 E:   SURF. LONGITUDE
BTD1.                                             465.0 M:   TOTAL DEPTH 1
BTD2.                                            2776.0 M:   TOTAL DEPTH 2
BTD3.                                            3946.0 M:   TOTAL DEPTH 3
PBWE.                                              15/9-6:   PB WELL ID
APIN.                                              15/9-6:   PB WELLBORE ID
PBWS.                                                 all:   PB WELL NAME SET
~PARAMETER INFORMATION (log)
LNAM.                              FDC/CNL/GR  COMPOSITED:   NAME
LTYP.                                         DEPTH MATCH:   LOG TYPE
LSRV.                                            DEN/NEUT:   LOG SERVICE
LSOU.                                             SPT/NPD:   LOG SOURCE
LVSN.                                                   1:   LOG VERSION
BHIS.                                                   R:   BRIEF HISTORY
FHIS.                                             RAW-LIS:   FULL HISTORY
TOOL.                             FDC/CNL/GR (COMPOSITED):   TOOL STRING
~Curve Information Block
#MNEM.UNIT                                        API CODE    No Description
#=========                                        ========    == ===========
DEPT.M                                       00 001 00 00:     1  DEPTH
CALI.IN                                                  :     2  Caliper
DRHO.G/CC                                                :     3  Bulk density correction
GR.GAPI                                                  :     4  Gamma Ray
NPHI.%                                                   :     5  Neutron porosity
RHOB.G/CC                                                :     6  Bulk density
TENS.LB                                                  :     7  Cable Tension
~ASCII
# ...
 1566.5684    12.4302      .0367    70.4057  -999.2500     1.9666   251.4591
 1566.7208    12.3628      .0405    71.8511  -999.2500     1.9686   283.5408
 1566.8732    12.2782      .0408    73.2246  -999.2500     1.9636   304.4007
 1567.0256    12.1769      .0435    73.4237  -999.2500     1.9690   303.2169
 1567.1780    12.1094      .0476    73.8950  -999.2500     1.9841   284.5936
 1567.3304    12.0588      .0442    73.6912  -999.2500     1.9979   260.1381
 1567.4828    12.0420      .0418    71.5749  -999.2500     2.0033   240.4354
 1567.6352    12.0759      .0384    68.9587  -999.2500     2.0053   234.9287
 1567.7876    12.1265      .0326    69.4697  -999.2500     2.0067   243.9224
 1567.9400    12.1433      .0347    70.8771  -999.2500     2.0090   259.5405
 1568.0924    12.0756      .0340    68.8907  -999.2500     2.0100   272.1027
 1568.2448    12.0420      .0340    68.6642  -999.2500     2.0094   276.8637
 1568.3972    12.0081      .0265    71.0137  -999.2500     1.9989   275.3939
 1568.5496    12.0252      .0238    73.2263  -999.2500     1.9905   269.9560
 1568.7020    12.0758      .0272    73.8600  -999.2500     1.9908   262.1149
 1568.8544    12.0588      .0204    73.9272  -999.2500     1.9919   253.0031
 1569.0068    12.1097      .0129    74.1623  -999.2500     1.9973   245.4232
 1569.1592    12.1433      .0201    73.5898  -999.2500     2.0114   240.4081
 1569.3116    12.1433      .0204    73.7942  -999.2500     2.0171   239.0369
 1569.4640    12.1095      .0197    71.9096  -999.2500     2.0131   245.5414
 1569.6164    12.0588      .0218    68.6891  -999.2500     2.0070   260.4013
 1569.7688    12.0420      .0306    68.1597  -999.2500     2.0151   277.1701
 1569.9212    12.1097      .0197    66.6779  -999.2500     2.0255   286.0742
 1570.0736    12.1433      .0088    62.9195  -999.2500     2.0505   281.1271
 1570.2260    12.1433      .0194    61.4170  -999.2500     2.0946   265.3049
 1570.3784    12.1095      .0425    65.5524  -999.2500     2.1205   248.4525
 1570.5308    12.1265      .0401    71.5232  -999.2500     2.0786   237.2247
 1570.6832    12.1433      .0258    75.4747  -999.2500     2.0217   233.7244
 1570.8356    12.1433      .0207    76.0724  -999.2500     2.0023   236.6591
 1570.9880    12.1095      .0190    75.5361  -999.2500     2.0003   241.4633
 1571.1404    12.0926      .0156    76.0419  -999.2500     1.9939   246.2910
 1571.2928    12.0588      .0211    76.9133  -999.2500     1.9956   251.2011
 1571.4452    12.1097      .0238    76.3062  -999.2500     1.9999   258.7703
 1571.5976    12.1094      .0180    72.5763  -999.2500     1.9955   274.7396
 1571.7500    12.0926      .0303    70.7404  -999.2500     2.0057   294.2195
 1571.9024    12.0926      .0398    70.9766  -999.2500     2.0134   299.0846
 1572.0548    12.1265      .0367    72.0175  -999.2500     2.0100   280.1772
 1572.2072    12.1772      .0306    71.7115  -999.2500     2.0073   252.4657
 1572.3596    12.1940      .0279    70.8067  -999.2500     2.0117   234.9363
 1572.5120    12.1601      .0214    70.5397  -999.2500     2.0141   229.5999
 1572.6644    12.1772      .0115    71.0103  -999.2500     2.0073   232.9510
 1572.8168    12.1940      .0102    69.6296  -999.2500     2.0080   244.8690
 1572.9692    12.2278      .0167    67.2155  -999.2500     2.0100   263.5217
 1573.1216    12.3801      .0201    66.4817  -999.2500     2.0107   281.7400
 1573.2740    12.4812      .0259    65.9772  -999.2500     2.0097   286.1519
 1573.4264    12.4980      .0238    64.7688  -999.2500     1.9996   271.6206
 1573.5788    12.9044      .0255    64.8396  -999.2500     1.9888   253.2181
 1573.7312    12.7674      .0275    64.6358  -999.2500     1.9871   241.4786
 1573.8836    12.5654      .0296    63.6622  -999.2500     1.9932   239.2415
 1574.0360    12.3793      .0367    63.0264  -999.2500     2.0047   247.4913
 1574.1884    12.3630      .0446    64.3727  -999.2500     2.0151   262.0278
 1574.3408    12.3628      .0462    65.9133  -999.2500     2.0147   279.5911
 1574.4932    12.2444      .0439    67.6591  -999.2500     2.0185   293.3289
 1574.6456    12.3294      .0319    68.3261  -999.2500     2.0117   296.9072
 1574.7980    12.5660      .0156    66.7791  -999.2500     1.9894   287.7675
 1574.9504    12.5145      .0129    63.4569  -999.2500     1.9807   267.8274
 1575.1028    12.5150      .0286    62.1214  -999.2500     1.9936   248.7183
 1575.2552    12.4809      .0412    62.2898  -999.2500     2.0006   243.3275
 1575.4076    12.6166      .0336    62.6588  -999.2500     2.0036   257.5769
 1575.5600    12.3619      .0327    63.3304  -999.2500     2.0171   281.3879
 1575.7124    12.2617      .0265    64.6730  -999.2500     2.0164   298.5364
 1575.8648    12.2614      .0231    65.8125  -999.2500     2.0124   305.0463
 1576.0172    12.2785      .0255    66.7850  -999.2500     2.0154   298.4786
 1576.1696    12.4308      .0265    65.7062  -999.2500     2.0083   278.8765
 1576.3220    12.7350      .0415    65.4093  -999.2500     1.9965   259.4195
 1576.4744    12.5816      .0462    65.2732  -999.2500     1.9841   255.0661
 1576.6268    12.4473      .0415    63.3583  -999.2500     1.9527   266.0419
 1576.7792    12.3796      .0350    64.9792  -999.2500     1.9420   286.1335
 1576.9316    12.4814      .0238    68.0959  -999.2500     1.9434   303.3226
 1577.0840    12.8195      .0282    70.1063  -999.2500     1.9461   304.3707
 1577.2364    12.8523      .0545    72.0529  -999.2500     1.9406   290.6521
 1577.3888    12.8019      .0619    71.6102  -999.2500     1.9204   275.9609
 1577.5412    12.7003      .0438    68.2849  -999.2500     1.9107   266.5123
 1577.6936    12.4807      .0248    66.0434  -999.2500     1.9134   257.4546
 1577.8460    12.3966      .0344    66.0804  -999.2500     1.9380   251.0177
 1577.9984    12.4305      .0391    65.5742  -999.2500     1.9636   254.7727
 1578.1508    12.3796      .0534    66.0815  -999.2500     1.9855   266.5836
 1578.3032    12.2783      .0632    66.3134  -999.2500     1.9935   278.5640
 1578.4556    12.3124      .0329    66.2132  -999.2500     1.9736   286.5878
 1578.6080    12.4137      .0194    67.0201  -999.2500     1.9771   288.3107
 1578.7604    12.3118      .0218    67.2188  -999.2500     1.9939   285.6636
 1578.9128    12.2446      .0190    67.3205  -999.2500     1.9922   280.4010
 1579.0652    12.3119      .0187    67.0193  -999.2500     1.9808   271.4991
 1579.2176    12.3789      .0247    65.4937  -999.2500     1.9688   259.0092
 1579.3700    12.2307      .0315    64.4250  -999.2500     1.9666   248.6731
 1579.5224    12.1787      .0210    65.5125  -999.2500     1.9807   248.5816
 1579.6748    12.2912      .0119    66.4479  -999.2500     1.9947   261.8323
 1579.8272    12.3762      .0207    66.1596  -999.2500     2.0110   283.2454
 1579.9796    12.3637      .0353    65.6684  -999.2500     2.0280   302.1465
 1580.1320    12.5063      .0373    66.7196  -999.2500     2.0371   309.2123
 1580.2844    12.4673      .0466    65.7460  -999.2500     2.0455   301.0013
 1580.4368    12.5899      .0400    61.6884  -999.2500     2.0429   284.0786
 1580.5892    12.6302      .0344    58.6350  -999.2500     2.0433   267.4706
 1580.7416    12.6640      .0408    57.4494  -999.2500     2.0397   255.4500
 1580.8940    12.7280      .0439    56.5079  -999.2500     2.0213   251.7109
 1581.0464    12.6888      .0476    57.7782  -999.2500     1.9913   257.5696
 1581.1988    12.6536      .0534    58.8257  -999.2500     1.9888   269.4490
 1581.3512    12.6500      .0529    59.0836  -999.2500     2.0114   282.8035
 1581.5036    12.7092      .0429    60.6924  -999.2500     2.0259   289.3001
 1581.6560    12.7175      .0326    61.5549  -999.2500     2.0190   294.6336
 1581.8084    12.6738      .0395    60.2044  -999.2500     2.0076   300.4111
 1581.9608    12.7680      .0425    58.1968  -999.2500     2.0017   292.8557
 1582.1132    12.5844      .0434    56.3320  -999.2500     1.9978   280.2712
 1582.2656    12.5346      .0492    55.2060  -999.2500     1.9944   273.2802
