~VERSION INFORMATION
VERS.                                                 2.0:   CWLS Log ASCII Standard-VERSION 2.0
WRAP.                                                  NO:   One line per depth step
~Well Information Block
STRT.M                                           393.6980:   Top Depth
STOP.M                                          3949.6472:   Bottom Depth
STEP.M                                             .15240:   Depth Increment
NULL.                                            -999.250:   Null Value
FLD .                                         EXPLORATION:   Field Name
WELL.                                              15/9-6:   NAME
WBN .                                              15/9-6:   WELLBORE
NATI.                                                 NOR:   COUNTRY
BHT1.DEGF                                            70.0:   BH TEMP 1
BHT2.DEGF                                           160.0:   BH TEMP 2
BHT3.DEGF                                           225.0:   BH TEMP 3
BS1 .IN                                             17.50:   BIT SIZE 1
CTRY.                                                 NOR:   COUNTRY
CBD1.M                                              186.0:   CSG 1 DRILL DEP
CBL1.M                                              186.0:   CSG 1 LOG DEP
CS1 .IN                                              30.0:   CSG 1 SIZE
COMP.                                             STATOIL:   OPERATOR
PDAT.                                                 MSL:   PERM DATUM
PROV.                                                   ?:   PROVINCE
COUN.                                            NORSKALD:   RIG NAME
SPUD.                                                 N/A:   SPUD DATE
LATI.                                       58 27 13.50 N:   SURF. LATITUDE
LONG.                                        1 41 31.40 E:   SURF. LONGITUDE
BTD1.                                             465.0 M:   TOTAL DEPTH 1
BTD2.                                            2776.0 M:   TOTAL DEPTH 2
BTD3.                                            3946.0 M:   TOTAL DEPTH 3
PBWE.                                              15/9-6:   PB WELL ID
APIN.                                              15/9-6:   PB WELLBORE ID
PBWS.                                                 all:   PB WELL NAME SET
~PARAMETER INFORMATION (log)
LNAM.                              FDC/CNL/GR  COMPOSITED:   NAME
LTYP.                                         DEPTH MATCH:   LOG TYPE
LSRV.                                            DEN/NEUT:   LOG SERVICE
LSOU.                                             SPT/NPD:   LOG SOURCE
LVSN.                                                   1:   LOG VERSION
BHIS.                                                   R:   BRIEF HISTORY
FHIS.                                             RAW-LIS:   FULL HISTORY
TOOL.                             FDC/CNL/GR (COMPOSITED):   TOOL STRING
~Curve Information Block
#MNEM.UNIT                                        API CODE    No Description
#=========                                        ========    == ===========
DEPT.M                                       00 001 00 00:     1  DEPTH
CALI.IN                                                  :     2  Caliper
DRHO.G/CC                                                :     3  Bulk density correction
GR.GAPI                                                  :     4  Gamma Ray
NPHI.%                                                   :     5  Neutron porosity
RHOB.G/CC                                                :     6  Bulk density
TENS.LB                                                  :     7  Cable Tension
~ASCII
# ...
 2517.5444    12.1726      .0281    32.5829  -999.2500     2.2159   499.5763
 2517.6968    12.2239      .0318    30.5338  -999.2500     2.2426   511.2869
 2517.8492    12.3082      .0202    29.0427  -999.2500     2.2913   508.8533
 2518.0016    12.3750      .0114    28.8467  -999.2500     2.3642   501.7932
 2518.1540    12.3909      .0164    30.1156  -999.2500     2.4120   494.5759
 2518.3064    12.3211      .0338    30.7433  -999.2500     2.4129   486.1481
 2518.4588    12.1871      .0474    30.7937  -999.2500     2.3797   477.2604
 2518.6112    12.1402      .0458    33.2140  -999.2500     2.3344   472.0655
 2518.7636    12.2067      .0298    36.3854  -999.2500     2.3026   479.5850
 2518.9160    12.2416      .0338    38.7251  -999.2500     2.2814   502.2908
 2519.0684    12.3093      .0428    42.0216  -999.2500     2.2632   520.9861
 2519.2208    12.3709      .0455    45.1786  -999.2500     2.2657   515.7644
 2519.3732    12.2519      .0445    47.6718  -999.2500     2.2682   488.0717
 2519.5256    12.1553      .0324    51.6841  -999.2500     2.2390   455.8707
 2519.6780    12.1740      .0330    52.4231  -999.2500     2.2017   437.3929
 2519.8304    12.2230      .0352    49.3088  -999.2500     2.1731   442.6958
 2519.9828    12.2389      .0225    46.7614  -999.2500     2.1684   471.4472
 2520.1352    12.2368      .0212    46.9818  -999.2500     2.2001   503.2754
 2520.2876    12.2039      .0331    49.0614  -999.2500     2.2409   511.3091
 2520.4400    12.1879      .0452    45.3049  -999.2500     2.2453   495.9510
 2520.5924    12.1879      .0391    39.0338  -999.2500     2.2226   474.4877
 2520.7448    12.1854      .0275    35.8951  -999.2500     2.2052   463.0507
 2520.8972    12.1526      .0258    34.7780  -999.2500     2.2118   467.9262
 2521.0496    12.1370      .0337    34.2161  -999.2500     2.2095   479.1282
 2521.2020    12.1369      .0355    34.2864  -999.2500     2.1847   488.2753
 2521.3544    12.1369      .0241    34.6017  -999.2500     2.1515   497.8472
 2521.5068    12.1369      .0231    34.5242  -999.2500     2.1406   506.3757
 2521.6592    12.1368      .0267    35.1690  -999.2500     2.1361   503.3033
 2521.8116    12.1400      .0148    36.3205  -999.2500     2.1242   488.2360
 2521.9640    12.1723      .0192    39.0715  -999.2500     2.1311   475.0135
 2522.1164    12.1875      .0366    39.9385  -999.2500     2.1716   470.9957
 2522.2688    12.1909      .0491    38.6314  -999.2500     2.2006   469.2212
 2522.4212    12.2230      .0397    36.5738  -999.2500     2.2072   467.4127
 2522.5736    12.2346      .0323    34.4233  -999.2500     2.2332   472.6952
 2522.7260    12.2061      .0221    34.8440  -999.2500     2.2561   485.8704
 2522.8784    12.2267      .0280    35.2356  -999.2500     2.2622   501.3008
 2523.0308    12.2738      .0194    35.0022  -999.2500     2.2321   514.6482
 2523.1832    12.2888      .0033    35.5645  -999.2500     2.1912   520.2391
 2523.3356    12.2810      .0109    35.3417  -999.2500     2.1862   505.8353
 2523.4880    12.2212      .0276    36.6371  -999.2500     2.2003   470.0429
 2523.6404    12.2231      .0346    42.4969  -999.2500     2.2131   438.8708
 2523.7928    12.2378      .0302    49.4861  -999.2500     2.2246   432.5112
 2523.9452    12.2378      .0263    52.3547  -999.2500     2.2339   445.2572
 2524.0976    12.2377      .0332    50.7205  -999.2500     2.2276   469.4243
 2524.2500    12.2377      .0255    48.3259  -999.2500     2.2039   501.6794
 2524.4024    12.2376      .0178    47.9063  -999.2500     2.1859   522.9694
 2524.5548    12.2376      .0084    50.7657  -999.2500     2.1857   519.1775
 2524.7072    12.2375      .0121    51.9892  -999.2500     2.1982   501.3092
 2524.8596    12.2376      .0222    48.7254  -999.2500     2.1906   480.5680
 2525.0120    12.2376      .0220    43.9372  -999.2500     2.1779   465.2793
 2525.1644    12.2427      .0335    40.7364  -999.2500     2.1718   462.5793
 2525.3168    12.2791      .0368    38.7805  -999.2500     2.1618   472.0087
 2525.4692    12.3299      .0242    36.4665  -999.2500     2.1587   488.4277
 2525.6216    12.3709      .0201    34.5322  -999.2500     2.1673   504.7374
 2525.7740    12.3438      .0149    34.7878  -999.2500     2.1624   512.5143
 2525.9264    12.2666      .0145    35.3851  -999.2500     2.1631   505.8131
 2526.0788    12.2287      .0249    34.7985  -999.2500     2.1764   490.4930
 2526.2312    12.1654      .0228    33.4408  -999.2500     2.1704   477.1165
 2526.3836    12.1362      .0216    33.2326  -999.2500     2.1532   468.3566
 2526.5360    12.1027      .0291    34.1270  -999.2500     2.1444   464.0766
 2526.6884    12.1537      .0303    34.4917  -999.2500     2.1399   465.4777
 2526.8408    12.1872      .0140    34.4249  -999.2500     2.1356   475.0556
 2526.9932    12.1870      .0129    33.9190  -999.2500     2.1363   494.5753
 2527.1456    12.1532      .0345    34.2691  -999.2500     2.1569   514.2765
 2527.2980    12.1370      .0356    36.0459  -999.2500     2.1528   520.1206
 2527.4504    12.1704      .0239    36.6466  -999.2500     2.1390   508.0421
 2527.6028    12.1533      .0317    36.2837  -999.2500     2.1560   484.6619
 2527.7552    12.1367      .0276    37.1627  -999.2500     2.1771   460.9305
 2527.9076    12.1374      .0265    39.0798  -999.2500     2.1982   447.7379
 2528.0600    12.1711      .0273    41.7300  -999.2500     2.2170   450.7925
 2528.2124    12.1876      .0216    43.3013  -999.2500     2.2059   466.6744
 2528.3648    12.1877      .0235    41.4769  -999.2500     2.1805   488.7919
 2528.5172    12.1877      .0216    38.9114  -999.2500     2.1585   504.5723
 2528.6696    12.1878      .0172    37.1427  -999.2500     2.1506   510.7376
 2528.8220    12.1878      .0277    35.2336  -999.2500     2.1599   513.7518
 2528.9744    12.1879      .0444    34.5371  -999.2500     2.1745   508.4442
 2529.1268    12.1879      .0550    35.8001  -999.2500     2.1763   490.2697
 2529.2792    12.1880      .0405    35.3672  -999.2500     2.1642   469.1606
 2529.4316    12.1880      .0317    36.1387  -999.2500     2.1723   456.3916
 2529.5840    12.1868      .0368    38.4869  -999.2500     2.1703   455.2334
 2529.7364    12.1535      .0386    39.7049  -999.2500     2.1670   467.4738
 2529.8888    12.1374      .0294    39.4338  -999.2500     2.1552   493.7814
 2530.0412    12.1374      .0243    38.2819  -999.2500     2.1373   519.5220
 2530.1936    12.1390      .0252    37.7074  -999.2500     2.1156   520.5511
 2530.3460    12.1722      .0204    38.8895  -999.2500     2.1032   498.6710
 2530.4984    12.1883      .0159    37.7744  -999.2500     2.0953   472.8118
 2530.6508    12.1884      .0307    37.0751  -999.2500     2.0972   454.5443
 2530.8032    12.1884      .0510    35.4629  -999.2500     2.0908   452.7195
 2530.9556    12.1885      .0481    32.9532  -999.2500     2.0747   469.0552
 2531.1080    12.1824      .0445    32.9846  -999.2500     2.0622   497.2202
 2531.2604    12.2014      .0463    33.7822  -999.2500     2.0571   519.3284
 2531.4128    12.2515      .0352    33.2297  -999.2500     2.0484   518.6835
 2531.5652    12.3145      .0199    32.1283  -999.2500     2.0500   501.6982
 2531.7176    12.5550      .0122    31.0269  -999.2500     2.0583   482.7900
 2531.8700    12.8732      .0245    30.9923  -999.2500     2.0659   474.1117
 2532.0224    12.8181      .0415    32.7211  -999.2500     2.0564   478.2897
 2532.1748    12.5342      .0325    34.8943  -999.2500     2.0410   495.4428
 2532.3272    12.4319      .0380    35.0842  -999.2500     2.0559   516.4414
 2532.4796    12.4232      .0396    34.1866  -999.2500     2.0720   521.8488
 2532.6320    12.4193      .0327    32.9297  -999.2500     2.0916   509.9623
 2532.7844    12.4612      .0295    31.0801  -999.2500     2.1093   492.1106
 2532.9368    12.5256      .0231    31.5768  -999.2500     2.1234   478.7394
 2533.0892    12.5833      .0221    33.4130  -999.2500     2.1322   472.9438
 2533.2416    12.6172      .0162    33.7818  -999.2500     2.1282   473.9528
