~VERSION INFORMATION
VERS.                                                 2.0:   CWLS Log ASCII Standard-VERSION 2.0
WRAP.                                                  NO:   One line per depth step
~Well Information Block
STRT.M                                           393.6980:   Top Depth
STOP.M                                          3949.6472:   Bottom Depth
STEP.M                                             .15240:   Depth Increment
NULL.                                            -999.250:   Null Value
FLD .                                         EXPLORATION:   Field Name
WELL.                                              15/9-6:   NAME
WBN .                                              15/9-6:   WELLBORE
NATI.                                                 NOR:   COUNTRY
BHT1.DEGF                                            70.0:   BH TEMP 1
BHT2.DEGF                                           160.0:   BH TEMP 2
BHT3.DEGF                                           225.0:   BH TEMP 3
BS1 .IN                                             17.50:   BIT SIZE 1
CTRY.                                                 NOR:   COUNTRY
CBD1.M                                              186.0:   CSG 1 DRILL DEP
CBL1.M                                              186.0:   CSG 1 LOG DEP
CS1 .IN                                              30.0:   CSG 1 SIZE
COMP.                                             STATOIL:   OPERATOR
PDAT.                                                 MSL:   PERM DATUM
PROV.                                                   ?:   PROVINCE
COUN.                                            NORSKALD:   RIG NAME
SPUD.                                                 N/A:   SPUD DATE
LATI.                                       58 27 13.50 N:   SURF. LATITUDE
LONG.                                        1 41 31.40 E:   SURF. LONGITUDE
BTD1.                                             465.0 M:   TOTAL DEPTH 1
BTD2.                                            2776.0 M:   TOTAL DEPTH 2
BTD3.                                            3946.0 M:   TOTAL DEPTH 3
PBWE.                                              15/9-6:   PB WELL ID
APIN.                                              15/9-6:   PB WELLBORE ID
PBWS.                                                 all:   PB WELL NAME SET
~PARAMETER INFORMATION (log)
LNAM.                              FDC/CNL/GR  COMPOSITED:   NAME
LTYP.                                         DEPTH MATCH:   LOG TYPE
LSRV.                                            DEN/NEUT:   LOG SERVICE
LSOU.                                             SPT/NPD:   LOG SOURCE
LVSN.                                                   1:   LOG VERSION
BHIS.                                                   R:   BRIEF HISTORY
FHIS.                                             RAW-LIS:   FULL HISTORY
TOOL.                             FDC/CNL/GR (COMPOSITED):   TOOL STRING
~Curve Information Block
#MNEM.UNIT                                        API CODE    No Description
#=========                                        ========    == ===========
DEPT.M                                       00 001 00 00:     1  DEPTH
CALI.IN                                                  :     2  Caliper
DRHO.G/CC                                                :     3  Bulk density correction
GR.GAPI                                                  :     4  Gamma Ray
NPHI.%                                                   :     5  Neutron porosity
RHOB.G/CC                                                :     6  Bulk density
TENS.LB                                                  :     7  Cable Tension
~ASCII
# ...
 1804.3124    11.8393      .0293    69.1294  -999.2500     2.0060   363.9126
 1804.4648    11.8393      .0374    68.6275  -999.2500     2.0154   378.0937
 1804.6172    11.8393      .0374    67.7205  -999.2500     2.0188   402.7130
 1804.7696    11.8393      .0347    65.7056  -999.2500     2.0198   428.8413
 1804.9220    11.8055      .0303    64.0311  -999.2500     2.0282   441.0009
 1805.0744    11.7887      .0333    62.6555  -999.2500     2.0390   426.6921
 1805.2268    11.7887      .0337    64.3402  -999.2500     2.0424   394.6077
 1805.3792    11.7887      .0313    67.1572  -999.2500     2.0349   366.3307
 1805.5316    11.7887      .0320    68.3605  -999.2500     2.0346   361.2997
 1805.6840    11.7887      .0258    68.1911  -999.2500     2.0295   378.7288
 1805.8364    11.7887      .0218    66.9485  -999.2500     2.0194   403.7431
 1805.9888    11.7887      .0166    65.6073  -999.2500     2.0100   425.4451
 1806.1412    11.7887      .0150    62.8537  -999.2500     2.0090   433.5182
 1806.2936    11.7887      .0167    58.0532  -999.2500     2.0154   422.3962
 1806.4460    11.8902      .0133    50.0664  -999.2500     2.0114   398.9466
 1806.5984    12.0084      .0153    38.7926  -999.2500     2.0013   380.4979
 1806.7508    12.0420      .0180    29.7430  -999.2500     1.9871   378.1349
 1806.9032    11.9743      .0102    27.0734  -999.2500     1.9628   387.8722
 1807.0556    11.9407      .0136    26.2333  -999.2500     1.9643   405.7830
 1807.2080    11.9407      .0187    26.3371  -999.2500     1.9690   422.2993
 1807.3604    11.8052      .0276    28.3197  -999.2500     1.9774   422.8719
 1807.5128    11.8057      .0309    27.9092  -999.2500     1.9912   409.0741
 1807.6652    11.9071      .0190    26.6024  -999.2500     1.9918   391.6091
 1807.8176    12.0422      .0099    27.4792  -999.2500     1.9811   378.4344
 1807.9700    12.1265      .0082    28.8872  -999.2500     1.9855   371.8382
 1808.1224    12.1433      .0048    28.8167  -999.2500     1.9871   369.4697
 1808.2748    12.1772      .0058    30.3320  -999.2500     1.9871   375.6121
 1808.4272    12.1940      .0085    32.1404  -999.2500     1.9858   393.5515
 1808.5796    12.1940      .0058    31.3302  -999.2500     1.9814   410.9724
 1808.7320    12.2278      .0027    29.3507  -999.2500     1.9892   412.7647
 1808.8844    12.2446      .0089    28.4147  -999.2500     2.0060   412.5283
 1809.0368    12.2446      .0088    29.4247  -999.2500     2.0094   416.2200
 1809.1892    12.2446      .0146    29.3193  -999.2500     2.0114   406.3601
 1809.3416    12.2446      .0238    28.1784  -999.2500     2.0198   388.3421
 1809.4940    12.2446      .0238    27.2402  -999.2500     2.0198   375.7999
 1809.6464    12.2446      .0183    27.2423  -999.2500     2.0154   376.5950
 1809.7988    12.2446      .0102    28.6532  -999.2500     2.0154   395.0844
 1809.9512    12.2446      .0044    29.6910  -999.2500     2.0188   422.0756
 1810.1036    12.2446      .0010    29.2187  -999.2500     2.0201   443.9258
 1810.2560    12.2446     -.0020    28.3468  -999.2500     2.0134   452.2168
 1810.4084    12.2446      .0017    28.6179  -999.2500     2.0175   440.1849
 1810.5608    12.2446      .0048    29.0194  -999.2500     2.0252   411.6853
 1810.7132    12.2446      .0071    28.9516  -999.2500     2.0319   385.6601
 1810.8656    12.2446      .0068    27.6074  -999.2500     2.0356   377.1131
 1811.0180    12.2446      .0102    26.7714  -999.2500     2.0370   385.5949
 1811.1704    12.2446      .0041    27.1420  -999.2500     2.0373   400.2433
 1811.3228    12.2446     -.0027    27.0394  -999.2500     2.0353   412.8015
 1811.4752    12.2446     -.0041    27.1416  -999.2500     2.0350   424.8265
 1811.6276    12.2446     -.0034    26.3334  -999.2500     2.0319   437.8212
 1811.7800    12.2446      .0024    25.9337  -999.2500     2.0269   444.8739
 1811.9324    12.2108      .0140    26.2361  -999.2500     2.0286   436.1667
 1812.0848    12.1601      .0177    27.9833  -999.2500     2.0235   414.5121
 1812.2372    12.1094      .0160    29.0534  -999.2500     2.0127   396.2455
 1812.3896    12.0588      .0160    28.1782  -999.2500     2.0023   394.3717
 1812.5420    12.0081      .0136    27.6775  -999.2500     1.9928   408.6041
 1812.6944    11.9913      .0136    27.7448  -999.2500     1.9898   430.1824
 1812.8468    11.9913      .0116    28.1816  -999.2500     1.9797   445.0239
 1812.9992    11.9913      .0102    28.5836  -999.2500     1.9747   447.6874
 1813.1516    11.9913      .0047    28.2803  -999.2500     1.9733   437.4847
 1813.3040    11.9913      .0007    28.0127  -999.2500     1.9774   416.6745
 1813.4564    11.9913     -.0061    27.9794  -999.2500     1.9777   394.9075
 1813.6088    12.0252     -.0024    28.5848  -999.2500     1.9801   378.8467
 1813.7612    12.0420      .0058    29.4228  -999.2500     1.9892   373.4336
 1813.9136    12.0420      .0068    30.0934  -999.2500     1.9875   380.9940
 1814.0660    12.0420      .0041    30.1591  -999.2500     1.9780   400.4633
 1814.2184    12.0420      .0078    29.6887  -999.2500     1.9848   420.4109
 1814.3708    12.0420      .0122    27.9421  -999.2500     1.9966   423.9150
 1814.5232    12.0420      .0119    27.3762  -999.2500     1.9945   411.6756
 1814.6756    12.0081      .0174    29.4943  -999.2500     1.9932   395.5312
 1814.8280    12.0252      .0143    30.4948  -999.2500     1.9858   382.2985
 1814.9804    12.0420      .0099    30.4948  -999.2500     1.9777   373.9595
 1815.1328    12.0420      .0112    31.0327  -999.2500     1.9737   374.6447
 1815.2852    12.0420      .0116    31.6360  -999.2500     1.9720   386.3925
 1815.4376    12.0420      .0092    30.9287  -999.2500     1.9622   403.1248
 1815.5900    12.0420      .0116    30.0239  -999.2500     1.9609   424.6987
 1815.7424    12.0420      .0173    30.3956  -999.2500     1.9693   445.5071
 1815.8948    12.0420      .0248    30.8305  -999.2500     1.9801   452.5481
 1816.0472    12.0420      .0330    31.1662  -999.2500     1.9885   441.2289
 1816.1996    12.0420      .0316    29.9544  -999.2500     1.9861   417.1406
 1816.3520    12.0758      .0207    28.9512  -999.2500     1.9844   396.9648
 1816.5044    12.0926      .0218    27.9102  -999.2500     1.9929   393.2458
 1816.6568    12.0926      .0245    26.6691  -999.2500     1.9983   404.5570
 1816.8092    12.1265      .0149    27.2103  -999.2500     1.9908   424.4931
 1816.9616    12.1433      .0061    27.9466  -999.2500     1.9854   443.3994
 1817.1140    12.1433      .0061    28.7524  -999.2500     1.9888   454.0366
 1817.2664    12.1433      .0112    29.2879  -999.2500     1.9949   452.6716
 1817.4188    12.1433      .0078    28.7156  -999.2500     1.9942   434.8751
 1817.5712    12.1433      .0065    28.7182  -999.2500     1.9956   407.7047
 1817.7236    12.1433      .0187    29.6918  -999.2500     2.0111   388.4910
 1817.8760    12.1433      .0245    30.3614  -999.2500     2.0242   387.0292
 1818.0284    12.1772      .0115    30.8982  -999.2500     2.0178   400.3530
 1818.1808    12.1940      .0058    30.1579  -999.2500     2.0245   420.4039
 1818.3332    12.1940     -.0014    29.2192  -999.2500     2.0296   437.5397
 1818.4856    12.1940     -.0003    30.4648  -999.2500     2.0353   439.3870
 1818.6380    12.1940      .0102    30.9300  -999.2500     2.0410   428.8434
 1818.7904    12.1940      .0170    28.5105  -999.2500     2.0471   419.1306
 1818.9428    12.1940      .0163    26.5012  -999.2500     2.0461   413.5118
 1819.0952    12.1940      .0133    27.2780  -999.2500     2.0383   413.8407
 1819.2476    12.1940      .0163    28.3496  -999.2500     2.0366   416.0732
 1819.4000    12.1940      .0156    29.5244  -999.2500     2.0366   414.3912
 1819.5524    12.1940      .0095    30.3953  -999.2500     2.0282   411.0698
 1819.7048    12.1601      .0051    31.8729  -999.2500     2.0107   409.0184
 1819.8572    12.1433      .0095    31.3636  -999.2500     2.0073   413.3216
 1820.0096    12.1433      .0102    30.4604  -999.2500     2.0029   426.1848
