~VERSION INFORMATION
VERS.                                                 2.0:   CWLS Log ASCII Standard-VERSION 2.0
WRAP.                                                  NO:   One line per depth step
~Well Information Block
STRT.M                                           393.6980:   Top Depth
STOP.M                                          3949.6472:   Bottom Depth
STEP.M                                             .15240:   Depth Increment
NULL.                                            -999.250:   Null Value
FLD .                                         EXPLORATION:   Field Name
WELL.                                              15/9-6:   NAME
WBN .                                              15/9-6:   WELLBORE
NATI.                                                 NOR:   COUNTRY
BHT1.DEGF                                            70.0:   BH TEMP 1
BHT2.DEGF                                           160.0:   BH TEMP 2
BHT3.DEGF                                           225.0:   BH TEMP 3
BS1 .IN                                             17.50:   BIT SIZE 1
CTRY.                                                 NOR:   COUNTRY
CBD1.M                                              186.0:   CSG 1 DRILL DEP
CBL1.M                                              186.0:   CSG 1 LOG DEP
CS1 .IN                                              30.0:   CSG 1 SIZE
COMP.                                             STATOIL:   OPERATOR
PDAT.                                                 MSL:   PERM DATUM
PROV.                                                   ?:   PROVINCE
COUN.                                            NORSKALD:   RIG NAME
SPUD.                                                 N/A:   SPUD DATE
LATI.                                       58 27 13.50 N:   SURF. LATITUDE
LONG.                                        1 41 31.40 E:   SURF. LONGITUDE
BTD1.                                             465.0 M:   TOTAL DEPTH 1
BTD2.                                            2776.0 M:   TOTAL DEPTH 2
BTD3.                                            3946.0 M:   TOTAL DEPTH 3
PBWE.                                              15/9-6:   PB WELL ID
APIN.                                              15/9-6:   PB WELLBORE ID
PBWS.                                                 all:   PB WELL NAME SET
~PARAMETER INFORMATION (log)
LNAM.                              FDC/CNL/GR  COMPOSITED:   NAME
LTYP.                                         DEPTH MATCH:   LOG TYPE
LSRV.                                            DEN/NEUT:   LOG SERVICE
LSOU.                                             SPT/NPD:   LOG SOURCE
LVSN.                                                   1:   LOG VERSION
BHIS.                                                   R:   BRIEF HISTORY
FHIS.                                             RAW-LIS:   FULL HISTORY
TOOL.                             FDC/CNL/GR (COMPOSITED):   TOOL STRING
~Curve Information Block
#MNEM.UNIT                                        API CODE    No Description
#=========                                        ========    == ===========
DEPT.M                                       00 001 00 00:     1  DEPTH
CALI.IN                                                  :     2  Caliper
DRHO.G/CC                                                :     3  Bulk density correction
GR.GAPI                                                  :     4  Gamma Ray
NPHI.%                                                   :     5  Neutron porosity
RHOB.G/CC                                                :     6  Bulk density
TENS.LB                                                  :     7  Cable Tension
~ASCII
# ...
 2042.0564    12.1940      .0163    44.0087  -999.2500     2.1060   371.5110
 2042.2088    12.1940      .0371    46.1981  -999.2500     2.1310   344.4269
 2042.3612    12.1940      .0312    48.5746  -999.2500     2.1262   335.9114
 2042.5136    12.1940      .0163    48.7723  -999.2500     2.1239   348.5236
 2042.6660    12.2278      .0184    47.3280  -999.2500     2.1431   373.2557
 2042.8184    12.2446      .0166    44.8104  -999.2500     2.1474   398.7816
 2042.9708    12.2446      .0156    45.8265  -999.2500     2.1346   410.1320
 2043.1232    12.2446      .0115    49.1487  -999.2500     2.1292   403.5829
 2043.2756    12.2446      .0208    49.3747  -999.2500     2.1367   388.5629
 2043.4280    12.2446      .0272    46.2168  -999.2500     2.1498   370.9493
 2043.5804    12.2446      .0241    44.1431  -999.2500     2.1734   356.5495
 2043.7328    12.2446      .0129    44.7166  -999.2500     2.1976   350.2172
 2043.8852    12.2108      .0095    46.4621  -999.2500     2.1881   356.2430
 2044.0376    12.1940      .0102    48.5083  -999.2500     2.1298   375.4763
 2044.1900    12.1940      .0150    50.2182  -999.2500     2.0841   396.1816
 2044.3424    12.1940      .0255    50.2478  -999.2500     2.0818   402.3568
 2044.4948    12.1940      .0344    50.0142  -999.2500     2.0980   391.0101
 2044.6472    12.1940      .0340    48.2660  -999.2500     2.1128   372.0378
 2044.7996    12.1940      .0422    44.4385  -999.2500     2.1178   353.2737
 2044.9520    12.1940      .0333    42.5676  -999.2500     2.0931   341.8710
 2045.1044    12.1601      .0190    42.9055  -999.2500     2.0618   344.1925
 2045.2568    12.1433      .0126    44.3826  -999.2500     2.0606   359.4459
 2045.4092    12.1433      .0296    45.9251  -999.2500     2.0673   382.2064
 2045.5616    12.1433      .0251    48.2747  -999.2500     2.0436   402.9366
 2045.7140    12.1433      .0129    50.2178  -999.2500     2.0218   409.0457
 2045.8664    12.1772      .0082    51.0548  -999.2500     2.0191   399.5578
 2046.0188    12.1940      .0105    51.8267  -999.2500     2.0269   384.3096
 2046.1712    12.1940      .0163    52.6652  -999.2500     2.0329   369.7662
 2046.3236    12.1940      .0170    52.7303  -999.2500     2.0377   361.1656
 2046.4760    12.1940      .0088    52.1593  -999.2500     2.0407   362.5617
 2046.6284    12.1601      .0106    49.7742  -999.2500     2.0441   371.4868
 2046.7808    12.1433      .0139    47.4281  -999.2500     2.0326   381.2110
 2046.9332    12.1433      .0136    47.8030  -999.2500     2.0127   387.0012
 2047.0856    12.1433      .0112    49.6490  -999.2500     2.0019   387.7676
 2047.2380    12.1433      .0177    49.7108  -999.2500     2.0087   384.9217
 2047.3904    12.1433      .0289    47.5270  -999.2500     2.0212   382.0135
 2047.5428    12.1433      .0238    47.1311  -999.2500     2.0218   382.2516
 2047.6952    12.1433      .0187    45.9189  -999.2500     2.0269   385.2906
 2047.8476    12.1433      .0156    45.3191  -999.2500     2.0248   383.9995
 2048.0000    12.1095      .0095    44.7135  -999.2500     2.0107   373.9051
 2048.1524    12.0926      .0119    45.1193  -999.2500     2.0009   360.8276
 2048.3048    12.0926      .0156    46.5631  -999.2500     1.9922   358.8913
 2048.4572    12.0926      .0177    47.0963  -999.2500     1.9888   376.1381
 2048.6096    12.0926      .0265    46.3567  -999.2500     1.9915   394.1725
 2048.7620    12.0926      .0306    45.9895  -999.2500     1.9962   396.6699
 2048.9144    12.0926      .0251    44.8456  -999.2500     1.9891   385.5963
 2049.0668    12.0926      .0265    45.0859  -999.2500     1.9915   367.2918
 2049.2192    12.0926      .0320    44.8813  -999.2500     2.0043   350.9289
 2049.3716    12.1265      .0255    43.9758  -999.2500     2.0063   345.0640
 2049.5240    12.1433      .0221    43.0025  -999.2500     2.0063   354.8873
 2049.6764    12.1433      .0184    44.1485  -999.2500     2.0023   372.7046
 2049.8288    12.1433      .0136    46.3620  -999.2500     1.9999   391.7075
 2049.9812    12.1433      .0088    46.0205  -999.2500     1.9925   408.7247
 2050.1336    12.1433      .0078    45.7554  -999.2500     1.9868   406.1248
 2050.2860    12.1433      .0177    45.5525  -999.2500     1.9973   381.4040
 2050.4384    12.1433      .0258    44.2428  -999.2500     2.0239   359.5024
 2050.5908    12.1433      .0364    44.3478  -999.2500     2.0633   354.5754
 2050.7432    12.1433      .0319    46.4297  -999.2500     2.1047   361.5883
 2050.8956    12.0417      .0166    44.9423  -999.2500     2.1526   377.5604
 2051.0480    12.0252      .0378    42.0950  -999.2500     2.1683   399.3421
 2051.2004    12.0758      .0374    42.0002  -999.2500     2.0826   417.6965
 2051.3528    12.0926      .0217    42.5019  -999.2500     1.9998   421.6267
 2051.5052    12.0926      .0228    43.2415  -999.2500     1.9913   405.7930
 2051.6576    12.0926      .0357    43.5748  -999.2500     2.0125   380.5230
 2051.8100    12.0926      .0333    43.5075  -999.2500     2.0161   363.9539
 2051.9624    12.0926      .0248    42.8018  -999.2500     2.0120   360.1469
 2052.1148    12.0926      .0204    41.5267  -999.2500     2.0110   363.1063
 2052.2672    12.0926      .0139    39.5790  -999.2500     2.0137   367.9442
 2052.4196    12.0926      .0153    38.4424  -999.2500     2.0198   372.9982
 2052.5720    12.0926      .0194    37.6370  -999.2500     2.0262   381.8314
 2052.7244    12.0926      .0245    38.2107  -999.2500     2.0302   397.1362
 2052.8768    12.1265      .0245    40.3269  -999.2500     2.0333   415.4471
 2053.0292    12.1095      .0255    40.8238  -999.2500     2.0269   419.5119
 2053.1816    12.0926      .0204    40.1190  -999.2500     2.0198   407.6268
 2053.3340    12.1265      .0173    40.5916  -999.2500     2.0222   394.6534
 2053.4864    12.1433      .0228    40.8243  -999.2500     2.0262   383.2889
 2053.6388    12.1433      .0241    41.6323  -999.2500     2.0286   371.3265
 2053.7912    12.1433      .0166    41.7293  -999.2500     2.0198   358.2842
 2053.9436    12.1433      .0064    42.3693  -999.2500     2.0063   347.2445
 2054.0960    12.1433      .0044    42.9715  -999.2500     2.0047   346.0513
 2054.2484    12.1433      .0044    43.8119  -999.2500     2.0040   361.1763
 2054.4008    12.1433      .0095    42.9682  -999.2500     2.0009   388.0516
 2054.5532    12.1433      .0191    40.8881  -999.2500     2.0006   411.5804
 2054.7056    12.2449      .0272    38.6746  -999.2500     2.0057   414.0358
 2054.8580    12.1259      .0323    37.2674  -999.2500     2.0134   398.0806
 2055.0104    12.0081      .0296    37.8755  -999.2500     2.0168   380.5647
 2055.1628    12.0252      .0187    40.8978  -999.2500     2.0104   365.2871
 2055.3152    12.0420      .0150    41.8972  -999.2500     2.0104   351.8699
 2055.4676    12.0420      .0221    41.1585  -999.2500     2.0127   346.9524
 2055.6200    12.0420      .0248    42.4059  -999.2500     2.0137   357.4996
 2055.7724    12.0420      .0340    43.9792  -999.2500     2.0168   375.7092
 2055.9248    12.0420      .0415    43.4383  -999.2500     2.0235   392.6122
 2056.0772    12.0420      .0428    42.9711  -999.2500     2.0221   402.4294
 2056.2296    12.0081      .0347    43.6440  -999.2500     2.0039   394.9714
 2056.3820    11.9913      .0251    44.2462  -999.2500     1.9905   376.5141
 2056.5344    11.9913      .0190    44.4469  -999.2500     1.9912   366.5519
 2056.6868    11.9913      .0194    44.0769  -999.2500     1.9976   376.6600
 2056.8392    12.0930      .0170    44.0785  -999.2500     1.9898   401.0991
 2056.9916    12.1772      .0160    43.9767  -999.2500     1.9848   422.0443
 2057.1440    12.1940      .0184    43.6749  -999.2500     1.9956   428.5387
 2057.2964    12.1940      .0173    41.8938  -999.2500     2.0009   418.1763
 2057.4488    12.1601      .0109    42.5386  -999.2500     1.9955   395.7375
 2057.6012    12.1433      .0116    44.6187  -999.2500     1.9969   375.6903
 2057.7536    12.1433      .0126    46.4955  -999.2500     2.0043   369.9296
