~VERSION INFORMATION
VERS.                                                 2.0:   CWLS Log ASCII Standard-VERSION 2.0
WRAP.                                                  NO:   One line per depth step
~Well Information Block
STRT.M                                           393.6980:   Top Depth
STOP.M                                          3949.6472:   Bottom Depth
STEP.M                                             .15240:   Depth Increment
NULL.                                            -999.250:   Null Value
FLD .                                         EXPLORATION:   Field Name
WELL.                                              15/9-6:   NAME
WBN .                                              15/9-6:   WELLBORE
NATI.                                                 NOR:   COUNTRY
BHT1.DEGF                                            70.0:   BH TEMP 1
BHT2.DEGF                                           160.0:   BH TEMP 2
BHT3.DEGF                                           225.0:   BH TEMP 3
BS1 .IN                                             17.50:   BIT SIZE 1
CTRY.                                                 NOR:   COUNTRY
CBD1.M                                              186.0:   CSG 1 DRILL DEP
CBL1.M                                              186.0:   CSG 1 LOG DEP
CS1 .IN                                              30.0:   CSG 1 SIZE
COMP.                                             STATOIL:   OPERATOR
PDAT.                                                 MSL:   PERM DATUM
PROV.                                                   ?:   PROVINCE
COUN.                                            NORSKALD:   RIG NAME
SPUD.                                                 N/A:   SPUD DATE
LATI.                                       58 27 13.50 N:   SURF. LATITUDE
LONG.                                        1 41 31.40 E:   SURF. LONGITUDE
BTD1.                                             465.0 M:   TOTAL DEPTH 1
BTD2.                                            2776.0 M:   TOTAL DEPTH 2
BTD3.                                            3946.0 M:   TOTAL DEPTH 3
PBWE.                                              15/9-6:   PB WELL ID
APIN.                                              15/9-6:   PB WELLBORE ID
PBWS.                                                 all:   PB WELL NAME SET
~PARAMETER INFORMATION (log)
LNAM.                              FDC/CNL/GR  COMPOSITED:   NAME
LTYP.                                         DEPTH MATCH:   LOG TYPE
LSRV.                                            DEN/NEUT:   LOG SERVICE
LSOU.                                             SPT/NPD:   LOG SOURCE
LVSN.                                                   1:   LOG VERSION
BHIS.                                                   R:   BRIEF HISTORY
FHIS.                                             RAW-LIS:   FULL HISTORY
TOOL.                             FDC/CNL/GR (COMPOSITED):   TOOL STRING
~Curve Information Block
#MNEM.UNIT                                        API CODE    No Description
#=========                                        ========    == ===========
DEPT.M                                       00 001 00 00:     1  DEPTH
CALI.IN                                                  :     2  Caliper
DRHO.G/CC                                                :     3  Bulk density correction
GR.GAPI                                                  :     4  Gamma Ray
NPHI.%                                                   :     5  Neutron porosity
RHOB.G/CC                                                :     6  Bulk density
TENS.LB                                                  :     7  Cable Tension
~ASCII
# ...
  631.4420    19.6080      .0937    70.0000  -999.2500     2.0488   299.0189
  631.5944    20.0795      .1328    70.0625  -999.2500     1.9727   312.7398
  631.7468    21.2189      .0967    68.7500  -999.2500     1.8252   328.9995
  631.8992    22.0155      .0688    70.7500  -999.2500     1.7451   372.8618
  632.0516    21.0815      .0669    71.3750  -999.2500     1.7539   280.4670
  632.2040    19.8520      .0439    69.2500  -999.2500     1.8818   355.5442
  632.3564    20.5163      .0728    68.1875  -999.2500     1.9629   317.5903
  632.5088    20.7721      .0708    68.1875  -999.2500     1.9551   291.2386
  632.6612    21.0646      .0698    66.7500  -999.2500     1.9473   353.1671
  632.8136    21.5372      .1196    66.1875  -999.2500     1.9854   324.7914
  632.9660    21.1099      .1270    65.8750  -999.2500     2.0254   263.2889
  633.1184    20.5234      .0708    66.6875  -999.2500     2.0137   280.0836
  633.2708    20.0384      .0537    68.1875  -999.2500     2.0547   362.3252
  633.4232    20.0953      .0586    70.7500  -999.2500     2.0781   373.4719
  633.5756    18.4629      .0918    69.0000  -999.2500     2.1230   333.6457
  633.7280    18.8494      .0557    67.0625  -999.2500     2.0840   335.0798
  633.8804    18.8045      .0479    69.1875  -999.2500     2.0566   297.7418
  634.0328    17.8874      .0630    70.0625  -999.2500     2.0371   293.7153
  634.1852    17.9326      .0347    72.2500  -999.2500     1.9697   293.7762
  634.3376    18.6551      .0547    71.5625  -999.2500     1.9434   343.8375
  634.4900    20.2098      .0527    69.6875  -999.2500     1.9346   373.8981
  634.6424    19.5156      .0537    68.0625  -999.2500     1.9434   281.6592
  634.7948    20.2913      .0737    71.1875  -999.2500     1.9834   279.7830
  634.9472    19.5491      .0879    72.6875  -999.2500     2.0234   274.0813
  635.0996    18.1362      .0908    75.5625  -999.2500     2.0449   364.1420
  635.2520    17.9402      .1006    74.0625  -999.2500     2.0898   354.2031
  635.4044    17.6351      .0918    74.3750  -999.2500     2.1016   351.9153
  635.5568    17.6567      .0537    73.0000  -999.2500     2.0898   317.7444
  635.7092    17.7756      .0356    71.1875  -999.2500     2.0820   294.3378
  635.8616    17.9555      .0396    74.5000  -999.2500     2.0566   324.4471
  636.0140    18.0679      .0488    72.5000  -999.2500     2.0352   304.5081
  636.1664    18.0573      .0669    73.0000  -999.2500     2.0176   308.5230
  636.3188    17.8402      .0596    74.0000  -999.2500     2.0039   336.7625
  636.4712    17.7784      .0669    72.1875  -999.2500     2.0254   334.3683
  636.6236    17.8951      .0557    72.5000  -999.2500     2.0527   370.7205
  636.7760    18.0856      .0747    73.7500  -999.2500     2.0840   284.8129
  636.9284    19.0293      .0708    75.2500  -999.2500     2.0840   305.4536
  637.0808    19.5101      .0698    76.6875  -999.2500     2.0879   284.9349
  637.2332    19.1495      .0737    74.0000  -999.2500     2.0957   304.6331
  637.3856    18.4165      .0576    70.1875  -999.2500     2.0840   371.1580
  637.5380    18.2128      .0518    67.5625  -999.2500     2.0840   331.0045
  637.6904    18.2743      .0586    71.8750  -999.2500     2.1016   336.3740
  637.8428    18.3403      .0596    72.2500  -999.2500     2.1152   295.2395
  637.9952    18.3508      .0605    73.0625  -999.2500     2.1309   355.3005
  638.1476    18.3334      .0669    70.0000  -999.2500     2.1250   299.9258
  638.3000    18.2801      .0630    68.5625  -999.2500     2.1113   295.4222
  638.4524    18.1691      .0737    69.5625  -999.2500     2.1133   335.4832
  638.6048    18.0259      .0688    69.5625  -999.2500     2.1211   297.2867
  638.7572    17.9007      .0537    66.8750  -999.2500     2.1035   305.1095
  638.9096    18.1382      .0630    70.2500  -999.2500     2.1211   295.6663
  639.0620    18.0340      .0708    70.5625  -999.2500     2.1367   355.7271
  639.2144    18.1682      .0537    66.0625  -999.2500     2.1250   285.7883
  639.3668    18.5365      .0518    66.5625  -999.2500     2.1250   365.8492
  639.5192    19.0182      .0596    70.5000  -999.2500     2.1191   330.6481
  639.6716    19.5176      .0596    72.1875  -999.2500     2.1113   295.9708
  639.8240    19.6118      .0537    70.3750  -999.2500     2.0801   357.2424
  639.9764    18.1813      .0439    68.8750  -999.2500     2.0664   331.0777
  640.1288    19.1773      .0508    63.3750  -999.2500     2.0723   301.9529
  640.2812    19.3195      .0669    62.6875  -999.2500     2.0918   366.8204
  640.4336    18.1400      .0649    67.3750  -999.2500     2.0762   356.2760
  640.5860    17.9338      .0649    72.0000  -999.2500     2.0645   296.3365
  640.7384    17.9297      .0630    74.5625  -999.2500     2.0332   306.3976
  640.8908    17.6751      .0527    73.0000  -999.2500     1.9873   345.7809
  641.0432    17.5956      .0596    72.0000  -999.2500     1.9570   278.1631
  641.1956    17.8873      .0659    69.3750  -999.2500     1.9414   362.4232
  641.3480    18.3991      .0649    68.7500  -999.2500     1.9512   385.8548
  641.5004    18.5942      .0698    73.0625  -999.2500     1.9629   338.7531
  641.6528    18.3142      .0698    73.0000  -999.2500     1.9707   305.5420
  641.8052    18.6619      .0767    71.0000  -999.2500     1.9922   360.0358
  641.9576    18.5966      .0479    72.1875  -999.2500     1.9883   366.8856
  642.1100    17.8052      .0479    73.0000  -999.2500     1.9912   289.0596
  642.2624    18.5718      .0239    73.3750  -999.2500     1.9707   357.6213
  642.4148    17.7163      .0327    74.0625  -999.2500     1.9834   294.8881
  642.5672    17.6248      .0527    73.8750  -999.2500     2.0195   347.4848
  642.7196    17.5628      .0396    74.0000  -999.2500     2.0234   288.6465
  642.8720    17.5441      .0210    70.0000  -999.2500     2.0000   298.3339
  643.0244    17.5441      .0308    71.5625  -999.2500     2.0137   328.5738
  643.1768    17.5993      .0308    70.2500  -999.2500     2.0566   357.3729
  643.3292    17.6979      .0479    69.8750  -999.2500     2.0742   301.5986
  643.4816    17.9247      .0488    69.8750  -999.2500     2.0977   363.8797
  643.6340    18.0825      .0469    72.0000  -999.2500     2.1172   328.7791
  643.7864    18.0957      .0547    70.5000  -999.2500     2.1367   342.7816
  643.9388    18.2306      .0317    71.7500  -999.2500     2.1016   317.6779
  644.0912    18.4550      .0479    72.8750  -999.2500     2.0879   326.4016
  644.2436    18.6741      .0708    69.8750  -999.2500     2.0957   344.5784
  644.3960    19.0696      .0640    67.3750  -999.2500     2.0566   341.6536
  644.5484    19.1669      .0469    68.0625  -999.2500     2.0156   315.3489
  644.7008    19.2258      .0518    69.7500  -999.2500     1.9473   357.9826
  644.8532    18.4244      .0879    72.5000  -999.2500     1.8906   317.1481
  645.0056    17.9072      .0630    73.0625  -999.2500     1.8262   308.6266
  645.1580    17.5962      .0347    71.5625  -999.2500     1.8564   325.8277
  645.3104    18.4676      .0859    75.0625  -999.2500     1.9658   334.7944
  645.4628    18.2413      .1758    75.5625  -999.2500     2.0723   338.9174
  645.6152    18.0006      .1367    71.8750  -999.2500     2.0840   326.9544
  645.7676    19.0411      .0928    70.1875  -999.2500     2.0664   405.0118
  645.9200    19.0177      .0688    67.7500  -999.2500     2.0684   354.5809
  646.0724    18.7814      .1147    69.7500  -999.2500     2.0781   337.3570
  646.2248    18.6438      .0889    69.7500  -999.2500     2.0352   347.7146
  646.3772    18.2622      .0825    74.7500  -999.2500     2.0137   319.9235
  646.5296    18.1983      .0825    74.7500  -999.2500     2.0137   337.1508
  646.6820    19.4481      .0718    76.3750  -999.2500     2.0273   353.5450
  646.8344    20.7412      .0518    73.2500  -999.2500     1.9883   321.1459
  646.9868    20.8828      .0420    71.7500  -999.2500     2.0098   391.7604
  647.1392    19.7540      .0420    70.0625  -999.2500     1.9639   315.7889
