~VERSION INFORMATION
VERS.                                                 2.0:   CWLS Log ASCII Standard-VERSION 2.0
WRAP.                                                  NO:   One line per depth step
~Well Information Block
STRT.M                                           393.6980:   Top Depth
STOP.M                                          3949.6472:   Bottom Depth
STEP.M                                             .15240:   Depth Increment
NULL.                                            -999.250:   Null Value
FLD .                                         EXPLORATION:   Field Name
WELL.                                              15/9-6:   NAME
WBN .                                              15/9-6:   WELLBORE
NATI.                                                 NOR:   COUNTRY
BHT1.DEGF                                            70.0:   BH TEMP 1
BHT2.DEGF                                           160.0:   BH TEMP 2
BHT3.DEGF                                           225.0:   BH TEMP 3
BS1 .IN                                             17.50:   BIT SIZE 1
CTRY.                                                 NOR:   COUNTRY
CBD1.M                                              186.0:   CSG 1 DRILL DEP
CBL1.M                                              186.0:   CSG 1 LOG DEP
CS1 .IN                                              30.0:   CSG 1 SIZE
COMP.                                             STATOIL:   OPERATOR
PDAT.                                                 MSL:   PERM DATUM
PROV.                                                   ?:   PROVINCE
COUN.                                            NORSKALD:   RIG NAME
SPUD.                                                 N/A:   SPUD DATE
LATI.                                       58 27 13.50 N:   SURF. LATITUDE
LONG.                                        1 41 31.40 E:   SURF. LONGITUDE
BTD1.                                             465.0 M:   TOTAL DEPTH 1
BTD2.                                            2776.0 M:   TOTAL DEPTH 2
BTD3.                                            3946.0 M:   TOTAL DEPTH 3
PBWE.                                              15/9-6:   PB WELL ID
APIN.                                              15/9-6:   PB WELLBORE ID
PBWS.                                                 all:   PB WELL NAME SET
~PARAMETER INFORMATION (log)
LNAM.                              FDC/CNL/GR  COMPOSITED:   NAME
LTYP.                                         DEPTH MATCH:   LOG TYPE
LSRV.                                            DEN/NEUT:   LOG SERVICE
LSOU.                                             SPT/NPD:   LOG SOURCE
LVSN.                                                   1:   LOG VERSION
BHIS.                                                   R:   BRIEF HISTORY
FHIS.                                             RAW-LIS:   FULL HISTORY
TOOL.                             FDC/CNL/GR (COMPOSITED):   TOOL STRING
~Curve Information Block
#MNEM.UNIT                                        API CODE    No Description
#=========                                        ========    == ===========
DEPT.M                                       00 001 00 00:     1  DEPTH
CALI.IN                                                  :     2  Caliper
DRHO.G/CC                                                :     3  Bulk density correction
GR.GAPI                                                  :     4  Gamma Ray
NPHI.%                                                   :     5  Neutron porosity
RHOB.G/CC                                                :     6  Bulk density
TENS.LB                                                  :     7  Cable Tension
~ASCII
# ...
 2279.8004    13.3031      .0098    75.2415  -999.2500     2.3029   514.9141
 2279.9528    13.3102      .0115    74.8330  -999.2500     2.3062   527.4445
 2280.1052    13.3208      .0113    74.0517  -999.2500     2.3043   526.1215
 2280.2576    13.3320      .0073    75.6385  -999.2500     2.3044   509.7922
 2280.4100    13.3594      .0058    78.8085  -999.2500     2.3002   489.2600
 2280.5624    13.4048      .0097    79.4913  -999.2500     2.2961   475.6371
 2280.7148    13.4566      .0160    77.8301  -999.2500     2.2999   475.2532
 2280.8672    13.5003      .0224    75.0621  -999.2500     2.3032   487.5512
 2281.0196    13.5340      .0275    73.0061  -999.2500     2.2963   506.7653
 2281.1720    13.5345      .0340    74.6224  -999.2500     2.2979   527.7942
 2281.3244    13.5740      .0540    75.0469  -999.2500     2.3165   543.5356
 2281.4768    13.6953      .0457    71.1443  -999.2500     2.3319   540.9281
 2281.6292    13.7733      .0089    64.1140  -999.2500     2.3683   517.2030
 2281.7816    13.7420      .0191    57.5149  -999.2500     2.4349   492.6182
 2281.9340    13.7834      .0699    57.4773  -999.2500     2.4472   490.0131
 2282.0864    13.9153      .0617    64.3953  -999.2500     2.3654   509.5125
 2282.2388    13.9493      .0215    74.1998  -999.2500     2.2949   536.5530
 2282.3912    13.9565      .0044    82.1598  -999.2500     2.2807   553.5079
 2282.5436    13.9859      .0057    84.5959  -999.2500     2.2917   546.8915
 2282.6960    14.0067      .0160    83.6625  -999.2500     2.3143   520.1038
 2282.8484    13.9773      .0330    82.9442  -999.2500     2.3401   496.2405
 2283.0008    13.9705      .0436    80.9147  -999.2500     2.3495   493.9386
 2283.1532    13.9573      .0359    77.5825  -999.2500     2.3422   507.4008
 2283.3056    13.9503      .0223    73.4291  -999.2500     2.3283   519.9907
 2283.4580    13.9828      .0145    69.5005  -999.2500     2.3213   521.4691
 2283.6104    14.0209      .0144    70.2043  -999.2500     2.3156   516.6989
 2283.7628    14.0480      .0108    74.0715  -999.2500     2.3055   515.1466
 2283.9152    14.0678      .0078    76.9185  -999.2500     2.2991   517.3328
 2284.0676    14.0815      .0047    75.6126  -999.2500     2.2994   519.9058
 2284.2200    14.1020      .0050    70.9016  -999.2500     2.2985   521.3669
 2284.3724    14.1710      .0171    66.1992  -999.2500     2.3070   521.3297
 2284.5248    14.2160      .0353    63.2798  -999.2500     2.3220   518.3109
 2284.6772    14.2597      .0521    63.1516  -999.2500     2.3335   512.3258
 2284.8296    14.3384      .0635    66.5468  -999.2500     2.3335   508.3323
 2284.9820    14.3900      .0536    70.9728  -999.2500     2.3158   511.8492
 2285.1344    14.3565      .0370    72.4587  -999.2500     2.3031   521.1552
 2285.2868    14.3159      .0257    72.0246  -999.2500     2.3027   528.2687
 2285.4392    14.3256      .0148    73.6898  -999.2500     2.2988   528.4937
 2285.5916    14.3713      .0093    78.7291  -999.2500     2.2896   523.3978
 2285.7440    14.4586      .0161    84.6931  -999.2500     2.2844   517.3929
 2285.8964    14.5651      .0325    85.6973  -999.2500     2.2895   514.8635
 2286.0488    14.6164      .0549    80.6909  -999.2500     2.3111   518.6450
 2286.2012    14.6209      .0781    74.1835  -999.2500     2.3373   527.6169
 2286.3536    14.6970      .0943    70.0786  -999.2500     2.3535   535.6516
 2286.5060    14.7810      .0909    68.3179  -999.2500     2.3465   537.6447
 2286.6584    14.7564      .0777    67.2726  -999.2500     2.3307   529.8234
 2286.8108    14.6902      .0675    68.0700  -999.2500     2.3259   509.6964
 2286.9632    14.6672      .0479    70.8669  -999.2500     2.3157   487.1825
 2287.1156    14.7023      .0259    72.6712  -999.2500     2.2993   475.4752
 2287.2680    14.7830      .0132    73.4326  -999.2500     2.2865   476.5637
 2287.4204    14.8226      .0095    73.9105  -999.2500     2.2769   487.8688
 2287.5728    14.7915      .0222    73.5274  -999.2500     2.2795   505.6920
 2287.7252    14.7623      .0471    73.0109  -999.2500     2.2947   525.4810
 2287.8776    14.7485      .0540    72.8450  -999.2500     2.3002   538.9265
 2288.0300    14.7478      .0380    72.1247  -999.2500     2.2877   533.7333
 2288.1824    14.7703      .0283    70.3074  -999.2500     2.2819   508.8078
 2288.3348    14.7966      .0331    67.4156  -999.2500     2.2885   481.0766
 2288.4872    14.8143      .0369    65.3003  -999.2500     2.2887   470.2728
 2288.6396    14.8100      .0343    66.1415  -999.2500     2.2799   480.2219
 2288.7920    14.7704      .0356    70.0595  -999.2500     2.2683   500.9415
 2288.9444    14.7163      .0389    75.4118  -999.2500     2.2600   521.6737
 2289.0968    14.6746      .0359    79.4866  -999.2500     2.2569   534.7919
 2289.2492    14.6575      .0368    79.1355  -999.2500     2.2661   537.4622
 2289.4016    14.6651      .0483    74.7829  -999.2500     2.2824   533.0292
 2289.5540    14.6872      .0557    71.3731  -999.2500     2.2821   527.4310
 2289.7064    14.7227      .0492    71.7242  -999.2500     2.2725   523.6522
 2289.8588    14.7562      .0400    74.6720  -999.2500     2.2665   519.1582
 2290.0112    14.7644      .0420    77.0411  -999.2500     2.2733   511.3606
 2290.1636    14.7599      .0473    76.7481  -999.2500     2.2885   501.0512
 2290.3160    14.7758      .0393    73.3010  -999.2500     2.2850   494.6462
 2290.4684    14.7984      .0285    70.2738  -999.2500     2.2724   502.9785
 2290.6208    14.7925      .0227    70.4137  -999.2500     2.2637   524.2866
 2290.7732    14.7667      .0202    70.7222  -999.2500     2.2634   544.5948
 2290.9256    14.7470      .0194    68.9827  -999.2500     2.2683   554.2269
 2291.0780    14.7279      .0159    67.1999  -999.2500     2.2682   547.5995
 2291.2304    14.6888      .0124    65.1535  -999.2500     2.2630   527.6847
 2291.3828    14.6632      .0163    61.7711  -999.2500     2.2594   505.9777
 2291.5352    14.6869      .0312    59.8056  -999.2500     2.2718   493.8126
 2291.6876    14.7522      .0468    59.0182  -999.2500     2.2938   498.7863
 2291.8400    14.8032      .0509    58.3148  -999.2500     2.2967   516.9307
 2291.9924    14.7994      .0441    58.3473  -999.2500     2.2874   538.1541
 2292.1448    14.8042      .0386    56.8244  -999.2500     2.2875   554.3557
 2292.2972    14.8182      .0399    54.7987  -999.2500     2.3052   558.1345
 2292.4496    14.8122      .0434    53.7218  -999.2500     2.3173   546.7561
 2292.6020    14.8064      .0461    52.6276  -999.2500     2.3137   525.4974
 2292.7544    14.7818      .0460    52.2823  -999.2500     2.3077   506.3297
 2292.9068    14.7128      .0453    53.4741  -999.2500     2.3097   499.3137
 2293.0592    14.6412      .0382    53.7237  -999.2500     2.3154   503.8521
 2293.2116    14.6132      .0348    54.1181  -999.2500     2.3229   513.2114
 2293.3640    14.6245      .0363    54.5712  -999.2500     2.3231   522.9675
 2293.5164    14.6786      .0342    54.2314  -999.2500     2.3067   532.5375
 2293.6688    14.7648      .0385    54.8980  -999.2500     2.2995   542.0729
 2293.8212    14.8204      .0431    56.0846  -999.2500     2.3116   551.3845
 2293.9736    14.8189      .0494    56.8189  -999.2500     2.3277   558.3778
 2294.1260    14.8192      .0498    58.5543  -999.2500     2.3262   556.4432
 2294.2784    14.8793      .0430    61.1804  -999.2500     2.3124   542.5112
 2294.4308    14.9364      .0267    61.5425  -999.2500     2.2932   521.8584
 2294.5832    14.9317      .0128    61.5645  -999.2500     2.2786   502.4366
 2294.7356    14.9066      .0069    64.4843  -999.2500     2.2757   491.7051
 2294.8880    14.9236      .0125    67.9510  -999.2500     2.2887   494.0153
 2295.0404    14.9692      .0309    70.4657  -999.2500     2.3035   508.5328
 2295.1928    14.9846      .0435    71.5103  -999.2500     2.3020   528.6230
 2295.3452    14.9795      .0448    70.6488  -999.2500     2.2944   544.8466
 2295.4976    14.9970      .0512    70.5016  -999.2500     2.2990   547.2953
