~VERSION INFORMATION
VERS.                                                 2.0:   CWLS Log ASCII Standard-VERSION 2.0
WRAP.                                                  NO:   One line per depth step
~Well Information Block
STRT.M                                           393.6980:   Top Depth
STOP.M                                          3949.6472:   Bottom Depth
STEP.M                                             .15240:   Depth Increment
NULL.                                            -999.250:   Null Value
FLD .                                         EXPLORATION:   Field Name
WELL.                                              15/9-6:   NAME
WBN .                                              15/9-6:   WELLBORE
NATI.                                                 NOR:   COUNTRY
BHT1.DEGF                                            70.0:   BH TEMP 1
BHT2.DEGF                                           160.0:   BH TEMP 2
BHT3.DEGF                                           225.0:   BH TEMP 3
BS1 .IN                                             17.50:   BIT SIZE 1
CTRY.                                                 NOR:   COUNTRY
CBD1.M                                              186.0:   CSG 1 DRILL DEP
CBL1.M                                              186.0:   CSG 1 LOG DEP
CS1 .IN                                              30.0:   CSG 1 SIZE
COMP.                                             STATOIL:   OPERATOR
PDAT.                                                 MSL:   PERM DATUM
PROV.                                                   ?:   PROVINCE
COUN.                                            NORSKALD:   RIG NAME
SPUD.                                                 N/A:   SPUD DATE
LATI.                                       58 27 13.50 N:   SURF. LATITUDE
LONG.                                        1 41 31.40 E:   SURF. LONGITUDE
BTD1.                                             465.0 M:   TOTAL DEPTH 1
BTD2.                                            2776.0 M:   TOTAL DEPTH 2
BTD3.                                            3946.0 M:   TOTAL DEPTH 3
PBWE.                                              15/9-6:   PB WELL ID
APIN.                                              15/9-6:   PB WELLBORE ID
PBWS.                                                 all:   PB WELL NAME SET
~PARAMETER INFORMATION (log)
LNAM.                              FDC/CNL/GR  COMPOSITED:   NAME
LTYP.                                         DEPTH MATCH:   LOG TYPE
LSRV.                                            DEN/NEUT:   LOG SERVICE
LSOU.                                             SPT/NPD:   LOG SOURCE
LVSN.                                                   1:   LOG VERSION
BHIS.                                                   R:   BRIEF HISTORY
FHIS.                                             RAW-LIS:   FULL HISTORY
TOOL.                             FDC/CNL/GR (COMPOSITED):   TOOL STRING
~Curve Information Block
#MNEM.UNIT                                        API CODE    No Description
#=========                                        ========    == ===========
DEPT.M                                       00 001 00 00:     1  DEPTH
CALI.IN                                                  :     2  Caliper
DRHO.G/CC                                                :     3  Bulk density correction
GR.GAPI                                                  :     4  Gamma Ray
NPHI.%                                                   :     5  Neutron porosity
RHOB.G/CC                                                :     6  Bulk density
TENS.LB                                                  :     7  Cable Tension
~ASCII
# ...
 2755.2884    12.5993     -.0157    13.0247    21.1410     2.5864  1163.8242
 2755.4408    12.5993     -.0129    12.2117    19.9685     2.5952  1150.8345
 2755.5932    12.5993     -.0037    12.4484    18.7728     2.6001  1139.1865
 2755.7456    12.5993      .0010    13.6510    17.9188     2.5869  1134.0825
 2755.8980    12.5993     -.0040    14.1033    17.6026     2.5864  1140.3743
 2756.0504    12.5657     -.0059    14.5394    17.1126     2.5883  1153.9614
 2756.2028    12.5488     -.0052    15.3116    15.4504     2.5776  1158.1372
 2756.3552    12.5486      .0026    15.0063    13.9637     2.5880  1152.2808
 2756.5076    12.5486      .0038    13.6463    13.4519     2.6080  1146.9177
 2756.6600    12.5486      .0006    15.7353    13.4527     2.6094  1144.7678
 2756.8124    12.5485      .0045    19.7816    13.9170     2.5953  1145.6150
 2756.9648    12.5616      .0199    24.6113    14.4539     2.5609  1159.2185
 2757.1172    12.6259      .0298    29.1843    14.7462     2.5363  1179.9341
 2757.2696    12.6279      .0106    31.6611    15.1133     2.5218  1167.5930
 2757.4220    12.6201      .0082    33.0099    16.1645     2.5285  1137.6990
 2757.5744    12.6374      .0201    33.5147    18.2906     2.5346  1138.7720
 2757.7268    12.6266      .0339    34.1166    21.2942     2.5324  1159.5908
 2757.8792    12.6260      .0516    35.2562    25.0278     2.5305  1172.9568
 2758.0316    12.6433      .0416    38.0716    29.1323     2.5166  1171.8564
 2758.1840    12.6514      .0444    39.0552    31.7648     2.5227  1157.6008
 2758.3364    12.6705      .0452    40.6083    32.3729     2.5329  1137.8345
 2758.4888    12.7103      .0271    40.5244    32.8866     2.5290  1126.0845
 2758.6412    12.5643      .0270    41.1842    34.1820     2.5375  1136.6633
 2758.7936    12.5797      .0360    41.7595    34.9611     2.5587  1163.2673
 2758.9460    12.5434      .0262    40.2739    34.0301     2.5653  1181.7327
 2759.0984    12.5682      .0292    38.8838    31.1982     2.5611  1181.2983
 2759.2508    12.6338      .0553    39.3053    28.1211     2.5615  1163.1050
 2759.4032    12.7134      .0828    39.4935    25.6552     2.5417  1139.0276
 2759.5556    12.8180      .0842    38.7434    22.6996     2.5104  1137.3083
 2759.7080    12.9000      .0777    37.7351    20.0409     2.5004  1172.7769
 2759.8604    12.9596      .0891    36.7268    19.3608     2.5186  1221.3240
 2760.0128    13.0701      .1064    35.7169    21.3189     2.5448  1231.9146
 2760.1652    13.0926      .0885    37.4301    25.8881     2.5219  1193.4382
 2760.3176    12.6648      .0200    39.1929    30.7681     2.4705  1157.9004
 2760.4700    12.4216      .0038    41.2234    32.9104     2.4867  1149.1953
 2760.6224    12.3935      .0259    42.9058    32.4443     2.5086  1149.3916
 2760.7748    12.3905      .0267    43.4271    30.6603     2.4763  1150.6536
 2760.9272    12.4211      .0406    43.9546    27.7287     2.4745  1153.9844
 2761.0796    12.4585      .0499    42.0772    23.4334     2.4744  1154.1997
 2761.2320    12.9870      .0663    40.6155    16.6613     2.4860  1144.7676
 2761.3844    12.9048      .0372    40.0393    10.5653     2.4653  1132.2034
 2761.5368    12.6928      .0179    40.1208     8.9118     2.4791  1132.2886
 2761.6892    12.6235      .0156    40.5544    10.1106     2.5154  1154.7825
 2761.8416    12.6617      .0181    43.7524    12.5512     2.5310  1181.9900
 2761.9940    12.9342      .0398    44.2169    16.0955     2.5511  1188.7939
 2762.1464    13.0350      .0472    42.6883    20.6868     2.5448  1190.1948
 2762.2988    12.7013      .0201    40.9770    24.2955     2.5245  1189.5327
 2762.4512    12.7276      .0198    39.6761    24.0702     2.5474  1168.7988
 2762.6036    12.9009      .0387    39.1153    22.1416     2.5662  1147.6367
 2762.7560    12.7349      .0238    37.5043    21.7046     2.5308  1142.1843
 2762.9084    12.5722      .0233    36.8556    22.7812     2.5298  1152.8320
 2763.0608    12.6533      .0302    36.8297    24.9307     2.5562  1176.3530
 2763.2132    12.6317      .0434    37.1279    24.5773     2.5678  1198.4502
 2763.3656    12.4924      .0266    36.5551    21.7734     2.5593  1201.6995
 2763.5180    12.4274      .0019    35.3055    21.5853     2.5445  1180.0806
 2763.6704    12.5039      .0116    33.4556    21.9706     2.5487  1152.1919
 2763.8228    12.5518      .0461    31.5193    20.5798     2.5821  1134.5261
 2763.9752    12.5053      .0479    29.7976    19.6773     2.5875  1134.2556
 2764.1276    12.4616      .0273    29.3963    19.8496     2.5617  1151.1062
 2764.2800    12.4696      .0356    30.2099    20.3620     2.5811  1171.2419
 2764.4324    12.4483      .0392    30.1869    19.7252     2.6103  1182.0586
 2764.5848    12.4253      .0153    30.7655    18.8230     2.6043  1171.6306
 2764.7372    12.4707      .0044    31.5857    19.6072     2.6081  1142.1938
 2764.8896    12.4671      .0021    30.3724    20.3120     2.6300  1124.3784
 2765.0420    12.4219      .0065    30.1552    19.0149     2.6439  1131.7898
 2765.1944    12.3751      .0034    30.0806    17.5532     2.6388  1148.4480
 2765.3468    12.3714      .0013    28.7504    16.4281     2.6311  1164.4360
 2765.4992    12.3896     -.0054    26.1311    14.7433     2.6199  1171.6628
 2765.6516    12.4294     -.0079    23.5119    12.8875     2.5996  1165.5942
 2765.8040    12.4137     -.0095    21.3853    11.3027     2.5743  1168.4749
 2765.9564    12.3969     -.0067    21.3144    10.4239     2.5486  1180.7458
 2766.1088    12.3966     -.0074    21.5400    10.6951     2.5264  1171.6707
 2766.2612    12.3628      .0003    21.5929    12.1857     2.5243  1152.7808
 2766.4136    12.3798      .0089    20.9667    14.1618     2.5145  1149.7065
 2766.5660    12.3627      .0071    19.6005    15.7244     2.4784  1149.8433
 2766.7184    12.3121      .0052    19.0305    16.2843     2.4499  1144.9231
 2766.8708    12.2614      .0089    19.9951    16.0147     2.4590  1148.4490
 2767.0232    12.3124      .0111    20.4587    15.6247     2.4940  1160.5569
 2767.1756    12.3121      .0074    20.5385    15.2095     2.5168  1170.3992
 2767.3280    12.2614      .0096    21.6174    14.0843     2.5270  1172.9597
 2767.4804    12.2785      .0152    22.4736    12.4240     2.5339  1165.1580
 2767.6328    12.2953      .0255    21.4646    10.7395     2.5483  1147.6997
 2767.7852    12.2614      .0316    19.7136     9.3986     2.5469  1136.3691
 2767.9376    12.2446      .0371    19.0535     8.2009     2.5382  1139.3020
 2768.0900    12.2785      .0346    19.5276     6.9072     2.5220  1147.7856
 2768.2424    12.2614      .0239    20.1870     6.1274     2.5049  1159.5715
 2768.3948    12.2108      .0294    20.4530     6.1527     2.4748  1174.6274
 2768.5472    12.1941      .0390    20.5891     6.8130     2.4412  1178.0786
 2768.6996    12.2279      .0276    21.7527     7.5938     2.4383  1155.0449
 2768.8520    12.3462      .0068    22.4638     8.2286     2.4888  1130.7878
 2769.0044    12.3966     -.0012    22.9274     8.9123     2.5475  1128.1514
 2769.1568    12.3966      .0076    21.2466     9.6197     2.5712  1134.7024
 2769.3092    12.3966      .0142    20.0187    10.3283     2.5590  1141.3552
 2769.4616    12.3966      .0062    20.8244    11.4281     2.5346  1149.1125
 2769.6140    12.3673      .0022    21.9011    12.7950     2.5129  1162.5649
 2769.7664    12.3671      .0071    22.2077    13.6723     2.5049  1174.4670
 2769.9188    12.3438      .0191    22.0735    14.2834     2.5128  1168.6960
 2770.0712    12.3438      .0160    20.9902    15.3587     2.5253  1155.8240
 2770.2236    12.3163      .0095    20.6836    16.5053     2.5376  1153.8342
 2770.3760    12.2891      .0108    21.0562    16.7722     2.5508  1159.7729
 2770.5284    12.2891      .0127    21.6131    16.0382     2.5733  1168.0242
 2770.6808    12.2891      .0137    22.1293    14.8417     2.5791  1176.3120
 2770.8332    12.2891      .0146    22.5008    13.7191     2.5938  1176.9749
 2770.9856    12.3400      .0183    21.2954    12.3507     2.6221  1165.0305
