~VERSION INFORMATION
VERS.                                                 2.0:   CWLS Log ASCII Standard-VERSION 2.0
WRAP.                                                  NO:   One line per depth step
~Well Information Block
STRT.M                                           393.6980:   Top Depth
STOP.M                                          3949.6472:   Bottom Depth
STEP.M                                             .15240:   Depth Increment
NULL.                                            -999.250:   Null Value
FLD .                                         EXPLORATION:   Field Name
WELL.                                              15/9-6:   NAME
WBN .                                              15/9-6:   WELLBORE
NATI.                                                 NOR:   COUNTRY
BHT1.DEGF                                            70.0:   BH TEMP 1
BHT2.DEGF                                           160.0:   BH TEMP 2
BHT3.DEGF                                           225.0:   BH TEMP 3
BS1 .IN                                             17.50:   BIT SIZE 1
CTRY.                                                 NOR:   COUNTRY
CBD1.M                                              186.0:   CSG 1 DRILL DEP
CBL1.M                                              186.0:   CSG 1 LOG DEP
CS1 .IN                                              30.0:   CSG 1 SIZE
COMP.                                             STATOIL:   OPERATOR
PDAT.                                                 MSL:   PERM DATUM
PROV.                                                   ?:   PROVINCE
COUN.                                            NORSKALD:   RIG NAME
SPUD.                                                 N/A:   SPUD DATE
LATI.                                       58 27 13.50 N:   SURF. LATITUDE
LONG.                                        1 41 31.40 E:   SURF. LONGITUDE
BTD1.                                             465.0 M:   TOTAL DEPTH 1
BTD2.                                            2776.0 M:   TOTAL DEPTH 2
BTD3.                                            3946.0 M:   TOTAL DEPTH 3
PBWE.                                              15/9-6:   PB WELL ID
APIN.                                              15/9-6:   PB WELLBORE ID
PBWS.                                                 all:   PB WELL NAME SET
~PARAMETER INFORMATION (log)
LNAM.                              FDC/CNL/GR  COMPOSITED:   NAME
LTYP.                                         DEPTH MATCH:   LOG TYPE
LSRV.                                            DEN/NEUT:   LOG SERVICE
LSOU.                                             SPT/NPD:   LOG SOURCE
LVSN.                                                   1:   LOG VERSION
BHIS.                                                   R:   BRIEF HISTORY
FHIS.                                             RAW-LIS:   FULL HISTORY
TOOL.                             FDC/CNL/GR (COMPOSITED):   TOOL STRING
~Curve Information Block
#MNEM.UNIT                                        API CODE    No Description
#=========                                        ========    == ===========
DEPT.M                                       00 001 00 00:     1  DEPTH
CALI.IN                                                  :     2  Caliper
DRHO.G/CC                                                :     3  Bulk density correction
GR.GAPI                                                  :     4  Gamma Ray
NPHI.%                                                   :     5  Neutron porosity
RHOB.G/CC                                                :     6  Bulk density
TENS.LB                                                  :     7  Cable Tension
~ASCII
# ...
 3452.6708    13.9935      .0117    50.2785    30.1539     2.3095   650.8412
 3452.8232    13.4540      .0242    51.2185    32.1816     2.2205   721.1086
 3452.9756    13.2805      .0383    51.2532    33.9119     2.1611   747.6346
 3453.1280    12.8124      .0540    49.8575    35.1831     2.1925   679.5559
 3453.2804    12.9615      .0515    48.4201    36.6723     2.2550   638.8893
 3453.4328    12.8115      .0440    47.0993    36.7166     2.2842   628.0238
 3453.5852    12.2688      .0574    47.6740    35.0800     2.2558   632.2285
 3453.7376    12.4186      .0735    47.9747    33.9841     2.2315   623.1794
 3453.8900    12.6127      .0850    48.8816    34.5237     2.2775   607.0574
 3454.0424    12.2180      .1160    48.8847    36.7236     2.3722   686.5315
 3454.1948    12.0235      .1274    47.7778    39.0897     2.4160   794.3007
 3454.3472    12.1212      .0913    45.7965    39.7947     2.3838   760.7578
 3454.4996    12.3168      .0613    46.3631    39.7954     2.3241   662.0856
 3454.6520    12.7863      .0513    50.0840    39.7944     2.2842   628.9965
 3454.8044    13.0348      .0359    53.2539    40.0893     2.2391   635.3347
 3454.9568    13.3561      .0225    55.2392    40.2828     2.1621   657.6458
 3455.1092    14.3691      .0220    54.6819    40.1860     2.1083   679.9568
 3455.2616    15.2588      .0320    55.0100    39.0584     2.0987   680.3540
 3455.4140    15.6527      .0415    56.0497    36.7888     2.1446   606.5679
 3455.5664    15.5031      .0283    55.0533    35.9380     2.1944   562.6847
 3455.7188    15.3048      .0122    53.4978    36.4997     2.2217   568.2233
 3455.8712    14.3131      .0112    53.3220    36.2773     2.2344   587.5375
 3456.0236    13.1558      .0088    52.1526    34.4934     2.2481   605.2792
 3456.1760    13.0312      .0108    52.2126    32.7373     2.2754   643.1681
 3456.3284    13.0821      .0242    51.7208    32.4957     2.2803   612.7975
 3456.4808    13.2308      .0342    49.7701    33.4736     2.2617   509.6867
 3456.6332    12.7325      .0261    47.4259    35.1842     2.3147   527.7428
 3456.7856    11.6233      .0303    46.6499    36.2548     2.4700   694.2054
 3456.9380    11.0820      .0603    46.8917    35.2768     2.5733   865.1205
 3457.0904    11.0547      .0894    44.2230    31.2891     2.6016   862.3969
 3457.2428    11.0547      .1216    42.8127    24.7936     2.6260   818.0471
 3457.3952    11.0547      .1306    40.7164    20.4072     2.6426   760.3594
 3457.5476    11.1056      .0773    39.7261    19.2375     2.6376   706.7694
 3457.7000    11.3049      .0168    39.8479    19.8011     2.5829   647.0891
 3457.8524    11.4022     -.0017    41.6913    20.9729     2.5155   586.8033
 3458.0048    11.3516      .0022    42.2948    20.8480     2.4638   526.5238
 3458.1572    11.2536      .0108    40.3894    20.9247     2.4199   456.1484
 3458.3096    11.0310      .0063    40.3964    22.1202     2.3945   371.2552
 3458.4620    11.3530      .0169    40.5319    22.8274     2.3632   407.6209
 3458.6144    11.4755      .0251    39.8114    22.9739     2.4094   714.5750
 3458.7668    11.1562      .0227    40.3198    23.6102     2.5206  1388.8083
 3458.9192    11.1562      .0227    39.6320    24.7568     2.5508  1334.2083
 3459.0716    11.1562      .0142    39.3308    27.3502     2.5371  1236.9607
 3459.2240    11.1562      .0068    40.0307    32.9951     2.5322  1199.3154
 3459.3764    11.1562     -.0051    39.8348    37.2579     2.5175  1145.1467
 3459.5288    11.1562     -.0112    41.8671    37.3518     2.4941  1089.6843
 3459.6812    11.1562     -.0107    45.6853    35.0558     2.4863  1037.2700
 3459.8336    11.1562     -.0107    47.8429    31.6108     2.4765   983.6896
 3459.9860    11.1562     -.0098    47.4686    27.7763     2.4727   923.9060
 3460.1384    11.1562     -.0002    46.4468    24.3122     2.4844   866.6636
 3460.2908    11.1562      .0269    45.1757    22.5823     2.5059   797.9736
 3460.4432    11.1562      .0488    45.0319    22.3394     2.5489   702.3716
 3460.5956    11.1053      .0679    45.1345    22.7547     2.5713   629.3846
 3460.7480    11.1056      .1141    45.7704    23.0715     2.5674   629.4210
 3460.9004    11.1562      .1215    47.0701    23.1934     2.5283   711.1991
 3461.0528    11.2072      .0668    46.4520    23.8545     2.4305   684.7737
 3461.2052    11.2304      .0342    44.2159    25.2956     2.3182   612.3468
 3461.3576    11.4030      .0163    43.5578    27.3722     2.2343   660.1218
 3461.5100    11.5780      .0054    42.9638    29.7399     2.1963   689.4849
 3461.6624    11.7777     -.0032    43.9089    31.1528     2.2198   645.9253
 3461.8148    12.6662     -.0146    43.0131    30.9310     2.2941   658.6113
 3461.9672    12.4621     -.0031    43.0727    28.4360     2.3986   612.8129
 3462.1196    11.2293      .0203    42.9763    24.4075     2.4590   569.0212
 3462.2720    11.2076      .0547    43.5726    21.5074     2.4296   571.4233
 3462.4244    11.7036      .0850    43.8398    21.5605     2.4131   678.3500
 3462.5768    11.4518      .1241    44.3232    23.8325     2.4581   889.8790
 3462.7292    11.0312      .1585    47.0712    26.8118     2.5128   938.2228
 3462.8816    11.0078      .1650    50.0950    28.4180     2.5352   873.9236
 3463.0340    11.0078      .1631    52.1977    28.4914     2.5518   823.7109
 3463.1864    11.0078      .1450    53.4454    28.0746     2.5811   749.6680
 3463.3388    11.0313      .0922    54.1238    28.3227     2.5663   661.1085
 3463.4912    11.1566      .0307    53.7804    27.7791     2.5342   599.8021
 3463.6436    11.1326      .0112    49.2865    26.1224     2.5195   651.1245
 3463.7960    11.0313      .0012    48.3226    25.6100     2.5029   760.2142
 3463.9484    11.0312     -.0112    48.6871    25.7822     2.5039   763.8610
 3464.1008    11.0078     -.0103    50.1897    26.1477     2.4941   683.2653
 3464.2532    11.0078     -.0051    51.0519    25.7072     2.4492   586.9830
 3464.4056    11.1332      .0416    50.9047    24.8034     2.4003   571.9427
 3464.5580    11.8260      .0815    51.4696    25.5407     2.3799   646.4531
 3464.7104    11.7715      .1337    52.3119    28.9134     2.4524   969.6749
 3464.8628    11.1562      .2041    53.4349    33.3531     2.5430  1014.9871
 3465.0152    11.1562      .2202    54.5596    35.1305     2.5605   940.3817
 3465.1676    11.1562      .2153    55.5816    32.1696     2.5547   864.1968
 3465.3200    11.1562      .1992    56.4716    28.2671     2.5459   787.9177
 3465.4724    11.1562      .1635    55.6142    25.8756     2.5185   733.3457
 3465.6248    11.2071      .1196    56.1939    25.5871     2.4746   616.5433
 3465.7772    11.5556      .0886    55.1801    27.6165     2.4277   576.6757
 3465.9296    11.7497      .0796    54.6708    29.2736     2.4278   627.7578
 3466.0820    11.8483      .0730    51.2021    29.5897     2.4610   645.2380
 3466.2344    12.0703      .0512    49.2667    29.1009     2.4932   654.7166
 3466.3868    11.6470      .0589    48.4365    27.9273     2.5724   705.3893
 3466.5392    11.1796      .0815    44.7020    25.8502     2.6211   699.1775
 3466.6916    11.1798      .0605    42.6121    22.8952     2.5898   665.3486
 3466.8440    11.2031      .0415    41.9187    20.8734     2.5498   690.7823
 3466.9964    11.2031      .0660    41.9021    20.2630     2.5616   654.1788
 3467.1488    11.2541      .0683    42.5857    19.4805     2.5947   617.1174
 3467.3012    11.4301      .0589    44.2918    18.9455     2.5908   614.1853
 3467.4536    11.4528      .0627    46.4518    18.7002     2.5938   640.6510
 3467.6060    11.3516      .0356    46.7547    18.4571     2.5928   636.5873
 3467.7584    11.4025      .0394    48.6685    18.4814     2.6065   652.0491
 3467.9108    11.5041      .0544    51.0740    18.3591     2.6171   657.2450
 3468.0632    11.5782      .0444    51.6519    18.4821     2.5634   657.8779
 3468.2156    11.6524      .0425    53.2514    18.9457     2.4687   664.6263
 3468.3680    11.9500      .0368    55.1116    20.0467     2.3308   690.1422
