~VERSION INFORMATION
VERS.                                                 2.0:   CWLS Log ASCII Standard-VERSION 2.0
WRAP.                                                  NO:   One line per depth step
~Well Information Block
STRT.M                                           393.6980:   Top Depth
STOP.M                                          3949.6472:   Bottom Depth
STEP.M                                             .15240:   Depth Increment
NULL.                                            -999.250:   Null Value
FLD .                                         EXPLORATION:   Field Name
WELL.                                              15/9-6:   NAME
WBN .                                              15/9-6:   WELLBORE
NATI.                                                 NOR:   COUNTRY
BHT1.DEGF                                            70.0:   BH TEMP 1
BHT2.DEGF                                           160.0:   BH TEMP 2
BHT3.DEGF                                           225.0:   BH TEMP 3
BS1 .IN                                             17.50:   BIT SIZE 1
CTRY.                                                 NOR:   COUNTRY
CBD1.M                                              186.0:   CSG 1 DRILL DEP
CBL1.M                                              186.0:   CSG 1 LOG DEP
CS1 .IN                                              30.0:   CSG 1 SIZE
COMP.                                             STATOIL:   OPERATOR
PDAT.                                                 MSL:   PERM DATUM
PROV.                                                   ?:   PROVINCE
COUN.                                            NORSKALD:   RIG NAME
SPUD.                                                 N/A:   SPUD DATE
LATI.                                       58 27 13.50 N:   SURF. LATITUDE
LONG.                                        1 41 31.40 E:   SURF. LONGITUDE
BTD1.                                             465.0 M:   TOTAL DEPTH 1
BTD2.                                            2776.0 M:   TOTAL DEPTH 2
BTD3.                                            3946.0 M:   TOTAL DEPTH 3
PBWE.                                              15/9-6:   PB WELL ID
APIN.                                              15/9-6:   PB WELLBORE ID
PBWS.                                                 all:   PB WELL NAME SET
~PARAMETER INFORMATION (log)
LNAM.                              FDC/CNL/GR  COMPOSITED:   NAME
LTYP.                                         DEPTH MATCH:   LOG TYPE
LSRV.                                            DEN/NEUT:   LOG SERVICE
LSOU.                                             SPT/NPD:   LOG SOURCE
LVSN.                                                   1:   LOG VERSION
BHIS.                                                   R:   BRIEF HISTORY
FHIS.                                             RAW-LIS:   FULL HISTORY
TOOL.                             FDC/CNL/GR (COMPOSITED):   TOOL STRING
~Curve Information Block
#MNEM.UNIT                                        API CODE    No Description
#=========                                        ========    == ===========
DEPT.M                                       00 001 00 00:     1  DEPTH
CALI.IN                                                  :     2  Caliper
DRHO.G/CC                                                :     3  Bulk density correction
GR.GAPI                                                  :     4  Gamma Ray
NPHI.%                                                   :     5  Neutron porosity
RHOB.G/CC                                                :     6  Bulk density
TENS.LB                                                  :     7  Cable Tension
~ASCII
# ...
 1106.9300    19.9044      .0291    63.4536  -999.2500     1.8011   433.5209
 1107.0824    20.8684      .0636    63.0337  -999.2500     1.8392   460.4645
 1107.2348    19.2439      .0201    64.8250  -999.2500     1.8312   416.6400
 1107.3872    19.1662      .0214    63.5169  -999.2500     1.8710   414.1412
 1107.5396    19.9021      .0746    62.2037  -999.2500     1.9633   463.6122
 1107.6920    20.5178      .0505    58.6911  -999.2500     1.9342   461.9574
 1107.8444    20.5013      .0689    61.1226  -999.2500     1.9056   429.3772
 1107.9968    20.2414      .0762    64.5831  -999.2500     1.9069   451.0867
 1108.1492    19.7042      .0722    67.9764  -999.2500     1.8866   452.1119
 1108.3016    21.1549      .0983    66.8714  -999.2500     1.9117   459.8672
 1108.4540    20.8591      .0916    63.3870  -999.2500     1.8961   467.6743
 1108.6064    20.2004      .0620    65.3667  -999.2500     1.8685   399.2637
 1108.7588    19.8552      .0393    65.5625  -999.2500     1.8366   399.5035
 1108.9112    21.8455      .0462    67.8105  -999.2500     1.8259   490.2305
 1109.0636    19.5849      .0063    70.0191  -999.2500     1.8333   416.7498
 1109.2160    19.1569      .0454    67.8759  -999.2500     1.8881   446.9522
 1109.3684    20.3601      .0958    66.2994  -999.2500     1.9476   406.7831
 1109.5208    21.7353      .0449    67.7506  -999.2500     1.9033   478.9841
 1109.6732    19.7335      .0564    73.7848  -999.2500     1.9166   503.4845
 1109.8256    19.6609      .0948    78.0775  -999.2500     1.9678   435.8241
 1109.9780    20.8680      .0673    78.2009  -999.2500     1.9219   471.1094
 1110.1304    20.4502      .0668    75.3968  -999.2500     1.8899   396.6792
 1110.2828    20.6530      .1114    76.1185  -999.2500     1.8895   486.7405
 1110.4352    21.1712      .0665    71.0624  -999.2500     1.8333   417.3036
 1110.5876    21.1296      .0179    71.6202  -999.2500     1.8473   495.3352
 1110.7400    19.8341      .0420    73.5544  -999.2500     1.8687   395.1040
 1110.8924    19.8012      .0941    70.7678  -999.2500     1.9048   421.2121
 1111.0448    19.9033      .0662    71.3222  -999.2500     1.8270   505.4299
 1111.1972    20.3136      .0964    72.1939  -999.2500     1.8597   412.1691
 1111.3496    21.5366      .0858    73.7733  -999.2500     1.8532   493.6185
 1111.5020    20.5612      .0369    75.3997  -999.2500     1.8599   420.0211
 1111.6544    19.8716      .0048    77.2607  -999.2500     1.8979   420.4042
 1111.8068    19.0523      .0084    74.3791  -999.2500     1.9398   458.9038
 1111.9592    19.1686      .0547    70.6012  -999.2500     1.9552   407.1135
 1112.1116    20.8518      .0654    64.3681  -999.2500     1.9423   446.9997
 1112.2640    19.4622      .0498    64.4715  -999.2500     1.8890   412.4239
 1112.4164    21.2747      .0299    64.5000  -999.2500     1.8876   479.1588
 1112.5688    19.5760      .0597    65.6809  -999.2500     1.9163   417.4641
 1112.7212    20.1843      .0578    66.0455  -999.2500     1.8885   402.7054
 1112.8736    21.2949      .0313    62.9574  -999.2500     1.8719   457.5276
 1113.0260    19.5497      .0326    62.8700  -999.2500     1.8766   427.5955
 1113.1784    20.0859      .0582    68.5625  -999.2500     1.9288   474.3206
 1113.3308    19.7184      .0628    68.5190  -999.2500     1.9159   460.7036
 1113.4832    19.8519      .0829    70.7570  -999.2500     1.9234   464.5696
 1113.6356    20.1610      .0770    66.5951  -999.2500     1.9081   436.8477
 1113.7880    20.9101      .0776    63.5192  -999.2500     1.9109   427.7601
 1113.9404    19.9768      .0437    63.1964  -999.2500     1.8619   474.3288
 1114.0928    19.4387      .0494    68.0186  -999.2500     1.8761   417.1315
 1114.2452    19.8051      .0326    69.9201  -999.2500     1.8853   449.8019
 1114.3976    19.2478      .0527    72.1507  -999.2500     1.9221   430.8115
 1114.5500    19.4487      .0537    76.0171  -999.2500     1.8930   435.1791
 1114.7024    20.9971      .0289    74.3323  -999.2500     1.8459   479.4384
 1114.8548    20.0861      .0498    71.8542  -999.2500     1.8699   458.1688
 1115.0072    19.2419      .1084    70.6111  -999.2500     1.9487   431.2864
 1115.1596    19.9694      .0869    67.5027  -999.2500     1.9381   483.3873
 1115.3120    21.2746      .0531    68.6970  -999.2500     1.8991   463.4727
 1115.4644    20.3787      .0856    71.2761  -999.2500     1.9416   426.6547
 1115.6168    19.8457      .0770    71.0138  -999.2500     1.9537   489.1566
 1115.7692    19.2280      .0206    69.5541  -999.2500     1.8892   410.9323
 1115.9216    19.6557      .0873    70.9471  -999.2500     1.9629   472.7801
 1116.0740    20.6347      .0521    72.4483  -999.2500     1.9526   451.1785
 1116.2264    19.5381      .0017    70.8103  -999.2500     1.9286   486.7150
 1116.3788    19.0111      .0307    66.3376  -999.2500     1.9268   416.1508
 1116.5312    20.1422      .0705    68.3066  -999.2500     1.9438   452.2187
 1116.6836    19.2171      .0467    68.2539  -999.2500     1.8876   473.4763
 1116.8360    19.5155      .0776    69.8268  -999.2500     1.8933   443.7621
 1116.9884    20.0224      .0748    67.5704  -999.2500     1.8765   508.6472
 1117.1408    19.6733      .0662    62.3366  -999.2500     1.8523   433.4408
 1117.2932    20.3845      .0455    68.0239  -999.2500     1.8269   530.7146
 1117.4456    20.4973      .0192    72.5720  -999.2500     1.8290   495.4776
 1117.5980    19.0723      .0014    77.8638  -999.2500     1.8462   451.8383
 1117.7504    19.3030      .0496    79.4639  -999.2500     1.9105   469.4890
 1117.9028    20.0269      .0975    74.9862  -999.2500     1.9531   483.7180
 1118.0552    20.0402      .0433    76.0358  -999.2500     1.8931   487.5146
 1118.2076    21.3445      .0787    77.4677  -999.2500     1.9174   415.6000
 1118.3600    19.7497      .0643    77.6834  -999.2500     1.9543   483.4840
 1118.5124    20.0474      .0668    81.1814  -999.2500     1.9331   457.1863
 1118.6648    20.8732      .0913    81.0048  -999.2500     1.9355   434.9013
 1118.8172    20.0994      .0505    79.2195  -999.2500     1.8876   502.5333
 1118.9696    19.5444      .0800    80.9680  -999.2500     1.8848   423.7028
 1119.1220    19.7829      .0642    82.7219  -999.2500     1.8915   510.0593
 1119.2744    20.4089      .0717    82.0735  -999.2500     1.9012   411.0181
 1119.4268    19.5252      .0540    77.3157  -999.2500     1.9023   466.6887
 1119.5792    19.4704      .0715    71.9482  -999.2500     1.9072   506.7845
 1119.7316    20.2273      .0520    71.0723  -999.2500     1.8918   440.5237
 1119.8840    18.9479      .0103    74.8292  -999.2500     1.8810   487.6876
 1120.0364    20.5074      .0455    74.8750  -999.2500     1.8702   429.1702
 1120.1888    21.5208      .0469    75.3698  -999.2500     1.8634   481.8131
 1120.3412    19.4234      .0595    79.2158  -999.2500     1.8517   468.8833
 1120.4936    19.6411      .0586    76.0235  -999.2500     1.8622   399.3245
 1120.6460    19.1954      .0659    75.3795  -999.2500     1.8410   518.0021
 1120.7984    19.7377      .0489    73.6970  -999.2500     1.8292   501.8664
 1120.9508    20.1684      .0668    72.5688  -999.2500     1.8825   464.8237
 1121.1032    19.7874      .0649    71.2553  -999.2500     1.8857   478.2348
 1121.2556    19.9922      .0737    69.5070  -999.2500     1.9256   450.9001
 1121.4080    19.1528      .0577    67.7542  -999.2500     1.8927   493.2542
 1121.5604    20.2142      .0825    67.8748  -999.2500     1.8760   495.0656
 1121.7128    20.5765      .0806    65.3750  -999.2500     1.8291   426.4770
 1121.8652    20.6046      .0547    62.1875  -999.2500     1.7402   496.7073
 1122.0176    21.5562      .0686    64.3388  -999.2500     1.8017   472.2834
 1122.1700    19.0511      .0717    66.6733  -999.2500     1.8868   515.1044
 1122.3224    19.5155      .0592    67.5228  -999.2500     1.9156   439.2817
 1122.4748    20.6602      .1120    66.9194  -999.2500     1.9745   534.4521
 1122.6272    19.0522      .0718    42.4690  -999.2500     1.9561   414.1015
