~VERSION INFORMATION
VERS.                                                 2.0:   CWLS Log ASCII Standard-VERSION 2.0
WRAP.                                                  NO:   One line per depth step
~Well Information Block
STRT.M                                           393.6980:   Top Depth
STOP.M                                          3949.6472:   Bottom Depth
STEP.M                                             .15240:   Depth Increment
NULL.                                            -999.250:   Null Value
FLD .                                         EXPLORATION:   Field Name
WELL.                                              15/9-6:   NAME
WBN .                                              15/9-6:   WELLBORE
NATI.                                                 NOR:   COUNTRY
BHT1.DEGF                                            70.0:   BH TEMP 1
BHT2.DEGF                                           160.0:   BH TEMP 2
BHT3.DEGF                                           225.0:   BH TEMP 3
BS1 .IN                                             17.50:   BIT SIZE 1
CTRY.                                                 NOR:   COUNTRY
CBD1.M                                              186.0:   CSG 1 DRILL DEP
CBL1.M                                              186.0:   CSG 1 LOG DEP
CS1 .IN                                              30.0:   CSG 1 SIZE
COMP.                                             STATOIL:   OPERATOR
PDAT.                                                 MSL:   PERM DATUM
PROV.                                                   ?:   PROVINCE
COUN.                                            NORSKALD:   RIG NAME
SPUD.                                                 N/A:   SPUD DATE
LATI.                                       58 27 13.50 N:   SURF. LATITUDE
LONG.                                        1 41 31.40 E:   SURF. LONGITUDE
BTD1.                                             465.0 M:   TOTAL DEPTH 1
BTD2.                                            2776.0 M:   TOTAL DEPTH 2
BTD3.                                            3946.0 M:   TOTAL DEPTH 3
PBWE.                                              15/9-6:   PB WELL ID
APIN.                                              15/9-6:   PB WELLBORE ID
PBWS.                                                 all:   PB WELL NAME SET
~PARAMETER INFORMATION (log)
LNAM.                              FDC/CNL/GR  COMPOSITED:   NAME
LTYP.                                         DEPTH MATCH:   LOG TYPE
LSRV.                                            DEN/NEUT:   LOG SERVICE
LSOU.                                             SPT/NPD:   LOG SOURCE
LVSN.                                                   1:   LOG VERSION
BHIS.                                                   R:   BRIEF HISTORY
FHIS.                                             RAW-LIS:   FULL HISTORY
TOOL.                             FDC/CNL/GR (COMPOSITED):   TOOL STRING
~Curve Information Block
#MNEM.UNIT                                        API CODE    No Description
#=========                                        ========    == ===========
DEPT.M                                       00 001 00 00:     1  DEPTH
CALI.IN                                                  :     2  Caliper
DRHO.G/CC                                                :     3  Bulk density correction
GR.GAPI                                                  :     4  Gamma Ray
NPHI.%                                                   :     5  Neutron porosity
RHOB.G/CC                                                :     6  Bulk density
TENS.LB                                                  :     7  Cable Tension
~ASCII
# ...
 2993.0324    11.4531      .0151    35.7061    18.3840     2.6016   707.9968
 2993.1848    11.4531      .0176    39.4458    18.4815     2.6016   681.3180
 2993.3372    11.4766      .0217    40.8605    18.2613     2.6074   667.8137
 2993.4896    11.5000      .0244    41.0786    18.1645     2.6064   649.8466
 2993.6420    11.5000      .0230    41.6674    19.0943     2.5947   622.1279
 2993.7944    11.5000      .0203    43.3680    20.4609     2.5908   533.9315
 2993.9468    11.5274      .0308    42.8772    21.1916     2.6026   463.7014
 2994.0992    11.5547      .0398    38.7924    20.8725     2.6270   618.3969
 2994.2516    11.5273      .0236    35.8002    19.7978     2.6367   966.9497
 2994.4040    11.5000      .0112    33.5416    18.8221     2.6211  1052.2312
 2994.5564    11.5000      .0088    33.1295    18.1141     2.6152   993.2334
 2994.7088    11.5000      .0059    32.1329    18.0180     2.6123   898.3475
 2994.8612    11.5000      .0044    32.1583    18.0903     2.5976   810.8857
 2995.0136    11.5000      .0007    32.6717    18.1893     2.5918   745.7950
 2995.1660    11.5000     -.0073    33.4706    18.8979     2.5810   699.5391
 2995.3184    11.5000     -.0112    34.2861    19.8005     2.5654   665.0424
 2995.4708    11.5274     -.0088    37.4879    20.2147     2.5625   661.6771
 2995.6232    11.5547      .0017    39.4413    20.6069     2.5635   655.1293
 2995.7756    11.5547      .0103    39.5676    21.1919     2.5645   627.7734
 2995.9280    11.5547      .0142    40.4177    21.2890     2.5693   587.4703
 2996.0804    11.5547      .0171    40.4657    21.2402     2.5830   525.8451
 2996.2328    11.5547      .0151    39.1814    21.0688     2.5820   582.0903
 2996.3852    11.6291      .0112    38.9348    20.8005     2.5664   999.3120
 2996.5376    11.7031      .0054    38.8021    20.4827     2.5547  1106.6531
 2996.6900    11.7031      .0024    39.5350    19.8724     2.5557  1032.7920
 2996.8424    11.7031     -.0003    39.5372    19.1885     2.5566   965.5583
 2996.9948    11.7031     -.0022    37.5385    18.5536     2.5567   902.5142
 2997.1472    11.7031     -.0027    35.7481    18.3598     2.5615   819.8129
 2997.2996    11.7031      .0003    34.2557    18.8971     2.5576   723.9460
 2997.4520    11.7031      .0064    32.7958    19.7770     2.5468   690.0073
 2997.6044    11.7266      .0027    33.5923    20.6800     2.5371   685.2029
 2997.7568    11.7500      .0032    33.1499    22.0490     2.5205   605.6711
 2997.9092    11.7735      .0164    32.3068    24.4408     2.4853   520.1735
 2998.0616    12.3181      .0359    32.2100    27.6179     2.4590   685.2480
 2998.2140    12.1933      .0312    31.6083    29.2967     2.4913   953.3190
 2998.3664    11.5273      .0151    30.6524    28.3908     2.5362   929.8364
 2998.5188    11.5000      .0156    31.6944    26.4859     2.5479   818.9424
 2998.6712    11.5000      .0132    33.2720    23.5810     2.5469   743.4613
 2998.8236    11.4765      .0063    34.0085    20.8468     2.5430   707.2947
 2998.9760    11.4531      .0034    33.6865    19.2359     2.5341   655.8945
 2999.1284    11.4531      .0125    33.4179    17.9425     2.5215   586.6621
 2999.2808    11.4531      .0264    33.4204    17.2361     2.5146   586.2451
 2999.4332    11.4022      .0197    32.5298    16.6490     2.5147   820.2229
 2999.5856    11.3516      .0017    32.2346    15.6721     2.5166   975.6310
 2999.7380    11.3516     -.0002    31.8402    14.1815     2.5186   920.7263
 2999.8904    11.3516      .0064    31.6442    13.2080     2.5342   845.0485
 3000.0428    11.3516      .0127    31.2499    13.3550     2.5537   769.3705
 3000.1952    11.3516      .0161    30.3268    13.8683     2.5645   675.8207
 3000.3476    11.3516      .0132    30.2641    14.1600     2.5537   668.7404
 3000.5000    11.3516      .0022    30.2673    13.9644     2.5371   695.4940
 3000.6524    11.3516     -.0039    32.2143    13.5494     2.5254   685.9634
 3000.8048    11.3516      .0012    33.2310    13.3547     2.5235   596.4458
 3000.9572    11.3516      .0073    33.5510    13.7216     2.5371   510.1539
 3001.1096    11.3516      .0154    33.4550    14.3321     2.5361   716.5533
 3001.2620    11.3281      .0396    32.2675    14.9174     2.5371  1082.1306
 3001.4144    11.3047      .0811    32.3013    15.5039     2.5655  1046.6533
 3001.5668    11.3047      .1006    33.0947    16.1877     2.5928   977.2491
 3001.7192    11.3047      .0849    33.6664    16.8956     2.5996   933.1711
 3001.8716    11.3047      .0708    34.0666    17.0896     2.5830   860.0411
 3002.0240    11.3047      .0603    34.4668    16.6005     2.5752   751.4729
 3002.1764    11.3047      .0363    34.2944    16.0148     2.5771   646.2327
 3002.3288    11.3047      .0144    33.5906    16.0654     2.5703   763.4637
 3002.4812    11.3047      .0044    33.0966    16.3329     2.5713   863.0347
 3002.6336    11.3047     -.0000    32.9014    16.1863     2.5654   805.3782
 3002.7860    11.3047     -.0022    33.2768    15.9910     2.5566   732.4855
 3002.9384    11.3047     -.0049    33.8908    15.7955     2.5566   672.6200
 3003.0908    11.3047     -.0022    33.6955    15.7228     2.5508   737.5778
 3003.2432    11.3047      .0020    37.4590    15.8204     2.5557   694.7787
 3003.3956    11.3047      .0024    37.1760    15.9181     2.5674   628.9512
 3003.5480    11.3047      .0015    36.3939    16.2852     2.5635   595.3804
 3003.7004    11.3047     -.0032    36.1900    16.6016     2.5517   459.4464
 3003.8528    11.3047     -.0032    35.4049    16.6260     2.5332   372.0722
 3004.0052    11.3047     -.0012    35.7996    16.3565     2.5058   508.2483
 3004.1576    11.3282     -.0044    35.3046    15.7705     2.4873  1497.5000
 3004.3100    11.3516     -.0073    34.2178    15.2336     2.4903  1510.3555
 3004.4624    11.3280     -.0073    34.3241    15.0392     2.5020  1455.7849
 3004.6148    11.3047     -.0049    36.2156    15.2835     2.5166  1386.0293
 3004.7672    11.3047     -.0083    37.3148    15.9684     2.5166  1312.8472
 3004.9196    11.3047     -.0127    37.9042    16.5041     2.5088  1236.8877
 3005.0720    11.3047     -.0046    37.1992    16.8956     2.5245  1153.6494
 3005.2244    11.3047      .0015    37.3085    17.0896     2.5352  1068.5757
 3005.3768    11.3047      .0044    36.0123    16.8944     2.5479   985.7050
 3005.5292    11.3047      .0093    35.2281    16.4783     2.5664   909.0135
 3005.6816    11.3047      .0088    33.9234    15.8194     2.5791   840.4757
 3005.8340    11.3047      .0088    32.6701    15.1361     2.5898   805.9641
 3005.9864    11.3047      .0103    32.5444    14.7216     2.5879   670.8621
 3006.1388    11.3047      .0112    30.9607    14.9422     2.6006   791.1895
 3006.2912    11.3047      .0117    30.9725    15.0141     2.6064   733.6089
 3006.4436    11.3047      .0117    30.3798    14.7213     2.5947   759.9469
 3006.5960    11.3047      .0159    30.3934    14.6974     2.5879   662.1721
 3006.7484    11.3047      .0178    30.1712    14.7459     2.5840   691.4199
 3006.9008    11.3047      .0112    29.4334    14.9177     2.5771   789.0088
 3007.0532    11.3282      .0068    30.8975    15.2102     2.5576   795.7382
 3007.2056    11.3281      .0169    31.4833    15.5277     2.5381   827.7205
 3007.3580    11.3282      .0374    30.6747    15.9184     2.5361   803.8815
 3007.5104    11.3516      .0417    30.9862    16.1379     2.5596   738.2196
 3007.6628    11.3516      .0327    30.6738    16.3824     2.5811   638.9977
 3007.8152    11.3516      .0278    30.6907    16.7728     2.5899   723.4323
 3007.9676    11.3790      .0173    31.5145    16.8452     2.5898   871.9078
 3008.1200    11.4063      .0103    31.0000    16.6012     2.5791   909.7107
 3008.2724    11.4063      .0088    30.3078    16.8223     2.5762   832.3425
 3008.4248    11.4063      .0083    30.4313    17.1877     2.5576   748.0546
 3008.5772    11.4063      .0132    29.2424    17.4809     2.5283   641.5958
 3008.7296    11.4063      .0112    28.1528    17.7246     2.5244   591.6143
