~VERSION INFORMATION
VERS.                                                 2.0:   CWLS Log ASCII Standard-VERSION 2.0
WRAP.                                                  NO:   One line per depth step
~Well Information Block
STRT.M                                           393.6980:   Top Depth
STOP.M                                          3949.6472:   Bottom Depth
STEP.M                                             .15240:   Depth Increment
NULL.                                            -999.250:   Null Value
FLD .                                         EXPLORATION:   Field Name
WELL.                                              15/9-6:   NAME
WBN .                                              15/9-6:   WELLBORE
NATI.                                                 NOR:   COUNTRY
BHT1.DEGF                                            70.0:   BH TEMP 1
BHT2.DEGF                                           160.0:   BH TEMP 2
BHT3.DEGF                                           225.0:   BH TEMP 3
BS1 .IN                                             17.50:   BIT SIZE 1
CTRY.                                                 NOR:   COUNTRY
CBD1.M                                              186.0:   CSG 1 DRILL DEP
CBL1.M                                              186.0:   CSG 1 LOG DEP
CS1 .IN                                              30.0:   CSG 1 SIZE
COMP.                                             STATOIL:   OPERATOR
PDAT.                                                 MSL:   PERM DATUM
PROV.                                                   ?:   PROVINCE
COUN.                                            NORSKALD:   RIG NAME
SPUD.                                                 N/A:   SPUD DATE
LATI.                                       58 27 13.50 N:   SURF. LATITUDE
LONG.                                        1 41 31.40 E:   SURF. LONGITUDE
BTD1.                                             465.0 M:   TOTAL DEPTH 1
BTD2.                                            2776.0 M:   TOTAL DEPTH 2
BTD3.                                            3946.0 M:   TOTAL DEPTH 3
PBWE.                                              15/9-6:   PB WELL ID
APIN.                                              15/9-6:   PB WELLBORE ID
PBWS.                                                 all:   PB WELL NAME SET
~PARAMETER INFORMATION (log)
LNAM.                              FDC/CNL/GR  COMPOSITED:   NAME
LTYP.                                         DEPTH MATCH:   LOG TYPE
LSRV.                                            DEN/NEUT:   LOG SERVICE
LSOU.                                             SPT/NPD:   LOG SOURCE
LVSN.                                                   1:   LOG VERSION
BHIS.                                                   R:   BRIEF HISTORY
FHIS.                                             RAW-LIS:   FULL HISTORY
TOOL.                             FDC/CNL/GR (COMPOSITED):   TOOL STRING
~Curve Information Block
#MNEM.UNIT                                        API CODE    No Description
#=========                                        ========    == ===========
DEPT.M                                       00 001 00 00:     1  DEPTH
CALI.IN                                                  :     2  Caliper
DRHO.G/CC                                                :     3  Bulk density correction
GR.GAPI                                                  :     4  Gamma Ray
NPHI.%                                                   :     5  Neutron porosity
RHOB.G/CC                                                :     6  Bulk density
TENS.LB                                                  :     7  Cable Tension
~ASCII
# ...
 1328.8244    14.7258      .0065    71.5860  -999.2500     1.9558   303.3175
 1328.9768    14.5077      .0146    71.7446  -999.2500     1.9568   302.5655
 1329.1292    14.4907      .0279    70.6386  -999.2500     1.9629   280.7500
 1329.2816    14.4400      .0272    70.2712  -999.2500     1.9521   257.2982
 1329.4340    14.4571      .0163    71.4486  -999.2500     1.9339   245.7325
 1329.5864    14.4739      .0109    71.0403  -999.2500     1.9221   259.0861
 1329.7388    14.4739      .0075    67.5128  -999.2500     1.9178   294.6042
 1329.8912    14.5416      .0013    64.3310  -999.2500     1.9157   322.5635
 1330.0436    14.5413     -.0031    63.8329  -999.2500     1.9110   313.1484
 1330.1960    14.5245      .0014    64.6721  -999.2500     1.9144   274.9783
 1330.3484    14.5923      .0075    64.1990  -999.2500     1.9164   245.8879
 1330.5008    14.5920      .0160    64.7402  -999.2500     1.9168   241.9601
 1330.6532    14.6091      .0194    66.0812  -999.2500     1.9076   258.7963
 1330.8056    14.6259      .0132    68.2640  -999.2500     1.8921   281.7727
 1330.9580    14.6597      .0088    68.7949  -999.2500     1.8814   296.3389
 1331.1104    14.5410      .0048    65.8701  -999.2500     1.8760   298.5044
 1331.2628    14.5077      .0003    64.3683  -999.2500     1.8726   289.5931
 1331.4152    14.8294      .0031    66.1177  -999.2500     1.8804   275.1650
 1331.5676    14.7097      .0106    68.2284  -999.2500     1.8976   259.7419
 1331.7200    14.5752      .0174    68.6274  -999.2500     1.9181   248.0692
 1331.8724    14.5752      .0194    68.5946  -999.2500     1.9279   243.6431
 1332.0248    14.5752      .0139    69.3676  -999.2500     1.9198   246.1527
 1332.1772    14.6429      .0119    68.9276  -999.2500     1.9158   250.4397
 1332.3296    14.6088      .0109    67.9222  -999.2500     1.9188   253.3146
 1332.4820    14.4736      .0102    65.8730  -999.2500     1.9201   262.6096
 1332.6344    14.6264      .0129    65.3420  -999.2500     1.9168   281.0632
 1332.7868    14.6933      .0150    65.3071  -999.2500     1.9110   299.1287
 1332.9392    14.8120      .0153    64.6019  -999.2500     1.9036   310.5560
 1333.0916    14.6760      .0160    64.1670  -999.2500     1.8996   311.4435
 1333.2440    14.6429      .0231    64.5710  -999.2500     1.9057   298.9136
 1333.3964    14.6427      .0340    64.5355  -999.2500     1.9198   278.8086
 1333.5488    14.5243      .0282    65.0745  -999.2500     1.9171   257.2034
 1333.7012    14.6094      .0160    63.4576  -999.2500     1.9050   242.3899
 1333.8536    14.6427      .0218    64.1714  -999.2500     1.9111   247.3995
 1334.0060    14.6259      .0238    67.6281  -999.2500     1.9168   279.2329
 1334.1584    14.5920      .0183    69.8043  -999.2500     1.9130   315.2182
 1334.3108    14.5752      .0156    69.4310  -999.2500     1.9137   315.5774
 1334.4632    14.6091      .0221    69.5013  -999.2500     1.9239   286.7079
 1334.6156    14.6597      .0248    70.4744  -999.2500     1.9269   274.0611
 1334.7680    14.5410      .0170    71.3797  -999.2500     1.9188   288.0201
 1334.9204    14.6093      .0180    72.4533  -999.2500     1.9191   301.7975
 1335.0728    14.7781      .0177    72.3157  -999.2500     1.9191   298.8076
 1335.2252    14.6931      .0115    73.4609  -999.2500     1.9161   283.1479
 1335.3776    14.7275      .0126    75.7089  -999.2500     1.9212   266.6389
 1335.5300    14.6763      .0184    76.8122  -999.2500     1.9248   260.6638
 1335.6824    14.5920      .0272    74.9611  -999.2500     1.9279   266.1226
 1335.8348    14.5752      .0251    72.3469  -999.2500     1.9252   271.7252
 1335.9872    14.5752      .0184    71.4114  -999.2500     1.9144   271.6158
 1336.1396    14.6091      .0150    72.6226  -999.2500     1.9100   268.2908
 1336.2920    14.6936      .0129    72.5167  -999.2500     1.9026   264.0220
 1336.4444    14.6933      .0136    71.5441  -999.2500     1.9057   257.6512
 1336.5968    14.6088      .0122    70.7061  -999.2500     1.9110   249.0900
 1336.7492    14.5752      .0105    70.7081  -999.2500     1.9154   248.0207
 1336.9016    14.5413      .0102    70.0347  -999.2500     1.9178   261.2916
 1337.0540    14.5584      .0061    69.9032  -999.2500     1.9147   282.9693
 1337.2064    14.6091      .0020    72.5916  -999.2500     1.9043   301.0854
 1337.3588    14.6259      .0017    72.3802  -999.2500     1.8898   306.9976
 1337.5112    14.6936      .0048    70.8396  -999.2500     1.8908   303.1703
 1337.6636    14.6933      .0136    71.0444  -999.2500     1.9080   295.3691
 1337.8160    14.7104      .0201    70.5378  -999.2500     1.9259   286.5453
 1337.9684    14.8288      .0173    70.2717  -999.2500     1.9319   276.8785
 1338.1208    14.9131      .0146    69.1277  -999.2500     1.9417   266.3275
 1338.2732    14.8621      .0136    68.2584  -999.2500     1.9592   259.1016
 1338.4256    14.6592      .0174    70.0083  -999.2500     1.9879   260.9113
 1338.5780    14.6768      .0194    70.8077  -999.2500     2.0023   278.3585
 1338.7304    14.6595      .0221    72.4898  -999.2500     2.0080   300.7133
 1338.8828    14.7274      .0214    74.9034  -999.2500     2.0121   308.6458
 1339.0352    14.8456      .0122    74.8639  -999.2500     1.9996   303.6884
 1339.1876    14.8115      .0109    74.7326  -999.2500     1.9881   288.8673
 1339.3400    14.7101      .0088    73.9244  -999.2500     1.9730   265.9036
 1339.4924    14.6765      .0078    71.1714  -999.2500     1.9612   252.2142
 1339.6448    14.9475      .0048    67.8169  -999.2500     1.9531   258.6711
 1339.7972    14.8787      .0078    68.5317  -999.2500     1.9518   276.0644
 1339.9496    14.8794      .0170    70.5087  -999.2500     1.9612   292.1268
 1340.1020    14.7944      .0197    70.9082  -999.2500     1.9669   298.0830
 1340.2544    14.6933      .0201    68.9589  -999.2500     1.9669   294.2881
 1340.4068    14.7781      .0156    68.8315  -999.2500     1.9632   285.1866
 1340.5592    14.9301      .0071    69.4334  -999.2500     1.9595   269.0593
 1340.7116    14.9805     -.0000    70.4752  -999.2500     1.9592   248.9319
 1340.8640    14.8112      .0061    71.8162  -999.2500     1.9683   238.7904
 1341.0164    14.6933      .0088    71.9811  -999.2500     1.9693   246.0042
 1341.1688    14.9135      .0122    74.2010  -999.2500     1.9663   262.5103
 1341.3212    14.8957      .0136    75.5710  -999.2500     1.9582   275.1271
 1341.4736    14.8624      .0105    75.2004  -999.2500     1.9477   280.4553
 1341.6260    14.8453      .0092    74.6977  -999.2500     1.9437   284.1905
 1341.7784    14.7608      .0126    72.8833  -999.2500     1.9461   284.5217
 1341.9308    14.7949      .0156    68.5525  -999.2500     1.9434   280.8218
 1342.0832    14.7608      .0197    68.5658  -999.2500     1.9339   276.8803
 1342.2356    14.7949      .0241    70.1053  -999.2500     1.9215   268.7637
 1342.3880    15.0656      .0289    70.2373  -999.2500     1.9144   255.8525
 1342.5404    15.2170      .0320    69.9355  -999.2500     1.9252   244.3698
 1342.6928    14.9629      .0285    68.9609  -999.2500     1.9360   244.1172
 1342.8452    14.9640      .0245    69.5359  -999.2500     1.9403   257.6883
 1342.9976    15.1667      .0201    68.2204  -999.2500     1.9420   276.3132
 1343.1500    14.9630      .0136    67.2527  -999.2500     1.9376   293.3502
 1343.3024    14.7947      .0133    66.2104  -999.2500     1.9393   301.9032
 1343.4548    14.8456      .0129    66.6515  -999.2500     1.9278   295.7455
 1343.6072    14.8792      .0177    67.9259  -999.2500     1.9205   279.0380
 1343.7596    14.7438      .0163    69.8054  -999.2500     1.9208   261.4143
 1343.9120    14.9474      .0102    71.4810  -999.2500     1.9279   252.5016
 1344.0644    15.0480      .0082    70.0649  -999.2500     1.9346   261.5021
 1344.2168    14.8958      .0088    70.2741  -999.2500     1.9309   290.2356
 1344.3692    14.8285      .0085    72.9267  -999.2500     1.9154   318.9568
 1344.5216    14.8285      .0088    74.4313  -999.2500     1.9070   327.4482
