~VERSION INFORMATION
VERS.                                                 2.0:   CWLS Log ASCII Standard-VERSION 2.0
WRAP.                                                  NO:   One line per depth step
~Well Information Block
STRT.M                                           393.6980:   Top Depth
STOP.M                                          3949.6472:   Bottom Depth
STEP.M                                             .15240:   Depth Increment
NULL.                                            -999.250:   Null Value
FLD .                                         EXPLORATION:   Field Name
WELL.                                              15/9-6:   NAME
WBN .                                              15/9-6:   WELLBORE
NATI.                                                 NOR:   COUNTRY
BHT1.DEGF                                            70.0:   BH TEMP 1
BHT2.DEGF                                           160.0:   BH TEMP 2
BHT3.DEGF                                           225.0:   BH TEMP 3
BS1 .IN                                             17.50:   BIT SIZE 1
CTRY.                                                 NOR:   COUNTRY
CBD1.M                                              186.0:   CSG 1 DRILL DEP
CBL1.M                                              186.0:   CSG 1 LOG DEP
CS1 .IN                                              30.0:   CSG 1 SIZE
COMP.                                             STATOIL:   OPERATOR
PDAT.                                                 MSL:   PERM DATUM
PROV.                                                   ?:   PROVINCE
COUN.                                            NORSKALD:   RIG NAME
SPUD.                                                 N/A:   SPUD DATE
LATI.                                       58 27 13.50 N:   SURF. LATITUDE
LONG.                                        1 41 31.40 E:   SURF. LONGITUDE
BTD1.                                             465.0 M:   TOTAL DEPTH 1
BTD2.                                            2776.0 M:   TOTAL DEPTH 2
BTD3.                                            3946.0 M:   TOTAL DEPTH 3
PBWE.                                              15/9-6:   PB WELL ID
APIN.                                              15/9-6:   PB WELLBORE ID
PBWS.                                                 all:   PB WELL NAME SET
~PARAMETER INFORMATION (log)
LNAM.                              FDC/CNL/GR  COMPOSITED:   NAME
LTYP.                                         DEPTH MATCH:   LOG TYPE
LSRV.                                            DEN/NEUT:   LOG SERVICE
LSOU.                                             SPT/NPD:   LOG SOURCE
LVSN.                                                   1:   LOG VERSION
BHIS.                                                   R:   BRIEF HISTORY
FHIS.                                             RAW-LIS:   FULL HISTORY
TOOL.                             FDC/CNL/GR (COMPOSITED):   TOOL STRING
~Curve Information Block
#MNEM.UNIT                                        API CODE    No Description
#=========                                        ========    == ===========
DEPT.M                                       00 001 00 00:     1  DEPTH
CALI.IN                                                  :     2  Caliper
DRHO.G/CC                                                :     3  Bulk density correction
GR.GAPI                                                  :     4  Gamma Ray
NPHI.%                                                   :     5  Neutron porosity
RHOB.G/CC                                                :     6  Bulk density
TENS.LB                                                  :     7  Cable Tension
~ASCII
# ...
  869.1860    17.5995      .0456    40.1573  -999.2500     1.9691   171.9812
  869.3384    17.5045      .0321    36.3941  -999.2500     1.9769   168.8972
  869.4908    17.5299      .0390    34.7451  -999.2500     2.0039   181.8083
  869.6432    17.5894      .0317    32.5074  -999.2500     2.0058   175.5504
  869.7956    17.7112      .0308    32.0562  -999.2500     2.0056   182.6244
  869.9480    18.2820      .0272    33.7147  -999.2500     1.9980   152.0368
  870.1004    18.7238      .0390    34.8539  -999.2500     2.0052   208.2599
  870.2528    17.8308      .0563    35.2291  -999.2500     2.0195   165.9551
  870.4052    17.5635      .0640    36.6594  -999.2500     2.0358   191.9129
  870.5576    17.6523      .0685    39.4324  -999.2500     2.0593   182.1124
  870.7100    17.7075      .0598    42.1976  -999.2500     2.0663   181.7786
  870.8624    17.6169      .0472    43.9741  -999.2500     2.0501   192.1373
  871.0148    17.5115      .0608    41.1864  -999.2500     2.0417   171.3189
  871.1672    17.4893      .0676    35.4855  -999.2500     2.0330   188.0518
  871.3196    17.3968      .0520    32.8104  -999.2500     2.0137   176.0082
  871.4720    17.2902      .0488    35.1668  -999.2500     2.0117   177.8104
  871.6244    17.2310      .0430    36.7519  -999.2500     2.0038   193.0066
  871.7768    17.2278      .0307    36.4978  -999.2500     1.9981   196.0342
  871.9292    17.2856      .0275    35.8569  -999.2500     2.0026   187.7383
  872.0816    17.4103      .0239    35.8265  -999.2500     2.0059   187.3640
  872.2340    17.4759      .0303    35.8049  -999.2500     2.0036   172.9344
  872.3864    17.3691      .0570    35.7194  -999.2500     1.9871   163.5724
  872.5388    17.2234      .0675    34.0724  -999.2500     1.9673   186.4189
  872.6912    17.2350      .0432    33.0722  -999.2500     1.9489   192.0722
  872.8436    17.2348      .0303    33.1511  -999.2500     1.9640   191.9522
  872.9960    17.2414      .0262    34.4540  -999.2500     1.9903   197.2738
  873.1484    17.3761      .0317    36.1697  -999.2500     1.9964   160.9690
  873.3008    17.8539      .0363    37.5025  -999.2500     1.9973   175.6389
  873.4532    18.8074      .0349    38.2532  -999.2500     1.9808   208.7985
  873.6056    19.3175      .0645    42.5096  -999.2500     1.9727   159.3004
  873.7580    18.7035      .0825    46.7358  -999.2500     1.9681   220.0540
  873.9104    18.4915      .0647    48.1689  -999.2500     1.9801   182.5926
  874.0628    18.5618      .0770    49.2992  -999.2500     2.0312   181.3963
  874.2152    18.8169      .0649    50.8523  -999.2500     2.0430   216.9209
  874.3676    18.7054      .0481    51.3568  -999.2500     2.0060   196.8944
  874.5200    17.8108      .0454    50.2321  -999.2500     1.9914   182.3533
  874.6724    17.5286      .0467    48.1445  -999.2500     1.9840   191.6948
  874.8248    17.3827      .0325    45.0808  -999.2500     1.9645   171.6636
  874.9772    17.3150      .0570    42.6324  -999.2500     1.9722   184.9069
  875.1296    17.3173      .0690    40.9101  -999.2500     1.9903   158.1206
  875.2820    17.3424      .0656    39.6287  -999.2500     1.9971   168.4559
  875.4344    17.3425      .0596    39.6174  -999.2500     1.9949   171.7621
  875.5868    17.3418      .0475    39.2658  -999.2500     1.9857   175.4972
  875.7392    17.3339      .0506    39.7790  -999.2500     1.9876   179.2357
  875.8916    17.3170      .0585    41.0928  -999.2500     2.0011   158.9108
  876.0440    17.3352      .0508    40.0258  -999.2500     1.9924   178.8433
  876.1964    17.3188      .0640    37.7985  -999.2500     2.0005   157.3755
  876.3488    17.2017      .0750    37.0665  -999.2500     2.0164   166.4303
  876.5012    17.1649      .0658    38.9528  -999.2500     2.0153   218.5669
  876.6536    17.4572      .0492    40.5724  -999.2500     2.0057   184.6148
  876.8060    18.1266      .0304    40.8836  -999.2500     1.9841   246.7308
  876.9584    18.4443      .0261    38.9011  -999.2500     1.9569   162.4121
  877.1108    18.5159      .0389    39.3306  -999.2500     1.9368   177.6795
  877.2632    18.2394      .0437    42.1963  -999.2500     1.9176   179.3189
  877.4156    17.7722      .0364    44.8750  -999.2500     1.9154   179.2531
  877.5680    17.5540      .0372    45.3505  -999.2500     1.9365   191.1268
  877.7204    17.5026      .0381    48.0138  -999.2500     1.9572   215.3569
  877.8728    17.4883      .0411    52.7174  -999.2500     1.9753   197.1077
  878.0252    17.4499      .0451    55.2275  -999.2500     1.9799   180.5095
  878.1776    17.4108      .0569    54.2852  -999.2500     1.9820   178.9256
  878.3300    17.3798      .0576    51.1737  -999.2500     1.9720   178.8604
  878.4824    17.3406      .0331    47.3003  -999.2500     1.9469   178.7950
  878.6348    17.2889      .0328    45.6956  -999.2500     1.9550   183.2013
  878.7872    17.2374      .0508    44.4073  -999.2500     1.9803   201.7190
  878.9396    17.2190      .0414    42.9744  -999.2500     1.9719   167.2748
  879.0920    17.2670      .0363    42.4252  -999.2500     1.9647   218.0890
  879.2444    17.5797      .0497    43.1422  -999.2500     1.9750   161.8873
  879.3968    18.0265      .0580    44.5737  -999.2500     1.9879   227.9839
  879.5492    17.8411      .0576    44.7999  -999.2500     1.9967   187.0976
  879.7016    17.3704      .0558    43.5982  -999.2500     1.9968   178.2707
  879.8540    17.2714      .0492    42.1104  -999.2500     1.9901   180.9044
  880.0064    17.2567      .0482    40.9106  -999.2500     1.9904   190.9811
  880.1588    17.2202      .0467    41.7673  -999.2500     1.9917   201.3244
  880.3112    17.1698      .0475    42.4940  -999.2500     1.9919   199.8020
  880.4636    17.1278      .0513    42.5305  -999.2500     1.9877   191.2377
  880.6160    17.1146      .0615    43.8708  -999.2500     1.9972   184.4152
  880.7684    17.1252      .0643    43.4802  -999.2500     2.0122   178.9926
  880.9208    17.1368      .0553    43.0576  -999.2500     2.0059   185.5865
  881.0732    17.1547      .0511    42.7577  -999.2500     1.9926   200.0985
  881.2256    17.1726      .0608    42.9727  -999.2500     2.0050   197.5437
  881.3780    17.1657      .0611    43.1199  -999.2500     2.0157   179.0562
  881.5304    17.1804      .0501    42.0811  -999.2500     2.0033   195.6224
  881.6828    17.4175      .0511    41.0850  -999.2500     1.9967   183.6540
  881.8352    17.8180      .0581    40.6479  -999.2500     2.0027   224.4298
  881.9876    17.7806      .0561    40.0772  -999.2500     2.0076   185.0211
  882.1400    17.3524      .0534    40.2250  -999.2500     2.0061   178.1807
  882.2924    17.1709      .0600    42.2274  -999.2500     2.0117   202.2542
  882.4448    17.1650      .0564    43.0411  -999.2500     2.0092   183.3557
  882.5972    17.1486      .0504    42.5000  -999.2500     2.0013   172.7343
  882.7496    17.1318      .0536    41.6497  -999.2500     1.9922   205.6455
  882.9020    17.1204      .0552    39.0981  -999.2500     1.9836   201.3969
  883.0544    17.1117      .0463    36.7839  -999.2500     1.9725   189.0793
  883.2068    17.1047      .0329    36.8386  -999.2500     1.9565   202.4910
  883.3592    17.0982      .0268    37.4986  -999.2500     1.9516   210.4956
  883.5116    17.1083      .0443    38.6529  -999.2500     1.9758   179.6902
  883.6640    17.1394      .0620    39.4398  -999.2500     1.9990   173.2964
  883.8164    17.1605      .0635    39.4379  -999.2500     2.0005   201.7593
  883.9688    17.1707      .0606    38.6280  -999.2500     1.9948   187.8011
  884.1212    17.1857      .0568    37.8931  -999.2500     1.9932   202.9337
  884.2736    17.2143      .0606    40.4705  -999.2500     2.0039   205.7359
  884.4260    17.2549      .0699    40.9456  -999.2500     2.0219   193.8816
  884.5784    17.3006      .0746    39.1394  -999.2500     2.0256   198.8518
  884.7308    17.3388      .0694    38.7292  -999.2500     2.0226   172.5833
  884.8832    17.3586      .0537    38.3768  -999.2500     2.0128   202.6675
