~VERSION INFORMATION
VERS.                                                 2.0:   CWLS Log ASCII Standard-VERSION 2.0
WRAP.                                                  NO:   One line per depth step
~Well Information Block
STRT.M                                           393.6980:   Top Depth
STOP.M                                          3949.6472:   Bottom Depth
STEP.M                                             .15240:   Depth Increment
NULL.                                            -999.250:   Null Value
FLD .                                         EXPLORATION:   Field Name
WELL.                                              15/9-6:   NAME
WBN .                                              15/9-6:   WELLBORE
NATI.                                                 NOR:   COUNTRY
BHT1.DEGF                                            70.0:   BH TEMP 1
BHT2.DEGF                                           160.0:   BH TEMP 2
BHT3.DEGF                                           225.0:   BH TEMP 3
BS1 .IN                                             17.50:   BIT SIZE 1
CTRY.                                                 NOR:   COUNTRY
CBD1.M                                              186.0:   CSG 1 DRILL DEP
CBL1.M                                              186.0:   CSG 1 LOG DEP
CS1 .IN                                              30.0:   CSG 1 SIZE
COMP.                                             STATOIL:   OPERATOR
PDAT.                                                 MSL:   PERM DATUM
PROV.                                                   ?:   PROVINCE
COUN.                                            NORSKALD:   RIG NAME
SPUD.                                                 N/A:   SPUD DATE
LATI.                                       58 27 13.50 N:   SURF. LATITUDE
LONG.                                        1 41 31.40 E:   SURF. LONGITUDE
BTD1.                                             465.0 M:   TOTAL DEPTH 1
BTD2.                                            2776.0 M:   TOTAL DEPTH 2
BTD3.                                            3946.0 M:   TOTAL DEPTH 3
PBWE.                                              15/9-6:   PB WELL ID
APIN.                                              15/9-6:   PB WELLBORE ID
PBWS.                                                 all:   PB WELL NAME SET
~PARAMETER INFORMATION (log)
LNAM.                              FDC/CNL/GR  COMPOSITED:   NAME
LTYP.                                         DEPTH MATCH:   LOG TYPE
LSRV.                                            DEN/NEUT:   LOG SERVICE
LSOU.                                             SPT/NPD:   LOG SOURCE
LVSN.                                                   1:   LOG VERSION
BHIS.                                                   R:   BRIEF HISTORY
FHIS.                                             RAW-LIS:   FULL HISTORY
TOOL.                             FDC/CNL/GR (COMPOSITED):   TOOL STRING
~Curve Information Block
#MNEM.UNIT                                        API CODE    No Description
#=========                                        ========    == ===========
DEPT.M                                       00 001 00 00:     1  DEPTH
CALI.IN                                                  :     2  Caliper
DRHO.G/CC                                                :     3  Bulk density correction
GR.GAPI                                                  :     4  Gamma Ray
NPHI.%                                                   :     5  Neutron porosity
RHOB.G/CC                                                :     6  Bulk density
TENS.LB                                                  :     7  Cable Tension
~ASCII
# ...
 3690.4148     9.3782      .0371   126.2153    38.2775     2.4219   554.1859
 3690.5672     9.4200      .0224   120.6385    38.6691     2.3933   583.9216
 3690.7196     9.4584      .0004   115.8297    39.0188     2.3789   609.9332
 3690.8720     9.3537      .0005   118.6545    39.6149     2.3673   627.6144
 3691.0244     9.3533      .0009   121.8589    40.5458     2.3610   614.7771
 3691.1768     9.3550      .0047   125.4614    40.9663     2.3704   597.0735
 3691.3292     9.3723      .0014   125.1532    40.5770     2.3597   568.2712
 3691.4816     9.3720      .0059   126.3439    40.0864     2.3745   553.1924
 3691.6340     9.3716      .0135   123.2433    39.6374     2.3787   595.5005
 3691.7864     9.3729      .0133   121.7842    39.4090     2.3721   587.8701
 3691.9388     9.3923      .0128   121.0408    39.6267     2.3597   587.9873
 3692.0912     9.4132      .0220   119.3812    39.4727     2.3648   589.3793
 3692.2436     9.4587      .0360   119.3613    38.4499     2.3809   609.9722
 3692.3960     9.6281      .0419   117.8322    37.6638     2.3733   650.6794
 3692.5484    10.3150      .0213   116.2229    38.0602     2.3419   695.5865
 3692.7008    10.2291      .0327   113.5789    38.8213     2.3469   643.8027
 3692.8532    10.3592      .0229   112.3697    38.7563     2.3660   587.7283
 3693.0056    10.2920      .0029   113.7394    37.8164     2.3768   579.8021
 3693.1580     9.5079      .0275   116.8745    36.8820     2.4161   594.7490
 3693.3104     9.4201      .0605   112.0764    36.6189     2.4272   615.9590
 3693.4628     9.5440      .0692   104.0561    36.9626     2.4409   611.3109
 3693.6152     9.7728      .0781    99.5909    37.1103     2.4676   566.9213
 3693.7676     9.6448      .0757    90.7045    36.6631     2.4978   540.4867
 3693.9200     9.7406      .0870    83.2312    36.1474     2.5263   554.9366
 3694.0724     9.5210      .0374    77.7116    35.5250     2.5331   590.9789
 3694.2248     9.4103     -.0101    71.5181    34.3634     2.5854   623.4423
 3694.3772     9.2549     -.0024    70.1039    32.3516     2.6490   630.5432
 3694.5296     9.2505     -.0037    70.0454    29.4575     2.6723   609.6011
 3694.6820     9.2816     -.0078    75.9177    26.6068     2.6245   582.0062
 3694.8344     9.3202      .0115    83.3770    25.1567     2.5419   568.2671
 3694.9868     9.4314      .0721    92.2245    25.8435     2.4997   563.3744
 3695.1392     9.8139      .1039    99.6533    28.5278     2.4431   561.7341
 3695.2916    10.1097      .0735   101.0181    32.0766     2.3866   566.6193
 3695.4440     9.8810      .0514   106.0118    35.5645     2.3885   590.6919
 3695.5964     9.5532      .0355   111.9833    38.0464     2.3948   611.9832
 3695.7488     9.4604      .0224   118.1018    39.3376     2.3757   592.6398
 3695.9012     9.4671      .0190   122.3449    40.1507     2.3607   556.7760
 3696.0536     9.4795      .0132   120.9185    40.5990     2.3551   538.2366
 3696.2060     9.4791      .0270   117.8407    40.9034     2.3628   548.7943
 3696.3584     9.4877      .0439   114.7329    41.0442     2.3844   574.4678
 3696.5108     9.5861      .0756   111.6200    40.9247     2.4050   603.8334
 3696.6632    10.1641      .0931   108.6722    40.8524     2.4146   633.9728
 3696.8156    10.1099      .0845   109.7726    40.9695     2.4088   637.5941
 3696.9680    10.0613      .0525   110.3193    40.8211     2.3701   615.0813
 3697.1204    10.1099      .0411   108.1863    40.3736     2.3259   585.2731
 3697.2728    10.2654      .0319   106.0999    39.9570     2.2837   555.8850
 3697.4252    10.0561      .0331   106.1874    39.8502     2.2406   563.4615
 3697.5776     9.9316      .0296   106.1651    40.6364     2.1959   594.1941
 3697.7300     9.9973      .0274   106.6593    41.9746     2.1798   595.0759
 3697.8824    10.0424      .0519   104.4985    42.9864     2.2101   602.1965
 3698.0348    10.2133      .0751   109.3337    42.9156     2.2465   619.6097
 3698.1872    10.5372      .0634   115.3092    41.7329     2.2585   617.2000
 3698.3396    10.5100      .0627   120.5899    39.9881     2.2796   590.4150
 3698.4920    10.2856      .0587   120.2728    37.6408     2.2910   565.3055
 3698.6444     9.9978      .0718   116.4286    35.8471     2.3217   556.0033
 3698.7968     9.9698      .0727   112.5848    36.1606     2.3544   555.6865
 3698.9492    10.0260      .0857   108.2619    37.4296     2.3949   574.9012
 3699.1016    10.0955      .0708   106.7265    38.3505     2.3906   600.4735
 3699.2540    10.1612      .0582   105.1857    38.9800     2.3788   615.5070
 3699.4064    10.2099      .0640   100.7735    38.9463     2.3794   599.8097
 3699.5588    10.2835      .0764    99.9600    38.4497     2.3857   576.0831
 3699.7112    10.3615      .0691   102.5764    38.3688     2.3678   545.2604
 3699.8636    10.4430      .0456   101.4362    38.8608     2.3403   527.1498
 3700.0160    10.5242      .0469   100.1423    38.9134     2.3429   565.3586
 3700.1684    10.6655      .0686    95.5297    37.6027     2.3660   625.5961
 3700.3208    10.9530      .0689    96.1872    37.5080     2.3606   656.6189
 3700.4732    11.2794      .0596    93.1592    38.5525     2.3301   651.6912
 3700.6256    11.6677      .0589    91.0319    38.6334     2.3066   617.8680
 3700.7780    12.0653      .0557    90.7605    38.0820     2.3072   572.7222
 3700.9304    11.8614      .0584    91.0529    37.1310     2.3402   528.4337
 3701.0828    11.2754      .0683    92.2092    36.9224     2.3694   551.4669
 3701.2352    11.1035      .0857    91.7834    37.1873     2.3761   579.0122
 3701.3876    11.3258      .0899    89.2092    37.5289     2.3766   662.4935
 3701.5400    11.5743      .0865    88.6781    38.3011     2.3898   716.8999
 3701.6924    11.6638      .0777    90.4798    38.8916     2.3796   665.6716
 3701.8448    11.4913      .0653    93.8940    38.7218     2.3446   615.9829
 3701.9972    11.3956      .0523    92.4988    39.2939     2.3106   594.5245
 3702.1496    11.4462      .0416    88.9613    41.0180     2.2795   611.0182
 3702.3020    11.9014      .0505    88.3163    42.6699     2.2935   667.5228
 3702.4544    12.8187      .0613    86.8848    42.7989     2.3242   719.2904
 3702.6068    13.4466      .0548    85.0050    41.4901     2.3068   713.4446
 3702.7592    13.9141      .0452    85.8414    40.3200     2.2610   625.6554
 3702.9116    13.7748      .0341    86.3484    39.6486     2.2181   672.3254
 3703.0640    12.8593      .0131    87.0837    39.0240     2.1840   637.8047
 3703.2164    12.4159      .0063    88.4987    37.8590     2.1625   563.2250
 3703.3688    12.5037      .0235    89.6554    36.4310     2.1521   488.6453
 3703.5212    12.2343      .0542    89.9464    35.3297     2.1672   474.9044
 3703.6736    11.3532      .0793    87.7081    35.1873     2.2173   556.8090
 3703.8260    11.0290      .0948    85.9591    34.8109     2.2673   914.0404
 3703.9784    11.6934      .0999    87.6789    33.4437     2.2917  1049.4683
 3704.1308    12.1718      .0990    84.4098    31.9546     2.3026   991.2146
 3704.2832    12.2395      .0930    82.2541    30.5072     2.2992   953.3176
 3704.4356    12.2304      .0785    81.1763    29.4222     2.2882   858.5885
 3704.5880    12.2355      .0613    82.4559    29.8215     2.2774   774.3727
 3704.7404    12.2603      .0455    83.2743    31.5756     2.2660   720.2395
 3704.8928    12.3289      .0264    83.0512    33.5279     2.2604   645.6748
 3705.0452    12.4336      .0180    83.3558    35.6877     2.2767   587.2325
 3705.1976    12.0602      .0314    84.4681    37.5745     2.2998   631.0890
 3705.3500    11.5529      .0363    87.6014    38.0919     2.2739   658.8750
 3705.5024    11.6589      .0265    86.3728    38.3361     2.2223   622.0369
 3705.6548    11.9146      .0145    82.9160    38.7439     2.1794   610.7065
 3705.8072    11.6733     -.0006    79.4536    39.2092     2.1382   579.1459
 3705.9596    11.4694     -.0221    75.9967    39.8356     2.1939   541.2026
 3706.1120    10.5862     -.0330    73.3529    40.0052     2.3134   524.7668
