~VERSION INFORMATION
VERS.                                                 2.0:   CWLS Log ASCII Standard-VERSION 2.0
WRAP.                                                  NO:   One line per depth step
~Well Information Block
STRT.M                                           393.6980:   Top Depth
STOP.M                                          3949.6472:   Bottom Depth
STEP.M                                             .15240:   Depth Increment
NULL.                                            -999.250:   Null Value
FLD .                                         EXPLORATION:   Field Name
WELL.                                              15/9-6:   NAME
WBN .                                              15/9-6:   WELLBORE
NATI.                                                 NOR:   COUNTRY
BHT1.DEGF                                            70.0:   BH TEMP 1
BHT2.DEGF                                           160.0:   BH TEMP 2
BHT3.DEGF                                           225.0:   BH TEMP 3
BS1 .IN                                             17.50:   BIT SIZE 1
CTRY.                                                 NOR:   COUNTRY
CBD1.M                                              186.0:   CSG 1 DRILL DEP
CBL1.M                                              186.0:   CSG 1 LOG DEP
CS1 .IN                                              30.0:   CSG 1 SIZE
COMP.                                             STATOIL:   OPERATOR
PDAT.                                                 MSL:   PERM DATUM
PROV.                                                   ?:   PROVINCE
COUN.                                            NORSKALD:   RIG NAME
SPUD.                                                 N/A:   SPUD DATE
LATI.                                       58 27 13.50 N:   SURF. LATITUDE
LONG.                                        1 41 31.40 E:   SURF. LONGITUDE
BTD1.                                             465.0 M:   TOTAL DEPTH 1
BTD2.                                            2776.0 M:   TOTAL DEPTH 2
BTD3.                                            3946.0 M:   TOTAL DEPTH 3
PBWE.                                              15/9-6:   PB WELL ID
APIN.                                              15/9-6:   PB WELLBORE ID
PBWS.                                                 all:   PB WELL NAME SET
~PARAMETER INFORMATION (log)
LNAM.                              FDC/CNL/GR  COMPOSITED:   NAME
LTYP.                                         DEPTH MATCH:   LOG TYPE
LSRV.                                            DEN/NEUT:   LOG SERVICE
LSOU.                                             SPT/NPD:   LOG SOURCE
LVSN.                                                   1:   LOG VERSION
BHIS.                                                   R:   BRIEF HISTORY
FHIS.                                             RAW-LIS:   FULL HISTORY
TOOL.                             FDC/CNL/GR (COMPOSITED):   TOOL STRING
~Curve Information Block
#MNEM.UNIT                                        API CODE    No Description
#=========                                        ========    == ===========
DEPT.M                                       00 001 00 00:     1  DEPTH
CALI.IN                                                  :     2  Caliper
DRHO.G/CC                                                :     3  Bulk density correction
GR.GAPI                                                  :     4  Gamma Ray
NPHI.%                                                   :     5  Neutron porosity
RHOB.G/CC                                                :     6  Bulk density
TENS.LB                                                  :     7  Cable Tension
~ASCII
# ...
 3214.9268    10.6172      .0064    29.5180    13.1833     2.5567   623.3303
 3215.0792    10.6407      .0093    29.9217    12.9148     2.5703   623.0840
 3215.2316    10.6641      .0093    29.7003    13.0132     2.5772   622.8380
 3215.3840    10.6876      .0058    29.6643    13.1591     2.5850   622.6859
 3215.5364    10.7344      .0020    29.5423    12.9880     2.5957   652.1426
 3215.6888    10.7578      .0019    30.1753    12.8908     2.6016   571.1117
 3215.8412    10.7578      .0020    30.3496    12.7925     2.5967   528.2852
 3215.9936    10.7852      .0015    30.2945    12.7445     2.5938   590.0339
 3216.1460    10.8125      .0069    30.4100    12.7438     2.6006   720.6864
 3216.2984    10.8361      .0188    31.2280    12.6465     2.6065   681.5936
 3216.4508    10.8594      .0264    32.2969    12.4995     2.6094   700.1085
 3216.6032    10.8594      .0359    33.1986    12.2555     2.6123   614.7095
 3216.7556    10.8594      .0444    32.9705    12.3786     2.6201   557.7139
 3216.9080    10.8828      .0417    33.6093    13.0134     2.6250   611.7887
 3217.0604    10.9062      .0322    32.3748    13.7461     2.6201   672.9126
 3217.2128    10.9337      .0183    30.4041    14.0625     2.6123   735.1115
 3217.3652    10.9844      .0122    31.0066    14.0380     2.6055   660.4779
 3217.5176    11.0078      .0166    31.6091    14.1604     2.6045   611.5482
 3217.6700    11.0078      .0146    31.0187    14.2087     2.6084   579.0812
 3217.8224    10.9843      .0083    30.4609    13.7194     2.6133   552.3120
 3217.9748    10.9844      .0054    29.9699    12.9137     2.6152   467.7123
 3218.1272    11.0078      .0059    29.5114    12.2306     2.6074   415.2456
 3218.2796    11.0078      .0103    30.9149    12.1101     2.5957   554.2891
 3218.4320    11.0078      .0112    32.8307    12.8437     2.5781  1131.8220
 3218.5844    11.0078      .0127    34.9557    14.1135     2.5625  1235.8423
 3218.7368    11.0078      .0161    36.2731    15.1378     2.5811  1180.1328
 3218.8892    11.0078      .0137    36.3490    15.3562     2.5937  1121.3806
 3219.0416    11.0078      .0147    34.0914    15.0139     2.5791  1062.8787
 3219.1940    11.0078      .0151    32.6698    14.6235     2.5683  1020.9100
 3219.3464    11.0078      .0112    33.0735    14.6736     2.5664   941.0885
 3219.4988    11.0078      .0098    34.1213    14.9415     2.5674   859.8370
 3219.6512    11.0078      .0132    34.8749    14.8678     2.5664   787.1315
 3219.8036    11.0078      .0142    33.9442    15.1135     2.5733   714.4259
 3219.9560    11.0078      .0083    33.4953    15.6010     2.5840   641.7205
 3220.1084    11.0078      .0049    33.8990    15.5757     2.5918   589.1873
 3220.2608    11.0078      .0063    34.3027    14.9895     2.5928   587.1851
 3220.4132    11.0078      .0073    33.0326    14.3548     2.5996   613.4493
 3220.5656    11.0078      .0073    31.2151    13.8907     2.6045   631.1689
 3220.7180    11.0078      .0117    29.9471    13.3046     2.6055   608.6415
 3220.8704    11.0078      .0208    29.8537    13.0372     2.6143   577.8778
 3221.0228    11.0078      .0303    30.2352    13.0614     2.6260   555.1322
 3221.1752    11.0078      .0437    32.4504    13.1841     2.6426   561.5376
 3221.3276    11.0078      .0432    32.4564    13.7464     2.6357   575.8263
 3221.4800    11.0078      .0273    32.3057    14.2580     2.6162   591.8784
 3221.6324    11.0078      .0129    32.0851    14.7718     2.5947   600.0952
 3221.7848    11.0078      .0039    31.3811    15.2100     2.5771   607.8208
 3221.9372    10.9843      .0039    31.1884    14.7935     2.5732   609.0187
 3222.0896    10.9335      .0068    30.3992    13.9391     2.5703   602.0978
 3222.2420    10.9336      .0083    31.9832    13.1341     2.5635   582.5137
 3222.3944    10.9609      .0098    33.7834    13.1850     2.5547   548.5336
 3222.5468    10.9609      .0117    34.7396    14.4558     2.5625   541.3510
 3222.6992    10.9609      .0088    35.5418    15.7486     2.5752   584.0278
 3222.8516    10.9609      .0083    35.5010    15.8930     2.5791   600.7102
 3223.0040    10.9609      .0031    34.3640    15.2333     2.5752   543.9808
 3223.1564    10.9609     -.0034    33.2846    14.5252     2.5733   560.2688
 3223.3088    10.9335     -.0039    31.7075    14.0132     2.5732   531.1959
 3223.4612    10.9062     -.0007    30.0141    13.2314     2.5801   509.3473
 3223.6136    10.9337      .0083    29.7220    12.3037     2.6036   632.5479
 3223.7660    10.9335      .0102    29.4719    11.9627     2.6064   842.6052
 3223.9184    10.9337      .0103    29.7761    12.1835     2.5918   958.9904
 3224.0708    10.9609      .0083    29.6828    12.8920     2.5752   867.5444
 3224.2232    10.9609      .0103    30.4286    13.5257     2.5654   799.5817
 3224.3756    10.9609      .0183    32.3740    14.0146     2.5703   758.4683
 3224.5280    10.9609      .0144    32.9784    14.3556     2.5723   673.1028
 3224.6804    10.9609      .0122    33.1881    14.5023     2.5830   607.5604
 3224.8328    10.9609      .0161    31.8531    14.7463     2.6006   607.2986
 3224.9852    10.9609      .0142    31.7072    14.5497     2.6104   587.0385
 3225.1376    10.9609      .0088    31.6607    14.0130     2.6162   560.6667
 3225.2900    10.9609      .0083    31.6247    13.5734     2.6142   574.7971
 3225.4424    10.9609      .0103    31.3803    12.9388     2.6016   608.3529
 3225.5948    10.9609      .0093    30.6906    12.7693     2.5928   635.1188
 3225.7472    10.9335      .0093    32.4304    13.3557     2.5908   624.3407
 3225.8996    10.9062      .0122    35.4476    14.4065     2.5830   614.2677
 3226.0520    10.9062      .0188    37.6297    15.7002     2.5860   612.7041
 3226.2044    10.9062      .0178    37.6205    16.6754     2.5937   581.4315
 3226.3568    10.9062      .0132    37.4861    16.9675     2.5928   533.2322
 3226.5092    10.9062      .0102    37.1777    16.4292     2.5908   555.3268
 3226.6616    10.9062      .0117    35.8930    15.4280     2.6026   600.3571
 3226.8140    10.8828      .0132    35.4464    14.5013     2.6094   627.3210
 3226.9664    10.8594      .0093    34.9669    14.4297     2.5888   640.8069
 3227.1188    10.8594      .0112    35.9959    15.2604     2.5860   617.3358
 3227.2712    10.8594      .0063    37.1659    16.1389     2.5830   610.0594
 3227.4236    10.8594      .0024    37.1720    16.5773     2.5674   612.6503
 3227.5760    10.8594      .0083    35.9508    16.8463     2.5645   554.5336
 3227.7284    10.8594      .0088    35.0966    16.7961     2.5772   546.1698
 3227.8808    10.8359      .0093    34.3264    15.9894     2.5898   575.5275
 3228.0332    10.8125      .0169    30.3871    14.9153     2.6075   610.6460
 3228.1856    10.8125      .0159    30.1929    14.2087     2.6240   627.0631
 3228.3380    10.8125      .0098    31.4053    13.9402     2.6064   626.5890
 3228.4904    10.8125      .0073    33.3491    14.3325     2.5830   600.3602
 3228.6428    10.7851      .0044    34.2517    15.1378     2.5723   585.8057
 3228.7952    10.7578      .0039    35.8138    15.6252     2.5723   570.1042
 3228.9476    10.7578      .0049    36.3379    15.9674     2.5634   564.9634
 3229.1000    10.7578      .0017    36.2446    15.8192     2.5547   572.8813
 3229.2524    10.7343      .0007    35.4753    14.9642     2.5704   583.2947
 3229.4048    10.6875      .0044    33.6580    14.0863     2.5830   613.2382
 3229.5572    10.6641      .0044    32.1757    13.6227     2.5761   620.9326
 3229.7096    10.6405      .0073    32.0059    14.0642     2.5674   593.7380
 3229.8620    10.6172      .0154    33.1513    14.8690     2.5723   599.2231
 3230.0144    10.6172      .0249    33.4976    14.5979     2.5987   576.1466
 3230.1668    10.6172      .0249    33.5037    13.4512     2.6250   551.9718
 3230.3192    10.5898      .0149    32.4021    12.2295     2.6230   565.8948
 3230.4716    10.5625      .0093    31.1746    11.5721     2.6074   600.0376
 3230.6240    10.5625      .0127    32.1570    12.0378     2.5977   603.7745
