~VERSION INFORMATION
VERS.                                                 2.0:   CWLS Log ASCII Standard-VERSION 2.0
WRAP.                                                  NO:   One line per depth step
~Well Information Block
STRT.M                                           393.6980:   Top Depth
STOP.M                                          3949.6472:   Bottom Depth
STEP.M                                             .15240:   Depth Increment
NULL.                                            -999.250:   Null Value
FLD .                                         EXPLORATION:   Field Name
WELL.                                              15/9-6:   NAME
WBN .                                              15/9-6:   WELLBORE
NATI.                                                 NOR:   COUNTRY
BHT1.DEGF                                            70.0:   BH TEMP 1
BHT2.DEGF                                           160.0:   BH TEMP 2
BHT3.DEGF                                           225.0:   BH TEMP 3
BS1 .IN                                             17.50:   BIT SIZE 1
CTRY.                                                 NOR:   COUNTRY
CBD1.M                                              186.0:   CSG 1 DRILL DEP
CBL1.M                                              186.0:   CSG 1 LOG DEP
CS1 .IN                                              30.0:   CSG 1 SIZE
COMP.                                             STATOIL:   OPERATOR
PDAT.                                                 MSL:   PERM DATUM
PROV.                                                   ?:   PROVINCE
COUN.                                            NORSKALD:   RIG NAME
SPUD.                                                 N/A:   SPUD DATE
LATI.                                       58 27 13.50 N:   SURF. LATITUDE
LONG.                                        1 41 31.40 E:   SURF. LONGITUDE
BTD1.                                             465.0 M:   TOTAL DEPTH 1
BTD2.                                            2776.0 M:   TOTAL DEPTH 2
BTD3.                                            3946.0 M:   TOTAL DEPTH 3
PBWE.                                              15/9-6:   PB WELL ID
APIN.                                              15/9-6:   PB WELLBORE ID
PBWS.                                                 all:   PB WELL NAME SET
~PARAMETER INFORMATION (log)
LNAM.                              FDC/CNL/GR  COMPOSITED:   NAME
LTYP.                                         DEPTH MATCH:   LOG TYPE
LSRV.                                            DEN/NEUT:   LOG SERVICE
LSOU.                                             SPT/NPD:   LOG SOURCE
LVSN.                                                   1:   LOG VERSION
BHIS.                                                   R:   BRIEF HISTORY
FHIS.                                             RAW-LIS:   FULL HISTORY
TOOL.                             FDC/CNL/GR (COMPOSITED):   TOOL STRING
~Curve Information Block
#MNEM.UNIT                                        API CODE    No Description
#=========                                        ========    == ===========
DEPT.M                                       00 001 00 00:     1  DEPTH
CALI.IN                                                  :     2  Caliper
DRHO.G/CC                                                :     3  Bulk density correction
GR.GAPI                                                  :     4  Gamma Ray
NPHI.%                                                   :     5  Neutron porosity
RHOB.G/CC                                                :     6  Bulk density
TENS.LB                                                  :     7  Cable Tension
~ASCII
# ...
 3928.1588     8.5336      .0120    51.4164    17.1017     2.4599  1324.5366
 3928.3112     8.4829      .0108    50.0047    16.5508     2.4640  1338.8584
 3928.4636     8.4639      .0097    50.2468    16.2658     2.4775  1376.5437
 3928.6160     8.4879      .0072    52.1170    15.8463     2.4809  1377.4592
 3928.7684     8.5379      .0012    55.5572    15.2436     2.4651  1332.5872
 3928.9208     8.6255      .0013    58.7442    15.2496     2.4502  1302.5784
 3929.0732     8.6752     -.0012    59.3759    16.2214     2.4235  1275.0034
 3929.2256     8.6773     -.0024    60.3425    18.0077     2.3859  1271.6365
 3929.3780     8.7233      .0013    61.9284    19.6455     2.3596  1306.5918
 3929.5304     8.7929      .0031    64.0601    20.3030     2.3647  1346.3538
 3929.6828     8.6913      .0023    64.9474    20.3532     2.3781  1378.1101
 3929.8352     8.5227      .0024    63.6380    20.0859     2.3784  1371.9333
 3929.9876     8.5090      .0067    61.1513    19.7932     2.3789  1349.7551
 3930.1400     8.5488      .0114    59.4137    20.0319     2.3719  1334.3906
 3930.2924     8.5444      .0105    57.6762    20.8734     2.3621  1329.5474
 3930.4448     8.5247      .0058    56.4047    21.6389     2.3586  1304.5012
 3930.5972     8.5097      .0063    56.1994    21.7145     2.3608  1348.5725
 3930.7496     8.4706      .0102    55.1062    21.3513     2.3675  1348.9580
 3930.9020     8.4207      .0084    54.3974    20.9047     2.3712  1358.0862
 3931.0544     8.3904      .0031    53.8251    20.5607     2.3728  1346.3491
 3931.2068     8.4100      .0013    55.4546    20.8327     2.3692  1308.0750
 3931.3592     8.4994      .0071    56.8248    21.9477     2.3594  1302.2959
 3931.5116     8.5886      .0094    58.4164    22.8087     2.3485  1280.8191
 3931.6640     8.6578      .0031    58.3948    22.4121     2.3446  1291.8411
 3931.8164     8.7382     -.0005    56.0066    21.3453     2.3583  1304.4292
 3931.9688     8.7107      .0010    56.4398    20.1854     2.3802  1304.4211
 3932.1212     8.5521      .0024    57.0145    19.3155     2.3923  1318.5791
 3932.2736     8.4712      .0050    55.7090    18.9249     2.3913  1337.6494
 3932.4260     8.4810      .0122    54.7937    18.9180     2.3894  1357.6248
 3932.5784     8.4115      .0134    54.2746    18.8935     2.3821  1364.0950
 3932.7308     8.3426      .0068    56.0578    18.8753     2.3643  1335.1580
 3932.8832     8.4025      .0073    56.3913    19.5947     2.3560  1317.4680
 3933.0356     8.4716      .0122    54.0463    21.0871     2.3564  1346.3577
 3933.1880     8.4816      .0096    51.6357    22.0837     2.3549  1369.2222
 3933.3404     8.4817      .0031    50.2684    22.0983     2.3495  1307.2432
 3933.4928     8.4719     -.0024    49.6809    21.8653     2.3415  1358.5408
 3933.6452     8.4469     -.0070    49.1849    21.7725     2.3377  1304.6921
 3933.7976     8.4371     -.0088    49.3565    21.3106     2.3434  1313.2297
 3933.9500     8.4425     -.0036    50.1702    20.3278     2.3549  1296.6670
 3934.1024     8.4426      .0062    50.5056    19.6175     2.3666  1274.4648
 3934.2548     8.4427      .0119    52.6195    19.3772     2.3725  1278.7722
 3934.4072     8.4839      .0087    54.7334    19.5727     2.3662  1312.1292
 3934.5596     8.6234      .0008    55.5428    20.0049     2.3537  1339.9265
 3934.7120     8.7318      .0002    55.9521    20.4005     2.3470  1306.5078
 3934.8644     8.7615      .0040    57.0860    20.6596     2.3493  1331.5383
 3935.0168     8.7611      .0069    57.4351    20.7136     2.3626  1352.7446
 3935.1692     8.7015      .0115    57.2375    20.7264     2.3796  1309.0298
 3935.3216     8.6626      .0133    55.1188    20.7297     2.3762  1295.2041
 3935.4740     8.6420      .0104    54.4567    20.7472     2.3555  1305.3918
 3935.6264     8.6065      .0086    54.0603    21.1529     2.3397  1322.1711
 3935.7788     8.5776      .0158    51.6982    22.1617     2.3360  1352.1748
 3935.9312     8.6131      .0121    49.4901    23.1699     2.3349  1368.5137
 3936.0836     8.6130      .0000    48.1460    22.6877     2.3366  1371.4949
 3936.2360     8.5450      .0003    49.4828    21.3973     2.3526  1363.2122
 3936.3884     8.5651     -.0003    51.2035    20.9903     2.3751  1357.2021
 3936.5408     8.6445     -.0051    53.6858    21.2284     2.3956  1359.4729
 3936.6932     8.6744     -.0054    56.2009    21.8135     2.4151  1335.5198
 3936.8456     8.6535     -.0008    57.7479    22.6549     2.4117  1304.1685
 3936.9980     8.6223      .0011    55.3825    23.3762     2.3817  1342.8262
 3937.1504     8.5727     -.0023    54.4700    23.4728     2.3593  1324.4783
 3937.3028     8.5661     -.0025    54.9816    22.8570     2.3567  1330.8354
 3937.4552     8.6558      .0025    52.8839    21.8868     2.3611  1353.9119
 3937.6076     8.6504      .0054    52.9816    21.4797     2.3552  1322.3748
 3937.7600     8.4947      .0050    53.6796    21.8231     2.3458  1327.3169
 3937.9124     8.3295      .0024    54.8604    21.7788     2.3495  1327.1912
 3938.0648     8.2469     -.0016    56.8630    21.6300     2.3576  1292.6670
 3938.2172     8.2471     -.0048    56.6219    21.8046     2.3563  1284.4399
 3938.3696     8.2571     -.0058    55.8887    21.3340     2.3554  1306.9382
 3938.5220     8.2771     -.0034    54.2821    20.0736     2.3549  1327.7498
 3938.6744     8.2872     -.0013    54.7822    19.0064     2.3523  1343.8911
 3938.8268     8.2743      .0003    54.6763    18.3344     2.3696  1343.3345
 3938.9792     8.2346      .0041    51.3828    17.2916     2.4054  1326.2029
 3939.1316     8.2080      .0065    51.3048    15.8701     2.4438  1309.0823
 3939.2840     8.2181      .0046    51.8031    15.4718     2.4775  1304.0413
 3939.4364     8.2645      .0008    51.1811    16.6426     2.4908  1310.1296
 3939.5888     8.4265     -.0003    49.8499    18.3412     2.4742  1328.1082
 3939.7412     8.5490      .0034    49.5520    19.9001     2.4434  1343.8347
 3939.8936     8.5167      .0078    49.6598    21.0392     2.4179  1337.9119
 3940.0460     8.4272      .0066    49.9205    21.3372     2.3985  1318.2227
 3940.1984     8.3480      .0022    49.7229    21.0498     2.3858  1296.7764
 3940.3508     8.3614      .0024    43.2999    20.9108     2.3983  1284.0884
 3940.5032     8.4278      .0145    37.1809    21.0625     2.4315  1310.1089
 3940.6556     8.4676      .0241    28.0264    21.4481     2.4651  1345.6711
 3940.8080     8.5258      .0245    14.3213    21.9315     2.4752  1353.1558
 3940.9604     8.5807      .0187     4.9790    22.5048     2.4630  1344.4915
 3941.1128     8.5790      .0052     3.9339    23.0701     2.4579  1356.6489
 3941.2652     8.6435     -.0043     3.7772    23.5024     2.4730  1386.0664
 3941.4176     8.7368     -.0053     3.7087    23.9099     2.4960  1410.0383
 3941.5700     8.7438     -.0078     3.7099    24.2450     2.4918  1417.4275
 3941.7224     8.7270     -.0096     3.7111    24.4221     2.4889  1404.0735
 3941.8748     8.7271     -.0030     3.7123    24.3948     2.5124  1378.9934
 3942.0272     8.7372      .0070     3.7135    23.9851     2.5331  1367.6536
 3942.1796     8.7472      .0150     3.7148    23.2483     2.5458  1373.9973
 3942.3320     8.7490      .0170     3.7160    22.6196     2.5527  1398.8479
 3942.4844     8.7590      .0196     3.7172    22.5450     2.5622  1433.2671
 3942.6368     8.7774      .0178     3.7184    22.4415     2.5674  1404.7246
 3942.7892     8.7675      .0126     3.7196    21.9456     2.5639  1386.4539
 3942.9416     8.7578      .0119     3.7208    21.1832     2.5571  1354.4404
 3943.0940     8.7479      .0058     3.7220    19.5462     2.5382  1333.7026
 3943.2464     8.7282      .0048     3.7232    16.7127     2.5329  1342.1365
 3943.3988     8.7383      .0177     3.7245    12.0858     2.5531  1368.5449
 3943.5512     8.7264      .0324     3.7257     5.0812     2.5645  1396.8193
 3943.7036     8.6968      .0344     3.7269     -.7675     2.5534  1413.2922
 3943.8560     8.6929      .0329     3.7281    -2.9386     2.5386  1402.1785
