~VERSION INFORMATION
VERS.                                                 2.0:   CWLS Log ASCII Standard-VERSION 2.0
WRAP.                                                  NO:   One line per depth step
~Well Information Block
STRT.M                                           393.6980:   Top Depth
STOP.M                                          3949.6472:   Bottom Depth
STEP.M                                             .15240:   Depth Increment
NULL.                                            -999.250:   Null Value
FLD .                                         EXPLORATION:   Field Name
WELL.                                              15/9-6:   NAME
WBN .                                              15/9-6:   WELLBORE
NATI.                                                 NOR:   COUNTRY
BHT1.DEGF                                            70.0:   BH TEMP 1
BHT2.DEGF                                           160.0:   BH TEMP 2
BHT3.DEGF                                           225.0:   BH TEMP 3
BS1 .IN                                             17.50:   BIT SIZE 1
CTRY.                                                 NOR:   COUNTRY
CBD1.M                                              186.0:   CSG 1 DRILL DEP
CBL1.M                                              186.0:   CSG 1 LOG DEP
CS1 .IN                                              30.0:   CSG 1 SIZE
COMP.                                             STATOIL:   OPERATOR
PDAT.                                                 MSL:   PERM DATUM
PROV.                                                   ?:   PROVINCE
COUN.                                            NORSKALD:   RIG NAME
SPUD.                                                 N/A:   SPUD DATE
LATI.                                       58 27 13.50 N:   SURF. LATITUDE
LONG.                                        1 41 31.40 E:   SURF. LONGITUDE
BTD1.                                             465.0 M:   TOTAL DEPTH 1
BTD2.                                            2776.0 M:   TOTAL DEPTH 2
BTD3.                                            3946.0 M:   TOTAL DEPTH 3
PBWE.                                              15/9-6:   PB WELL ID
APIN.                                              15/9-6:   PB WELLBORE ID
PBWS.                                                 all:   PB WELL NAME SET
~PARAMETER INFORMATION (log)
LNAM.                              FDC/CNL/GR  COMPOSITED:   NAME
LTYP.                                         DEPTH MATCH:   LOG TYPE
LSRV.                                            DEN/NEUT:   LOG SERVICE
LSOU.                                             SPT/NPD:   LOG SOURCE
LVSN.                                                   1:   LOG VERSION
BHIS.                                                   R:   BRIEF HISTORY
FHIS.                                             RAW-LIS:   FULL HISTORY
TOOL.                             FDC/CNL/GR (COMPOSITED):   TOOL STRING
~Curve Information Block
#MNEM.UNIT                                        API CODE    No Description
#=========                                        ========    == ===========
DEPT.M                                       00 001 00 00:     1  DEPTH
CALI.IN                                                  :     2  Caliper
DRHO.G/CC                                                :     3  Bulk density correction
GR.GAPI                                                  :     4  Gamma Ray
NPHI.%                                                   :     5  Neutron porosity
RHOB.G/CC                                                :     6  Bulk density
TENS.LB                                                  :     7  Cable Tension
~ASCII
  393.6980  -999.2500      .0000      .5000  -999.2500     2.5000  -999.2500
  393.8504  -999.2500      .0000      .5000  -999.2500     2.5000  -999.2500
  394.0028  -999.2500      .0000      .5000  -999.2500     2.5000  -999.2500
  394.1552  -999.2500      .0000      .5000  -999.2500     2.5000  -999.2500
  394.3076  -999.2500      .0000      .5996  -999.2500     2.5000  -999.2500
  394.4600  -999.2500      .0000      .5996  -999.2500     2.5000  -999.2500
  394.6124  -999.2500      .0000      .5000  -999.2500     2.5000  -999.2500
  394.7648  -999.2500      .0000      .5996  -999.2500     2.5000  -999.2500
  394.9172  -999.2500      .0000      .5000  -999.2500     2.5000  -999.2500
  395.0696  -999.2500      .0000      .5996  -999.2500     2.5000  -999.2500
  395.2220  -999.2500      .0000      .5996  -999.2500     2.5000  -999.2500
  395.3744  -999.2500      .0000      .5996  -999.2500     2.5000  -999.2500
  395.5268  -999.2500      .0000      .5000  -999.2500     2.5000  -999.2500
  395.6792  -999.2500      .0000      .5000  -999.2500     2.5000  -999.2500
  395.8316  -999.2500      .0000      .5996  -999.2500     2.5000  -999.2500
  395.9840  -999.2500      .0000      .5000  -999.2500     2.5000  -999.2500
  396.1364  -999.2500      .0000      .5000  -999.2500     2.5000  -999.2500
  396.2888  -999.2500      .0000      .5000  -999.2500     2.5000  -999.2500
  396.4412  -999.2500      .0000      .5000  -999.2500     2.5000  -999.2500
  396.5936  -999.2500      .0000      .5000  -999.2500     2.5000  -999.2500
  396.7460  -999.2500      .0000      .5000  -999.2500     2.5000  -999.2500
  396.8984  -999.2500      .0000      .5000  -999.2500     2.5000  -999.2500
  397.0508  -999.2500      .0000      .5000  -999.2500     2.5000   596.2736
  397.2032  -999.2500      .0000      .5000  -999.2500     2.5000   594.7800
  397.3556  -999.2500      .0000      .5000  -999.2500     2.5000   593.2865
  397.5080    11.8255      .0000      .5996  -999.2500     2.5000   591.7931
  397.6604    12.6707      .0000      .5000  -999.2500     2.5000   590.2996
  397.8128    13.5160      .0000      .5996  -999.2500     2.5000   588.8062
  397.9652    14.3613      .0000      .5000  -999.2500     2.5000   587.3129
  398.1176    15.2066      .0000      .5996  -999.2500     2.5000   585.8201
  398.2700    16.0519      .0000      .5000  -999.2500     2.5000   584.3265
  398.4224    16.8972      .0000      .5000  -999.2500     2.5000   581.0081
  398.5748    18.1623      .0000      .5996  -999.2500     2.5000   576.5403
  398.7272    19.0492      .0000      .5996  -999.2500     2.5000   584.6500
  398.8796    19.6557      .0000      .5000  -999.2500     2.5000   602.0381
  399.0320    19.9376      .0000      .5000  -999.2500     2.5000   630.7968
  399.1844    19.9106      .0000      .5000  -999.2500     2.5000   636.3048
  399.3368    19.8345      .0000      .5000  -999.2500     2.5000   615.9905
  399.4892    19.7415      .0000      .5000  -999.2500     2.5000   608.9567
  399.6416    19.7211      .0000      .5996  -999.2500     2.5000   629.9230
  399.7940    19.7374      .0000      .5996  -999.2500     2.5000   623.9919
  399.9464    19.8191      .0000      .5996  -999.2500     2.5000   594.1648
  400.0988    19.7156      .0000      .5996  -999.2500     2.5000   595.5981
  400.2512    19.6468      .0000      .5000  -999.2500     2.5000   620.4855
  400.4036    19.6028      .0000      .5000  -999.2500     2.5000   608.7812
  400.5560    19.5588      .0000      .5000  -999.2500     2.5000   592.1554
  400.7084    19.5148      .0000      .5000  -999.2500     2.5000   568.3745
  400.8608    19.4945      .0000      .5000  -999.2500     2.5000   588.0093
  401.0132    19.4915      .0000      .5000  -999.2500     2.5000   611.6476
  401.1656    19.4522      .0000      .5996  -999.2500     2.5000   606.5248
  401.3180    19.4343      .0000      .5000  -999.2500     2.5000   603.8539
  401.4704    19.4175      .0000      .5996  -999.2500     2.5000   604.2268
  401.6228    19.4008      .0000      .5996  -999.2500     2.5000   604.5999
  401.7752    19.3795      .0000      .5996  -999.2500     2.5000   607.5216
  401.9276    19.3521      .0000      .5000  -999.2500     2.5000   611.0785
  402.0800    19.3357      .0000      .5000  -999.2500     2.5000   614.6346
  402.2324    19.3225      .0000      .5000  -999.2500     2.5000   609.4575
  402.3848    19.3109      .0000      .5996  -999.2500     2.5000   599.7523
  402.5372    19.3048      .0000      .5996  -999.2500     2.5000   602.6615
  402.6896    19.2810      .0000      .5000  -999.2500     2.5000   611.6810
  402.8420    19.2572      .0000      .5000  -999.2500     2.5000   620.6987
  402.9944    19.2334      .0000      .5996  -999.2500     2.5000   627.2828
  403.1468    19.2096      .0000      .5996  -999.2500     2.5000   624.2961
  403.2992    19.2051      .0000      .5996  -999.2500     2.5000   621.3096
  403.4516    19.2043      .0000      .5996  -999.2500     2.5000   619.5977
  403.6040    19.2036      .0000      .5000  -999.2500     2.5000   622.2545
  403.7564    19.2127      .0000      .5996  -999.2500     2.5000   624.9108
  403.9088    19.2637      .0000      .5000  -999.2500     2.5000   627.5665
  404.0612    19.3205      .0000      .5000  -999.2500     2.5000   630.2234
  404.2136    19.3203      .0000      .5000  -999.2500     2.5000   632.8802
  404.3660    19.3345      .0000      .5996  -999.2500     2.5000   635.5382
  404.5184    19.3821      .0000      .5000  -999.2500     2.5000   638.1951
  404.6708    19.4822      .0000      .5996  -999.2500     2.5000   640.8519
  404.8232    19.6283      .0000      .5000  -999.2500     2.5000   643.9258
  404.9756    19.7760      .0000      .5996  -999.2500     2.5000   647.4844
  405.1280    19.8770      .0000      .5000  -999.2500     2.5000   651.0430
  405.2804    19.9341      .0000      .5996  -999.2500     2.5000   646.6331
  405.4328    19.9238      .0000      .5996  -999.2500     2.5000   625.4282
  405.5852    19.8859      .0000      .5000  -999.2500     2.5000   604.3284
  405.7376    19.8273      .0000      .5000  -999.2500     2.5000   612.2671
  405.8900    19.8065      .0000      .5996  -999.2500     2.5000   619.6315
  406.0424    19.7883      .0000      .5000  -999.2500     2.5000   626.8933
  406.1948    19.8026      .0000      .5000  -999.2500     2.5000   634.8339
  406.3472    19.8279      .0000      .5000  -999.2500     2.5000   625.6466
  406.4996    19.8413      .0000      .5000  -999.2500     2.5000   616.5463
  406.6520    19.8326      .0000      .5996  -999.2500     2.5000   616.9202
  406.8044    19.8238      .0000      .5000  -999.2500     2.5000   620.3019
  406.9568    19.8385      .0000      .5000  -999.2500     2.5000   628.2429
  407.1092    19.8068      .0000      .5000  -999.2500     2.5000   636.1838
  407.2616    19.7597      .0000      .5000  -999.2500     2.5000   631.5944
  407.4140    19.7108      .0000      .5996  -999.2500     2.5000   622.8967
  407.5664    19.6426      .0000      .5000  -999.2500     2.5000   614.1992
  407.7188    19.6011      .0000      .5000  -999.2500     2.5000   609.5284
  407.8712    19.5683      .0000      .5000  -999.2500     2.5000   609.9017
  408.0236    19.5435      .0000      .5996  -999.2500     2.5000   610.2753
  408.1760    19.5390      .0000      .5996  -999.2500     2.5000   635.6794
  408.3284    19.5383      .0000      .5000  -999.2500     2.5000   634.0619
  408.4808    19.5630      .0000      .5000  -999.2500     2.5000   631.4098
  408.6332    19.5879      .0000      .5996  -999.2500     2.5000   631.7834
  408.7856    19.6089      .0000      .5996  -999.2500     2.5000   632.1571
  408.9380    19.6147      .0000      .5996  -999.2500     2.5000   632.5309
  409.0904    19.6234      .0000      .5000  -999.2500     2.5000   631.3059
  409.2428    19.6331      .0000      .5996  -999.2500     2.5000   622.9463
  409.3952    19.6291      .0000      .5000  -999.2500     2.5000   611.2260
