~VERSION INFORMATION
VERS.                                                 2.0:   CWLS Log ASCII Standard-VERSION 2.0
WRAP.                                                  NO:   One line per depth step
~Well Information Block
STRT.M                                          1325.1668:   Top Depth
STOP.M                                          3304.3856:   Bottom Depth
STEP.M                                             .15240:   Depth Increment
NULL.                                            -999.250:   Null Value
FLD .                                                 Q15:   Field Name
WELL.                                            15/12-14:   NAME
WBN .                                            15/12-14:   WELLBORE
NATI.                                                 NOR:   COUNTRY
CTRY.                                                 NOR:   COUNTRY
COMP.                                           PERTRA AS:   OPERATOR
PDAT.                                      Mean Sea Level:   PERM DATUM
SON .                                     !NRMW0002615870:   SOURCE OPERATOR NAME
PBWE.                                            15/12-14:   PB WELL ID
APIN.                                            15/12-14:   PB WELLBORE ID
PBWS.                                                 ALL:   PB WELL NAME SET
WDMS.M                                                 84:   WATER DEPTH
~PARAMETER INFORMATION (log)
LNAM.                                           COMPOSITE:   NAME
LTYP.                                             PAP.CMP:   LOG TYPE
LSRV.                                              WL.LOG:   LOG SERVICE
LSOU.                                              PERTRA:   LOG SOURCE
LVSN.                                                   1:   LOG VERSION
BHT .DEGF                                             0.0:   BH TEMP
BHIS.                                                   R:   BRIEF HISTORY
TDD .M                                                0.0:   FINAL TD DRILLER
TDL .M                                                0.0:   FINAL TD LOGGER
DFL .CM3                                              0.0:   FLUID LOSS
FHIS.                                             RAW-LIS:   FULL HISTORY
LCNM.                                         HALLIBURTON:   LOGGING CONTRACTOR
DFD .G/CC                                             0.0:   MUD DENSITY
DFPH.                                                 0.0:   MUD PH
DFV .                                                 0.0:   MUD VISCOSITY
RMS .OHMM                                             0.0:   RM
MST .DEGF                                             0.0:   RM TEMP
RMCS.OHMM                                             0.0:   RMC
MCST.DEGF                                             0.0:   RMC TEMP
RMFS.OHMM                                             0.0:   RMF
MFST.DEGF                                             0.0:   RMF TEMP
STEM.DEGF                                             0.0:   SURFACE TEMPERATURE
TOOL.                                      COMPOSITE_LISE:   TOOL STRING
LDAT.                                          1900/01/01:   DATE LOGGED
QCRM.                   WAITING FOR OPERATOR CONFIRMATION:   QC COMMENT
QCCO.                                             UNKNOWN:   QC COMPANY
~Curve Information Block
#MNEM.UNIT                                        API CODE    No Description
#=========                                        ========    == ===========
DEPT.M                                       00 001 00 00:     1  DEPTH
AC.US/F                                                  :     2  Sonic Transit Time (Slowness)
CALI.IN                                                  :     3  Caliper
DEN.G/CC                                                 :     4  Bulk Density
GR.GAPI                                                  :     5  Gamma Ray
NEUT.FRAC                                                :     6  Neutron Porosity
RDEP.                                                    :     7  Unrecognised
RMED.                                                    :     8  Unrecognised
ROP.                                                     :     9  ROP
~ASCII
# ...
 1596.7436   140.9896  -999.2500     2.2630   102.3992  -999.2500      .8056      .7738      .0149
 1596.8960   138.8363  -999.2500     2.2289   114.1884  -999.2500      .8153      .7714      .0148
 1597.0484   138.5063  -999.2500     2.2227   105.3603  -999.2500      .8140      .7718      .0147
 1597.2008   138.1050  -999.2500     2.2352    91.7162  -999.2500      .8020      .7674      .0148
 1597.3532   139.7697  -999.2500     2.2223   102.5622  -999.2500      .7894      .7620      .0149
 1597.5056   140.3382  -999.2500     2.2112   101.7924  -999.2500      .7795      .7555      .0150
 1597.6580   140.5184  -999.2500     2.2241   103.9904  -999.2500      .7727      .7489      .0151
 1597.8104   140.4432  -999.2500     2.2090   118.6407  -999.2500      .7740      .7475      .0150
 1597.9628   140.4728  -999.2500     2.2102   116.5079  -999.2500      .7777      .7495      .0149
 1598.1152   140.2642  -999.2500     2.2212   111.8406  -999.2500      .7803      .7521      .0148
 1598.2676   139.1759  -999.2500     2.2239   121.9986  -999.2500      .7872      .7588      .0148
 1598.4200   137.8577  -999.2500     2.2253   118.4863  -999.2500      .7837      .7597      .0133
 1598.5724   137.7988  -999.2500     2.2380   114.4711  -999.2500      .7748      .7512      .0115
 1598.7248   136.0740  -999.2500     2.2334   109.0945  -999.2500      .7551      .7339      .0094
 1598.8772   131.0413  -999.2500     2.2261   103.8810  -999.2500      .7468      .7265      .0074
 1599.0296   129.8088  -999.2500     2.2168   112.9353  -999.2500      .7399      .7153      .0072
 1599.1820   129.9965  -999.2500     2.2123   111.6745  -999.2500      .7499      .7125      .0112
 1599.3344   131.0441  -999.2500     2.2179   115.2049  -999.2500      .8131      .7670      .0147
 1599.4868   134.1810  -999.2500     2.2255   111.6251  -999.2500      .9031      .8717      .0161
 1599.6392   137.4456  -999.2500     2.2521   109.7720  -999.2500      .9256      .9207      .0165
 1599.7916   137.1946  -999.2500     2.3074   106.7278  -999.2500      .8226      .8195      .0166
 1599.9440   139.2528  -999.2500     2.2800   110.2574  -999.2500      .7857      .7786      .0166
 1600.0964   142.2179  -999.2500     2.2290   117.8952  -999.2500      .7876      .7769      .0168
 1600.2488   143.2631  -999.2500     2.2297   105.0320  -999.2500      .7919      .7733      .0169
 1600.4012   142.5158  -999.2500     2.2358   124.3823  -999.2500      .7968      .7646      .0169
 1600.5536   142.5974  -999.2500     2.2391   111.1401  -999.2500      .7933      .7553      .0170
 1600.7060   144.6253  -999.2500     2.2363   106.5592  -999.2500      .7832      .7520      .0170
 1600.8584   140.9726  -999.2500     2.2313   108.3525  -999.2500      .7786      .7565      .0171
 1601.0108   137.8477  -999.2500     2.2304   106.3438  -999.2500      .7758      .7547      .0170
 1601.1632   134.9903  -999.2500     2.2281   115.2426  -999.2500      .7779      .7502      .0170
 1601.3156   136.0758  -999.2500     2.2276   114.3942  -999.2500      .7974      .7646      .0170
 1601.4680   138.9661  -999.2500     2.2480   116.3646  -999.2500      .8554      .8332      .0169
 1601.6204   137.3639  -999.2500     2.2684   113.2362  -999.2500      .8820      .8736      .0169
 1601.7728   137.4807    13.0591     2.2888   103.8235  -999.2500      .8177      .8061      .0168
 1601.9252   138.1526    13.0591     2.2888   105.8440  -999.2500      .8052      .7917      .0168
 1602.0776   137.5828    12.9331     2.3371   115.2856  -999.2500      .8056      .7975      .0166
 1602.2300   137.1317    12.9331     2.3371   111.6873  -999.2500      .8103      .7976      .0165
 1602.3824   138.5240    12.7638     2.2173   121.4346  -999.2500      .8159      .7929      .0165
 1602.5348   140.9305    12.8228     2.2142   137.1119  -999.2500      .8221      .7936      .0163
 1602.6872   141.6898    13.0118     2.2045   122.5802  -999.2500      .8168      .7922      .0163
 1602.8396   143.1591    13.0118     2.2045   127.2857  -999.2500      .8099      .7876      .0164
 1602.9920   142.2025    13.2598     2.2326   123.8561  -999.2500      .7966      .7751      .0164
 1603.1444   139.6244    13.2323     2.2318   114.1593  -999.2500      .7727      .7547      .0165
 1603.2968   136.0431    13.1614     2.2296   121.5840  -999.2500      .7569      .7353      .0165
 1603.4492   131.5280    13.1260     2.2256   119.0537  -999.2500      .7507      .7246      .0166
 1603.6016   127.3390    13.0551     2.2175   117.2480  -999.2500      .7604      .7257      .0167
 1603.7540   131.1775    13.0157     2.2164   118.2819  -999.2500      .7974      .7479      .0167
 1603.9064   134.8031    12.9409     2.2140   109.4172  -999.2500      .8813      .8223      .0168
 1604.0588   139.3425    12.7008     2.2273    98.7486  -999.2500     1.0232      .9873      .0169
 1604.2112   141.1295    12.1614     2.2576    99.0588  -999.2500     1.0289     1.0130      .0170
 1604.3636   140.3692    12.3189     2.3280   100.0207  -999.2500      .8817      .8656      .0171
 1604.5160   136.2191    12.6063     2.4540   107.5465  -999.2500      .8426      .8260      .0171
 1604.6684   134.6112    12.7165     2.3943   124.9689  -999.2500      .8434      .8247      .0170
 1604.8208   132.7737    12.8976     2.2964   125.8698  -999.2500      .8338      .7942      .0170
 1604.9732   132.7309    12.9449     2.2664   123.0572  -999.2500      .8116      .7465      .0170
 1605.1256   134.9970    13.0079     2.2266   117.8774  -999.2500      .7990      .7289      .0169
 1605.2780   139.6086    13.0394     2.2483   120.7979  -999.2500      .7738      .7311      .0170
 1605.4304   140.5729    13.0709     2.2676   111.8316  -999.2500      .7616      .7287      .0169
 1605.5828   141.4106    13.1024     2.2532   109.3339  -999.2500      .7822      .7515      .0168
 1605.7352   141.4771    13.1299     2.2419   116.3423  -999.2500      .7663      .7328      .0168
 1605.8876   140.5265    13.2480     2.2544   116.0766  -999.2500      .7535      .7167      .0166
 1606.0400   139.0559    13.3150     2.2613   114.4071  -999.2500      .7457      .7195      .0165
 1606.1924   137.6720    13.1654     2.2251   118.5706  -999.2500      .7463      .7284      .0165
 1606.3448   138.8198    13.1024     2.2106   123.3380  -999.2500      .7494      .7253      .0164
 1606.4972   137.5442    12.9331     2.2230   113.1552  -999.2500      .7450      .7104      .0165
 1606.6496   136.8640    12.8740     2.2271   124.5913  -999.2500      .7370      .7026      .0165
 1606.8020   137.0357    12.8898     2.2197   122.1542  -999.2500      .7333      .7032      .0165
 1606.9544   137.4144    12.8504     2.2273   116.8701  -999.2500      .7656      .7237      .0167
 1607.1068   138.6076    12.8071     2.2351   110.5066  -999.2500      .8551      .8017      .0167
 1607.2592   139.2157    12.8858     2.2552   106.6287  -999.2500      .8210      .8122      .0168
 1607.4116   140.7789    12.9646     2.2753   111.5142  -999.2500      .7376      .7225      .0169
 1607.5640   141.3437    12.9646     2.2753   111.7786  -999.2500      .7136      .6915      .0169
 1607.7164   140.7366    13.2795     2.2758   110.7778  -999.2500      .7027      .6845      .0170
 1607.8688   140.2852    13.2795     2.2758   110.8139  -999.2500      .7006      .6755      .0170
 1608.0212   141.1772    13.2441     2.2224   101.2228  -999.2500      .7031      .6725      .0169
 1608.1736   141.0818    13.2441     2.2224   117.3685  -999.2500      .7073      .6795      .0169
 1608.3260   139.4219    13.0512     2.2222   106.3754  -999.2500      .7116      .6870      .0169
 1608.4784   137.9334    13.0512     2.2222   107.3267  -999.2500      .7157      .6899      .0168
 1608.6308   138.1008    13.0669     2.2244   119.9221  -999.2500      .7221      .6960      .0167
 1608.7832   137.8111    13.0669     2.2244   126.6132  -999.2500      .7328      .7078      .0166
 1608.9356   138.1928    12.9016     2.2062   120.0180  -999.2500      .7411      .7141      .0165
