~VERSION INFORMATION
VERS.                                                 2.0:   CWLS Log ASCII Standard-VERSION 2.0
WRAP.                                                  NO:   One line per depth step
~Well Information Block
STRT.M                                          1325.1668:   Top Depth
STOP.M                                          3304.3856:   Bottom Depth
STEP.M                                             .15240:   Depth Increment
NULL.                                            -999.250:   Null Value
FLD .                                                 Q15:   Field Name
WELL.                                            15/12-14:   NAME
WBN .                                            15/12-14:   WELLBORE
NATI.                                                 NOR:   COUNTRY
CTRY.                                                 NOR:   COUNTRY
COMP.                                           PERTRA AS:   OPERATOR
PDAT.                                      Mean Sea Level:   PERM DATUM
SON .                                     !NRMW0002615870:   SOURCE OPERATOR NAME
PBWE.                                            15/12-14:   PB WELL ID
APIN.                                            15/12-14:   PB WELLBORE ID
PBWS.                                                 ALL:   PB WELL NAME SET
WDMS.M                                                 84:   WATER DEPTH
~PARAMETER INFORMATION (log)
LNAM.                                           COMPOSITE:   NAME
LTYP.                                             PAP.CMP:   LOG TYPE
LSRV.                                              WL.LOG:   LOG SERVICE
LSOU.                                              PERTRA:   LOG SOURCE
LVSN.                                                   1:   LOG VERSION
BHT .DEGF                                             0.0:   BH TEMP
BHIS.                                                   R:   BRIEF HISTORY
TDD .M                                                0.0:   FINAL TD DRILLER
TDL .M                                                0.0:   FINAL TD LOGGER
DFL .CM3                                              0.0:   FLUID LOSS
FHIS.                                             RAW-LIS:   FULL HISTORY
LCNM.                                         HALLIBURTON:   LOGGING CONTRACTOR
DFD .G/CC                                             0.0:   MUD DENSITY
DFPH.                                                 0.0:   MUD PH
DFV .                                                 0.0:   MUD VISCOSITY
RMS .OHMM                                             0.0:   RM
MST .DEGF                                             0.0:   RM TEMP
RMCS.OHMM                                             0.0:   RMC
MCST.DEGF                                             0.0:   RMC TEMP
RMFS.OHMM                                             0.0:   RMF
MFST.DEGF                                             0.0:   RMF TEMP
STEM.DEGF                                             0.0:   SURFACE TEMPERATURE
TOOL.                                      COMPOSITE_LISE:   TOOL STRING
LDAT.                                          1900/01/01:   DATE LOGGED
QCRM.                   WAITING FOR OPERATOR CONFIRMATION:   QC COMMENT
QCCO.                                             UNKNOWN:   QC COMPANY
~Curve Information Block
#MNEM.UNIT                                        API CODE    No Description
#=========                                        ========    == ===========
DEPT.M                                       00 001 00 00:     1  DEPTH
AC.US/F                                                  :     2  Sonic Transit Time (Slowness)
CALI.IN                                                  :     3  Caliper
DEN.G/CC                                                 :     4  Bulk Density
GR.GAPI                                                  :     5  Gamma Ray
NEUT.FRAC                                                :     6  Neutron Porosity
RDEP.                                                    :     7  Unrecognised
RMED.                                                    :     8  Unrecognised
ROP.                                                     :     9  ROP
~ASCII
# ...
 2374.4408   132.6278    12.8583     2.2489    74.6818  -999.2500      .5989      .5154      .0083
 2374.5932   131.7753    12.8346     2.2869    69.1283  -999.2500      .7905      .6838      .0083
 2374.7456   130.5819    12.8189     2.3457    73.0106  -999.2500      .8215      .7168      .0083
 2374.8980   127.3982    12.7677     2.3587    71.5934  -999.2500      .8575      .7899      .0083
 2375.0504   124.5281    12.9685     2.3099    67.8845  -999.2500      .7727      .7766      .0083
 2375.2028   127.2182    12.9291     2.2934    78.5496  -999.2500      .6208      .6401      .0082
 2375.3552   130.0753    12.8937     2.2693    68.3236  -999.2500      .5427      .5314      .0082
 2375.5076   130.5459    12.9882     2.2777    73.9730  -999.2500      .5079      .4775      .0082
 2375.6600   134.6972    12.9764     2.2771    69.3726  -999.2500      .4998      .4527      .0082
 2375.8124   138.2964    12.9528     2.2575    64.3865  -999.2500      .4869      .4594      .0083
 2375.9648   138.7836    12.9843     2.2597    68.1385  -999.2500      .4643      .4628      .0083
 2376.1172   137.2910    12.9449     2.2735    67.8066  -999.2500      .4524      .4515      .0083
 2376.2696   136.8073    12.8701     2.2684    70.5972  -999.2500      .4570      .4626      .0083
 2376.4220   135.8317    12.9055     2.2588    73.4427  -999.2500      .4540      .4577      .0083
 2376.5744   132.9941    13.0591     2.2671    69.6698  -999.2500      .4565      .4541      .0083
 2376.7268   135.2298    13.1102     2.2618    65.3828  -999.2500      .4460      .4360      .0083
 2376.8792   138.1838    13.1299     2.2522    63.6617  -999.2500      .4335      .4202      .0082
 2377.0316   140.3417    12.9488     2.2487    66.9001  -999.2500      .4559      .4376      .0082
 2377.1840   138.5177    12.9764     2.2557    69.2087  -999.2500      .4554      .4395      .0082
 2377.3364   132.2370    13.0118     2.2630    70.5912  -999.2500      .4192      .4157      .0083
 2377.4888   126.1511    13.1339     2.2652    72.8489  -999.2500      .3883      .3850      .0083
 2377.6412   134.0060    13.1260     2.2562    79.8814  -999.2500      .3724      .3647      .0083
 2377.7936   137.9741    13.0748     2.2294    70.9040  -999.2500      .3735      .3701      .0083
 2377.9460   138.3425    12.9961     2.2228    80.7545  -999.2500      .3621      .3538      .0079
 2378.0984   136.6439    12.8465     2.2339    70.6124  -999.2500      .3877      .3815      .0074
 2378.2508   137.1536    12.7126     2.2654    64.7443  -999.2500      .6101      .6147      .0065
 2378.4032   138.1390    12.8898     2.3733    53.2784  -999.2500      .7537      .7907      .0055
 2378.5556   137.9981    13.2165     2.6082    59.4975  -999.2500      .4742      .4942      .0056
 2378.7080   137.1125    13.0039     2.8218    63.6276  -999.2500      .3593      .3712      .0067
 2378.8604   133.1560    12.3740     2.7973    73.7431  -999.2500      .3868      .3868      .0077
 2379.0128   129.9239    12.7717     2.3388    73.0484  -999.2500      .4331      .4077      .0081
 2379.1652   129.3324    12.9213     2.2654    75.0193  -999.2500      .4686      .4264      .0082
 2379.3176   133.2628    13.0118     2.2827    68.3264  -999.2500      .4865      .4546      .0082
 2379.4700   136.6388    13.0866     2.2891    72.7895  -999.2500      .4734      .4539      .0082
 2379.6224   138.0406    13.2047     2.2886    75.9047  -999.2500      .4337      .4329      .0082
 2379.7748   139.6682    13.4134     2.2713    71.2784  -999.2500      .4292      .4288      .0083
 2379.9272   139.3329    13.5551     2.2345    70.4291  -999.2500      .4495      .4302      .0083
 2380.0796   139.4553    13.4567     2.2168    75.8264  -999.2500      .4810      .4628      .0083
 2380.2320   139.3030    13.3189     2.2197    74.2461  -999.2500      .4768      .4533      .0083
 2380.3844   139.2520    13.1890     2.2348    74.5310  -999.2500      .4511      .4275      .0082
 2380.5368   139.7523    13.0630     2.2308    69.8857  -999.2500      .4372      .4162      .0082
 2380.6892   138.6783    13.0669     2.2382    67.5956  -999.2500      .4336      .4137      .0083
 2380.8416   137.5270    13.0827     2.2434    76.4062  -999.2500      .4381      .4154      .0083
 2380.9940   139.1579    13.0433     2.2336    72.8701  -999.2500      .4528      .4228      .0084
 2381.1464   139.9731    12.9606     2.2094    73.8158  -999.2500      .4574      .4352      .0083
 2381.2988   136.4769    12.8583     2.2025    73.9239  -999.2500      .4586      .4415      .0083
 2381.4512   136.2140    12.9685     2.2009    72.6826  -999.2500      .4627      .4429      .0083
 2381.6036   139.8100    13.1496     2.1969    77.0003  -999.2500      .4622      .4462      .0083
 2381.7560   143.4349    13.2362     2.1984    70.7713  -999.2500      .4818      .4727      .0083
 2381.9084   142.9050    13.2598     2.2020    71.0887  -999.2500      .4799      .4761      .0083
 2382.0608   140.5868    13.1654     2.1976    71.5787  -999.2500      .4663      .4539      .0083
 2382.2132   138.5468    13.2087     2.2100    81.2071  -999.2500      .4662      .4460      .0083
 2382.3656   137.5217    13.2323     2.2241    74.5945  -999.2500      .5281      .4947      .0083
 2382.5180   136.4089    13.0945     2.2233    65.5402  -999.2500      .5985      .5668      .0083
 2382.6704   136.4320    12.8031     2.2571    71.0492  -999.2500      .6880      .6654      .0083
 2382.8228   135.0136    12.8504     2.3380    77.1900  -999.2500      .6635      .6431      .0083
 2382.9752   132.4445    12.5394     2.6155    74.3381  -999.2500      .5117      .5071      .0083
 2383.1276   136.6514    12.5000     2.7510    69.0016  -999.2500      .4677      .4646      .0083
 2383.2800   137.2991    12.8071     2.4009    69.1000  -999.2500      .4316      .4227      .0084
 2383.4324   138.4735    12.9764     2.2274    73.1621  -999.2500      .4101      .3983      .0083
 2383.5848   138.9705    13.0236     2.2344    67.1701  -999.2500      .4165      .3979      .0083
 2383.7372   139.3353    13.0669     2.2329    67.9002  -999.2500      .4260      .4130      .0083
 2383.8896   139.8247    13.1024     2.2182    70.1115  -999.2500      .4299      .4246      .0083
 2384.0420   139.1240    13.1063     2.2132    73.1274  -999.2500      .4176      .4152      .0083
 2384.1944   138.4907    13.0630     2.2194    71.0138  -999.2500      .4154      .4105      .0083
 2384.3468   140.0755    13.0394     2.2248    65.8114  -999.2500      .4234      .4161      .0084
 2384.4992   140.4730    13.1260     2.2290    71.7613  -999.2500      .4285      .4177      .0083
 2384.6516   139.9923    13.1339     2.2363    66.4086  -999.2500      .4256      .4083      .0083
 2384.8040   139.0715    13.1378     2.2449    70.2449  -999.2500      .4242      .4080      .0084
 2384.9564   139.0508    13.0827     2.2375    64.8939  -999.2500      .4236      .4151      .0083
 2385.1088   138.1000    13.0354     2.2316    64.5592  -999.2500      .4220      .4140      .0083
 2385.2612   137.6451    12.9921     2.2309    69.3226  -999.2500      .4296      .4211      .0083
 2385.4136   135.5421    13.0118     2.2379    73.2665  -999.2500      .4390      .4287      .0084
 2385.5660   134.4839    12.9921     2.2409    77.3988  -999.2500      .4353      .4328      .0083
 2385.7184   136.9653    12.9173     2.2334    73.6015  -999.2500      .4206      .4193      .0083
 2385.8708   139.4514    12.9291     2.2242    72.4974  -999.2500      .4216      .4219      .0083
 2386.0232   140.2410    13.0866     2.2261    75.1531  -999.2500      .4306      .4272      .0083
 2386.1756   139.6486    13.2441     2.2323    68.6345  -999.2500      .4298      .4242      .0083
 2386.3280   139.3850    13.3622     2.2432    69.4227  -999.2500      .4381      .4238      .0083
 2386.4804   137.5557    13.3189     2.2533    73.5147  -999.2500      .4198      .4078      .0083
 2386.6328   136.2898    13.2205     2.2647    69.7805  -999.2500      .3916      .3719      .0083
