~VERSION INFORMATION
VERS.                                                 2.0:   CWLS Log ASCII Standard-VERSION 2.0
WRAP.                                                  NO:   One line per depth step
~Well Information Block
STRT.M                                          1325.1668:   Top Depth
STOP.M                                          3304.3856:   Bottom Depth
STEP.M                                             .15240:   Depth Increment
NULL.                                            -999.250:   Null Value
FLD .                                                 Q15:   Field Name
WELL.                                            15/12-14:   NAME
WBN .                                            15/12-14:   WELLBORE
NATI.                                                 NOR:   COUNTRY
CTRY.                                                 NOR:   COUNTRY
COMP.                                           PERTRA AS:   OPERATOR
PDAT.                                      Mean Sea Level:   PERM DATUM
SON .                                     !NRMW0002615870:   SOURCE OPERATOR NAME
PBWE.                                            15/12-14:   PB WELL ID
APIN.                                            15/12-14:   PB WELLBORE ID
PBWS.                                                 ALL:   PB WELL NAME SET
WDMS.M                                                 84:   WATER DEPTH
~PARAMETER INFORMATION (log)
LNAM.                                           COMPOSITE:   NAME
LTYP.                                             PAP.CMP:   LOG TYPE
LSRV.                                              WL.LOG:   LOG SERVICE
LSOU.                                              PERTRA:   LOG SOURCE
LVSN.                                                   1:   LOG VERSION
BHT .DEGF                                             0.0:   BH TEMP
BHIS.                                                   R:   BRIEF HISTORY
TDD .M                                                0.0:   FINAL TD DRILLER
TDL .M                                                0.0:   FINAL TD LOGGER
DFL .CM3                                              0.0:   FLUID LOSS
FHIS.                                             RAW-LIS:   FULL HISTORY
LCNM.                                         HALLIBURTON:   LOGGING CONTRACTOR
DFD .G/CC                                             0.0:   MUD DENSITY
DFPH.                                                 0.0:   MUD PH
DFV .                                                 0.0:   MUD VISCOSITY
RMS .OHMM                                             0.0:   RM
MST .DEGF                                             0.0:   RM TEMP
RMCS.OHMM                                             0.0:   RMC
MCST.DEGF                                             0.0:   RMC TEMP
RMFS.OHMM                                             0.0:   RMF
MFST.DEGF                                             0.0:   RMF TEMP
STEM.DEGF                                             0.0:   SURFACE TEMPERATURE
TOOL.                                      COMPOSITE_LISE:   TOOL STRING
LDAT.                                          1900/01/01:   DATE LOGGED
QCRM.                   WAITING FOR OPERATOR CONFIRMATION:   QC COMMENT
QCCO.                                             UNKNOWN:   QC COMPANY
~Curve Information Block
#MNEM.UNIT                                        API CODE    No Description
#=========                                        ========    == ===========
DEPT.M                                       00 001 00 00:     1  DEPTH
AC.US/F                                                  :     2  Sonic Transit Time (Slowness)
CALI.IN                                                  :     3  Caliper
DEN.G/CC                                                 :     4  Bulk Density
GR.GAPI                                                  :     5  Gamma Ray
NEUT.FRAC                                                :     6  Neutron Porosity
RDEP.                                                    :     7  Unrecognised
RMED.                                                    :     8  Unrecognised
ROP.                                                     :     9  ROP
~ASCII
# ...
 1855.9760   142.5250    13.5630     2.1819    96.2019  -999.2500      .5781      .5559      .0111
 1856.1284   139.9590    13.4094     2.1789   109.2350  -999.2500      .5666      .5504      .0111
 1856.2808   139.2078    13.1811     2.1806    96.4213  -999.2500      .5659      .5312      .0111
 1856.4332   139.1843    12.9291     2.1773    88.9038  -999.2500      .5946      .5722      .0111
 1856.5856   140.9782    12.6024     2.2355    98.3272  -999.2500      .6083      .5819      .0111
 1856.7380   140.6433    12.1181     2.3367    96.6965  -999.2500      .5260      .5009      .0111
 1856.8904   140.6768    12.2283     2.4117   105.5702  -999.2500      .5462      .5031      .0111
 1857.0428   139.6919    12.6890     2.2970    94.4196  -999.2500      .5720      .5385      .0111
 1857.1952   139.4630    13.0591     2.2017    89.2160  -999.2500      .5878      .5519      .0111
 1857.3476   142.2661    13.1968     2.1842    90.3338  -999.2500      .5865      .5577      .0110
 1857.5000   144.2507    13.3543     2.2022    89.8257  -999.2500      .5763      .5574      .0111
 1857.6524   144.1886    13.5118     2.2047    93.0249  -999.2500      .5735      .5577      .0111
 1857.8048   143.2445    13.6142     2.2043    91.4840  -999.2500      .5721      .5567      .0111
 1857.9572   142.9834    13.6378     2.1933    99.6596  -999.2500      .5742      .5569      .0111
 1858.1096   142.8923    13.6575     2.1926    89.1217  -999.2500      .5761      .5495      .0111
 1858.2620   142.4570    13.5669     2.1893    94.9593  -999.2500      .5791      .5510      .0111
 1858.4144   141.2253    13.2677     2.1805    85.7267  -999.2500      .5985      .5628      .0111
 1858.5668   139.4937    13.2598     2.1929    91.6414  -999.2500      .6361      .5979      .0111
 1858.7192   138.6391    13.0551     2.1943    93.4268  -999.2500      .6345      .6164      .0111
 1858.8716   138.2074    12.8583     2.1957    84.6294  -999.2500      .6132      .5962      .0111
 1859.0240   139.6560    12.8504     2.1998    94.2720  -999.2500      .6068      .5938      .0111
 1859.1764   140.8659    12.8740     2.2033    90.3161  -999.2500      .6184      .5927      .0111
 1859.3288   141.4353    12.9213     2.2087    97.5444  -999.2500      .6289      .6220      .0111
 1859.4812   141.9231    12.9921     2.2164    96.8423  -999.2500      .6253      .6224      .0110
 1859.6336   144.7390    13.0591     2.2270    98.2721  -999.2500      .5848      .5843      .0111
 1859.7860   144.4559    13.1181     2.2206    97.9220  -999.2500      .5871      .5808      .0110
 1859.9384   143.5566    13.2559     2.2160    98.8505  -999.2500      .5883      .5911      .0111
 1860.0908   143.0485    13.5157     2.2100    97.4922  -999.2500      .5875      .5717      .0111
 1860.2432   141.5002    13.4016     2.1925    91.3397  -999.2500      .5816      .5513      .0111
 1860.3956   141.9627    13.2717     2.1811    83.3625  -999.2500      .5803      .5486      .0111
 1860.5480   141.3780    13.1614     2.1813    84.0959  -999.2500      .5762      .5510      .0111
 1860.7004   140.3798    13.0984     2.1865    92.5992  -999.2500      .5750      .5479      .0111
 1860.8528   141.0050    13.0591     2.1926    81.9222  -999.2500      .5738      .5522      .0111
 1861.0052   140.3595    13.0551     2.1917    89.1705  -999.2500      .5742      .5534      .0111
 1861.1576   140.1059    13.0512     2.1897    97.7520  -999.2500      .5735      .5517      .0111
 1861.3100   137.6330    12.9803     2.2041   101.1743  -999.2500      .5732      .5500      .0111
 1861.4624   138.3412    12.9331     2.2175   110.8648  -999.2500      .5658      .5498      .0111
 1861.6148   140.6194    13.0157     2.2192   103.8461  -999.2500      .5748      .5554      .0111
 1861.7672   142.0804    13.2126     2.2021   100.2260  -999.2500      .5804      .5635      .0111
 1861.9196   142.7388    13.2756     2.1892    92.2524  -999.2500      .5878      .5627      .0111
 1862.0720   142.4724    13.3465     2.1898   100.2887  -999.2500      .5912      .5766      .0110
 1862.2244   142.1863    13.1102     2.2221    92.4386  -999.2500      .6541      .6784      .0106
 1862.3768   142.7845    12.4843     2.3078    96.7012  -999.2500      .7517      .8541      .0098
 1862.5292   142.2285    12.2283     2.6171    91.9619  -999.2500      .6936      .8123      .0087
 1862.6816   143.2774    12.2953     2.7622    79.8378  -999.2500      .5539      .5970      .0079
 1862.8340   141.9448    12.4370     2.8943    94.7558  -999.2500      .5196      .5555      .0084
 1862.9864   140.4266    12.4488     2.8003    94.5219  -999.2500      .5443      .5871      .0097
 1863.1388   141.1248    14.0827     2.4300    93.6372  -999.2500      .5584      .5826      .0104
 1863.2912   143.3471    14.8425     2.1868   102.9450  -999.2500      .5870      .5552      .0107
 1863.4436   145.1444    13.1339     2.1946   100.9061  -999.2500      .5787      .5555      .0109
 1863.5960   144.8582    13.3189     2.1887    97.2774  -999.2500      .5916      .5558      .0109
 1863.7484   142.4847    13.4213     2.1829    88.5025  -999.2500      .6021      .5810      .0109
 1863.9008   141.2765    13.5472     2.1686    89.7201  -999.2500      .5871      .5756      .0109
 1864.0532   139.5342    13.6811     2.1801    93.8959  -999.2500      .5823      .5551      .0109
 1864.2056   139.4132    13.6260     2.1855   102.5058  -999.2500      .5870      .5635      .0109
 1864.3580   139.2092    13.4055     2.1921   101.6492  -999.2500      .5880      .5715      .0109
 1864.5104   138.5714    13.3071     2.1907   103.3191  -999.2500      .5956      .5637      .0109
 1864.6628   138.8863    13.2402     2.1867   117.1473  -999.2500      .5971      .5656      .0109
 1864.8152   138.5216    13.1732     2.1817   115.9925  -999.2500      .5976      .5710      .0109
 1864.9676   137.9885    13.1929     2.1982   110.6557  -999.2500      .6019      .5868      .0109
 1865.1200   139.1759    13.0354     2.1911    98.7119  -999.2500      .5925      .5806      .0109
 1865.2724   140.5889    12.8780     2.1846   103.3915  -999.2500      .5785      .5710      .0109
 1865.4248   141.1337    12.6181     2.1778   103.1690  -999.2500      .5691      .5554      .0109
 1865.5772   141.7360    12.9882     2.1780    95.5788  -999.2500      .5633      .5575      .0109
 1865.7296   142.8113    13.2126     2.1812   101.4081  -999.2500      .5641      .5595      .0109
 1865.8820   144.9033    13.2795     2.1975   101.7444  -999.2500      .5871      .5695      .0109
 1866.0344   146.5280    13.3425     2.1749    97.9914  -999.2500      .6232      .6031      .0109
 1866.1868   145.7176    13.3701     2.1731    97.5069  -999.2500      .6589      .6411      .0108
 1866.3392   144.4496    13.3898     2.1899    81.9872  -999.2500      .6554      .6546      .0108
 1866.4916   142.7484    13.3465     2.1976    89.9704  -999.2500      .6489      .6377      .0109
 1866.6440   141.9571    13.3228     2.2026    88.6274  -999.2500      .6413      .6304      .0109
 1866.7964   139.6704    13.2953     2.2087    90.1485  -999.2500      .6343      .6093      .0109
 1866.9488   140.5639    12.9528     2.1903   107.6790  -999.2500      .6212      .5912      .0109
 1867.1012   138.7919    12.9252     2.2029   116.6515  -999.2500      .6196      .5854      .0108
 1867.2536   138.5917    12.9370     2.2176    95.0505  -999.2500      .6099      .5795      .0109
 1867.4060   138.9755    12.9528     2.2045   100.5084  -999.2500      .6086      .5804      .0109
 1867.5584   139.9041    12.8976     2.1996    97.6519  -999.2500      .6113      .5877      .0109
 1867.7108   141.2687    12.9803     2.1962   109.2836  -999.2500      .6173      .5904      .0109
 1867.8632   140.9225    13.1457     2.1920   103.4283  -999.2500      .6149      .5968      .0109
 1868.0156   141.6757    13.3583     2.2269   103.0371  -999.2500      .6212      .5909      .0109
 1868.1680   142.5373    13.4134     2.2268    99.7893  -999.2500      .6213      .6004      .0108
