~VERSION INFORMATION
VERS.                                                 2.0:   CWLS Log ASCII Standard-VERSION 2.0
WRAP.                                                  NO:   One line per depth step
~Well Information Block
STRT.M                                          1325.1668:   Top Depth
STOP.M                                          3304.3856:   Bottom Depth
STEP.M                                             .15240:   Depth Increment
NULL.                                            -999.250:   Null Value
FLD .                                                 Q15:   Field Name
WELL.                                            15/12-14:   NAME
WBN .                                            15/12-14:   WELLBORE
NATI.                                                 NOR:   COUNTRY
CTRY.                                                 NOR:   COUNTRY
COMP.                                           PERTRA AS:   OPERATOR
PDAT.                                      Mean Sea Level:   PERM DATUM
SON .                                     !NRMW0002615870:   SOURCE OPERATOR NAME
PBWE.                                            15/12-14:   PB WELL ID
APIN.                                            15/12-14:   PB WELLBORE ID
PBWS.                                                 ALL:   PB WELL NAME SET
WDMS.M                                                 84:   WATER DEPTH
~PARAMETER INFORMATION (log)
LNAM.                                           COMPOSITE:   NAME
LTYP.                                             PAP.CMP:   LOG TYPE
LSRV.                                              WL.LOG:   LOG SERVICE
LSOU.                                              PERTRA:   LOG SOURCE
LVSN.                                                   1:   LOG VERSION
BHT .DEGF                                             0.0:   BH TEMP
BHIS.                                                   R:   BRIEF HISTORY
TDD .M                                                0.0:   FINAL TD DRILLER
TDL .M                                                0.0:   FINAL TD LOGGER
DFL .CM3                                              0.0:   FLUID LOSS
FHIS.                                             RAW-LIS:   FULL HISTORY
LCNM.                                         HALLIBURTON:   LOGGING CONTRACTOR
DFD .G/CC                                             0.0:   MUD DENSITY
DFPH.                                                 0.0:   MUD PH
DFV .                                                 0.0:   MUD VISCOSITY
RMS .OHMM                                             0.0:   RM
MST .DEGF                                             0.0:   RM TEMP
RMCS.OHMM                                             0.0:   RMC
MCST.DEGF                                             0.0:   RMC TEMP
RMFS.OHMM                                             0.0:   RMF
MFST.DEGF                                             0.0:   RMF TEMP
STEM.DEGF                                             0.0:   SURFACE TEMPERATURE
TOOL.                                      COMPOSITE_LISE:   TOOL STRING
LDAT.                                          1900/01/01:   DATE LOGGED
QCRM.                   WAITING FOR OPERATOR CONFIRMATION:   QC COMMENT
QCCO.                                             UNKNOWN:   QC COMPANY
~Curve Information Block
#MNEM.UNIT                                        API CODE    No Description
#=========                                        ========    == ===========
DEPT.M                                       00 001 00 00:     1  DEPTH
AC.US/F                                                  :     2  Sonic Transit Time (Slowness)
CALI.IN                                                  :     3  Caliper
DEN.G/CC                                                 :     4  Bulk Density
GR.GAPI                                                  :     5  Gamma Ray
NEUT.FRAC                                                :     6  Neutron Porosity
RDEP.                                                    :     7  Unrecognised
RMED.                                                    :     8  Unrecognised
ROP.                                                     :     9  ROP
~ASCII
# ...
 2510.2292   117.9761    13.0433     2.3157    78.5836  -999.2500      .6574      .6119      .0083
 2510.3816   116.5805    13.0787     2.3092    73.2183  -999.2500      .7203      .6364      .0084
 2510.5340   115.4894    12.9961     2.3046    71.6176  -999.2500      .8262      .7054      .0084
 2510.6864   115.4947    12.8898     2.3119    69.7563  -999.2500      .8767      .7664      .0084
 2510.8388   114.8050    12.8661     2.3280    68.6359  -999.2500      .8031      .7446      .0084
 2510.9912   114.0847    12.7165     2.3303    75.9248  -999.2500      .7615      .7198      .0083
 2511.1436   113.9012    12.6732     2.3260    65.0678  -999.2500      .7619      .7219      .0082
 2511.2960   113.6651    12.4961     2.3399    59.0760  -999.2500      .7669      .7239      .0082
 2511.4484   112.9978    12.5669     2.3687    75.2801  -999.2500      .7161      .6745      .0083
 2511.6008   112.5441    12.7559     2.4022    68.5635  -999.2500      .6840      .6472      .0083
 2511.7532   112.4502    12.8780     2.3925    63.5614  -999.2500      .7492      .7108      .0083
 2511.9056   112.9401    12.7008     2.3504    69.2642  -999.2500      .8007      .7681      .0082
 2512.0580   113.0880    12.7520     2.3280    71.8069  -999.2500      .7934      .7752      .0081
 2512.2104   113.3675    12.8543     2.3448    64.8743  -999.2500      .7561      .7424      .0081
 2512.3628   112.7975    12.6535     2.3341    60.3935  -999.2500      .7490      .7388      .0082
 2512.5152   112.1331    12.6732     2.3101    57.8807  -999.2500      .7425      .7243      .0083
 2512.6676   111.6175    12.7874     2.3227    63.4483  -999.2500      .7365      .7067      .0084
 2512.8200   110.9946    12.6811     2.3187    47.2066  -999.2500      .7342      .7090      .0084
 2512.9724   110.6992    12.6811     2.3079    61.6856  -999.2500      .7285      .7032      .0084
 2513.1248   109.9375    12.7126     2.3164    76.0366  -999.2500      .7490      .7164      .0084
 2513.2772   108.6706    12.4331     2.3064    67.1527  -999.2500      .7535      .7287      .0083
 2513.4296   110.7061    12.2992     2.3006    63.6743  -999.2500      .7465      .7331      .0082
 2513.5820   112.6283    12.8543     2.3421    58.9249  -999.2500      .7454      .7293      .0082
 2513.7344   114.1217    12.8150     2.3406    61.6166  -999.2500      .7446      .7118      .0082
 2513.8868   114.1692    12.8858     2.3291    69.1031  -999.2500      .7766      .7362      .0084
 2514.0392   113.9834    12.7087     2.3158    73.9310  -999.2500      .8128      .7915      .0084
 2514.1916   112.1233    12.8071     2.3479    72.9428  -999.2500      .7141      .7120      .0084
 2514.3440   109.9395    12.8346     2.3551    76.9352  -999.2500      .6734      .6591      .0084
 2514.4964   109.1443    12.9961     2.3162    63.1638  -999.2500      .6757      .6551      .0083
 2514.6488   110.9105    12.7953     2.3140    62.8689  -999.2500      .7087      .6885      .0081
 2514.8012   111.1999    12.7244     2.3273    62.2550  -999.2500      .7327      .7183      .0080
 2514.9536   112.3551    12.6811     2.3443    71.0833  -999.2500      .6965      .6916      .0080
 2515.1060   113.1077    12.7205     2.3588    63.1355  -999.2500      .6714      .6547      .0080
 2515.2584   113.3539    12.6614     2.3478    63.1199  -999.2500      .7089      .6712      .0082
 2515.4108   111.4841    12.2126     2.3021    71.7373  -999.2500      .7923      .7226      .0082
 2515.5632   110.1381    12.4134     2.3162    77.4981  -999.2500      .8554      .7772      .0082
 2515.7156   110.2701    12.5984     2.3001    68.8338  -999.2500      .8807      .8142      .0082
 2515.8680   110.5864    12.6496     2.3216    66.0881  -999.2500      .8185      .7914      .0083
 2516.0204   109.8202    12.5354     2.3399    78.8163  -999.2500      .6911      .6686      .0083
 2516.1728   108.6938    12.6181     2.3402    70.9059  -999.2500      .7227      .6967      .0083
 2516.3252   107.6339    12.8976     2.3712    67.8058  -999.2500      .8381      .8054      .0083
 2516.4776   107.2443    12.8110     2.3759    63.6765  -999.2500      .8630      .8564      .0083
 2516.6300   107.9304    12.8071     2.3620    46.6300  -999.2500      .7630      .7682      .0083
 2516.7824   111.0010    12.8819     2.3394    53.5869  -999.2500      .7178      .7357      .0083
 2516.9348   114.5215    12.9094     2.2990    63.9015  -999.2500      .7540      .7636      .0083
 2517.0872   116.5752    13.2441     2.2819    69.6332  -999.2500      .7604      .7521      .0083
 2517.2396   117.3405    12.7480     2.3381    79.7116  -999.2500      .7465      .7177      .0083
 2517.3920   115.4624    12.8937     2.3627    91.0600  -999.2500      .7049      .6688      .0083
 2517.5444   114.7492    12.6417     2.3682    82.4324  -999.2500      .7005      .6611      .0082
 2517.6968   114.6070    12.6063     2.3424    76.7109  -999.2500      .7137      .6563      .0081
 2517.8492   114.9291    12.7874     2.3570    63.9734  -999.2500      .7251      .6717      .0080
 2518.0016   116.3080    12.8110     2.3622    69.3752  -999.2500      .7394      .6951      .0078
 2518.1540   116.5764    12.7717     2.3644    70.7242  -999.2500      .7416      .7114      .0076
 2518.3064   115.6002    12.6535     2.3541    65.1659  -999.2500      .7299      .7083      .0075
 2518.4588   114.0983    12.5512     2.3413    74.6960  -999.2500      .6952      .6809      .0075
 2518.6112   111.3173    12.5984     2.3418    69.0967  -999.2500      .6665      .6477      .0075
 2518.7636   108.7439    12.6732     2.3328    60.2359  -999.2500      .6956      .6688      .0075
 2518.9160   105.7206    12.8858     2.3314    56.3400  -999.2500      .7314      .7025      .0075
 2519.0684   105.8722    12.9409     2.3165    53.2502  -999.2500      .7205      .6973      .0075
 2519.2208   106.9314    13.0276     2.2877    50.9960  -999.2500      .7066      .6841      .0074
 2519.3732   107.4880    12.7205     2.2597    56.5266  -999.2500      .7124      .6957      .0071
 2519.5256   108.6244    12.9488     2.2702    49.2274  -999.2500      .7207      .7059      .0070
 2519.6780   109.6463    13.0315     2.2834    50.4418  -999.2500      .7023      .6842      .0072
 2519.8304   110.7941    12.9961     2.2732    54.9038  -999.2500      .6734      .6500      .0074
 2519.9828   112.3233    13.1417     2.2487    57.5304  -999.2500      .6998      .6778      .0076
 2520.1352   113.0608    13.0394     2.2450    59.0727  -999.2500      .7548      .7430      .0077
 2520.2876   113.4902    12.5709     2.2832    57.5337  -999.2500      .7732      .7724      .0077
 2520.4400   112.6855    12.6614     2.3411    60.8367  -999.2500      .7503      .7563      .0078
 2520.5924   111.6995    12.6417     2.3256    55.3040  -999.2500      .7417      .7488      .0078
 2520.7448   110.3678    12.6024     2.3096    63.3221  -999.2500      .7228      .7292      .0078
 2520.8972   108.8661    12.6890     2.3030    60.3835  -999.2500      .7164      .7089      .0078
 2521.0496   105.1961    12.6535     2.2925    61.3190  -999.2500      .7275      .7028      .0077
 2521.2020   104.3067    12.6181     2.2734    56.4439  -999.2500      .7377      .7153      .0077
 2521.3544   105.2011    12.7047     2.2788    67.0369  -999.2500      .7605      .7414      .0078
 2521.5068   105.6624    13.0276     2.2858    69.3418  -999.2500      .7751      .7498      .0078
 2521.6592   105.9876    12.8740     2.3341    66.7371  -999.2500      .7786      .7633      .0078
 2521.8116   107.2400    12.9803     2.3508    72.0702  -999.2500      .8073      .7918      .0078
 2521.9640   109.8570    12.8819     2.3315    65.1729  -999.2500      .8259      .8145      .0076
 2522.1164   112.7994    12.6535     2.3197    58.0795  -999.2500      .8089      .7976      .0076
 2522.2688   114.1243    12.5630     2.3216    54.5078  -999.2500      .7851      .7756      .0075
 2522.4212   114.8170    12.6299     2.3294    54.4099  -999.2500      .7374      .7469      .0075
