~VERSION INFORMATION
VERS.                                                 2.0:   CWLS Log ASCII Standard-VERSION 2.0
WRAP.                                                  NO:   One line per depth step
~Well Information Block
STRT.M                                          1325.1668:   Top Depth
STOP.M                                          3304.3856:   Bottom Depth
STEP.M                                             .15240:   Depth Increment
NULL.                                            -999.250:   Null Value
FLD .                                                 Q15:   Field Name
WELL.                                            15/12-14:   NAME
WBN .                                            15/12-14:   WELLBORE
NATI.                                                 NOR:   COUNTRY
CTRY.                                                 NOR:   COUNTRY
COMP.                                           PERTRA AS:   OPERATOR
PDAT.                                      Mean Sea Level:   PERM DATUM
SON .                                     !NRMW0002615870:   SOURCE OPERATOR NAME
PBWE.                                            15/12-14:   PB WELL ID
APIN.                                            15/12-14:   PB WELLBORE ID
PBWS.                                                 ALL:   PB WELL NAME SET
WDMS.M                                                 84:   WATER DEPTH
~PARAMETER INFORMATION (log)
LNAM.                                           COMPOSITE:   NAME
LTYP.                                             PAP.CMP:   LOG TYPE
LSRV.                                              WL.LOG:   LOG SERVICE
LSOU.                                              PERTRA:   LOG SOURCE
LVSN.                                                   1:   LOG VERSION
BHT .DEGF                                             0.0:   BH TEMP
BHIS.                                                   R:   BRIEF HISTORY
TDD .M                                                0.0:   FINAL TD DRILLER
TDL .M                                                0.0:   FINAL TD LOGGER
DFL .CM3                                              0.0:   FLUID LOSS
FHIS.                                             RAW-LIS:   FULL HISTORY
LCNM.                                         HALLIBURTON:   LOGGING CONTRACTOR
DFD .G/CC                                             0.0:   MUD DENSITY
DFPH.                                                 0.0:   MUD PH
DFV .                                                 0.0:   MUD VISCOSITY
RMS .OHMM                                             0.0:   RM
MST .DEGF                                             0.0:   RM TEMP
RMCS.OHMM                                             0.0:   RMC
MCST.DEGF                                             0.0:   RMC TEMP
RMFS.OHMM                                             0.0:   RMF
MFST.DEGF                                             0.0:   RMF TEMP
STEM.DEGF                                             0.0:   SURFACE TEMPERATURE
TOOL.                                      COMPOSITE_LISE:   TOOL STRING
LDAT.                                          1900/01/01:   DATE LOGGED
QCRM.                   WAITING FOR OPERATOR CONFIRMATION:   QC COMMENT
QCCO.                                             UNKNOWN:   QC COMPANY
~Curve Information Block
#MNEM.UNIT                                        API CODE    No Description
#=========                                        ========    == ===========
DEPT.M                                       00 001 00 00:     1  DEPTH
AC.US/F                                                  :     2  Sonic Transit Time (Slowness)
CALI.IN                                                  :     3  Caliper
DEN.G/CC                                                 :     4  Bulk Density
GR.GAPI                                                  :     5  Gamma Ray
NEUT.FRAC                                                :     6  Neutron Porosity
RDEP.                                                    :     7  Unrecognised
RMED.                                                    :     8  Unrecognised
ROP.                                                     :     9  ROP
~ASCII
# ...
 2633.6732    73.2188    12.4961     2.5150    22.8201  -999.2500     2.4681     2.4184      .0058
 2633.8256    71.3361    12.4567     2.5179    23.1202  -999.2500     2.4553     2.4214      .0057
 2633.9780    72.3909    12.7087     2.5481    22.2027  -999.2500     2.4417     2.3971      .0058
 2634.1304    71.2226    12.6024     2.5215    24.3459  -999.2500     2.4683     2.3734      .0059
 2634.2828    69.6411    12.4173     2.5210    25.1965  -999.2500     2.5010     2.3735      .0060
 2634.4352    68.4857    12.1693     2.5178    32.5910  -999.2500     2.6199     2.4803      .0061
 2634.5876    68.3789    12.2087     2.5367    34.9512  -999.2500     2.8883     2.8390      .0059
 2634.7400    69.1058    12.3268     2.5199    30.7510  -999.2500     3.1544     3.1927      .0055
 2634.8924    69.6841    12.3386     2.5372    21.7480  -999.2500     3.2397     3.3174      .0050
 2635.0448    70.1465    12.3543     2.5522    18.3361  -999.2500     2.9156     3.0345      .0046
 2635.1972    70.6714    12.5039     2.5771    20.3080  -999.2500     2.7216     2.8362      .0048
 2635.3496    72.3860    12.6063     2.5533    20.6587  -999.2500     2.7223     2.7959      .0050
 2635.5020    72.7816    12.4488     2.5343    30.3105  -999.2500     2.5721     2.6095      .0050
 2635.6544    71.7278    12.2126     2.5361    32.9628  -999.2500     2.5640     2.4877      .0051
 2635.8068    70.4241    12.2165     2.5464    25.0546  -999.2500     2.5668     2.4776      .0050
 2635.9592    69.6653    12.4134     2.5614    26.8281  -999.2500     2.4609     2.3694      .0050
 2636.1116    69.9362    12.5433     2.5567    29.0073  -999.2500     2.5713     2.4367      .0052
 2636.2640    70.2616    12.3780     2.5516    23.4764  -999.2500     2.6442     2.5699      .0051
 2636.4164    70.2283    12.1575     2.5248    25.9804  -999.2500     2.8854     2.7755      .0049
 2636.5688    70.4035    12.3740     2.5520    22.5607  -999.2500     2.7348     2.6704      .0047
 2636.7212    70.4002    12.3346     2.5557    26.2031  -999.2500     2.5164     2.5274      .0049
 2636.8736    70.8039    12.3661     2.5376    26.5303  -999.2500     2.5311     2.5750      .0052
 2637.0260    69.9542    12.3622     2.5374    19.0813  -999.2500     2.6307     2.6784      .0052
 2637.1784    70.7452    12.1968     2.5295    24.3422  -999.2500     2.6295     2.6789      .0051
 2637.3308    70.7035    12.1968     2.5433    27.3775  -999.2500     2.4987     2.4723      .0052
 2637.4832    70.8720    12.2913     2.5096    26.2492  -999.2500     2.4328     2.3836      .0054
 2637.6356    71.1350    12.2992     2.5104    23.6101  -999.2500     2.5343     2.4248      .0053
 2637.7880    70.5692    12.3622     2.5183    24.4283  -999.2500     2.4745     2.3582      .0054
 2637.9404    69.5529    12.3307     2.5123    26.6438  -999.2500     2.4955     2.3314      .0056
 2638.0928    69.0851    12.3386     2.5167    28.7256  -999.2500     2.5842     2.4672      .0057
 2638.2452    69.1004    12.4567     2.5343    24.8530  -999.2500     2.6772     2.6138      .0055
 2638.3976    68.2932    12.3465     2.5166    18.1507  -999.2500     2.8060     2.7479      .0053
 2638.5500    67.0290    12.4449     2.5252    20.5752  -999.2500     2.8877     2.8554      .0050
 2638.7024    67.5234    12.5197     2.5562    22.0278  -999.2500     2.8654     2.8489      .0049
 2638.8548    67.9230    12.4134     2.5366    18.8659  -999.2500     2.8817     2.8917      .0049
 2639.0072    67.9085    12.2677     2.5373    17.7423  -999.2500     2.9794     2.9859      .0048
 2639.1596    67.2147    12.3268     2.5502    20.9892  -999.2500     2.9878     2.9596      .0047
 2639.3120    66.7389    12.4449     2.5437    19.8443  -999.2500     2.9747     2.8808      .0047
 2639.4644    67.5084    12.4213     2.5379    21.7923  -999.2500     3.0916     2.9962      .0047
 2639.6168    68.2374    12.3504     2.5441    22.2805  -999.2500     3.0986     3.0446      .0047
 2639.7692    68.8231    12.4331     2.5519    27.9585  -999.2500     3.2126     3.1502      .0048
 2639.9216    68.3269    12.4803     2.5599    24.1083  -999.2500     3.2523     3.2043      .0047
 2640.0740    69.1245    12.4488     2.5548    25.5795  -999.2500     3.1543     3.1927      .0047
 2640.2264    69.6977    12.3898     2.5427    19.4660  -999.2500     3.1699     3.1904      .0047
 2640.3788    70.3285    12.4606     2.5494    23.8843  -999.2500     3.0352     3.0511      .0046
 2640.5312    71.7024    12.4409     2.5457    24.6524  -999.2500     2.7230     2.7573      .0045
 2640.6836    72.8508    12.3898     2.5402    29.2927  -999.2500     2.5352     2.5483      .0048
 2640.8360    72.7147    12.3780     2.5332    26.1764  -999.2500     2.5431     2.5324      .0049
 2640.9884    73.8398    12.3819     2.5273    28.0906  -999.2500     2.2923     2.2651      .0049
 2641.1408    73.1232    12.4685     2.5107    25.5320  -999.2500     2.2046     2.0949      .0053
 2641.2932    72.4488    12.4016     2.5072    28.2765  -999.2500     2.1286     2.0423      .0054
 2641.4456    72.4889    12.3819     2.5007    28.5937  -999.2500     2.1174     2.0315      .0055
 2641.5980    71.8329    12.5630     2.5270    26.0215  -999.2500     2.1750     2.0638      .0056
 2641.7504    70.6078    12.4724     2.5230    27.0234  -999.2500     2.1898     2.0718      .0056
 2641.9028    69.8397    12.3898     2.5206    27.0861  -999.2500     2.1489     2.0959      .0057
 2642.0552    70.4421    12.6181     2.5334    26.6549  -999.2500     2.2392     2.2218      .0057
 2642.2076    71.8826    12.5866     2.5118    24.3315  -999.2500     2.3147     2.3757      .0056
 2642.3600    72.0372    12.4409     2.5068    24.6208  -999.2500     2.3029     2.4028      .0053
 2642.5124    73.8957    12.5394     2.5231    27.3572  -999.2500     2.1670     2.2381      .0053
 2642.6648    73.8359    12.4921     2.5151    19.8156  -999.2500     1.9870     2.0038      .0055
 2642.8172    73.4172    12.4961     2.5026    21.2205  -999.2500     1.9761     1.9505      .0058
 2642.9696    71.3434    12.6102     2.4787    27.5740  -999.2500     2.0200     1.9502      .0063
 2643.1220    70.7262    12.5157     2.4922    27.6522  -999.2500     2.0882     1.9731      .0066
 2643.2744    70.8311    12.4764     2.4914    26.7304  -999.2500     2.1887     2.0944      .0067
 2643.4268    70.7170    12.4370     2.4938    22.9816  -999.2500     2.2172     2.1562      .0065
 2643.5792    72.2391    12.4528     2.5046    24.8352  -999.2500     2.1512     2.1267      .0062
 2643.7316    72.3904    12.3386     2.5028    23.2063  -999.2500     2.1628     2.1264      .0060
 2643.8840    74.6744    12.4449     2.5093    20.8328  -999.2500     2.0899     2.0881      .0060
 2644.0364    75.4979    12.4685     2.5171    27.1629  -999.2500     2.0084     2.0078      .0058
 2644.1888    76.2608    12.4213     2.5029    26.3657  -999.2500     2.0053     1.9883      .0059
 2644.3412    76.2694    12.5039     2.4970    28.4881  -999.2500     1.9965     1.9605      .0063
 2644.4936    75.8661    12.6339     2.5142    27.8476  -999.2500     1.9971     1.9499      .0065
 2644.6460    75.8070    12.4173     2.4994    27.5797  -999.2500     2.0002     1.9415      .0067
 2644.7984    75.8702    12.4685     2.4856    25.7963  -999.2500     1.9938     1.9413      .0069
 2644.9508    76.1642    12.5039     2.4882    27.3733  -999.2500     1.9808     1.9388      .0067
 2645.1032    76.7250    12.5197     2.4902    27.0002  -999.2500     1.9318     1.9066      .0065
 2645.2556    77.8301    12.4685     2.4735    26.8392  -999.2500     1.9109     1.8993      .0064
 2645.4080    78.9187    12.3622     2.4563    23.5249  -999.2500     1.8947     1.9002      .0063
 2645.5604    79.1359    12.3268     2.4812    26.2620  -999.2500     1.8574     1.8601      .0061
 2645.7128    78.8167    12.4488     2.4880    25.9207  -999.2500     1.8030     1.7806      .0062
 2645.8652    78.2001    12.6654     2.4899    32.5892  -999.2500     1.7594     1.7088      .0066
