~VERSION INFORMATION
VERS.                                                 2.0:   CWLS Log ASCII Standard-VERSION 2.0
WRAP.                                                  NO:   One line per depth step
~Well Information Block
STRT.M                                          1325.1668:   Top Depth
STOP.M                                          3304.3856:   Bottom Depth
STEP.M                                             .15240:   Depth Increment
NULL.                                            -999.250:   Null Value
FLD .                                                 Q15:   Field Name
WELL.                                            15/12-14:   NAME
WBN .                                            15/12-14:   WELLBORE
NATI.                                                 NOR:   COUNTRY
CTRY.                                                 NOR:   COUNTRY
COMP.                                           PERTRA AS:   OPERATOR
PDAT.                                      Mean Sea Level:   PERM DATUM
SON .                                     !NRMW0002615870:   SOURCE OPERATOR NAME
PBWE.                                            15/12-14:   PB WELL ID
APIN.                                            15/12-14:   PB WELLBORE ID
PBWS.                                                 ALL:   PB WELL NAME SET
WDMS.M                                                 84:   WATER DEPTH
~PARAMETER INFORMATION (log)
LNAM.                                           COMPOSITE:   NAME
LTYP.                                             PAP.CMP:   LOG TYPE
LSRV.                                              WL.LOG:   LOG SERVICE
LSOU.                                              PERTRA:   LOG SOURCE
LVSN.                                                   1:   LOG VERSION
BHT .DEGF                                             0.0:   BH TEMP
BHIS.                                                   R:   BRIEF HISTORY
TDD .M                                                0.0:   FINAL TD DRILLER
TDL .M                                                0.0:   FINAL TD LOGGER
DFL .CM3                                              0.0:   FLUID LOSS
FHIS.                                             RAW-LIS:   FULL HISTORY
LCNM.                                         HALLIBURTON:   LOGGING CONTRACTOR
DFD .G/CC                                             0.0:   MUD DENSITY
DFPH.                                                 0.0:   MUD PH
DFV .                                                 0.0:   MUD VISCOSITY
RMS .OHMM                                             0.0:   RM
MST .DEGF                                             0.0:   RM TEMP
RMCS.OHMM                                             0.0:   RMC
MCST.DEGF                                             0.0:   RMC TEMP
RMFS.OHMM                                             0.0:   RMF
MFST.DEGF                                             0.0:   RMF TEMP
STEM.DEGF                                             0.0:   SURFACE TEMPERATURE
TOOL.                                      COMPOSITE_LISE:   TOOL STRING
LDAT.                                          1900/01/01:   DATE LOGGED
QCRM.                   WAITING FOR OPERATOR CONFIRMATION:   QC COMMENT
QCCO.                                             UNKNOWN:   QC COMPANY
~Curve Information Block
#MNEM.UNIT                                        API CODE    No Description
#=========                                        ========    == ===========
DEPT.M                                       00 001 00 00:     1  DEPTH
AC.US/F                                                  :     2  Sonic Transit Time (Slowness)
CALI.IN                                                  :     3  Caliper
DEN.G/CC                                                 :     4  Bulk Density
GR.GAPI                                                  :     5  Gamma Ray
NEUT.FRAC                                                :     6  Neutron Porosity
RDEP.                                                    :     7  Unrecognised
RMED.                                                    :     8  Unrecognised
ROP.                                                     :     9  ROP
~ASCII
# ...
 1337.5112    53.0309  -999.2500  -999.2500    56.4242  -999.2500  2000.0000   300.2268  -999.2500
 1337.6636    53.1535  -999.2500  -999.2500    55.0160  -999.2500  2000.0000   408.4915  -999.2500
 1337.8160    53.1890  -999.2500  -999.2500    55.4876  -999.2500  2000.0000   502.2339  -999.2500
 1337.9684    53.3320  -999.2500  -999.2500    54.6445  -999.2500  1935.6211   392.6744  -999.2500
 1338.1208    53.8543  -999.2500  -999.2500    54.2788  -999.2500  1559.4814   384.0831  -999.2500
 1338.2732    53.0937  -999.2500  -999.2500    57.4073  -999.2500  1892.6948   548.2748  -999.2500
 1338.4256    52.7595  -999.2500  -999.2500    59.5104  -999.2500  1489.7520   663.0089  -999.2500
 1338.5780    52.3917  -999.2500  -999.2500    57.9714  -999.2500   980.4360   680.6606  -999.2500
 1338.7304    52.0735  -999.2500  -999.2500    59.2138  -999.2500  1258.3699   967.7894  -999.2500
 1338.8828    51.9546  -999.2500  -999.2500    58.9098  -999.2500  1290.6523  1318.7402  -999.2500
 1339.0352    52.8601  -999.2500  -999.2500    58.1458  -999.2500  1503.5369  1464.9336  -999.2500
 1339.1876    53.2809  -999.2500  -999.2500    56.8584  -999.2500  1230.2607  1383.8945  -999.2500
 1339.3400    53.6827  -999.2500  -999.2500    55.8143  -999.2500   820.5568  1237.6853  -999.2500
 1339.4924    53.3346  -999.2500  -999.2500    53.7666  -999.2500  1407.4824  1358.2900  -999.2500
 1339.6448    52.9238  -999.2500  -999.2500    49.5873  -999.2500  1292.5459  1329.3899  -999.2500
 1339.7972    52.5093  -999.2500  -999.2500    49.3901  -999.2500   947.6616  1224.6636  -999.2500
 1339.9496    53.5529  -999.2500  -999.2500    49.3729  -999.2500   791.1626  1213.5298  -999.2500
 1340.1020    53.6126  -999.2500  -999.2500    48.9586  -999.2500  1010.3726   820.7313  -999.2500
 1340.2544    54.0776  -999.2500  -999.2500    53.3438  -999.2500   495.4222   576.6823  -999.2500
 1340.4068    54.2411  -999.2500  -999.2500    54.2288  -999.2500   833.6251  1011.8292  -999.2500
 1340.5592    54.6916  -999.2500  -999.2500    58.2021  -999.2500   767.1498  1587.9321  -999.2500
 1340.7116    54.8085  -999.2500  -999.2500    57.3489  -999.2500   955.8962  1344.4846  -999.2500
 1340.8640    54.6225  -999.2500  -999.2500    60.9226  -999.2500   418.1016   990.2996  -999.2500
 1341.0164    54.4154  -999.2500  -999.2500    62.0946  -999.2500   512.6902   805.3391  -999.2500
 1341.1688    54.3078  -999.2500  -999.2500    60.2961  -999.2500   431.7867  1269.8833  -999.2500
 1341.3212    53.6248  -999.2500  -999.2500    57.6964  -999.2500   336.1297   753.6820  -999.2500
 1341.4736    53.5964  -999.2500  -999.2500    55.9859  -999.2500   321.7574   578.1292  -999.2500
 1341.6260    53.5041  -999.2500  -999.2500    57.4211  -999.2500   400.6417   756.6472  -999.2500
 1341.7784    51.6031  -999.2500  -999.2500    58.6879  -999.2500   942.0937  1020.5193  -999.2500
 1341.9308    49.9118  -999.2500  -999.2500    59.0444  -999.2500   782.7861   625.2200  -999.2500
 1342.0832    50.3700  -999.2500  -999.2500    59.5074  -999.2500   793.1355   881.2173  -999.2500
 1342.2356    50.7216  -999.2500  -999.2500    60.8618  -999.2500   908.6959  1190.2649  -999.2500
 1342.3880    51.7938  -999.2500  -999.2500    62.9217  -999.2500   519.9287   796.4824  -999.2500
 1342.5404    53.6499  -999.2500  -999.2500    63.7411  -999.2500   798.1420  1249.5979  -999.2500
 1342.6928    51.8027  -999.2500  -999.2500    64.4557  -999.2500  1085.3281  1407.9465  -999.2500
 1342.8452    50.5467  -999.2500  -999.2500    65.8608  -999.2500   936.9265   956.4209  -999.2500
 1342.9976    49.9118  -999.2500  -999.2500    62.3337  -999.2500  1016.3060  1563.0474  -999.2500
 1343.1500    51.7517  -999.2500  -999.2500    63.3083  -999.2500  1006.1750  1352.0840  -999.2500
 1343.3024    52.8405  -999.2500  -999.2500    64.8192  -999.2500  1687.2620  1308.4968  -999.2500
 1343.4548    53.2610  -999.2500  -999.2500    62.7295  -999.2500  1123.0046  1307.5352  -999.2500
 1343.6072    52.8281  -999.2500  -999.2500    68.3279  -999.2500  1104.6279  1879.2405  -999.2500
 1343.7596    53.0597  -999.2500  -999.2500    66.1183  -999.2500   946.9052  1936.4075  -999.2500
 1343.9120    52.4188  -999.2500  -999.2500    63.7330  -999.2500   869.4766  1838.6035  -999.2500
 1344.0644    52.5024  -999.2500  -999.2500    62.9220  -999.2500  1643.3140  1952.7917  -999.2500
 1344.2168    51.9640  -999.2500  -999.2500    64.5881  -999.2500  1351.4158  1930.9790  -999.2500
 1344.3692    53.4230  -999.2500  -999.2500    60.5323  -999.2500  1175.3848  1874.4446  -999.2500
 1344.5216    56.1192  -999.2500  -999.2500    60.7919  -999.2500  1133.8389  1819.0515  -999.2500
 1344.6740    55.3906  -999.2500  -999.2500    63.6630  -999.2500  1305.0940  1959.5674  -999.2500
 1344.8264    53.4121  -999.2500  -999.2500    59.5723  -999.2500  1185.9182  1993.8850  -999.2500
 1344.9788    51.7614  -999.2500  -999.2500    62.8247  -999.2500   926.7566  1791.7761  -999.2500
 1345.1312    51.9417  -999.2500  -999.2500    63.1145  -999.2500   910.0366  1503.8921  -999.2500
 1345.2836    51.8680  -999.2500  -999.2500    63.3260  -999.2500   568.9252  1871.2549  -999.2500
 1345.4360    53.3534  -999.2500  -999.2500    64.5919  -999.2500   614.5908  1705.0950  -999.2500
 1345.5884    53.5246  -999.2500  -999.2500    61.9682  -999.2500   473.7469  1405.6931  -999.2500
 1345.7408    52.8931  -999.2500  -999.2500    59.1156  -999.2500   605.2156  1504.8652  -999.2500
 1345.8932    51.9273  -999.2500  -999.2500    59.0551  -999.2500   882.1682  1300.4697  -999.2500
 1346.0456    51.2659  -999.2500  -999.2500    60.2494  -999.2500   639.3015  1571.6167  -999.2500
 1346.1980    50.3532  -999.2500  -999.2500    57.2154  -999.2500   252.9079  1225.9807  -999.2500
 1346.3504    50.3414  -999.2500  -999.2500    58.7430  -999.2500   230.6602   761.5612  -999.2500
 1346.5028    48.8674  -999.2500  -999.2500    60.4639  -999.2500   121.8802   575.2124  -999.2500
 1346.6552    49.4403  -999.2500  -999.2500    62.6490  -999.2500   144.8670   444.8595  -999.2500
 1346.8076    56.3033  -999.2500  -999.2500    57.7142  -999.2500   115.4676   404.2996  -999.2500
 1346.9600    68.1423  -999.2500  -999.2500    49.1717  -999.2500    83.0530   314.3517  -999.2500
 1347.1124    99.4609  -999.2500  -999.2500    49.3967  -999.2500    79.5378   369.3264  -999.2500
 1347.2648   121.2285  -999.2500     1.9804    59.0238  -999.2500    72.8019   246.4429  -999.2500
 1347.4172   143.7307  -999.2500     3.0623    65.6771  -999.2500   859.9979  1108.4189  -999.2500
 1347.5696   148.6596  -999.2500     2.6878    71.2218  -999.2500  1945.2666  1968.8989  -999.2500
 1347.7220   147.3650  -999.2500     2.0661    71.1598  -999.2500  2000.0000  2000.0000  -999.2500
 1347.8744   142.2637  -999.2500     2.0502    72.7382  -999.2500  2000.0000  1713.1301  -999.2500
 1348.0268   148.7970  -999.2500     2.0309    70.0948  -999.2500  1708.0073   463.6362  -999.2500
 1348.1792   152.8773  -999.2500     2.0171    72.9664  -999.2500   231.5038   159.5280      .0003
 1348.3316   155.5382  -999.2500     2.0190    71.8369  -999.2500    36.2096     1.4193      .0002
 1348.4840   156.6708  -999.2500     2.0351    72.0358  -999.2500    23.1819     1.4525      .0002
 1348.6364   157.9186  -999.2500     2.0739    68.5539  -999.2500     1.2766     1.5207      .0002
 1348.7888   160.2534  -999.2500     2.0879    64.1499  -999.2500     1.2612     1.5906      .0003
 1348.9412   161.2580  -999.2500     2.0179    68.2446  -999.2500     1.2322     1.5669      .0003
 1349.0936   157.6384  -999.2500     1.9138    69.3753  -999.2500     1.2422     1.5762      .0003
 1349.2460   157.0374  -999.2500     1.9284    69.6639  -999.2500     1.2518     1.5962      .0003
 1349.3984   156.3093  -999.2500     1.9522    68.1891  -999.2500     1.2374     1.5302      .0004
 1349.5508   156.2728  -999.2500     1.9386    68.8416  -999.2500     1.2520     1.5286      .0005
 1349.7032   156.1549  -999.2500     1.8669    63.4680  -999.2500     1.2772     1.5713      .0005
