~VERSION INFORMATION
VERS.                                                 2.0:   CWLS Log ASCII Standard-VERSION 2.0
WRAP.                                                  NO:   One line per depth step
~Well Information Block
STRT.M                                          1325.1668:   Top Depth
STOP.M                                          3304.3856:   Bottom Depth
STEP.M                                             .15240:   Depth Increment
NULL.                                            -999.250:   Null Value
FLD .                                                 Q15:   Field Name
WELL.                                            15/12-14:   NAME
WBN .                                            15/12-14:   WELLBORE
NATI.                                                 NOR:   COUNTRY
CTRY.                                                 NOR:   COUNTRY
COMP.                                           PERTRA AS:   OPERATOR
PDAT.                                      Mean Sea Level:   PERM DATUM
SON .                                     !NRMW0002615870:   SOURCE OPERATOR NAME
PBWE.                                            15/12-14:   PB WELL ID
APIN.                                            15/12-14:   PB WELLBORE ID
PBWS.                                                 ALL:   PB WELL NAME SET
WDMS.M                                                 84:   WATER DEPTH
~PARAMETER INFORMATION (log)
LNAM.                                           COMPOSITE:   NAME
LTYP.                                             PAP.CMP:   LOG TYPE
LSRV.                                              WL.LOG:   LOG SERVICE
LSOU.                                              PERTRA:   LOG SOURCE
LVSN.                                                   1:   LOG VERSION
BHT .DEGF                                             0.0:   BH TEMP
BHIS.                                                   R:   BRIEF HISTORY
TDD .M                                                0.0:   FINAL TD DRILLER
TDL .M                                                0.0:   FINAL TD LOGGER
DFL .CM3                                              0.0:   FLUID LOSS
FHIS.                                             RAW-LIS:   FULL HISTORY
LCNM.                                         HALLIBURTON:   LOGGING CONTRACTOR
DFD .G/CC                                             0.0:   MUD DENSITY
DFPH.                                                 0.0:   MUD PH
DFV .                                                 0.0:   MUD VISCOSITY
RMS .OHMM                                             0.0:   RM
MST .DEGF                                             0.0:   RM TEMP
RMCS.OHMM                                             0.0:   RMC
MCST.DEGF                                             0.0:   RMC TEMP
RMFS.OHMM                                             0.0:   RMF
MFST.DEGF                                             0.0:   RMF TEMP
STEM.DEGF                                             0.0:   SURFACE TEMPERATURE
TOOL.                                      COMPOSITE_LISE:   TOOL STRING
LDAT.                                          1900/01/01:   DATE LOGGED
QCRM.                   WAITING FOR OPERATOR CONFIRMATION:   QC COMMENT
QCCO.                                             UNKNOWN:   QC COMPANY
~Curve Information Block
#MNEM.UNIT                                        API CODE    No Description
#=========                                        ========    == ===========
DEPT.M                                       00 001 00 00:     1  DEPTH
AC.US/F                                                  :     2  Sonic Transit Time (Slowness)
CALI.IN                                                  :     3  Caliper
DEN.G/CC                                                 :     4  Bulk Density
GR.GAPI                                                  :     5  Gamma Ray
NEUT.FRAC                                                :     6  Neutron Porosity
RDEP.                                                    :     7  Unrecognised
RMED.                                                    :     8  Unrecognised
ROP.                                                     :     9  ROP
~ASCII
# ...
 1991.7644   138.6418    13.1890     2.2264    94.7681  -999.2500      .5279      .5127      .0125
 1991.9168   137.0665    12.9646     2.2218   100.6975  -999.2500      .5333      .5205      .0124
 1992.0692   140.0186    12.9016     2.2205   102.5158  -999.2500      .5336      .5155      .0126
 1992.2216   141.1078    12.5748     2.2211    95.4772  -999.2500      .5293      .5165      .0125
 1992.3740   142.8271    12.6811     2.2327   103.8876  -999.2500      .5192      .5125      .0121
 1992.5264   143.4350    12.8031     2.2462   107.4142  -999.2500      .5106      .4931      .0117
 1992.6788   142.9547    12.9961     2.2314    96.1791  -999.2500      .5089      .4812      .0117
 1992.8312   142.7354    13.0315     2.2287   113.5276  -999.2500      .5221      .4845      .0118
 1992.9836   142.2505    13.4252     2.1944    92.6367  -999.2500      .5478      .5199      .0117
 1993.1360   140.6355    13.4606     2.1869    92.2792  -999.2500      .5606      .5382      .0116
 1993.2884   141.3627    13.5197     2.1744    94.0174  -999.2500      .5488      .5358      .0114
 1993.4408   139.7953    13.6024     2.1621   105.6052  -999.2500      .5218      .5222      .0115
 1993.5932   138.4289    13.6339     2.1572    96.1889  -999.2500      .5108      .5053      .0115
 1993.7456   137.3957    13.2165     2.1859    96.2610  -999.2500      .5193      .5035      .0116
 1993.8980   136.3910    13.1654     2.1976   101.1195  -999.2500      .5204      .5016      .0117
 1994.0504   135.8946    12.9646     2.2470   109.8255  -999.2500      .5080      .4899      .0117
 1994.2028   135.4782    12.8780     2.2310   106.5491  -999.2500      .4977      .4798      .0118
 1994.3552   133.7063    12.7480     2.2064    95.2657  -999.2500      .4864      .4790      .0116
 1994.5076   134.2930    12.8937     2.2211   102.8582  -999.2500      .4777      .4582      .0108
 1994.6600   132.6255    12.9803     2.2302   102.0416  -999.2500      .4771      .4622      .0097
 1994.8124   129.9636    13.0787     2.2504    99.5778  -999.2500      .4846      .4794      .0081
 1994.9648   126.3556    13.0945     2.2542    95.2861  -999.2500      .5113      .5001      .0063
 1995.1172   131.9155    13.2126     2.2304   101.5855  -999.2500      .5175      .4979      .0052
 1995.2696   134.0537    13.1968     2.2265   109.5491  -999.2500      .5367      .5142      .0071
 1995.4220   135.2597    13.1575     2.2170    93.3837  -999.2500      .6170      .5699      .0108
 1995.5744   136.8496    13.1968     2.2412    94.6709  -999.2500      .7289      .6999      .0123
 1995.7268   138.1093    13.2244     2.2600    73.5711  -999.2500      .6949      .7008      .0120
 1995.8792   139.2745    12.6850     2.3815    86.3553  -999.2500      .5815      .5664      .0109
 1996.0316   138.8452    12.5433     2.4134   103.6389  -999.2500      .5780      .5516      .0096
 1996.1840   140.0704    12.9488     2.2588    96.3866  -999.2500      .5681      .5442      .0092
 1996.3364   139.8304    12.9921     2.2521   104.5792  -999.2500      .5540      .5230      .0107
 1996.4888   140.8568    13.1142     2.2337   112.5003  -999.2500      .5391      .5060      .0127
 1996.6412   140.0756    13.0709     2.2326   112.5714  -999.2500      .5197      .4898      .0138
 1996.7936   139.4311    13.0472     2.2320   116.7602  -999.2500      .5051      .4906      .0141
 1996.9460   141.3302    13.0630     2.2092    98.9371  -999.2500      .5109      .5013      .0139
 1997.0984   142.3870    13.0787     2.2102    98.8202  -999.2500      .5085      .4912      .0138
 1997.2508   141.5911    13.1614     2.2151   100.5127  -999.2500      .5176      .5024      .0138
 1997.4032   141.1842    13.2205     2.2013   101.4775  -999.2500      .5446      .5280      .0139
 1997.5556   137.6617    13.2717     2.1893   104.2277  -999.2500      .5725      .5443      .0139
 1997.7080   135.5959    13.3071     2.1618   102.4178  -999.2500      .5839      .5689      .0139
 1997.8604   132.7142    13.3150     2.1559   106.6983  -999.2500      .5713      .5563      .0138
 1998.0128   140.6548    13.1575     2.1337   110.6312  -999.2500      .5430      .5236      .0137
 1998.1652   145.4672    13.1220     2.1526   106.4346  -999.2500      .5288      .5139      .0138
 1998.3176   146.2179    13.0315     2.2000    97.7572  -999.2500      .5296      .5070      .0139
 1998.4700   147.2145    13.0394     2.2140    88.9331  -999.2500      .5242      .5014      .0139
 1998.6224   145.9654    13.0472     2.2272    88.8153  -999.2500      .5226      .5066      .0131
 1998.7748   144.2408    12.4685     2.2323    96.0806  -999.2500      .5083      .4988      .0097
 1998.9272   142.8244    12.2913     2.2338    91.2713  -999.2500      .5562      .5695      .0070
 1999.0796   144.0877    12.0000     2.3131    75.3970  -999.2500      .6285      .6673      .0047
 1999.2320   141.7225    12.1535     2.3746    66.4694  -999.2500      .5280      .5572      .0030
 1999.3844   139.9735    12.7087     2.5970    74.8686  -999.2500      .4298      .4036      .0024
 1999.5368   140.3324    12.7244     2.5714    91.7468  -999.2500      .4605      .3961      .0025
 1999.6892   141.0861    12.7441     2.5351   100.5097  -999.2500      .5106      .4684      .0040
 1999.8416   140.2087    12.8031     2.3426   105.1333  -999.2500      .5260      .5115      .0073
 1999.9940   138.5841    12.8346     2.2392    94.2841  -999.2500      .5377      .5160      .0105
 2000.1464   138.6216    12.9173     2.2279    90.4771  -999.2500      .5449      .5195      .0121
 2000.2988   139.5140    12.9173     2.2279   103.7758  -999.2500      .5563      .5296      .0128
 2000.4512   140.1088    12.9843     2.2222    88.2396  -999.2500      .5571      .5300      .0130
 2000.6036   141.1411    13.0079     2.2309   100.5183  -999.2500      .5520      .5335      .0130
 2000.7560   140.3779    13.0512     2.2463   107.2232  -999.2500      .5428      .5173      .0130
 2000.9084   139.6944    13.0866     2.2481   104.3827  -999.2500      .5333      .5015      .0132
 2001.0608   138.4672    13.0984     2.2487    98.9654  -999.2500      .5323      .5015      .0136
 2001.2132   138.7948    13.0906     2.2276   105.1159  -999.2500      .5313      .5027      .0139
 2001.3656   139.2899    13.0866     2.2287    93.4210  -999.2500      .5242      .4997      .0139
 2001.5180   139.8041    13.0787     2.2326   115.0027  -999.2500      .5248      .4964      .0137
 2001.6704   139.6138    13.0984     2.2476   104.4875  -999.2500      .5340      .5204      .0136
 2001.8228   139.1034    13.1142     2.2602   103.7130  -999.2500      .5474      .5304      .0135
 2001.9752   138.5041    12.9803     2.2279   102.4976  -999.2500      .5554      .5257      .0134
 2002.1276   137.2480    12.9488     2.2207    90.0788  -999.2500      .5513      .5410      .0136
 2002.2800   138.1768    12.7402     2.2016    90.7446  -999.2500      .5591      .5429      .0138
 2002.4324   137.9991    12.7913     2.2067   103.4171  -999.2500      .5581      .5371      .0139
 2002.5848   137.6970    12.9685     2.2248    98.1753  -999.2500      .5477      .5408      .0138
 2002.7372   137.2711    12.9921     2.2328    96.2101  -999.2500      .5492      .5259      .0137
 2002.8896   137.8635    13.0236     2.2436   104.5230  -999.2500      .5476      .5225      .0137
 2003.0420   139.4410    13.0945     2.2619   119.5474  -999.2500      .5447      .5279      .0137
 2003.1944   141.1048    13.1181     2.2597   105.6305  -999.2500      .5485      .5210      .0139
 2003.3468   142.1683    12.9646     2.2257    95.5487  -999.2500      .5433      .5231      .0139
 2003.4992   142.7293    12.9331     2.2198   100.7553  -999.2500      .5352      .5242      .0138
 2003.6516   142.8111    12.9094     2.2124   102.4481  -999.2500      .5323      .5141      .0137
 2003.8040   140.9803    13.0197     2.2086    98.0022  -999.2500      .5233      .5117      .0135
 2003.9564   140.6969    13.0827     2.1988    97.3440  -999.2500      .5173      .5057      .0133
