~VERSION INFORMATION
VERS.                                                 2.0:   CWLS Log ASCII Standard-VERSION 2.0
WRAP.                                                  NO:   One line per depth step
~Well Information Block
STRT.M                                          1325.1668:   Top Depth
STOP.M                                          3304.3856:   Bottom Depth
STEP.M                                             .15240:   Depth Increment
NULL.                                            -999.250:   Null Value
FLD .                                                 Q15:   Field Name
WELL.                                            15/12-14:   NAME
WBN .                                            15/12-14:   WELLBORE
NATI.                                                 NOR:   COUNTRY
CTRY.                                                 NOR:   COUNTRY
COMP.                                           PERTRA AS:   OPERATOR
PDAT.                                      Mean Sea Level:   PERM DATUM
SON .                                     !NRMW0002615870:   SOURCE OPERATOR NAME
PBWE.                                            15/12-14:   PB WELL ID
APIN.                                            15/12-14:   PB WELLBORE ID
PBWS.                                                 ALL:   PB WELL NAME SET
WDMS.M                                                 84:   WATER DEPTH
~PARAMETER INFORMATION (log)
LNAM.                                           COMPOSITE:   NAME
LTYP.                                             PAP.CMP:   LOG TYPE
LSRV.                                              WL.LOG:   LOG SERVICE
LSOU.                                              PERTRA:   LOG SOURCE
LVSN.                                                   1:   LOG VERSION
BHT .DEGF                                             0.0:   BH TEMP
BHIS.                                                   R:   BRIEF HISTORY
TDD .M                                                0.0:   FINAL TD DRILLER
TDL .M                                                0.0:   FINAL TD LOGGER
DFL .CM3                                              0.0:   FLUID LOSS
FHIS.                                             RAW-LIS:   FULL HISTORY
LCNM.                                         HALLIBURTON:   LOGGING CONTRACTOR
DFD .G/CC                                             0.0:   MUD DENSITY
DFPH.                                                 0.0:   MUD PH
DFV .                                                 0.0:   MUD VISCOSITY
RMS .OHMM                                             0.0:   RM
MST .DEGF                                             0.0:   RM TEMP
RMCS.OHMM                                             0.0:   RMC
MCST.DEGF                                             0.0:   RMC TEMP
RMFS.OHMM                                             0.0:   RMF
MFST.DEGF                                             0.0:   RMF TEMP
STEM.DEGF                                             0.0:   SURFACE TEMPERATURE
TOOL.                                      COMPOSITE_LISE:   TOOL STRING
LDAT.                                          1900/01/01:   DATE LOGGED
QCRM.                   WAITING FOR OPERATOR CONFIRMATION:   QC COMMENT
QCCO.                                             UNKNOWN:   QC COMPANY
~Curve Information Block
#MNEM.UNIT                                        API CODE    No Description
#=========                                        ========    == ===========
DEPT.M                                       00 001 00 00:     1  DEPTH
AC.US/F                                                  :     2  Sonic Transit Time (Slowness)
CALI.IN                                                  :     3  Caliper
DEN.G/CC                                                 :     4  Bulk Density
GR.GAPI                                                  :     5  Gamma Ray
NEUT.FRAC                                                :     6  Neutron Porosity
RDEP.                                                    :     7  Unrecognised
RMED.                                                    :     8  Unrecognised
ROP.                                                     :     9  ROP
~ASCII
# ...
 3152.1380    96.2556     8.6299     2.1125    55.9414      .0031     4.2931     4.2007      .0036
 3152.2904    95.3939     8.6575     2.1325    52.5649      .0030     4.3282     4.2484      .0047
 3152.4428    92.3482     8.7283     2.1977    52.4061      .0028     4.2668     4.2283      .0052
 3152.5952    88.4007     8.7953     2.3094    45.3702      .0027     4.1267     4.1364      .0053
 3152.7476    84.8915     8.8583     2.3747    52.3519      .0026     3.9916     4.0078      .0052
 3152.9000    89.0524     8.9173     2.3256    53.3942      .0026     3.7769     3.7327      .0050
 3153.0524    88.4215     9.0787     2.2223    60.4211      .0028     3.6709     3.6256      .0047
 3153.2048    86.9043     8.8268     2.0819    56.2972      .0032     3.6813     3.6305      .0047
 3153.3572    91.9612     8.6457     2.0616    55.1634      .0033     3.6108     3.5358      .0050
 3153.5096    97.0996     8.6024     2.0762    55.6433      .0033     3.5514     3.4652      .0052
 3153.6620    96.7959     8.6220     2.1074    56.9985      .0032     3.5382     3.5061      .0054
 3153.8144    97.2565     8.7087     2.1274    56.3306      .0032     3.5570     3.5865      .0054
 3153.9668    97.1210     8.7283     2.0981    57.4596      .0033     3.4390     3.5481      .0054
 3154.1192    96.6854     8.6378     2.0708    54.3936      .0032     3.0736     3.1796      .0054
 3154.2716    95.8099     8.6535     2.1146    55.2394      .0031     2.8166     2.8430      .0054
 3154.4240    93.0545     8.6496     2.1753    56.3582      .0030     2.5805     2.5424      .0054
 3154.5764    91.1052     8.6260     2.2308    60.0639      .0029     2.5032     2.3826      .0054
 3154.7288    90.9801     8.6496     2.2571    62.8567      .0029     2.5867     2.3843      .0054
 3154.8812    90.2735     8.6772     2.2415    54.7235      .0030     2.7944     2.5628      .0054
 3155.0336    90.0315     8.7362     2.1951    61.3753      .0032     2.9648     2.7696      .0054
 3155.1860    91.1551     8.7244     2.1367    55.1307      .0032     2.9931     2.8468      .0054
 3155.3384    92.5513     8.7047     2.1024    48.8422      .0031     2.9892     2.8704      .0054
 3155.4908    94.0190     8.6850     2.1104    49.2110      .0030     3.0327     3.0428      .0054
 3155.6432    94.0671     8.6496     2.1355    50.3416      .0029     3.1941     3.3194      .0054
 3155.7956    92.6479     8.6850     2.1691    47.3211      .0028     3.2437     3.4420      .0053
 3155.9480    90.3122     8.6260     2.1751    47.7619      .0028     3.1974     3.4335      .0053
 3156.1004    88.7749     8.7087     2.1655    44.8264      .0029     3.1279     3.3695      .0053
 3156.2528    89.2919     8.6890     2.1133    52.9698      .0031     3.0597     3.2930      .0053
 3156.4052    91.5145     8.6614     2.0842    52.1124      .0031     2.8952     3.0670      .0053
 3156.5576    93.8109     8.6339     2.0849    44.3900      .0031     2.7662     2.8877      .0054
 3156.7100    94.0952     8.7362     2.1211    51.6123      .0029     2.6721     2.7998      .0054
 3156.8624    93.6837     8.7559     2.1545    58.1395      .0029     2.6467     2.7289      .0053
 3157.0148    95.2637     8.7126     2.1846    59.8825      .0029     2.6270     2.6655      .0053
 3157.1672    95.6656     8.6929     2.2111    52.3453      .0028     2.5622     2.5498      .0053
 3157.3196    94.6830     8.7598     2.2283    57.6919      .0028     2.3967     2.3335      .0053
 3157.4720    93.2128     8.8031     2.2091    58.5464      .0029     2.3339     2.2470      .0053
 3157.6244    92.5081     8.8071     2.1706    57.6265      .0029     2.3159     2.1881      .0052
 3157.7768    91.7500     8.7677     2.1454    54.9206      .0030     2.3102     2.1553      .0051
 3157.9292    92.6803     8.7087     2.1339    56.3125      .0030     2.3238     2.1660      .0050
 3158.0816    93.5819     8.8504     2.1677    61.5197      .0029     2.4043     2.2461      .0049
 3158.2340    93.5565     8.8858     2.2105    59.5867      .0029     2.4679     2.3387      .0049
 3158.3864    92.5322     8.8661     2.2582    55.9097      .0027     2.5304     2.4393      .0049
 3158.5388    91.0664     8.8307     2.2956    52.9559      .0025     2.6224     2.5830      .0047
 3158.6912    89.5046     8.7165     2.3954    43.0558      .0022     2.6736     2.6689      .0041
 3158.8436    89.4929     8.6142     2.5495    45.6733      .0019     2.6909     2.7341      .0032
 3158.9960    89.0186     8.5630     2.6227    45.4340      .0018     2.6790     2.7258      .0024
 3159.1484    74.9536     8.5709     2.6204    43.7151      .0017     2.6871     2.7088      .0017
 3159.3008    61.3133     8.5827     2.6127    46.4939      .0018     2.7597     2.7503      .0014
 3159.4532    61.1931     8.5787     2.5906    46.9704      .0019     2.8095     2.8024      .0014
 3159.6056    62.6866     8.5984     2.5698    42.6613      .0021     2.8286     2.8475      .0015
 3159.7580    64.1732     9.0787     2.5443    41.8309      .0019     2.9123     2.9638      .0015
 3159.9104    68.1061     9.5984     2.4960    48.8432      .0020     2.9184     2.9554      .0013
 3160.0628    69.9451     9.0354     2.2768    50.4732      .0025     2.8304     2.8842      .0009
 3160.2152    78.9370     8.7087     2.1707    49.0904      .0028     2.8058     2.8200      .0008
 3160.3676    85.8586     8.6339     2.2232    54.1339      .0028     2.8078     2.7629      .0013
 3160.5200    88.3490     8.7205     2.3284    54.2014      .0027     2.9398     2.8290      .0015
 3160.6724    89.8343     8.6496     2.3264    47.7973      .0027     3.1090     3.0931      .0026
 3160.8248    86.7715     9.0787     2.3385    44.7470      .0024     3.1825     3.2079      .0046
 3160.9772    83.9587     9.5079     2.3373    54.3224      .0023     3.1430     3.1439      .0053
 3161.1296    84.5545     8.8661     2.1614    51.3966      .0029     3.0648     3.0142      .0056
 3161.2820    87.5399     8.5787     2.1151    46.1655      .0031     3.0308     2.9980      .0057
 3161.4344    90.1108     8.5787     2.1458    56.3042      .0031     3.1515     3.1060      .0057
 3161.5868    91.6732     8.6417     2.1767    51.6065      .0030     3.2268     3.1799      .0058
 3161.7392    91.6733     8.6535     2.1877    54.5043      .0030     3.2485     3.2135      .0058
 3161.8916    92.5151     8.6968     2.1535    56.9184      .0031     3.2583     3.2405      .0058
 3162.0440    93.1442     8.6457     2.1058    56.0233      .0032     3.2984     3.2480      .0059
 3162.1964    93.2113     8.6299     2.1040    53.1731      .0032     3.3189     3.2796      .0058
 3162.3488    91.8434     8.6378     2.1161    54.5515      .0033     3.3818     3.3445      .0058
 3162.5012    89.2929     8.6102     2.1140    49.4763      .0033     3.4365     3.4276      .0058
 3162.6536    90.2043     8.6732     2.1094    53.3562      .0033     3.4565     3.4615      .0058
 3162.8060    89.1461     8.6890     2.0948    51.3053      .0034     3.4693     3.5076      .0058
 3162.9584    89.6761     8.5906     2.0720    51.8868      .0034     3.4005     3.4404      .0058
 3163.1108    91.0540     8.6024     2.0807    50.5280      .0034     3.3032     3.3044      .0058
 3163.2632    93.6346     8.6654     2.0993    45.4064      .0032     3.2488     3.2231      .0058
 3163.4156    96.9587     8.7126     2.1122    53.1831      .0030     3.2131     3.1504      .0058
 3163.5680    97.7532     9.0394     2.2376    51.0173      .0028     3.1311     3.0526      .0058
 3163.7204    97.2421     9.3386     2.4191    48.2984      .0024     3.0633     2.9586      .0053
 3163.8728    98.1666     9.2441     2.4333    47.4239      .0022     3.0773     2.9868      .0047
 3164.0252   101.5586     8.9291     2.3084    51.0431      .0026     2.9842     2.9200      .0038
 3164.1776   103.5619     8.7402     2.2264    51.2411      .0028     2.8785     2.8654      .0030
 3164.3300   100.6649     8.6654     2.2363    47.0239      .0027     2.8492     2.8284      .0031
