~VERSION INFORMATION
VERS.                                                 2.0:   CWLS Log ASCII Standard-VERSION 2.0
WRAP.                                                  NO:   One line per depth step
~Well Information Block
STRT.M                                          1325.1668:   Top Depth
STOP.M                                          3304.3856:   Bottom Depth
STEP.M                                             .15240:   Depth Increment
NULL.                                            -999.250:   Null Value
FLD .                                                 Q15:   Field Name
WELL.                                            15/12-14:   NAME
WBN .                                            15/12-14:   WELLBORE
NATI.                                                 NOR:   COUNTRY
CTRY.                                                 NOR:   COUNTRY
COMP.                                           PERTRA AS:   OPERATOR
PDAT.                                      Mean Sea Level:   PERM DATUM
SON .                                     !NRMW0002615870:   SOURCE OPERATOR NAME
PBWE.                                            15/12-14:   PB WELL ID
APIN.                                            15/12-14:   PB WELLBORE ID
PBWS.                                                 ALL:   PB WELL NAME SET
WDMS.M                                                 84:   WATER DEPTH
~PARAMETER INFORMATION (log)
LNAM.                                           COMPOSITE:   NAME
LTYP.                                             PAP.CMP:   LOG TYPE
LSRV.                                              WL.LOG:   LOG SERVICE
LSOU.                                              PERTRA:   LOG SOURCE
LVSN.                                                   1:   LOG VERSION
BHT .DEGF                                             0.0:   BH TEMP
BHIS.                                                   R:   BRIEF HISTORY
TDD .M                                                0.0:   FINAL TD DRILLER
TDL .M                                                0.0:   FINAL TD LOGGER
DFL .CM3                                              0.0:   FLUID LOSS
FHIS.                                             RAW-LIS:   FULL HISTORY
LCNM.                                         HALLIBURTON:   LOGGING CONTRACTOR
DFD .G/CC                                             0.0:   MUD DENSITY
DFPH.                                                 0.0:   MUD PH
DFV .                                                 0.0:   MUD VISCOSITY
RMS .OHMM                                             0.0:   RM
MST .DEGF                                             0.0:   RM TEMP
RMCS.OHMM                                             0.0:   RMC
MCST.DEGF                                             0.0:   RMC TEMP
RMFS.OHMM                                             0.0:   RMF
MFST.DEGF                                             0.0:   RMF TEMP
STEM.DEGF                                             0.0:   SURFACE TEMPERATURE
TOOL.                                      COMPOSITE_LISE:   TOOL STRING
LDAT.                                          1900/01/01:   DATE LOGGED
QCRM.                   WAITING FOR OPERATOR CONFIRMATION:   QC COMMENT
QCCO.                                             UNKNOWN:   QC COMPANY
~Curve Information Block
#MNEM.UNIT                                        API CODE    No Description
#=========                                        ========    == ===========
DEPT.M                                       00 001 00 00:     1  DEPTH
AC.US/F                                                  :     2  Sonic Transit Time (Slowness)
CALI.IN                                                  :     3  Caliper
DEN.G/CC                                                 :     4  Bulk Density
GR.GAPI                                                  :     5  Gamma Ray
NEUT.FRAC                                                :     6  Neutron Porosity
RDEP.                                                    :     7  Unrecognised
RMED.                                                    :     8  Unrecognised
ROP.                                                     :     9  ROP
~ASCII
# ...
 3028.6940    82.0131  -999.2500  -999.2500    98.6800  -999.2500     1.0754     1.0251      .0075
 3028.8464    81.2323  -999.2500  -999.2500   101.7039  -999.2500     1.0391      .9815      .0076
 3028.9988    80.5211  -999.2500  -999.2500    83.2589  -999.2500     1.0210      .9810      .0076
 3029.1512    80.2821  -999.2500  -999.2500    75.4437  -999.2500     1.0403     1.0188      .0076
 3029.3036    80.8694  -999.2500  -999.2500    68.4642  -999.2500     1.0663     1.0562      .0076
 3029.4560    80.3733  -999.2500  -999.2500    65.0070  -999.2500     1.0711     1.0490      .0076
 3029.6084    80.4777  -999.2500  -999.2500    59.0804  -999.2500     1.0141      .9459      .0075
 3029.7608    80.3986  -999.2500  -999.2500    64.1874  -999.2500      .9510      .8931      .0073
 3029.9132    80.5999  -999.2500  -999.2500    66.8516  -999.2500      .8851      .8450      .0072
 3030.0656    80.0583  -999.2500  -999.2500    63.9683  -999.2500      .8163      .7853      .0073
 3030.2180    80.4024  -999.2500  -999.2500    60.0614  -999.2500      .8161      .7831      .0075
 3030.3704    80.7979  -999.2500  -999.2500    63.7679  -999.2500      .8329      .8057      .0076
 3030.5228    81.3359  -999.2500  -999.2500    59.2868  -999.2500      .8834      .8724      .0076
 3030.6752    81.7885  -999.2500  -999.2500    61.8362  -999.2500      .9169      .9279      .0076
 3030.8276    81.7124  -999.2500  -999.2500    62.3018  -999.2500      .9027      .9265      .0075
 3030.9800    81.2605  -999.2500  -999.2500    62.6519  -999.2500      .8740      .8840      .0075
 3031.1324    80.8455  -999.2500  -999.2500    64.7008  -999.2500      .8405      .8398      .0074
 3031.2848    80.7808  -999.2500  -999.2500    57.8191  -999.2500      .8369      .8255      .0074
 3031.4372    81.3161  -999.2500  -999.2500    59.5309  -999.2500      .8375      .8129      .0075
 3031.5896    81.6752  -999.2500  -999.2500    58.8027  -999.2500      .8224      .7863      .0075
 3031.7420    81.8260  -999.2500  -999.2500    55.5383  -999.2500      .8123      .7677      .0074
 3031.8944    80.2869  -999.2500  -999.2500    62.8954  -999.2500      .8431      .7931      .0074
 3032.0468    80.9564  -999.2500  -999.2500    63.7234  -999.2500      .8672      .8260      .0074
 3032.1992    80.3559  -999.2500  -999.2500    55.6181  -999.2500      .8725      .8521      .0072
 3032.3516    79.7422  -999.2500  -999.2500    60.7109  -999.2500      .8925      .8943      .0072
 3032.5040    79.6667  -999.2500  -999.2500    70.1745  -999.2500      .9228      .9165      .0074
 3032.6564    80.1424  -999.2500  -999.2500    64.6987  -999.2500      .9736      .9594      .0074
 3032.8088    81.2980  -999.2500  -999.2500    64.6767  -999.2500     1.0195     1.0178      .0072
 3032.9612    81.5562  -999.2500  -999.2500    60.8233  -999.2500     1.0356     1.0475      .0068
 3033.1136    81.6278  -999.2500  -999.2500    63.0547  -999.2500     1.0111     1.0308      .0064
 3033.2660    81.5701  -999.2500  -999.2500    65.7770  -999.2500      .9738      .9738      .0062
 3033.4184    82.4612  -999.2500  -999.2500    69.3874  -999.2500      .9094      .8863      .0064
 3033.5708    82.2817  -999.2500  -999.2500    66.7411  -999.2500      .9337      .8698      .0070
 3033.7232    80.9831  -999.2500  -999.2500    62.3987  -999.2500     1.0025      .9337      .0074
 3033.8756    81.2114  -999.2500  -999.2500    66.3430  -999.2500     1.0796     1.0215      .0075
 3034.0280    81.1886  -999.2500  -999.2500    70.7854  -999.2500     1.0778     1.0526      .0075
 3034.1804    81.2026  -999.2500  -999.2500    66.4413  -999.2500     1.0234     1.0113      .0074
 3034.3328    80.3014  -999.2500  -999.2500    70.8299  -999.2500      .9491      .9325      .0072
 3034.4852    80.3061  -999.2500  -999.2500    67.1892  -999.2500      .8475      .8340      .0072
 3034.6376    81.2617  -999.2500  -999.2500    51.7427  -999.2500      .8300      .7707      .0074
 3034.7900    81.7390  -999.2500  -999.2500    63.8403  -999.2500      .9260      .8277      .0075
 3034.9424    82.9473  -999.2500  -999.2500    82.3734  -999.2500     1.0604     1.0000      .0077
 3035.0948    83.2177  -999.2500  -999.2500    64.7474  -999.2500     1.0314     1.0188      .0077
 3035.2472    83.3513  -999.2500  -999.2500    65.1863  -999.2500      .8687      .8739      .0077
 3035.3996    83.2413  -999.2500  -999.2500    67.1999  -999.2500      .7814      .7881      .0076
 3035.5520    82.7772  -999.2500  -999.2500    66.3633  -999.2500      .7833      .7740      .0076
 3035.7044    83.1994  -999.2500  -999.2500    73.3528  -999.2500      .7886      .7583      .0077
 3035.8568    82.8539  -999.2500  -999.2500    60.1348  -999.2500      .7952      .7293      .0077
 3036.0092    82.5567  -999.2500  -999.2500    68.6615  -999.2500      .8395      .7781      .0077
 3036.1616    81.9977  -999.2500  -999.2500    71.8595  -999.2500      .9068      .8540      .0077
 3036.3140    83.1321  -999.2500  -999.2500    70.4712  -999.2500      .9791      .9146      .0077
 3036.4664    83.8982  -999.2500  -999.2500    65.0922  -999.2500     1.0331      .9804      .0076
 3036.6188    83.4290  -999.2500  -999.2500    66.2173  -999.2500     1.0751     1.0865      .0075
 3036.7712    83.4860  -999.2500  -999.2500    67.0640  -999.2500     1.1042     1.1484      .0073
 3036.9236    83.0090  -999.2500  -999.2500    78.1721  -999.2500     1.0872     1.1457      .0070
 3037.0760    82.5243  -999.2500  -999.2500    67.3048  -999.2500     1.0177     1.0814      .0067
 3037.2284    82.7571  -999.2500  -999.2500    70.8003  -999.2500      .9474      .9784      .0067
 3037.3808    83.7295  -999.2500  -999.2500    64.8413  -999.2500      .9024      .9018      .0066
 3037.5332    85.3739  -999.2500  -999.2500    64.0451  -999.2500      .9021      .8618      .0068
 3037.6856    85.4153  -999.2500  -999.2500    65.8761  -999.2500      .9683      .8917      .0071
 3037.8380    85.1565  -999.2500  -999.2500    73.4031  -999.2500     1.1176     1.0059      .0071
 3037.9904    84.4423  -999.2500  -999.2500    81.8091  -999.2500     1.2755     1.1776      .0070
 3038.1428    83.1609  -999.2500  -999.2500    83.5340  -999.2500     1.2845     1.2025      .0069
 3038.2952    83.1151  -999.2500  -999.2500    83.4551  -999.2500     1.2894     1.2426      .0069
 3038.4476    83.4536  -999.2500  -999.2500    90.8162  -999.2500     1.3406     1.3233      .0072
 3038.6000    83.4184  -999.2500  -999.2500    94.7800  -999.2500     1.3939     1.3864      .0074
 3038.7524    83.3383  -999.2500  -999.2500    86.7809  -999.2500     1.4316     1.4151      .0073
 3038.9048    83.8976  -999.2500  -999.2500    93.7140  -999.2500     1.4492     1.4060      .0070
 3039.0572    83.5642  -999.2500  -999.2500    95.0074  -999.2500     1.4296     1.3706      .0069
 3039.2096    83.8879  -999.2500  -999.2500    96.7935  -999.2500     1.4176     1.3484      .0071
 3039.3620    85.2675  -999.2500  -999.2500    90.4320  -999.2500     1.4309     1.3614      .0071
 3039.5144    84.2439  -999.2500  -999.2500    83.0679  -999.2500     1.4616     1.3945      .0071
 3039.6668    83.8929  -999.2500  -999.2500    91.2394  -999.2500     1.4803     1.4112      .0073
 3039.8192    83.4219  -999.2500  -999.2500    96.1802  -999.2500     1.4655     1.3942      .0074
 3039.9716    83.3186  -999.2500  -999.2500    98.1212  -999.2500     1.4412     1.3610      .0074
 3040.1240    83.5625  -999.2500  -999.2500    95.9107  -999.2500     1.4119     1.3478      .0074
 3040.2764    83.3998  -999.2500  -999.2500    99.7066  -999.2500     1.4247     1.3671      .0073
 3040.4288    82.5115  -999.2500  -999.2500    93.3194  -999.2500     1.4618     1.4067      .0071
 3040.5812    81.7617  -999.2500  -999.2500    93.7180  -999.2500     1.4530     1.4002      .0069
 3040.7336    82.9440  -999.2500  -999.2500    87.7161  -999.2500     1.4008     1.3494      .0069
 3040.8860    83.2527  -999.2500  -999.2500    85.1387  -999.2500     1.3789     1.3312      .0068
