~VERSION INFORMATION
VERS.                                                 2.0:   CWLS Log ASCII Standard-VERSION 2.0
WRAP.                                                  NO:   One line per depth step
~Well Information Block
STRT.M                                          1325.1668:   Top Depth
STOP.M                                          3304.3856:   Bottom Depth
STEP.M                                             .15240:   Depth Increment
NULL.                                            -999.250:   Null Value
FLD .                                                 Q15:   Field Name
WELL.                                            15/12-14:   NAME
WBN .                                            15/12-14:   WELLBORE
NATI.                                                 NOR:   COUNTRY
CTRY.                                                 NOR:   COUNTRY
COMP.                                           PERTRA AS:   OPERATOR
PDAT.                                      Mean Sea Level:   PERM DATUM
SON .                                     !NRMW0002615870:   SOURCE OPERATOR NAME
PBWE.                                            15/12-14:   PB WELL ID
APIN.                                            15/12-14:   PB WELLBORE ID
PBWS.                                                 ALL:   PB WELL NAME SET
WDMS.M                                                 84:   WATER DEPTH
~PARAMETER INFORMATION (log)
LNAM.                                           COMPOSITE:   NAME
LTYP.                                             PAP.CMP:   LOG TYPE
LSRV.                                              WL.LOG:   LOG SERVICE
LSOU.                                              PERTRA:   LOG SOURCE
LVSN.                                                   1:   LOG VERSION
BHT .DEGF                                             0.0:   BH TEMP
BHIS.                                                   R:   BRIEF HISTORY
TDD .M                                                0.0:   FINAL TD DRILLER
TDL .M                                                0.0:   FINAL TD LOGGER
DFL .CM3                                              0.0:   FLUID LOSS
FHIS.                                             RAW-LIS:   FULL HISTORY
LCNM.                                         HALLIBURTON:   LOGGING CONTRACTOR
DFD .G/CC                                             0.0:   MUD DENSITY
DFPH.                                                 0.0:   MUD PH
DFV .                                                 0.0:   MUD VISCOSITY
RMS .OHMM                                             0.0:   RM
MST .DEGF                                             0.0:   RM TEMP
RMCS.OHMM                                             0.0:   RMC
MCST.DEGF                                             0.0:   RMC TEMP
RMFS.OHMM                                             0.0:   RMF
MFST.DEGF                                             0.0:   RMF TEMP
STEM.DEGF                                             0.0:   SURFACE TEMPERATURE
TOOL.                                      COMPOSITE_LISE:   TOOL STRING
LDAT.                                          1900/01/01:   DATE LOGGED
QCRM.                   WAITING FOR OPERATOR CONFIRMATION:   QC COMMENT
QCCO.                                             UNKNOWN:   QC COMPANY
~Curve Information Block
#MNEM.UNIT                                        API CODE    No Description
#=========                                        ========    == ===========
DEPT.M                                       00 001 00 00:     1  DEPTH
AC.US/F                                                  :     2  Sonic Transit Time (Slowness)
CALI.IN                                                  :     3  Caliper
DEN.G/CC                                                 :     4  Bulk Density
GR.GAPI                                                  :     5  Gamma Ray
NEUT.FRAC                                                :     6  Neutron Porosity
RDEP.                                                    :     7  Unrecognised
RMED.                                                    :     8  Unrecognised
ROP.                                                     :     9  ROP
~ASCII
# ...
 2115.2084   140.9297    13.0512     2.2556   110.5468  -999.2500      .4899      .4812      .0125
 2115.3608   141.9472    13.0906     2.2604    92.9505  -999.2500      .4960      .4785      .0125
 2115.5132   143.1221    13.1575     2.2209   103.8776  -999.2500      .4996      .4799      .0125
 2115.6656   141.9497    13.1299     2.2129   105.6836  -999.2500      .4948      .4711      .0125
 2115.8180   142.8243    13.0000     2.2091   104.3866  -999.2500      .4930      .4723      .0118
 2115.9704   142.5066    12.6929     2.2199   104.2427  -999.2500      .5045      .4742      .0101
 2116.1228   140.9795    12.3661     2.3390    80.6016  -999.2500      .5646      .5576      .0082
 2116.2752   142.0646    12.2598     2.3930    72.8872  -999.2500      .5835      .6055      .0064
 2116.4276   142.9478    13.7244     2.6191    72.8437  -999.2500      .4789      .4755      .0052
 2116.5800   143.6506    13.5630     2.6317    82.5713  -999.2500      .4574      .4446      .0059
 2116.7324   142.2270    12.5669     2.7094    85.2376  -999.2500      .4742      .4595      .0087
 2116.8848   143.6315    12.7874     2.4850    89.5628  -999.2500      .4812      .4704      .0113
 2117.0372   143.1922    13.0197     2.2454    96.4772  -999.2500      .4889      .4816      .0120
 2117.1896   142.7811    13.0236     2.2305    99.0222  -999.2500      .5024      .4782      .0123
 2117.3420   144.6180    13.0236     2.2268    91.3083  -999.2500      .5120      .4790      .0123
 2117.4944   144.8739    13.0276     2.2226    97.7100  -999.2500      .5195      .4897      .0122
 2117.6468   146.2737    13.0551     2.2351   106.1931  -999.2500      .5050      .4807      .0123
 2117.7992   145.5183    13.0748     2.2461    91.7170  -999.2500      .4877      .4767      .0123
 2117.9516   141.9134    13.2362     2.2511    95.5525  -999.2500      .4816      .4685      .0123
 2118.1040   140.8936    13.2717     2.2456   105.6175  -999.2500      .4781      .4622      .0123
 2118.2564   139.8336    13.4173     2.2244   108.3155  -999.2500      .4737      .4527      .0123
 2118.4088   140.4204    13.0787     2.2070   113.4395  -999.2500      .4724      .4531      .0123
 2118.5612   141.3089    12.8740     2.1965    94.1300  -999.2500      .4750      .4599      .0123
 2118.7136   140.8665    12.7992     2.2173   102.8878  -999.2500      .4798      .4626      .0124
 2118.8660   141.5816    12.7677     2.2165    97.8668  -999.2500      .4745      .4522      .0123
 2119.0184   144.1365    12.7323     2.2155   104.7207  -999.2500      .4735      .4527      .0123
 2119.1708   146.2505    12.7717     2.2311   111.1268  -999.2500      .4748      .4609      .0123
 2119.3232   145.5855    12.8228     2.2351    96.8273  -999.2500      .4754      .4658      .0123
 2119.4756   143.9624    12.9882     2.2480    93.8166  -999.2500      .4724      .4630      .0123
 2119.6280   143.5574    13.1417     2.2410   108.2260  -999.2500      .4662      .4534      .0123
 2119.7804   144.2078    13.2087     2.2379   103.5526  -999.2500      .4597      .4440      .0123
 2119.9328   143.8592    13.5551     2.2435    92.9338  -999.2500      .4571      .4404      .0123
 2120.0852   144.0355    13.4173     2.2382   109.5054  -999.2500      .4575      .4374      .0124
 2120.2376   143.8552    13.2559     2.2321   101.6460  -999.2500      .4587      .4394      .0124
 2120.3900   144.0629    12.9764     2.2000    86.6324  -999.2500      .4618      .4472      .0123
 2120.5424   143.6987    12.9173     2.1995   112.1571  -999.2500      .4576      .4405      .0123
 2120.6948   143.6005    12.9055     2.2338    98.4611  -999.2500      .4577      .4428      .0123
 2120.8472   142.7637    12.8701     2.2253    98.0915  -999.2500      .4570      .4421      .0123
 2120.9996   141.8994    12.8346     2.2169   100.9678  -999.2500      .4539      .4442      .0123
 2121.1520   142.2940    12.7717     2.2106    96.5333  -999.2500      .4574      .4358      .0123
 2121.3044   142.7472    12.7953     2.2085    99.3989  -999.2500      .4645      .4433      .0123
 2121.4568   143.2043    12.9134     2.2043    92.5153  -999.2500      .4721      .4621      .0123
 2121.6092   144.3656    12.9921     2.2087    80.9379  -999.2500      .4668      .4550      .0124
 2121.7616   144.6416    13.0394     2.2113    83.7115  -999.2500      .4656      .4518      .0123
 2121.9140   143.6998    13.1614     2.2254   106.4067  -999.2500      .4675      .4483      .0123
 2122.0664   143.0998    13.1417     2.2301   102.0063  -999.2500      .4620      .4465      .0123
 2122.2188   142.4612    13.0984     2.2410   100.8536  -999.2500      .4665      .4523      .0123
 2122.3712   142.2471    13.1063     2.2565   103.0651  -999.2500      .4694      .4501      .0123
 2122.5236   143.3078    13.1102     2.2625   101.9360  -999.2500      .4683      .4497      .0123
 2122.6760   144.4807    13.1181     2.2068    97.0657  -999.2500      .4670      .4466      .0123
 2122.8284   143.5470    13.1654     2.2082    92.4550  -999.2500      .4635      .4442      .0123
 2122.9808   141.8889    13.2520     2.2107    91.6770  -999.2500      .4647      .4456      .0123
 2123.1332   142.5859    13.0118     2.2119    98.2583  -999.2500      .4670      .4472      .0123
 2123.2856   142.5517    12.9016     2.2143   102.5563  -999.2500      .4656      .4555      .0123
 2123.4380   144.6688    12.9331     2.2066   103.9481  -999.2500      .4656      .4469      .0123
 2123.5904   145.6271    12.9646     2.2043   104.3273  -999.2500      .4650      .4488      .0123
 2123.7428   146.0768    12.9921     2.2106   100.8318  -999.2500      .4768      .4561      .0124
 2123.8952   145.4675    13.3543     2.2060    91.9690  -999.2500      .5407      .5216      .0124
 2124.0476   145.0544    13.6063     2.2028    81.3809  -999.2500      .6024      .6459      .0123
 2124.2000   144.0061    12.5197     2.4917    74.8715  -999.2500      .5171      .5745      .0124
 2124.3524   142.7843    12.5551     2.5299    90.1944  -999.2500      .4422      .4830      .0123
 2124.5048   142.4762    12.6693     2.6419   110.3324  -999.2500      .4453      .4797      .0123
 2124.6572   142.5432    14.0945     2.3535   109.3809  -999.2500      .4464      .4760      .0123
 2124.8096   142.9816    14.7126     2.2277   103.5687  -999.2500      .4545      .4614      .0123
 2124.9620   142.1800    13.2677     2.2113    99.6327  -999.2500      .4579      .4457      .0123
 2125.1144   141.6223    13.1260     2.2098    97.0115  -999.2500      .4606      .4392      .0123
 2125.2668   141.7413    12.9370     2.2079   111.5473  -999.2500      .4502      .4292      .0123
 2125.4192   142.3333    12.9213     2.2221   118.4117  -999.2500      .4507      .4347      .0123
 2125.5716   143.4751    12.9134     2.2255    97.2253  -999.2500      .4678      .4434      .0123
 2125.7240   140.2610    12.8976     2.2283    98.5228  -999.2500      .4979      .4694      .0122
 2125.8764   140.7378    13.1614     2.2477   115.1557  -999.2500      .5171      .4929      .0121
 2126.0288   140.7555    13.2835     2.2565    98.6775  -999.2500      .5002      .4830      .0121
 2126.1812   141.2491    13.2756     2.2309    97.4329  -999.2500      .4843      .4841      .0121
 2126.3336   143.1403    13.2717     2.2327    96.5527  -999.2500      .4671      .4676      .0117
 2126.4860   140.0440    13.2441     2.2326   106.3512  -999.2500      .4603      .4443      .0109
 2126.6384   143.1290    13.1339     2.2255    81.1702  -999.2500      .5466      .5109      .0094
 2126.7908   143.2089    12.2913     2.2544    79.3267  -999.2500      .5854      .5965      .0077
 2126.9432   141.2316    12.0276     2.2982    91.4113  -999.2500      .4183      .4276      .0072
 2127.0956   142.2672    12.2126     2.5297    86.1911  -999.2500      .3956      .3902      .0086
 2127.2480   140.8729    12.4803     2.4025   103.5680  -999.2500      .4077      .4080      .0107
 2127.4004   139.5893    12.7402     2.2787   118.0676  -999.2500      .4393      .4291      .0120
