~VERSION INFORMATION
VERS.                                                 2.0:   CWLS Log ASCII Standard-VERSION 2.0
WRAP.                                                  NO:   One line per depth step
~Well Information Block
STRT.M                                          1325.1668:   Top Depth
STOP.M                                          3304.3856:   Bottom Depth
STEP.M                                             .15240:   Depth Increment
NULL.                                            -999.250:   Null Value
FLD .                                                 Q15:   Field Name
WELL.                                            15/12-14:   NAME
WBN .                                            15/12-14:   WELLBORE
NATI.                                                 NOR:   COUNTRY
CTRY.                                                 NOR:   COUNTRY
COMP.                                           PERTRA AS:   OPERATOR
PDAT.                                      Mean Sea Level:   PERM DATUM
SON .                                     !NRMW0002615870:   SOURCE OPERATOR NAME
PBWE.                                            15/12-14:   PB WELL ID
APIN.                                            15/12-14:   PB WELLBORE ID
PBWS.                                                 ALL:   PB WELL NAME SET
WDMS.M                                                 84:   WATER DEPTH
~PARAMETER INFORMATION (log)
LNAM.                                           COMPOSITE:   NAME
LTYP.                                             PAP.CMP:   LOG TYPE
LSRV.                                              WL.LOG:   LOG SERVICE
LSOU.                                              PERTRA:   LOG SOURCE
LVSN.                                                   1:   LOG VERSION
BHT .DEGF                                             0.0:   BH TEMP
BHIS.                                                   R:   BRIEF HISTORY
TDD .M                                                0.0:   FINAL TD DRILLER
TDL .M                                                0.0:   FINAL TD LOGGER
DFL .CM3                                              0.0:   FLUID LOSS
FHIS.                                             RAW-LIS:   FULL HISTORY
LCNM.                                         HALLIBURTON:   LOGGING CONTRACTOR
DFD .G/CC                                             0.0:   MUD DENSITY
DFPH.                                                 0.0:   MUD PH
DFV .                                                 0.0:   MUD VISCOSITY
RMS .OHMM                                             0.0:   RM
MST .DEGF                                             0.0:   RM TEMP
RMCS.OHMM                                             0.0:   RMC
MCST.DEGF                                             0.0:   RMC TEMP
RMFS.OHMM                                             0.0:   RMF
MFST.DEGF                                             0.0:   RMF TEMP
STEM.DEGF                                             0.0:   SURFACE TEMPERATURE
TOOL.                                      COMPOSITE_LISE:   TOOL STRING
LDAT.                                          1900/01/01:   DATE LOGGED
QCRM.                   WAITING FOR OPERATOR CONFIRMATION:   QC COMMENT
QCCO.                                             UNKNOWN:   QC COMPANY
~Curve Information Block
#MNEM.UNIT                                        API CODE    No Description
#=========                                        ========    == ===========
DEPT.M                                       00 001 00 00:     1  DEPTH
AC.US/F                                                  :     2  Sonic Transit Time (Slowness)
CALI.IN                                                  :     3  Caliper
DEN.G/CC                                                 :     4  Bulk Density
GR.GAPI                                                  :     5  Gamma Ray
NEUT.FRAC                                                :     6  Neutron Porosity
RDEP.                                                    :     7  Unrecognised
RMED.                                                    :     8  Unrecognised
ROP.                                                     :     9  ROP
~ASCII
# ...
 1473.2996   132.6044    13.0197     2.2016   105.3169  -999.2500      .9599      .9127      .0106
 1473.4520   134.1918    13.1063     2.2116    99.7014  -999.2500     1.0282     1.0018      .0105
 1473.6044   136.6764    13.4055     2.2218   121.9118  -999.2500      .9877      .9839      .0105
 1473.7568   138.4563    14.3425     2.2774   105.4090  -999.2500      .9035      .9056      .0105
 1473.9092   140.0049    13.9331     2.2343   106.5164  -999.2500      .8862      .8818      .0106
 1474.0616   141.0047    13.5000     2.1896   117.4582  -999.2500      .8782      .8587      .0105
 1474.2140   141.1675    13.5276     2.1805   108.2730  -999.2500      .8659      .8456      .0104
 1474.3664   141.0423    13.6063     2.1895   114.9215  -999.2500      .8632      .8253      .0104
 1474.5188   140.5485    13.6339     2.2088   109.0113  -999.2500      .8594      .8129      .0105
 1474.6712   139.9357    13.5118     2.1983   115.4341  -999.2500      .8431      .8108      .0107
 1474.8236   139.2974    13.2835     2.1731   119.5459  -999.2500      .8417      .8102      .0107
 1474.9760   138.4630    12.9213     2.1711   116.0051  -999.2500      .8351      .8082      .0106
 1475.1284   137.7556    12.7835     2.1635   111.4212  -999.2500      .8351      .8073      .0104
 1475.2808   137.4355    12.7362     2.1618   100.3197  -999.2500      .8335      .8094      .0103
 1475.4332   137.1122    12.9646     2.1901   114.0945  -999.2500      .8298      .8101      .0102
 1475.5856   137.6929    13.1614     2.1721    96.7958  -999.2500      .8279      .8012      .0101
 1475.7380   138.9785    13.3701     2.1729   100.2239  -999.2500      .8166      .7982      .0101
 1475.8904   140.6273    13.7953     2.1958    99.3098  -999.2500      .8156      .7952      .0102
 1476.0428   140.3484    13.8307     2.1878   110.3313  -999.2500      .8184      .7915      .0103
 1476.1952   139.9665    13.8543     2.1954    92.9048  -999.2500      .8110      .7875      .0101
 1476.3476   139.4928    13.8386     2.2030   108.1446  -999.2500      .8234      .7862      .0101
 1476.5000   140.0830    13.5236     2.1759   102.8269  -999.2500      .8395      .8038      .0104
 1476.6524   139.6959    13.2087     2.1765   111.2673  -999.2500      .8699      .8243      .0105
 1476.8048   139.0641    12.9646     2.1809   106.6567  -999.2500      .9237      .8893      .0105
 1476.9572   139.5910    12.6378     2.1991   111.6115  -999.2500      .8973      .8893      .0104
 1477.1096   139.6989    12.7598     2.2236   107.5168  -999.2500      .8515      .8399      .0104
 1477.2620   138.7122    12.8189     2.2204   119.0611  -999.2500      .8310      .8190      .0103
 1477.4144   137.6113    12.8701     2.2044   104.8615  -999.2500      .8373      .8122      .0101
 1477.5668   136.7685    12.8937     2.1931   109.3740  -999.2500      .8736      .8205      .0098
 1477.7192   137.0837    13.0118     2.2007    96.3331  -999.2500     1.0221     1.0105      .0092
 1477.8716   138.6181    13.5394     2.2777    84.9114  -999.2500     1.0231     1.0364      .0085
 1478.0240   140.8565  -999.2500     2.3023    92.1825  -999.2500      .8755      .8784      .0086
 1478.1764   141.1808  -999.2500     2.2604   112.5369  -999.2500      .8186      .8157      .0095
 1478.3288   141.8459  -999.2500     2.2112   122.6057  -999.2500      .8169      .8075      .0102
 1478.4812   142.1580  -999.2500     2.1817   105.9148  -999.2500      .8162      .7996      .0104
 1478.6336   142.2065  -999.2500     2.1676   118.3732  -999.2500      .8197      .7916      .0104
 1478.7860   141.1401  -999.2500     2.1718   106.8548  -999.2500      .8307      .7807      .0103
 1478.9384   140.5135  -999.2500     2.1785    95.0149  -999.2500      .8261      .7876      .0103
 1479.0908   140.2079  -999.2500     2.1688    89.3171  -999.2500      .8272      .7928      .0103
 1479.2432   140.0006  -999.2500     2.1517    84.7087  -999.2500      .8247      .8005      .0103
 1479.3956   139.4200  -999.2500     2.1729   108.1438  -999.2500      .8239      .8000      .0103
 1479.5480   139.1901  -999.2500     2.1562   102.3745  -999.2500      .8214      .7937      .0103
 1479.7004   139.2444  -999.2500     2.1594   107.8362  -999.2500      .8224      .7957      .0102
 1479.8528   139.6427  -999.2500     2.1595   115.1518  -999.2500      .8329      .7965      .0101
 1480.0052   140.5284  -999.2500     2.1517   106.7166  -999.2500      .8400      .8083      .0100
 1480.1576   141.5660  -999.2500     2.1609   112.1008  -999.2500      .8533      .8243      .0101
 1480.3100   142.9318  -999.2500     2.1812   107.8472  -999.2500      .8595      .8357      .0103
 1480.4624   144.0664  -999.2500     2.1708   101.8279  -999.2500      .8592      .8413      .0104
 1480.6148   142.8909  -999.2500     2.1740   114.6932  -999.2500      .8564      .8303      .0105
 1480.7672   140.6737  -999.2500     2.1770   115.7833  -999.2500      .8560      .8369      .0105
 1480.9196   136.1301  -999.2500     2.1803   116.2256  -999.2500      .8567      .8413      .0105
 1481.0720   132.6516  -999.2500     2.1830   103.2489  -999.2500      .8406      .8307      .0104
 1481.2244   129.7859  -999.2500     2.1954   101.7595  -999.2500      .8301      .8029      .0105
 1481.3768   129.9082  -999.2500     2.1980   103.2807  -999.2500      .8380      .7986      .0106
 1481.5292   130.8771  -999.2500     2.2075   104.4138  -999.2500     1.0049      .9413      .0107
 1481.6816   135.2056  -999.2500     2.2327   107.8014  -999.2500     1.2397     1.2248      .0107
 1481.8340   137.1110  -999.2500     2.3990    87.4986  -999.2500     1.3136     1.3972      .0107
 1481.9864   139.9649  -999.2500     2.5956    84.9414  -999.2500     1.1203     1.2004      .0105
 1482.1388   141.0381  -999.2500     2.5735   105.0231  -999.2500      .9722     1.0080      .0104
 1482.2912   142.4685  -999.2500     2.3751   111.6029  -999.2500      .9396      .9604      .0103
 1482.4436   142.8396  -999.2500     2.2568   124.0027  -999.2500      .9413      .9458      .0103
 1482.5960   143.1776  -999.2500     2.2164   111.4364  -999.2500      .9441      .9068      .0105
 1482.7484   141.9275  -999.2500     2.1992   105.9235  -999.2500      .9318      .8577      .0107
 1482.9008   142.1520  -999.2500     2.2048    99.3962  -999.2500      .9084      .8286      .0107
 1483.0532   143.2270  -999.2500     2.1858   108.5027  -999.2500      .8746      .8210      .0106
 1483.2056   143.0172  -999.2500     2.1745   111.8651  -999.2500      .8448      .8149      .0106
 1483.3580   143.1546  -999.2500     2.1706   119.0409  -999.2500      .8175      .7985      .0104
 1483.5104   143.5500  -999.2500     2.1718   110.7406  -999.2500      .8028      .7817      .0104
 1483.6628   142.2462  -999.2500     2.1569   116.5267  -999.2500      .8078      .7808      .0104
 1483.8152   140.8877  -999.2500     2.1585   118.9032  -999.2500      .8297      .7988      .0104
 1483.9676   140.9149  -999.2500     2.1540   112.7099  -999.2500      .8539      .8238      .0103
 1484.1200   143.3247  -999.2500     2.1634   106.0579  -999.2500      .8624      .8379      .0103
 1484.2724   143.6384  -999.2500     2.1851   109.3722  -999.2500      .8607      .8388      .0102
 1484.4248   143.3561  -999.2500     2.2096    99.8068  -999.2500      .8403      .8250      .0094
 1484.5772   142.0563  -999.2500     2.2187    98.9264  -999.2500      .8153      .8008      .0082
 1484.7296   141.0787  -999.2500     2.2035   112.1451  -999.2500      .8113      .7870      .0066
 1484.8820   141.0268  -999.2500     2.1998   123.2701  -999.2500      .8316      .7941      .0048
 1485.0344   139.5010  -999.2500     2.1794    93.2461  -999.2500      .8811      .8309      .0043
 1485.1868   139.4635  -999.2500     2.1922    98.8757  -999.2500      .9410      .9001      .0070
 1485.3392   136.5000  -999.2500     2.2304    96.3471  -999.2500      .9508      .9236      .0095
 1485.4916   136.4749  -999.2500     2.2321   108.3956  -999.2500      .9298      .9101      .0106
