~VERSION INFORMATION
VERS.                                                 2.0:   CWLS Log ASCII Standard-VERSION 2.0
WRAP.                                                  NO:   One line per depth step
~Well Information Block
STRT.M                                          1325.1668:   Top Depth
STOP.M                                          3304.3856:   Bottom Depth
STEP.M                                             .15240:   Depth Increment
NULL.                                            -999.250:   Null Value
FLD .                                                 Q15:   Field Name
WELL.                                            15/12-14:   NAME
WBN .                                            15/12-14:   WELLBORE
NATI.                                                 NOR:   COUNTRY
CTRY.                                                 NOR:   COUNTRY
COMP.                                           PERTRA AS:   OPERATOR
PDAT.                                      Mean Sea Level:   PERM DATUM
SON .                                     !NRMW0002615870:   SOURCE OPERATOR NAME
PBWE.                                            15/12-14:   PB WELL ID
APIN.                                            15/12-14:   PB WELLBORE ID
PBWS.                                                 ALL:   PB WELL NAME SET
WDMS.M                                                 84:   WATER DEPTH
~PARAMETER INFORMATION (log)
LNAM.                                           COMPOSITE:   NAME
LTYP.                                             PAP.CMP:   LOG TYPE
LSRV.                                              WL.LOG:   LOG SERVICE
LSOU.                                              PERTRA:   LOG SOURCE
LVSN.                                                   1:   LOG VERSION
BHT .DEGF                                             0.0:   BH TEMP
BHIS.                                                   R:   BRIEF HISTORY
TDD .M                                                0.0:   FINAL TD DRILLER
TDL .M                                                0.0:   FINAL TD LOGGER
DFL .CM3                                              0.0:   FLUID LOSS
FHIS.                                             RAW-LIS:   FULL HISTORY
LCNM.                                         HALLIBURTON:   LOGGING CONTRACTOR
DFD .G/CC                                             0.0:   MUD DENSITY
DFPH.                                                 0.0:   MUD PH
DFV .                                                 0.0:   MUD VISCOSITY
RMS .OHMM                                             0.0:   RM
MST .DEGF                                             0.0:   RM TEMP
RMCS.OHMM                                             0.0:   RMC
MCST.DEGF                                             0.0:   RMC TEMP
RMFS.OHMM                                             0.0:   RMF
MFST.DEGF                                             0.0:   RMF TEMP
STEM.DEGF                                             0.0:   SURFACE TEMPERATURE
TOOL.                                      COMPOSITE_LISE:   TOOL STRING
LDAT.                                          1900/01/01:   DATE LOGGED
QCRM.                   WAITING FOR OPERATOR CONFIRMATION:   QC COMMENT
QCCO.                                             UNKNOWN:   QC COMPANY
~Curve Information Block
#MNEM.UNIT                                        API CODE    No Description
#=========                                        ========    == ===========
DEPT.M                                       00 001 00 00:     1  DEPTH
AC.US/F                                                  :     2  Sonic Transit Time (Slowness)
CALI.IN                                                  :     3  Caliper
DEN.G/CC                                                 :     4  Bulk Density
GR.GAPI                                                  :     5  Gamma Ray
NEUT.FRAC                                                :     6  Neutron Porosity
RDEP.                                                    :     7  Unrecognised
RMED.                                                    :     8  Unrecognised
ROP.                                                     :     9  ROP
~ASCII
# ...
 2250.9968   138.9399    12.9449     2.2688    87.2454  -999.2500      .3964      .3841      .0181
 2251.1492   138.4067    12.9449     2.2688    78.4022  -999.2500      .4040      .3942      .0180
 2251.3016   138.0430    12.9685     2.2528    83.2165  -999.2500      .4039      .4004      .0180
 2251.4540   136.0314    13.0000     2.2344    82.1307  -999.2500      .3978      .3970      .0179
 2251.6064   133.9701    13.0000     2.2344    73.0688  -999.2500      .4002      .3929      .0178
 2251.7588   133.1316    13.0630     2.2341    67.8333  -999.2500      .4061      .3942      .0179
 2251.9112   134.5906    13.0630     2.2341    70.7305  -999.2500      .4085      .3998      .0180
 2252.0636   132.5005    13.0748     2.2539    72.8774  -999.2500      .4123      .3987      .0179
 2252.2160   131.2296    13.0748     2.2539    67.2094  -999.2500      .4087      .3964      .0179
 2252.3684   127.7730    12.8622     2.2460    71.4653  -999.2500      .4016      .3926      .0179
 2252.5208   122.6601    12.8622     2.2460    73.1439  -999.2500      .3961      .3843      .0180
 2252.6732   122.8208    12.7520     2.2429    74.1260  -999.2500      .4016      .3880      .0180
 2252.8256   118.7684    12.6496     2.2400    89.4215  -999.2500      .4200      .4104      .0181
 2252.9780   126.7880    12.6496     2.2400    91.6745  -999.2500      .4252      .4192      .0181
 2253.1304   129.3728    12.6417     2.2388    92.1432  -999.2500      .4041      .3985      .0182
 2253.2828   128.3620    12.6417     2.2388    92.2354  -999.2500      .3973      .3695      .0182
 2253.4352   130.6170    12.9685     2.2463    82.4994  -999.2500      .4759      .4219      .0183
 2253.5876   134.4832    12.9685     2.2463    79.7750  -999.2500      .5935      .5171      .0181
 2253.7400   135.4424    13.2441     2.3719    77.1350  -999.2500      .7529      .6637      .0180
 2253.8924   134.0272    13.2441     2.3719    68.4342  -999.2500      .8220      .7741      .0178
 2254.0448   133.7206    13.6811     2.4550    55.6597  -999.2500      .6566      .6914      .0177
 2254.1972   136.5778    14.1457     2.5444    66.2035  -999.2500      .4934      .5213      .0178
 2254.3496   136.7673    14.1457     2.5444    74.9192  -999.2500      .4886      .4689      .0180
 2254.5020   138.0156    13.6142     2.3251    82.0567  -999.2500      .5025      .4356      .0181
 2254.6544   142.7975    13.6142     2.3251    75.7092  -999.2500      .5096      .4386      .0181
 2254.8068   142.7354    12.8071     2.2739    72.7414  -999.2500      .5373      .4902      .0179
 2254.9592   138.2347    12.8071     2.2739    68.0997  -999.2500      .6847      .6439      .0176
 2255.1116   132.6455    12.0984     2.3405    56.0166  -999.2500      .5726      .5764      .0174
 2255.2640   129.1159    12.0984     2.3405    67.7260  -999.2500      .5221      .5241      .0174
 2255.4164   131.5839    12.2598     2.4251    74.6967  -999.2500      .5050      .4987      .0179
 2255.5688   133.1006    12.3976     2.4962    80.9606  -999.2500      .5094      .4955      .0180
 2255.7212   132.5116    12.5866     2.3696    78.4022  -999.2500      .4942      .4717      .0180
 2255.8736   131.8741    12.7323     2.2721    70.5345  -999.2500      .4847      .4603      .0179
 2256.0260   138.0792    12.7953     2.2727    65.9193  -999.2500      .4827      .4747      .0172
 2256.1784   143.4442    12.8189     2.2730    61.5645  -999.2500      .5565      .5986      .0160
 2256.3308   141.0888    12.0000     2.5066    61.6091  -999.2500      .6801      .7897      .0141
 2256.4832   138.4860    12.0000     2.5066    63.8829  -999.2500      .7407      .8728      .0117
 2256.6356   137.8625    14.5512     2.8350    67.0540  -999.2500      .5795      .6064      .0113
 2256.7880   138.6498    14.5512     2.8350    68.9144  -999.2500      .4343      .4528      .0134
 2256.9404   137.3142    13.6378     2.7270    69.6394  -999.2500      .4171      .4059      .0161
 2257.0928   136.4736    12.5000     2.5925    79.7197  -999.2500      .4272      .3997      .0176
 2257.2452   135.4990    12.5000     2.5925    81.2222  -999.2500      .4421      .4081      .0181
 2257.3976   136.9788    13.9173     2.2641    80.1471  -999.2500      .4417      .4141      .0181
 2257.5500   137.8181    13.9173     2.2641    70.0602  -999.2500      .4484      .4220      .0181
 2257.7024   137.6437    12.8307     2.2626    78.3131  -999.2500      .4690      .4485      .0181
 2257.8548   137.6046    12.8504     2.2628    81.6409  -999.2500      .4863      .4781      .0181
 2258.0072   138.0406    12.9488     2.2636    81.8940  -999.2500      .4948      .5052      .0181
 2258.1596   138.3810    12.9488     2.2636    76.5559  -999.2500      .4956      .4936      .0180
 2258.3120   138.2975    12.9724     2.2550    86.7727  -999.2500      .4747      .4775      .0181
 2258.4644   138.2196    13.0000     2.2465    87.1466  -999.2500      .4530      .4483      .0181
 2258.6168   138.8403    13.0000     2.2465    78.0791  -999.2500      .4511      .4387      .0181
 2258.7692   139.1463    13.0039     2.2444    75.5069  -999.2500      .4673      .4498      .0179
 2258.9216   139.7027    13.0039     2.2444    72.0044  -999.2500      .4796      .4664      .0176
 2259.0740   139.4545    13.0118     2.2375    67.1298  -999.2500      .4796      .4569      .0172
 2259.2264   138.9129    12.9685     2.2442    63.8770  -999.2500      .4844      .4692      .0168
 2259.3788   139.7649    12.9094     2.2535    69.9550  -999.2500      .4956      .4839      .0167
 2259.5312   140.3350    12.8622     2.2531    83.6335  -999.2500      .4926      .4679      .0169
 2259.6836   140.3170    12.8504     2.2572    81.2181  -999.2500      .4900      .4645      .0172
 2259.8360   139.0636    12.9409     2.2577    70.0602  -999.2500      .4887      .4639      .0174
 2259.9884   137.9528    12.8858     2.2511    86.2752  -999.2500      .4964      .4726      .0175
 2260.1408   136.2469    12.7598     2.2343    73.1045  -999.2500      .5028      .4888      .0177
 2260.2932   136.1512    12.7756     2.2367    67.0995  -999.2500      .4930      .4890      .0177
 2260.4456   136.0437    12.8189     2.2444    82.4680  -999.2500      .4872      .4795      .0177
 2260.5980   138.4406    12.8189     2.2444    81.5955  -999.2500      .5026      .4958      .0177
 2260.7504   140.1972    12.8504     2.2510    76.8844  -999.2500      .5106      .4921      .0178
 2260.9028   140.2391    12.8504     2.2510    72.2093  -999.2500      .5350      .5092      .0176
 2261.0552   140.7260    12.8780     2.2597    69.7446  -999.2500      .5510      .5271      .0176
 2261.2076   140.7662    12.8780     2.2597    70.0108  -999.2500      .5432      .5284      .0176
 2261.3600   140.3226    12.6732     2.2727    72.1227  -999.2500      .5142      .4925      .0176
 2261.5124   139.5623    12.6732     2.2727    73.3170  -999.2500      .4783      .4592      .0178
 2261.6648   138.5239    12.7913     2.2511    65.8892  -999.2500      .4579      .4194      .0178
 2261.8172   137.3588    12.7913     2.2511    83.4682  -999.2500      .4686      .4252      .0179
 2261.9696   136.9350    12.9291     2.2404    70.3728  -999.2500      .4792      .4451      .0178
 2262.1220   137.0390    12.9291     2.2404    64.9073  -999.2500      .4748      .4460      .0177
 2262.2744   137.9677    12.8110     2.2292    65.1617  -999.2500      .4592      .4338      .0177
 2262.4268   140.0323    12.6968     2.2183    69.5139  -999.2500      .4494      .4223      .0177
 2262.5792   139.3596    12.7441     2.2186    76.0292  -999.2500      .4556      .4243      .0175
 2262.7316   140.3931    12.8386     2.2192    69.9024  -999.2500      .4597      .4303      .0175
 2262.8840   138.2810    12.8858     2.2212    65.1455  -999.2500      .4580      .4207      .0174
 2263.0364   140.6347    12.9803     2.2250    71.9561  -999.2500      .4451      .4115      .0174
 2263.1888   141.0225    12.9803     2.2250    75.4216  -999.2500      .4408      .4062      .0174
