~VERSION INFORMATION
VERS.                                                 2.0:   CWLS Log ASCII Standard-VERSION 2.0
WRAP.                                                  NO:   One line per depth step
~Well Information Block
STRT.M                                          1325.1668:   Top Depth
STOP.M                                          3304.3856:   Bottom Depth
STEP.M                                             .15240:   Depth Increment
NULL.                                            -999.250:   Null Value
FLD .                                                 Q15:   Field Name
WELL.                                            15/12-14:   NAME
WBN .                                            15/12-14:   WELLBORE
NATI.                                                 NOR:   COUNTRY
CTRY.                                                 NOR:   COUNTRY
COMP.                                           PERTRA AS:   OPERATOR
PDAT.                                      Mean Sea Level:   PERM DATUM
SON .                                     !NRMW0002615870:   SOURCE OPERATOR NAME
PBWE.                                            15/12-14:   PB WELL ID
APIN.                                            15/12-14:   PB WELLBORE ID
PBWS.                                                 ALL:   PB WELL NAME SET
WDMS.M                                                 84:   WATER DEPTH
~PARAMETER INFORMATION (log)
LNAM.                                           COMPOSITE:   NAME
LTYP.                                             PAP.CMP:   LOG TYPE
LSRV.                                              WL.LOG:   LOG SERVICE
LSOU.                                              PERTRA:   LOG SOURCE
LVSN.                                                   1:   LOG VERSION
BHT .DEGF                                             0.0:   BH TEMP
BHIS.                                                   R:   BRIEF HISTORY
TDD .M                                                0.0:   FINAL TD DRILLER
TDL .M                                                0.0:   FINAL TD LOGGER
DFL .CM3                                              0.0:   FLUID LOSS
FHIS.                                             RAW-LIS:   FULL HISTORY
LCNM.                                         HALLIBURTON:   LOGGING CONTRACTOR
DFD .G/CC                                             0.0:   MUD DENSITY
DFPH.                                                 0.0:   MUD PH
DFV .                                                 0.0:   MUD VISCOSITY
RMS .OHMM                                             0.0:   RM
MST .DEGF                                             0.0:   RM TEMP
RMCS.OHMM                                             0.0:   RMC
MCST.DEGF                                             0.0:   RMC TEMP
RMFS.OHMM                                             0.0:   RMF
MFST.DEGF                                             0.0:   RMF TEMP
STEM.DEGF                                             0.0:   SURFACE TEMPERATURE
TOOL.                                      COMPOSITE_LISE:   TOOL STRING
LDAT.                                          1900/01/01:   DATE LOGGED
QCRM.                   WAITING FOR OPERATOR CONFIRMATION:   QC COMMENT
QCCO.                                             UNKNOWN:   QC COMPANY
~Curve Information Block
#MNEM.UNIT                                        API CODE    No Description
#=========                                        ========    == ===========
DEPT.M                                       00 001 00 00:     1  DEPTH
AC.US/F                                                  :     2  Sonic Transit Time (Slowness)
CALI.IN                                                  :     3  Caliper
DEN.G/CC                                                 :     4  Bulk Density
GR.GAPI                                                  :     5  Gamma Ray
NEUT.FRAC                                                :     6  Neutron Porosity
RDEP.                                                    :     7  Unrecognised
RMED.                                                    :     8  Unrecognised
ROP.                                                     :     9  ROP
~ASCII
# ...
 2892.9056    70.7940  -999.2500  -999.2500    44.0892  -999.2500     4.0057     3.9775      .0048
 2893.0580    71.4949  -999.2500  -999.2500    47.4525  -999.2500     3.8471     3.8717      .0051
 2893.2104    71.6117  -999.2500  -999.2500    50.3725  -999.2500     3.8363     3.8537      .0055
 2893.3628    72.6738  -999.2500  -999.2500    49.6846  -999.2500     3.9030     3.8973      .0057
 2893.5152    73.0534  -999.2500  -999.2500    45.6306  -999.2500     3.9221     3.8940      .0056
 2893.6676    73.3309  -999.2500  -999.2500    48.3069  -999.2500     3.8715     3.7871      .0055
 2893.8200    72.4860  -999.2500  -999.2500    46.6206  -999.2500     3.7257     3.5507      .0054
 2893.9724    71.3814  -999.2500  -999.2500    55.5798  -999.2500     3.6926     3.5000      .0054
 2894.1248    70.4865  -999.2500  -999.2500    51.1271  -999.2500     3.9027     3.7215      .0055
 2894.2772    70.7839  -999.2500  -999.2500    49.9452  -999.2500     4.3240     4.1374      .0056
 2894.4296    70.5246  -999.2500  -999.2500    44.9765  -999.2500     4.4513     4.3424      .0054
 2894.5820    70.5104  -999.2500  -999.2500    46.1562  -999.2500     4.3691     4.2740      .0048
 2894.7344    71.0085  -999.2500  -999.2500    42.0618  -999.2500     4.1602     4.0527      .0044
 2894.8868    71.4409  -999.2500  -999.2500    47.0725  -999.2500     4.0670     3.9315      .0045
 2895.0392    71.6666  -999.2500  -999.2500    51.1400  -999.2500     4.1040     3.9201      .0048
 2895.1916    70.7347  -999.2500  -999.2500    51.8402  -999.2500     4.4526     4.1305      .0051
 2895.3440    69.3394  -999.2500  -999.2500    48.2603  -999.2500     4.8759     4.6724      .0053
 2895.4964    67.5359  -999.2500  -999.2500    43.7752  -999.2500     4.9509     4.8193      .0050
 2895.6488    67.7031  -999.2500  -999.2500    44.0344  -999.2500     4.8874     4.7394      .0047
 2895.8012    68.6205  -999.2500  -999.2500    44.0049  -999.2500     4.6617     4.5469      .0045
 2895.9536    69.8244  -999.2500  -999.2500    50.9682  -999.2500     4.4813     4.5078      .0045
 2896.1060    70.0368  -999.2500  -999.2500    52.6611  -999.2500     4.7234     4.6776      .0046
 2896.2584    69.7748  -999.2500  -999.2500    50.0601  -999.2500     4.7149     4.6407      .0046
 2896.4108    69.6932  -999.2500  -999.2500    52.2390  -999.2500     4.5545     4.3542      .0045
 2896.5632    69.6134  -999.2500  -999.2500    55.2199  -999.2500     4.4887     4.2390      .0048
 2896.7156    69.0306  -999.2500  -999.2500    50.9584  -999.2500     4.7354     4.5708      .0052
 2896.8680    69.2916  -999.2500  -999.2500    47.5263  -999.2500     5.0117     4.8354      .0050
 2897.0204    69.2250  -999.2500  -999.2500    44.5697  -999.2500     4.9584     4.7614      .0046
 2897.1728    68.7311  -999.2500  -999.2500    52.4776  -999.2500     4.7183     4.5734      .0043
 2897.3252    69.2255  -999.2500  -999.2500    49.5819  -999.2500     4.6891     4.6997      .0044
 2897.4776    70.0677  -999.2500  -999.2500    44.2670  -999.2500     5.0801     5.1061      .0046
 2897.6300    71.2899  -999.2500  -999.2500    47.9900  -999.2500     5.0926     5.1569      .0044
 2897.7824    71.6208  -999.2500  -999.2500    49.7288  -999.2500     4.7741     4.7713      .0041
 2897.9348    70.8043  -999.2500  -999.2500    50.3747  -999.2500     4.4244     4.2840      .0042
 2898.0872    69.6526  -999.2500  -999.2500    52.2052  -999.2500     4.1778     4.0168      .0045
 2898.2396    68.8465  -999.2500  -999.2500    53.1867  -999.2500     4.4503     4.2196      .0052
 2898.3920    69.2310  -999.2500  -999.2500    49.1898  -999.2500     4.9326     4.7408      .0053
 2898.5444    69.2747  -999.2500  -999.2500    44.7170  -999.2500     5.0666     4.9746      .0048
 2898.6968    70.0566  -999.2500  -999.2500    44.2047  -999.2500     4.6901     4.5718      .0041
 2898.8492    71.9042  -999.2500  -999.2500    42.3816  -999.2500     4.3269     4.1982      .0037
 2899.0016    72.8852  -999.2500  -999.2500    49.6323  -999.2500     4.0535     3.9385      .0038
 2899.1540    72.3148  -999.2500  -999.2500    55.6047  -999.2500     3.8921     3.7581      .0042
 2899.3064    71.3328  -999.2500  -999.2500    62.0920  -999.2500     3.8979     3.6287      .0049
 2899.4588    70.3195  -999.2500  -999.2500    60.0552  -999.2500     4.0018     3.6512      .0054
 2899.6112    69.5267  -999.2500  -999.2500    50.4998  -999.2500     4.2850     4.0009      .0056
 2899.7636    70.0096  -999.2500  -999.2500    45.1504  -999.2500     4.6002     4.3930      .0053
 2899.9160    71.0458  -999.2500  -999.2500    41.1678  -999.2500     4.6086     4.4034      .0046
 2900.0684    71.6527  -999.2500  -999.2500    39.9739  -999.2500     4.1581     3.9938      .0042
 2900.2208    72.1007  -999.2500  -999.2500    47.3758  -999.2500     3.8990     3.7940      .0041
 2900.3732    71.4153  -999.2500  -999.2500    54.3041  -999.2500     4.0353     3.9399      .0045
 2900.5256    71.4748  -999.2500  -999.2500    44.3096  -999.2500     4.3428     4.1843      .0047
 2900.6780    70.9735  -999.2500  -999.2500    45.4493  -999.2500     4.5612     4.4024      .0047
 2900.8304    70.3700  -999.2500  -999.2500    42.9720  -999.2500     4.7114     4.6247      .0043
 2900.9828    70.9004  -999.2500  -999.2500    44.1686  -999.2500     4.4523     4.3095      .0037
 2901.1352    71.2481  -999.2500  -999.2500    49.5669  -999.2500     4.2018     4.0978      .0033
 2901.2876    70.6738  -999.2500  -999.2500    53.2525  -999.2500     4.3116     4.2520      .0034
 2901.4400    70.2829  -999.2500  -999.2500    46.5965  -999.2500     4.5717     4.4940      .0042
 2901.5924    70.3037  -999.2500  -999.2500    40.8020  -999.2500     4.7483     4.6589      .0049
 2901.7448    70.3177  -999.2500  -999.2500    39.4655  -999.2500     4.6418     4.5320      .0045
 2901.8972    70.0109  -999.2500  -999.2500    38.7807  -999.2500     4.5111     4.4405      .0043
 2902.0496    70.3082  -999.2500  -999.2500    42.1429  -999.2500     4.5087     4.5299      .0043
 2902.2020    69.8159  -999.2500  -999.2500    42.0143  -999.2500     4.6838     4.6422      .0043
 2902.3544    68.7301  -999.2500  -999.2500    45.3089  -999.2500     4.6635     4.5512      .0042
 2902.5068    68.0327  -999.2500  -999.2500    46.3621  -999.2500     4.4100     4.1576      .0041
 2902.6592    68.5577  -999.2500  -999.2500    41.4067  -999.2500     4.3505     4.0621      .0047
 2902.8116    69.5951  -999.2500  -999.2500    40.8699  -999.2500     4.8595     4.6453      .0053
 2902.9640    69.3264  -999.2500  -999.2500    39.1115  -999.2500     5.2514     5.0395      .0050
 2903.1164    68.9969  -999.2500  -999.2500    36.2865  -999.2500     5.1156     4.8726      .0044
 2903.2688    69.9346  -999.2500  -999.2500    42.5967  -999.2500     4.8561     4.7516      .0038
 2903.4212    70.7377  -999.2500  -999.2500    44.2777  -999.2500     5.0260     5.2134      .0033
 2903.5736    71.9432  -999.2500  -999.2500    45.7630  -999.2500     5.2010     5.4293      .0027
 2903.7260    72.5170  -999.2500  -999.2500    40.4406  -999.2500     4.9212     5.1414      .0019
 2903.8784    73.9717  -999.2500  -999.2500    36.7574  -999.2500     4.4468     4.5435      .0028
 2904.0308    75.9161  -999.2500  -999.2500    47.0821  -999.2500     4.0093     4.0098      .0040
 2904.1832    76.7359  -999.2500  -999.2500    54.4673  -999.2500     3.4466     3.4258      .0046
 2904.3356    77.7242  -999.2500  -999.2500    59.7326  -999.2500     3.2550     3.1581      .0052
 2904.4880    78.4213  -999.2500  -999.2500    58.8523  -999.2500     3.2368     3.0969      .0056
 2904.6404    78.8718  -999.2500  -999.2500    49.6009  -999.2500     3.1722     2.9708      .0050
 2904.7928    79.1743  -999.2500  -999.2500    53.3370  -999.2500     3.0580     2.8331      .0048
 2904.9452    77.6575  -999.2500  -999.2500    59.8850  -999.2500     2.9801     2.7352      .0056
 2905.0976    76.4768  -999.2500  -999.2500    56.0861  -999.2500     2.7250     2.5236      .0069
