~VERSION INFORMATION
VERS.                                                 2.0:   CWLS Log ASCII Standard-VERSION 2.0
WRAP.                                                  NO:   One line per depth step
~Well Information Block
STRT.M                                          1325.1668:   Top Depth
STOP.M                                          3304.3856:   Bottom Depth
STEP.M                                             .15240:   Depth Increment
NULL.                                            -999.250:   Null Value
FLD .                                                 Q15:   Field Name
WELL.                                            15/12-14:   NAME
WBN .                                            15/12-14:   WELLBORE
NATI.                                                 NOR:   COUNTRY
CTRY.                                                 NOR:   COUNTRY
COMP.                                           PERTRA AS:   OPERATOR
PDAT.                                      Mean Sea Level:   PERM DATUM
SON .                                     !NRMW0002615870:   SOURCE OPERATOR NAME
PBWE.                                            15/12-14:   PB WELL ID
APIN.                                            15/12-14:   PB WELLBORE ID
PBWS.                                                 ALL:   PB WELL NAME SET
WDMS.M                                                 84:   WATER DEPTH
~PARAMETER INFORMATION (log)
LNAM.                                           COMPOSITE:   NAME
LTYP.                                             PAP.CMP:   LOG TYPE
LSRV.                                              WL.LOG:   LOG SERVICE
LSOU.                                              PERTRA:   LOG SOURCE
LVSN.                                                   1:   LOG VERSION
BHT .DEGF                                             0.0:   BH TEMP
BHIS.                                                   R:   BRIEF HISTORY
TDD .M                                                0.0:   FINAL TD DRILLER
TDL .M                                                0.0:   FINAL TD LOGGER
DFL .CM3                                              0.0:   FLUID LOSS
FHIS.                                             RAW-LIS:   FULL HISTORY
LCNM.                                         HALLIBURTON:   LOGGING CONTRACTOR
DFD .G/CC                                             0.0:   MUD DENSITY
DFPH.                                                 0.0:   MUD PH
DFV .                                                 0.0:   MUD VISCOSITY
RMS .OHMM                                             0.0:   RM
MST .DEGF                                             0.0:   RM TEMP
RMCS.OHMM                                             0.0:   RMC
MCST.DEGF                                             0.0:   RMC TEMP
RMFS.OHMM                                             0.0:   RMF
MFST.DEGF                                             0.0:   RMF TEMP
STEM.DEGF                                             0.0:   SURFACE TEMPERATURE
TOOL.                                      COMPOSITE_LISE:   TOOL STRING
LDAT.                                          1900/01/01:   DATE LOGGED
QCRM.                   WAITING FOR OPERATOR CONFIRMATION:   QC COMMENT
QCCO.                                             UNKNOWN:   QC COMPANY
~Curve Information Block
#MNEM.UNIT                                        API CODE    No Description
#=========                                        ========    == ===========
DEPT.M                                       00 001 00 00:     1  DEPTH
AC.US/F                                                  :     2  Sonic Transit Time (Slowness)
CALI.IN                                                  :     3  Caliper
DEN.G/CC                                                 :     4  Bulk Density
GR.GAPI                                                  :     5  Gamma Ray
NEUT.FRAC                                                :     6  Neutron Porosity
RDEP.                                                    :     7  Unrecognised
RMED.                                                    :     8  Unrecognised
ROP.                                                     :     9  ROP
~ASCII
# ...
 2769.4616    68.2145    12.7953     2.5506    21.1998  -999.2500     2.5662     2.4588      .0043
 2769.6140    68.3827    12.6142     2.5146    20.1239  -999.2500     2.6072     2.5923      .0045
 2769.7664    68.4211    12.5315     2.5329    23.1701  -999.2500     2.8013     2.7966      .0047
 2769.9188    68.5929    12.6378     2.5359    22.4671  -999.2500     2.6723     2.7063      .0047
 2770.0712    68.3468    12.6417     2.5351    22.9545  -999.2500     2.4802     2.4824      .0045
 2770.2236    67.4178    12.4882     2.5285    24.3535  -999.2500     2.3773     2.4021      .0046
 2770.3760    66.8555    12.5512     2.5194    27.0124  -999.2500     2.4503     2.4470      .0047
 2770.5284    68.2951    12.5669     2.4992    26.2042  -999.2500     2.3886     2.3756      .0047
 2770.6808    68.9789    12.6299     2.5016    23.4416  -999.2500     2.3158     2.2799      .0047
 2770.8332    69.0187    12.5787     2.4969    22.2138  -999.2500     2.3319     2.2660      .0050
 2770.9856    69.1359    12.6535     2.5074    22.9227  -999.2500     2.2207     2.1038      .0050
 2771.1380    69.1296    12.5630     2.4864    22.7789  -999.2500     2.1798     2.0573      .0050
 2771.2904    68.1305    12.4291     2.4902    24.2423  -999.2500     2.4129     2.2889      .0055
 2771.4428    66.4844    12.4961     2.5279    20.1676  -999.2500     2.6719     2.5796      .0057
 2771.5952    65.6692    12.5276     2.5288    21.2742  -999.2500     2.7483     2.6139      .0053
 2771.7476    63.4808    12.5039     2.5094    22.1628  -999.2500     2.8511     2.7061      .0048
 2771.9000    63.6099    12.4724     2.5066    23.5850  -999.2500     3.1378     3.4451      .0047
 2772.0524    63.9586    12.4685     2.5446    20.4741  -999.2500     3.4481     3.7877      .0047
 2772.2048    64.2652    12.6535     2.5874    23.7926  -999.2500     3.3708     3.7121      .0042
 2772.3572    65.5073    12.6220     2.5708    19.4352  -999.2500     3.1318     3.4209      .0038
 2772.5096    67.0733    12.5787     2.5566    22.3438  -999.2500     3.0759     3.2050      .0038
 2772.6620    67.4026    12.5079     2.5352    20.1733  -999.2500     3.1084     3.2241      .0042
 2772.8144    66.6086    12.4882     2.5446    22.7488  -999.2500     3.2480     3.3032      .0045
 2772.9668    64.9812    12.5905     2.5423    21.1971  -999.2500     3.2499     3.1640      .0044
 2773.1192    63.0503    12.5354     2.5368    22.9377  -999.2500     3.3327     3.0355      .0043
 2773.2716    61.6733    12.4370     2.5495    24.5407  -999.2500     3.5671     3.4066      .0044
 2773.4240    61.8712    12.5354     2.5662    24.8736  -999.2500     3.9284     3.8334      .0043
 2773.5764    62.1219    12.6535     2.5689    17.1001  -999.2500     3.7001     3.6413      .0040
 2773.7288    62.3539    12.6614     2.5741    16.4944  -999.2500     3.5519     3.5347      .0037
 2773.8812    63.0477    12.6811     2.5526    24.7616  -999.2500     3.5877     3.7026      .0037
 2774.0336    64.4337    12.6063     2.5367    21.3972  -999.2500     3.8674     4.0521      .0039
 2774.1860    65.6058    12.5197     2.5442    20.0125  -999.2500     4.1618     4.3265      .0041
 2774.3384    65.4787    12.4961     2.5730    19.2251  -999.2500     4.1214     4.3206      .0041
 2774.4908    65.4307    12.4882     2.5776    23.2170  -999.2500     3.9505     3.9744      .0039
 2774.6432    64.5451    12.6496     2.5650    27.4662  -999.2500     3.7963     3.8312      .0038
 2774.7956    63.9467    12.5827     2.5522    26.6947  -999.2500     3.8805     4.0257      .0039
 2774.9480    63.9562    12.5709     2.5595    24.4071  -999.2500     4.1929     4.2433      .0039
 2775.1004    63.2883    12.5039     2.5809    23.2694  -999.2500     4.1220     4.1825      .0038
 2775.2528    62.0283    12.4843     2.5815    24.6295  -999.2500     3.9888     3.9108      .0036
 2775.4052    62.1841    12.5748     2.5691    24.8382  -999.2500     3.8540     3.8901      .0036
 2775.5576    62.2188    12.4646     2.5644    25.0433  -999.2500     4.2135     4.2916      .0038
 2775.7100    62.3457    12.5276     2.5787    22.9591  -999.2500     4.4894     4.5444      .0039
 2775.8624    62.8917    12.5827     2.5877    20.7186  -999.2500     4.2717     4.3612      .0039
 2776.0148    63.3420    12.4764     2.5742    23.7675  -999.2500     4.0346     4.0018      .0039
 2776.1672    63.0159    12.4173     2.5744    23.8917  -999.2500     4.0248     3.9703      .0039
 2776.3196    63.2246    12.5315     2.5612    20.6126  -999.2500     4.0418     3.9856      .0040
 2776.4720    64.2585    12.5551     2.5661    22.5608  -999.2500     3.9496     3.9201      .0040
 2776.6244    64.6165    12.5866     2.5557    26.8351  -999.2500     3.9190     3.9021      .0040
 2776.7768    64.9857    12.7126     2.5791    23.3674  -999.2500     3.8440     3.8135      .0039
 2776.9292    65.0241    12.5276     2.5610    21.1429  -999.2500     3.8539     3.8135      .0040
 2777.0816    65.1736    12.5000     2.5648    20.4963  -999.2500     3.8162     3.7575      .0041
 2777.2340    64.4653    12.6575     2.5749    22.1988  -999.2500     3.6082     3.5022      .0040
 2777.3864    65.3750    12.5551     2.5603    23.8481  -999.2500     3.3720     3.2632      .0039
 2777.5388    66.0518    12.5394     2.5597    21.3454  -999.2500     3.3849     3.2643      .0039
 2777.6912    66.4652    12.5945     2.5603    22.2821  -999.2500     3.4630     3.3765      .0041
 2777.8436    66.2581    12.6457     2.5678    21.9565  -999.2500     3.5275     3.4790      .0041
 2777.9960    66.3227    12.5157     2.5684    23.6538  -999.2500     3.5528     3.5281      .0039
 2778.1484    66.2383    12.5591     2.5561    23.7655  -999.2500     3.4048     3.2492      .0037
 2778.3008    65.6604    12.6063     2.5492    23.2524  -999.2500     3.2039     3.0574      .0036
 2778.4532    63.6749    12.5551     2.5527    25.3395  -999.2500     3.2903     3.1966      .0037
 2778.6056    62.6112    12.5787     2.5594    23.6810  -999.2500     3.7117     3.6275      .0039
 2778.7580    61.8764    12.5079     2.5555    18.6913  -999.2500     3.9217     3.8723      .0040
 2778.9104    62.4090    12.4528     2.5632    18.6958  -999.2500     3.9938     3.9424      .0039
 2779.0628    63.2477    12.6063     2.5712    20.4162  -999.2500     3.9667     3.9026      .0038
 2779.2152    63.4764    12.6457     2.5672    23.6091  -999.2500     3.8950     3.9750      .0037
 2779.3676    64.2345    12.5748     2.5613    23.4431  -999.2500     4.0305     4.1855      .0037
 2779.5200    63.3976    12.5315     2.5624    21.8164  -999.2500     4.1302     4.2837      .0037
 2779.6724    62.7713    12.5669     2.5710    19.7657  -999.2500     4.0107     4.1334      .0037
 2779.8248    63.7559    12.5039     2.5686    21.8339  -999.2500     3.9605     3.8931      .0037
 2779.9772    63.5363    12.5630     2.5727    24.8766  -999.2500     4.0027     3.9503      .0037
 2780.1296    63.5191    12.6457     2.5721    24.8917  -999.2500     4.3468     4.3599      .0037
 2780.2820    63.5203    12.6417     2.5846    22.0529  -999.2500     4.3955     4.4130      .0037
 2780.4344    62.6241    12.6181     2.5833    23.5628  -999.2500     4.1203     4.0799      .0037
 2780.5868    61.5242    12.6102     2.5711    26.2866  -999.2500     3.8658     3.8245      .0037
 2780.7392    61.0712    12.5157     2.5550    27.7371  -999.2500     4.0040     4.0588      .0039
 2780.8916    61.0400    12.5984     2.5610    25.1100  -999.2500     4.2834     4.3381      .0039
 2781.0440    61.3356    12.6654     2.5674    21.5209  -999.2500     4.0208     4.0523      .0037
 2781.1964    61.8183    12.6142     2.5554    19.7269  -999.2500     3.9027     3.8629      .0036
 2781.3488    62.9796    12.5827     2.5459    23.0387  -999.2500     3.6948     3.5997      .0035
 2781.5012    63.4018    12.6339     2.5400    24.4509  -999.2500     3.5100     3.5268      .0037
 2781.6536    63.5959    12.6417     2.5465    27.3605  -999.2500     3.8615     3.7531      .0039
