~VERSION INFORMATION
VERS.                                                 2.0:   CWLS Log ASCII Standard-VERSION 2.0
WRAP.                                                  NO:   One line per depth step
~Well Information Block
STRT.M                                          1325.1668:   Top Depth
STOP.M                                          3304.3856:   Bottom Depth
STEP.M                                             .15240:   Depth Increment
NULL.                                            -999.250:   Null Value
FLD .                                                 Q15:   Field Name
WELL.                                            15/12-14:   NAME
WBN .                                            15/12-14:   WELLBORE
NATI.                                                 NOR:   COUNTRY
CTRY.                                                 NOR:   COUNTRY
COMP.                                           PERTRA AS:   OPERATOR
PDAT.                                      Mean Sea Level:   PERM DATUM
SON .                                     !NRMW0002615870:   SOURCE OPERATOR NAME
PBWE.                                            15/12-14:   PB WELL ID
APIN.                                            15/12-14:   PB WELLBORE ID
PBWS.                                                 ALL:   PB WELL NAME SET
WDMS.M                                                 84:   WATER DEPTH
~PARAMETER INFORMATION (log)
LNAM.                                           COMPOSITE:   NAME
LTYP.                                             PAP.CMP:   LOG TYPE
LSRV.                                              WL.LOG:   LOG SERVICE
LSOU.                                              PERTRA:   LOG SOURCE
LVSN.                                                   1:   LOG VERSION
BHT .DEGF                                             0.0:   BH TEMP
BHIS.                                                   R:   BRIEF HISTORY
TDD .M                                                0.0:   FINAL TD DRILLER
TDL .M                                                0.0:   FINAL TD LOGGER
DFL .CM3                                              0.0:   FLUID LOSS
FHIS.                                             RAW-LIS:   FULL HISTORY
LCNM.                                         HALLIBURTON:   LOGGING CONTRACTOR
DFD .G/CC                                             0.0:   MUD DENSITY
DFPH.                                                 0.0:   MUD PH
DFV .                                                 0.0:   MUD VISCOSITY
RMS .OHMM                                             0.0:   RM
MST .DEGF                                             0.0:   RM TEMP
RMCS.OHMM                                             0.0:   RMC
MCST.DEGF                                             0.0:   RMC TEMP
RMFS.OHMM                                             0.0:   RMF
MFST.DEGF                                             0.0:   RMF TEMP
STEM.DEGF                                             0.0:   SURFACE TEMPERATURE
TOOL.                                      COMPOSITE_LISE:   TOOL STRING
LDAT.                                          1900/01/01:   DATE LOGGED
QCRM.                   WAITING FOR OPERATOR CONFIRMATION:   QC COMMENT
QCCO.                                             UNKNOWN:   QC COMPANY
~Curve Information Block
#MNEM.UNIT                                        API CODE    No Description
#=========                                        ========    == ===========
DEPT.M                                       00 001 00 00:     1  DEPTH
AC.US/F                                                  :     2  Sonic Transit Time (Slowness)
CALI.IN                                                  :     3  Caliper
DEN.G/CC                                                 :     4  Bulk Density
GR.GAPI                                                  :     5  Gamma Ray
NEUT.FRAC                                                :     6  Neutron Porosity
RDEP.                                                    :     7  Unrecognised
RMED.                                                    :     8  Unrecognised
ROP.                                                     :     9  ROP
~ASCII
# ...
 3287.9264  -999.2500     9.4213     1.7119    72.8339      .0070    18.5010    21.4760      .0057
 3288.0788  -999.2500     9.0748     1.9815    75.2377      .0063     9.2294     9.2377      .0056
 3288.2312  -999.2500     8.8622     2.1896    80.2497      .0057     7.2427     7.1570      .0056
 3288.3836  -999.2500     9.2441     2.3288    91.7842      .0043     6.9219     6.8888      .0056
 3288.5360  -999.2500    12.5630     2.4113   105.2131      .0012     6.5891     6.1850      .0056
 3288.6884  -999.2500    12.1378     2.4224   121.4671      .0019     6.5324     5.7810      .0056
 3288.8408  -999.2500    10.9528     2.4224   126.1280      .0023     4.6272     3.6434      .0055
 3288.9932  -999.2500    10.3150     2.4648   131.7185  -999.2500     4.0620     3.1729      .0055
 3289.1456  -999.2500     9.1063     2.5104   139.5198  -999.2500     3.7193     2.8222      .0055
 3289.2980  -999.2500     8.9764     2.5331   146.1849  -999.2500     3.4804     2.6035      .0055
 3289.4504  -999.2500     9.1260     2.5245   147.4133  -999.2500     3.3155     2.5404      .0055
 3289.6028  -999.2500     9.2874     2.5189   141.4683  -999.2500     2.9861     2.3996      .0055
 3289.7552  -999.2500     9.3543     2.5022   128.0630  -999.2500     2.6401     2.2914      .0054
 3289.9076  -999.2500     9.5669     2.5030   116.9536  -999.2500     2.6812     2.3618      .0055
 3290.0600  -999.2500     9.5787     2.5051   108.0513  -999.2500     2.8145     2.4953      .0055
 3290.2124  -999.2500     9.7835     2.5286    97.8052  -999.2500     2.9095     2.5972      .0055
 3290.3648  -999.2500     9.8740     2.5600    94.4573  -999.2500     2.9643     2.6835      .0055
 3290.5172  -999.2500     9.5866     2.5471    95.3413  -999.2500     3.0588     2.8281      .0055
 3290.6696  -999.2500     9.5669     2.5587    95.6499  -999.2500     3.0576     3.0168      .0055
 3290.8220  -999.2500     9.5315     2.5633    88.4062  -999.2500     3.1212     3.2820      .0055
 3290.9744  -999.2500     9.5157     2.5273    87.2885  -999.2500     3.2061     3.5543      .0053
 3291.1268  -999.2500     9.3937     2.5212    92.6620  -999.2500     3.2904     3.6627      .0051
 3291.2792  -999.2500     9.4724     2.5424    98.5960  -999.2500     3.2392     3.4508      .0049
 3291.4316  -999.2500     9.6260     2.5680    99.9705  -999.2500     3.0492     3.2118      .0047
 3291.5840  -999.2500     9.8031     2.5789    99.0068  -999.2500     2.8958     3.0459      .0047
 3291.7364  -999.2500    10.1220     2.5846    97.9212  -999.2500     2.7840     2.9483      .0047
 3291.8888  -999.2500    10.1220     2.5881   104.5338  -999.2500     2.8206     3.1054      .0049
 3292.0412  -999.2500     9.9370     2.5787   112.5245  -999.2500     2.8536     3.3480      .0050
 3292.1936  -999.2500     9.8465     2.5995   119.3360  -999.2500     2.7719     3.2043      .0050
 3292.3460  -999.2500     9.8780     2.5999   116.2339  -999.2500     2.9213     3.2267      .0051
 3292.4984  -999.2500     9.6772     2.5547   113.2598  -999.2500     3.2358     3.2452      .0052
 3292.6508  -999.2500     9.6496     2.5552   117.2863  -999.2500     3.3062     3.0940      .0053
 3292.8032  -999.2500     9.5787     2.5601   117.1068  -999.2500     3.1505     3.0068      .0053
 3292.9556  -999.2500     9.7323     2.5689   112.7521  -999.2500     3.0451     2.9828      .0053
 3293.1080  -999.2500     9.8858     2.5698   110.3867  -999.2500     3.0059     2.9715      .0053
 3293.2604  -999.2500  -999.2500  -999.2500   109.3401  -999.2500     3.0182     2.9677      .0053
 3293.4128  -999.2500  -999.2500  -999.2500   104.4740  -999.2500     3.0347     2.9434      .0053
 3293.5652  -999.2500  -999.2500  -999.2500   102.1699  -999.2500     3.0169     2.8757      .0053
 3293.7176  -999.2500  -999.2500  -999.2500   104.8644  -999.2500     2.9959     2.8612      .0052
 3293.8700  -999.2500  -999.2500  -999.2500   106.8842  -999.2500     2.9629     2.8085      .0052
 3294.0224  -999.2500  -999.2500  -999.2500   106.8392  -999.2500     2.9093     2.7646      .0050
 3294.1748  -999.2500  -999.2500  -999.2500   105.9322  -999.2500     2.8276     2.7146      .0048
 3294.3272  -999.2500  -999.2500  -999.2500   111.9965  -999.2500     2.7422     2.6817      .0044
 3294.4796  -999.2500  -999.2500  -999.2500   118.7295  -999.2500     2.6089     2.6004      .0039
 3294.6320  -999.2500  -999.2500  -999.2500   120.5146  -999.2500     2.5763     2.5082      .0033
 3294.7844  -999.2500  -999.2500  -999.2500   121.0429  -999.2500     2.5289     2.4317      .0027
 3294.9368  -999.2500  -999.2500  -999.2500   137.9723  -999.2500     2.4400     2.3180      .0024
 3295.0892  -999.2500  -999.2500  -999.2500   146.2378  -999.2500     2.3059     2.1499      .0021
 3295.2416  -999.2500  -999.2500  -999.2500   144.4330  -999.2500     2.1345     2.0219      .0020
 3295.3940  -999.2500  -999.2500  -999.2500   135.0311  -999.2500     2.1292     2.0645      .0018
 3295.5464  -999.2500  -999.2500  -999.2500   129.8398  -999.2500     2.4435     2.3472      .0017
 3295.6988  -999.2500  -999.2500  -999.2500   121.1975  -999.2500     2.5579     2.4744      .0016
 3295.8512  -999.2500  -999.2500  -999.2500   110.4911  -999.2500     2.6165     2.4853      .0015
 3296.0036  -999.2500  -999.2500  -999.2500    91.7337  -999.2500     2.4175     2.1951      .0015
 3296.1560  -999.2500  -999.2500  -999.2500    76.5198  -999.2500     2.0329     1.8251      .0015
 3296.3084  -999.2500  -999.2500  -999.2500    71.7623  -999.2500     1.6470     1.5629      .0015
 3296.4608  -999.2500  -999.2500  -999.2500    65.1392  -999.2500     1.6552     1.6607      .0017
 3296.6132  -999.2500  -999.2500  -999.2500    63.1719  -999.2500  -999.2500  -999.2500      .0019
 3296.7656  -999.2500  -999.2500  -999.2500    63.5075  -999.2500  -999.2500  -999.2500      .0023
 3296.9180  -999.2500  -999.2500  -999.2500    63.0061  -999.2500  -999.2500  -999.2500      .0024
 3297.0704  -999.2500  -999.2500  -999.2500    58.1349  -999.2500  -999.2500  -999.2500      .0019
 3297.2228  -999.2500  -999.2500  -999.2500    55.1106  -999.2500  -999.2500  -999.2500      .0016
 3297.3752  -999.2500  -999.2500  -999.2500    53.6875  -999.2500  -999.2500  -999.2500      .0014
 3297.5276  -999.2500  -999.2500  -999.2500    49.6285  -999.2500  -999.2500  -999.2500      .0013
 3297.6800  -999.2500  -999.2500  -999.2500    48.6303  -999.2500  -999.2500  -999.2500      .0013
 3297.8324  -999.2500  -999.2500  -999.2500    44.3485  -999.2500  -999.2500  -999.2500      .0013
 3297.9848  -999.2500  -999.2500  -999.2500    43.0253  -999.2500  -999.2500  -999.2500      .0012
 3298.1372  -999.2500  -999.2500  -999.2500    40.7490  -999.2500  -999.2500  -999.2500      .0011
 3298.2896  -999.2500  -999.2500  -999.2500    38.4392  -999.2500  -999.2500  -999.2500      .0010
 3298.4420  -999.2500  -999.2500  -999.2500    39.7716  -999.2500  -999.2500  -999.2500      .0009
 3298.5944  -999.2500  -999.2500  -999.2500    45.1514  -999.2500  -999.2500  -999.2500      .0009
 3298.7468  -999.2500  -999.2500  -999.2500    66.6298  -999.2500  -999.2500  -999.2500      .0009
 3298.8992  -999.2500  -999.2500  -999.2500  -999.2500  -999.2500  -999.2500  -999.2500      .0008
 3299.0516  -999.2500  -999.2500  -999.2500  -999.2500  -999.2500  -999.2500  -999.2500      .0008
 3299.2040  -999.2500  -999.2500  -999.2500  -999.2500  -999.2500  -999.2500  -999.2500      .0008
 3299.3564  -999.2500  -999.2500  -999.2500  -999.2500  -999.2500  -999.2500  -999.2500      .0007
 3299.5088  -999.2500  -999.2500  -999.2500  -999.2500  -999.2500  -999.2500  -999.2500      .0007
 3299.6612  -999.2500  -999.2500  -999.2500  -999.2500  -999.2500  -999.2500  -999.2500      .0007
 3299.8136  -999.2500  -999.2500  -999.2500  -999.2500  -999.2500  -999.2500  -999.2500      .0007
 3299.9660  -999.2500  -999.2500  -999.2500  -999.2500  -999.2500  -999.2500  -999.2500      .0007
 3300.1184  -999.2500  -999.2500  -999.2500  -999.2500  -999.2500  -999.2500  -999.2500      .0007
