~VERSION INFORMATION
VERS.                                                 2.0:   CWLS Log ASCII Standard-VERSION 2.0
WRAP.                                                  NO:   One line per depth step
~Well Information Block
STRT.M                                          1325.1668:   Top Depth
STOP.M                                          3304.3856:   Bottom Depth
STEP.M                                             .15240:   Depth Increment
NULL.                                            -999.250:   Null Value
FLD .                                                 Q15:   Field Name
WELL.                                            15/12-14:   NAME
WBN .                                            15/12-14:   WELLBORE
NATI.                                                 NOR:   COUNTRY
CTRY.                                                 NOR:   COUNTRY
COMP.                                           PERTRA AS:   OPERATOR
PDAT.                                      Mean Sea Level:   PERM DATUM
SON .                                     !NRMW0002615870:   SOURCE OPERATOR NAME
PBWE.                                            15/12-14:   PB WELL ID
APIN.                                            15/12-14:   PB WELLBORE ID
PBWS.                                                 ALL:   PB WELL NAME SET
WDMS.M                                                 84:   WATER DEPTH
~PARAMETER INFORMATION (log)
LNAM.                                           COMPOSITE:   NAME
LTYP.                                             PAP.CMP:   LOG TYPE
LSRV.                                              WL.LOG:   LOG SERVICE
LSOU.                                              PERTRA:   LOG SOURCE
LVSN.                                                   1:   LOG VERSION
BHT .DEGF                                             0.0:   BH TEMP
BHIS.                                                   R:   BRIEF HISTORY
TDD .M                                                0.0:   FINAL TD DRILLER
TDL .M                                                0.0:   FINAL TD LOGGER
DFL .CM3                                              0.0:   FLUID LOSS
FHIS.                                             RAW-LIS:   FULL HISTORY
LCNM.                                         HALLIBURTON:   LOGGING CONTRACTOR
DFD .G/CC                                             0.0:   MUD DENSITY
DFPH.                                                 0.0:   MUD PH
DFV .                                                 0.0:   MUD VISCOSITY
RMS .OHMM                                             0.0:   RM
MST .DEGF                                             0.0:   RM TEMP
RMCS.OHMM                                             0.0:   RMC
MCST.DEGF                                             0.0:   RMC TEMP
RMFS.OHMM                                             0.0:   RMF
MFST.DEGF                                             0.0:   RMF TEMP
STEM.DEGF                                             0.0:   SURFACE TEMPERATURE
TOOL.                                      COMPOSITE_LISE:   TOOL STRING
LDAT.                                          1900/01/01:   DATE LOGGED
QCRM.                   WAITING FOR OPERATOR CONFIRMATION:   QC COMMENT
QCCO.                                             UNKNOWN:   QC COMPANY
~Curve Information Block
#MNEM.UNIT                                        API CODE    No Description
#=========                                        ========    == ===========
DEPT.M                                       00 001 00 00:     1  DEPTH
AC.US/F                                                  :     2  Sonic Transit Time (Slowness)
CALI.IN                                                  :     3  Caliper
DEN.G/CC                                                 :     4  Bulk Density
GR.GAPI                                                  :     5  Gamma Ray
NEUT.FRAC                                                :     6  Neutron Porosity
RDEP.                                                    :     7  Unrecognised
RMED.                                                    :     8  Unrecognised
ROP.                                                     :     9  ROP
~ASCII
# ...
 1732.5320   139.3850  -999.2500     2.2234    96.7831  -999.2500      .6784      .6029      .0082
 1732.6844   139.8079  -999.2500     2.2289   106.0678  -999.2500      .6863      .6438      .0082
 1732.8368   141.1050  -999.2500     2.2128   110.5370  -999.2500      .6610      .6384      .0082
 1732.9892   141.6683  -999.2500     2.2183    95.1038  -999.2500      .6226      .5952      .0082
 1733.1416   140.7652  -999.2500     2.2444   114.8144  -999.2500      .5994      .5685      .0082
 1733.2940   143.1355  -999.2500     2.2414    93.7958  -999.2500      .5918      .5606      .0082
 1733.4464   144.8144  -999.2500     2.2401    90.7526  -999.2500      .5814      .5442      .0082
 1733.5988   143.5712  -999.2500     2.2463   105.3439  -999.2500      .5826      .5641      .0082
 1733.7512   142.6684  -999.2500     2.2395   104.9874  -999.2500      .5841      .5682      .0076
 1733.9036   140.5442  -999.2500     2.2393   106.0764  -999.2500      .5813      .5388      .0068
 1734.0560   137.2862  -999.2500     2.2482   111.1152  -999.2500      .5785      .5533      .0057
 1734.2084   136.4310  -999.2500     2.2417   115.1490  -999.2500      .5805      .5569      .0047
 1734.3608   139.3586  -999.2500     2.2413   100.6300  -999.2500      .5919      .5684      .0048
 1734.5132   141.2015  -999.2500     2.2446    92.7651  -999.2500      .6190      .6133      .0083
 1734.6656   141.1071  -999.2500     2.2421    93.5039  -999.2500      .6476      .6157      .0125
 1734.8180   138.9856  -999.2500     2.2407    97.9476  -999.2500      .6435      .6230      .0158
 1734.9704   139.9833  -999.2500     2.2273   104.8536  -999.2500      .6434      .6215      .0165
 1735.1228   139.2675  -999.2500     2.2335   108.8022  -999.2500      .6510      .6185      .0164
 1735.2752   139.0324  -999.2500     2.2309    98.2647  -999.2500      .6671      .6385      .0164
 1735.4276   139.5529  -999.2500     2.2318    89.6534  -999.2500      .6658      .6427      .0164
 1735.5800   144.8598  -999.2500     2.2413    86.5198  -999.2500      .6587      .6355      .0165
 1735.7324   144.6703  -999.2500     2.2421   100.7013  -999.2500      .6528      .6325      .0164
 1735.8848   142.0043  -999.2500     2.2428    94.7324  -999.2500      .6454      .6273      .0164
 1736.0372   138.2749  -999.2500     2.2516    94.4881  -999.2500      .6344      .6143      .0164
 1736.1896   132.0678  -999.2500     2.2307   100.8656  -999.2500      .6259      .6039      .0165
 1736.3420   132.1786  -999.2500     2.2500   118.5289  -999.2500      .6288      .6070      .0165
 1736.4944   125.5549  -999.2500     2.2177   130.1837  -999.2500      .6337      .6126      .0164
 1736.6468   122.4988  -999.2500     2.2229   106.6007  -999.2500      .6377      .6164      .0164
 1736.7992   128.5143  -999.2500     2.2159    98.0864  -999.2500      .6617      .6371      .0165
 1736.9516   135.1139  -999.2500     2.2074   103.8469  -999.2500      .7394      .7119      .0165
 1737.1040   138.4750  -999.2500     2.2099   105.1692  -999.2500      .7309      .7465      .0166
 1737.2564   139.6729  -999.2500     2.2197    96.2646  -999.2500      .5808      .5818      .0166
 1737.4088   136.3600  -999.2500     2.2267   102.4093  -999.2500      .5743      .5496      .0164
 1737.5612   130.9896  -999.2500     2.2372    98.3651  -999.2500      .6067      .5853      .0164
 1737.7136   122.6061  -999.2500     2.2377   109.3168  -999.2500      .6220      .6010      .0165
 1737.8660   114.6358  -999.2500     2.2326   106.9674  -999.2500      .6241      .6042      .0164
 1738.0184   118.2963  -999.2500     2.2335   102.2596  -999.2500      .6205      .6056      .0163
 1738.1708   130.9377  -999.2500     2.2295   106.7649  -999.2500      .6193      .6030      .0162
 1738.3232   137.3518  -999.2500     2.2214   111.2140  -999.2500      .6386      .6113      .0157
 1738.4756   141.9939  -999.2500     2.2439   101.0637  -999.2500      .6633      .6358      .0151
 1738.6280   143.6357  -999.2500     2.2459    99.5217  -999.2500      .6692      .6466      .0148
 1738.7804   143.2841  -999.2500     2.2436   106.9634  -999.2500      .6539      .6321      .0150
 1738.9328   135.5245  -999.2500     2.2334   108.4288  -999.2500      .6477      .6227      .0156
 1739.0852   135.3871  -999.2500     2.2162   104.7029  -999.2500      .6470      .6194      .0158
 1739.2376   134.9454  -999.2500     2.2146   105.5932  -999.2500      .6411      .6188      .0159
 1739.3900   134.0067  -999.2500     2.2124   100.7878  -999.2500      .6365      .6183      .0159
 1739.5424   132.8295  -999.2500     2.2083   118.4961  -999.2500      .6376      .6192      .0157
 1739.6948   132.1134  -999.2500     2.2378   112.2247  -999.2500      .6376      .6180      .0156
 1739.8472   136.3516  -999.2500     2.2554   108.6299  -999.2500      .6344      .6116      .0155
 1739.9996   139.7042  -999.2500     2.2293    95.2035  -999.2500      .6399      .6147      .0157
 1740.1520   140.7133  -999.2500     2.2332    84.8340  -999.2500      .6513      .6322      .0160
 1740.3044   138.1388  -999.2500     2.2414    97.0840  -999.2500      .6552      .6381      .0156
 1740.4568   140.7299  -999.2500     2.2571   106.5725  -999.2500      .6460      .6280      .0130
 1740.6092   141.4979  -999.2500     2.2726   111.4903  -999.2500      .6482      .6299      .0105
 1740.7616   140.8672  -999.2500     2.2824    87.8969  -999.2500      .6601      .6364      .0082
 1740.9140   137.7842  -999.2500     2.2850    84.5827  -999.2500      .6678      .6403      .0068
 1741.0664   139.7779  -999.2500     2.2874   106.5642  -999.2500      .6749      .6496      .0071
 1741.2188   140.2932  -999.2500     2.2984    98.3735  -999.2500      .6709      .6491      .0110
 1741.3712   140.1436  -999.2500     2.2794    97.6158  -999.2500      .6532      .6332      .0148
 1741.5236   139.2114  -999.2500     2.2414   103.4940  -999.2500      .6498      .6242      .0161
 1741.6760   138.4845  -999.2500     2.3042   105.9102  -999.2500      .6611      .6318      .0164
 1741.8284   139.5803  -999.2500     2.3010   103.5068  -999.2500      .6526      .6273      .0164
 1741.9808   139.5470  -999.2500     2.2441   104.7432  -999.2500      .6425      .6164      .0164
 1742.1332   138.8950  -999.2500     2.2365   104.4858  -999.2500      .6320      .6063      .0165
 1742.2856   140.9944  -999.2500     2.2323   110.1629  -999.2500      .6298      .6069      .0165
 1742.4380   141.4687  -999.2500     2.2355    97.0262  -999.2500      .6302      .6081      .0165
 1742.5904   142.4923    13.4409     2.2386   102.9063  -999.2500      .6284      .6069      .0166
 1742.7428   142.4429    13.4409     2.2386   106.0001  -999.2500      .6261      .6061      .0165
 1742.8952   142.4439    13.4449     2.2334   107.9470  -999.2500      .6109      .5947      .0165
 1743.0476   142.7452    13.4528     2.2252    97.5270  -999.2500      .5996      .5828      .0166
 1743.2000   144.1420    13.3504     2.2243   110.6316  -999.2500      .5958      .5763      .0167
 1743.3524   143.2447    13.2244     2.2233   107.0464  -999.2500      .5935      .5710      .0168
 1743.5048   139.3033    13.1181     2.2146    98.9773  -999.2500      .6033      .5782      .0168
 1743.6572   139.8961    12.9882     2.2043   105.7513  -999.2500      .6129      .5909      .0169
 1743.8096   136.3069    12.9882     2.2043   111.8736  -999.2500      .6053      .5901      .0169
 1743.9620   129.3553    12.9252     2.2168   102.5961  -999.2500      .6024      .5869      .0169
 1744.1144   125.4726    12.9252     2.2168   100.2068  -999.2500      .6113      .5940      .0170
 1744.2668   140.6498    12.9606     2.2168   115.8469  -999.2500      .6240      .6023      .0169
 1744.4192   144.4958    12.9606     2.2168   110.6417  -999.2500      .6480      .6131      .0168
 1744.5716   144.4122    13.0000     2.2008   101.9462  -999.2500      .7080      .6686      .0164
 1744.7240   141.0390    13.0000     2.2008    87.8176  -999.2500      .8355      .8298      .0158
