~VERSION INFORMATION
VERS.                                                 2.0:   CWLS Log ASCII Standard-VERSION 2.0
WRAP.                                                  NO:   One line per depth step
~Well Information Block
STRT.M                                          2880.7898:   Top Depth
STOP.M                                          3212.2598:   Bottom Depth
STEP.M                                             .07620:   Depth Increment
NULL.                                            -999.250:   Null Value
FLD .                                                 Q15:   Field Name
WELL.                                            15/12-19:   NAME
WBN .                                            15/12-19:   WELLBORE
NATI.                                                 NOR:   COUNTRY
APD .M                                       42.519996643:   ABOVE PERM DATUM
CTRY.                                                 NOR:   COUNTRY
COMP.                                     BG GROUP NORWAY:   OPERATOR
PDAT.                                      MEAN SEA LEVEL:   PERM DATUM
STAT.                         NORWEGIAN CONTINENTAL SHELF:   STATE
LATI.                            058 00' 13.644" N    DMS:   SURF. LATITUDE
LONG.                            001 55' 16.370" E    DMS:   SURF. LONGITUDE
PBWE.                                            15/12-19:   PB WELL ID
APIN.                                            15/12-19:   PB WELLBORE ID
PBWS.                                                 ALL:   PB WELL NAME SET
~PARAMETER INFORMATION (log)
LNAM.                                 WLC_PETRO_COMPOSITE:   NAME
LTYP.                                                PAP.:   LOG TYPE
LSRV.                                          WL.PET.LOG:   LOG SERVICE
LSOU.                                            BG NORGE:   LOG SOURCE
LVSN.                                                   4:   LOG VERSION
BHIS.                                                   R:   BRIEF HISTORY
R1  .                                    DATA CONSISTS OF:   COMMENT  1
R2  .                                  EWL ZDL-CN, RUN 1B:   COMMENT  2
EDF .M                                       42.519996643:   ELEV DRILL FLOOR
ELZ .M                                       42.519996643:   ELEVATION LOG ZERO
FHIS.                                             RAW-LIS:   FULL HISTORY
EKB .M                                       42.519996643:   KB ELEVATION
LMF .                                                  DF:   LOGS MEAS FROM
EPD .M                                                0.0:   ELEV PERM DATUM
EGL .M                                                0.0:   GROUND LEVEL
QCRM.                   WAITING FOR OPERATOR CONFIRMATION:   QC COMMENT
QCCO.                                             UNKNOWN:   QC COMPANY
~Curve Information Block
#MNEM.UNIT                                        API CODE    No Description
#=========                                        ========    == ===========
DEPT.M                                       00 001 00 00:     1  DEPTH
CALX.IN                                                  :     2  Caliper
CHT.LB                                                   :     3  Cable Tension
CN.V/V                                                   :     4  Neutron Porosity
CNCF.V/V                                                 :     5  Neutron Porosity
GR.GAPI                                                  :     6  Gamma Ray
PE.B/E                                                   :     7  Photoelectic Factor
SPD.M/MN                                                 :     8  Cable Speed
TTEN.LB                                                  :     9  Cable Tension
WTBH.DEGC                                                :    10  Temperature
ZCOR.G/CC                                                :    11  Density Correction
ZDEN.G/CC                                                :    12  Bulk Density
ZDNC.G/CC                                                :    13  Bulk Density
~ASCII
# ...
 2996.0042     8.7372  1491.8584      .1580      .1516    49.2346     3.0436     9.9793  4057.8521   121.3442      .0238     2.4618     2.4545
 2996.0804     8.7331  1492.3557      .1635      .1571    52.8054     3.1064     9.9986  4064.5664   121.1978      .0201     2.4607     2.4534
 2996.1566     8.7393  1492.2786      .1745      .1677    60.1256     3.1240    10.0098  4074.8403   121.2386      .0169     2.4608     2.4535
 2996.2328     8.7543  1493.7891      .1897      .1823    69.4745     3.1538    10.0071  4084.3418   121.4339      .0171     2.4699     2.4626
 2996.3090     8.7693  1497.8406      .2100      .2020    78.0822     3.2785     9.9986  4088.9307   121.6037      .0213     2.4891     2.4817
 2996.3852     8.7773  1502.8284      .2378      .2290    84.9558     3.5009     9.9842  4087.2393   121.6530      .0271     2.5100     2.5026
 2996.4614     8.7699  1507.1577      .2682      .2587    90.6030     3.7237     9.9738  4080.4375   121.6798      .0309     2.5222     2.5148
 2996.5376     8.7520  1507.8020      .2852      .2754    95.3526     3.8439     9.9661  4071.7676   121.5640      .0314     2.5224     2.5150
 2996.6138     8.7429  1504.7935      .2806      .2711    98.8614     3.8437     9.9634  4066.1748   121.1673      .0305     2.5161     2.5087
 2996.6900     8.7435  1501.7856      .2634      .2543   100.6137     3.7732     9.9664  4066.6616   120.6035      .0305     2.5095     2.5021
 2996.7662     8.7384  1500.1533      .2499      .2411    99.1474     3.6779     9.9694  4071.8550   120.2389      .0315     2.5026     2.4952
 2996.8424     8.7264  1499.7654      .2426      .2341    94.0694     3.5733     9.9584  4078.4277   120.3141      .0317     2.4895     2.4822
 2996.9186     8.7046  1499.8276      .2397      .2315    86.6027     3.4714     9.9317  4081.4131   120.6095      .0290     2.4651     2.4578
 2996.9948     8.6752  1499.3250      .2375      .2296    79.1659     3.3870     9.9088  4078.6592   120.8425      .0238     2.4303     2.4232
 2997.0710     8.6542  1496.9475      .2307      .2232    73.6123     3.3201     9.8897  4072.7451   120.8966      .0184     2.3929     2.3860
 2997.1472     8.6502  1492.8425      .2221      .2148    69.2760     3.2518     9.8711  4064.7412   120.8190      .0150     2.3614     2.3547
 2997.2234     8.6524  1488.3450      .2147      .2076    65.8176     3.1654     9.8508  4056.5601   120.5470      .0143     2.3408     2.3342
 2997.2996     8.6535  1483.7231      .2114      .2043    64.3416     3.0725     9.8433  4050.8188   120.1051      .0159     2.3309     2.3243
 2997.3758     8.6513  1479.4719      .2112      .2041    65.3648     3.0072     9.8531  4046.4873   119.7532      .0185     2.3282     2.3216
 2997.4520     8.6532  1475.1475      .2117      .2047    66.5295     2.9834     9.8740  4042.1772   119.7189      .0208     2.3280     2.3214
 2997.5282     8.6655  1471.4253      .2107      .2035    64.3540     2.9645     9.8917  4039.7417   120.1224      .0218     2.3260     2.3195
 2997.6044     8.6800  1471.6021      .2076      .2004    58.8103     2.8921     9.9072  4044.6494   120.7162      .0209     2.3193     2.3128
 2997.6806     8.6880  1477.2930      .2036      .1964    52.8040     2.7524     9.9235  4058.2515   121.1225      .0184     2.3071     2.3006
 2997.7568     8.6861  1486.9836      .2013      .1942    49.3595     2.5928     9.9326  4077.3677   121.2304      .0156     2.2921     2.2857
 2997.8330     8.6793  1497.4983      .2024      .1953    49.1529     2.4666     9.9276  4097.2539   121.1938      .0138     2.2791     2.2728
 2997.9092     8.6651  1507.0320      .2035      .1965    50.2267     2.3881     9.9203  4111.6650   121.1086      .0138     2.2725     2.2663
 2997.9854     8.6519  1514.4194      .2018      .1950    50.8055     2.3436     9.9369  4116.8564   121.0111      .0155     2.2738     2.2675
 2998.0616     8.6472  1517.8948      .1983      .1915    51.6059     2.3295     9.9727  4110.5410   120.9234      .0179     2.2814     2.2751
 2998.1378     8.6478  1515.7996      .1954      .1888    54.1483     2.3694    10.0079  4094.6748   120.8902      .0203     2.2925     2.2861
 2998.2140     8.6499  1507.5693      .1945      .1879    57.8853     2.4878    10.0274  4076.5903   120.9628      .0221     2.3041     2.2977
 2998.2902     8.6525  1496.9968      .1946      .1880    60.4864     2.6678    10.0371  4063.6763   121.1223      .0234     2.3146     2.3081
 2998.3664     8.6618  1488.4546      .1948      .1881    60.9130     2.8423    10.0485  4057.7056   121.2401      .0245     2.3229     2.3163
 2998.4426     8.6767  1483.0996      .1962      .1893    60.2078     2.9412    10.0631  4055.9248   121.2478      .0252     2.3285     2.3219
 2998.5188     8.6862  1479.5557      .1985      .1915    59.3987     2.9507    10.0605  4058.3389   121.1870      .0254     2.3304     2.3238
 2998.5950     8.6774  1477.2605      .1996      .1927    57.8268     2.9085    10.0354  4064.6538   120.9998      .0250     2.3273     2.3208
 2998.6712     8.6577  1476.9207      .1983      .1915    54.8282     2.8512     9.9997  4072.8301   120.7385      .0239     2.3190     2.3124
 2998.7474     8.6467  1479.2349      .1962      .1895    51.8437     2.7876     9.9724  4078.5151   120.6129      .0223     2.3073     2.3008
 2998.8236     8.6477  1483.8413      .1950      .1883    49.5855     2.7152     9.9652  4078.7441   120.6499      .0210     2.2961     2.2897
 2998.8998     8.6573  1486.8704      .1961      .1894    47.7416     2.6432     9.9692  4075.1567   120.6924      .0206     2.2893     2.2830
 2998.9760     8.6674  1486.4758      .1990      .1921    46.3715     2.5961     9.9686  4070.4829   120.6970      .0217     2.2889     2.2825
 2999.0522     8.6689  1483.9490      .2030      .1960    45.2989     2.5965     9.9631  4066.7466   120.7533      .0244     2.2940     2.2876
 2999.1284     8.6607  1481.5056      .2058      .1988    45.1866     2.6423     9.9651  4062.7314   120.9662      .0275     2.3013     2.2949
 2999.2046     8.6498  1479.2046      .2067      .1998    46.4444     2.6965     9.9705  4056.9902   121.2225      .0297     2.3071     2.3007
 2999.2808     8.6407  1476.6353      .2086      .2017    48.7784     2.7082     9.9766  4048.4072   121.2542      .0302     2.3088     2.3024
 2999.3570     8.6433  1474.2322      .2090      .2020    51.3050     2.6655     9.9827  4040.2310   121.1001      .0291     2.3066     2.3002
 2999.4332     8.6583  1472.3115      .2088      .2018    52.2860     2.6166     9.9897  4036.8135   120.9338      .0274     2.3029     2.2965
 2999.5094     8.6714  1472.1274      .2079      .2008    50.9551     2.6305     9.9877  4039.6567   120.9716      .0259     2.3000     2.2935
 2999.5856     8.6750  1473.2988      .2057      .1986    48.3766     2.7386     9.9743  4050.3296   121.2419      .0243     2.2976     2.2912
 2999.6618     8.6707  1476.2766      .2007      .1937    46.7271     2.9034     9.9579  4064.8262   121.5744      .0219     2.2938     2.2874
 2999.7380     8.6738  1481.4094      .1935      .1867    46.5849     3.0410     9.9599  4078.7441   121.7255      .0184     2.2871     2.2808
 2999.8142     8.6840  1487.8994      .1865      .1798    46.4322     3.0896     9.9798  4088.8457   121.5656      .0149     2.2796     2.2733
 2999.8904     8.6924  1493.4836      .1812      .1745    45.3905     3.0543     9.9964  4093.0684   121.1864      .0132     2.2756     2.2693
 2999.9666     8.6975  1497.1365      .1803      .1736    43.4855     2.9849    10.0010  4091.3423   120.7392      .0141     2.2776     2.2713
 3000.0428     8.7084  1498.7441      .1790      .1723    41.8224     2.9230    10.0019  4084.1694   120.5380      .0169     2.2843     2.2780
 3000.1190     8.7310  1496.8853      .1747      .1679    41.0529     2.8692    10.0100  4074.4385   120.5813      .0196     2.2920     2.2856
 3000.1952     8.7611  1491.5913      .1700      .1631    41.8949     2.7904    10.0117  4064.5664   120.6543      .0212     2.2976     2.2911
