~VERSION INFORMATION
VERS.                                                 2.0:   CWLS Log ASCII Standard-VERSION 2.0
WRAP.                                                  NO:   One line per depth step
~Well Information Block
STRT.M                                          2880.7898:   Top Depth
STOP.M                                          3212.2598:   Bottom Depth
STEP.M                                             .07620:   Depth Increment
NULL.                                            -999.250:   Null Value
FLD .                                                 Q15:   Field Name
WELL.                                            15/12-19:   NAME
WBN .                                            15/12-19:   WELLBORE
NATI.                                                 NOR:   COUNTRY
APD .M                                       42.519996643:   ABOVE PERM DATUM
CTRY.                                                 NOR:   COUNTRY
COMP.                                     BG GROUP NORWAY:   OPERATOR
PDAT.                                      MEAN SEA LEVEL:   PERM DATUM
STAT.                         NORWEGIAN CONTINENTAL SHELF:   STATE
LATI.                            058 00' 13.644" N    DMS:   SURF. LATITUDE
LONG.                            001 55' 16.370" E    DMS:   SURF. LONGITUDE
PBWE.                                            15/12-19:   PB WELL ID
APIN.                                            15/12-19:   PB WELLBORE ID
PBWS.                                                 ALL:   PB WELL NAME SET
~PARAMETER INFORMATION (log)
LNAM.                                 WLC_PETRO_COMPOSITE:   NAME
LTYP.                                                PAP.:   LOG TYPE
LSRV.                                          WL.PET.LOG:   LOG SERVICE
LSOU.                                            BG NORGE:   LOG SOURCE
LVSN.                                                   4:   LOG VERSION
BHIS.                                                   R:   BRIEF HISTORY
R1  .                                    DATA CONSISTS OF:   COMMENT  1
R2  .                                  EWL ZDL-CN, RUN 1B:   COMMENT  2
EDF .M                                       42.519996643:   ELEV DRILL FLOOR
ELZ .M                                       42.519996643:   ELEVATION LOG ZERO
FHIS.                                             RAW-LIS:   FULL HISTORY
EKB .M                                       42.519996643:   KB ELEVATION
LMF .                                                  DF:   LOGS MEAS FROM
EPD .M                                                0.0:   ELEV PERM DATUM
EGL .M                                                0.0:   GROUND LEVEL
QCRM.                   WAITING FOR OPERATOR CONFIRMATION:   QC COMMENT
QCCO.                                             UNKNOWN:   QC COMPANY
~Curve Information Block
#MNEM.UNIT                                        API CODE    No Description
#=========                                        ========    == ===========
DEPT.M                                       00 001 00 00:     1  DEPTH
CALX.IN                                                  :     2  Caliper
CHT.LB                                                   :     3  Cable Tension
CN.V/V                                                   :     4  Neutron Porosity
CNCF.V/V                                                 :     5  Neutron Porosity
GR.GAPI                                                  :     6  Gamma Ray
PE.B/E                                                   :     7  Photoelectic Factor
SPD.M/MN                                                 :     8  Cable Speed
TTEN.LB                                                  :     9  Cable Tension
WTBH.DEGC                                                :    10  Temperature
ZCOR.G/CC                                                :    11  Density Correction
ZDEN.G/CC                                                :    12  Bulk Density
ZDNC.G/CC                                                :    13  Bulk Density
~ASCII
# ...
 3124.0202     8.8114  1482.2993      .2198      .2111    93.0632     5.3438     9.3077  4200.5576   123.8071      .0607     2.5937     2.5861
 3124.0964     8.8294  1480.3958      .2355      .2263    95.6806     5.6356     9.3039  4194.1934   123.9075      .0607     2.6120     2.6043
 3124.1726     8.8197  1478.1467      .2320      .2230    99.1618     5.7196     9.3034  4185.8672   123.9903      .0565     2.6187     2.6110
 3124.2488     8.8135  1474.7483      .2075      .1992   100.8959     5.5079     9.3022  4184.4053   124.0482      .0486     2.6143     2.6067
 3124.3250     8.8193  1471.2690      .1821      .1745    98.7442     5.1042     9.2961  4192.5303   124.2293      .0404     2.6058     2.5982
 3124.4012     8.8240  1470.4727      .1694      .1622    93.8060     4.7139     9.2816  4203.7158   124.4328      .0356     2.5998     2.5922
 3124.4774     8.8103  1473.0300      .1730      .1657    87.1363     4.4785     9.2623  4212.2139   124.4758      .0349     2.5948     2.5871
 3124.5536     8.7818  1477.8623      .1907      .1832    80.0226     4.4018     9.2335  4215.5176   124.3389      .0351     2.5796     2.5720
 3124.6298     8.7680  1480.3411      .2029      .1951    76.8921     4.4124     9.2169  4214.8564   124.2663      .0335     2.5615     2.5539
 3124.7060     8.7541  1482.8196      .2151      .2071    73.7616     4.4230     9.2003  4214.1953   124.1937      .0319     2.5434     2.5359
 3124.7822     8.7313  1486.2122      .2312      .2230    68.9024     4.5062     9.1746  4213.7939   124.1994      .0245     2.4879     2.4806
 3124.8584     8.7067  1488.3174      .2315      .2234    65.3562     4.6430     9.1731  4214.9443   124.3986      .0164     2.4285     2.4214
 3124.9346     8.6770  1490.4014      .2226      .2150    61.9922     4.8021     9.1879  4214.5381   124.6368      .0119     2.3832     2.3763
 3125.0108     8.6507  1491.8892      .2140      .2069    58.6508     4.8941     9.2020  4211.6396   124.7168      .0132     2.3629     2.3561
 3125.0870     8.6355  1490.5747      .2074      .2006    56.3368     4.8079     9.2067  4206.4482   124.7283      .0195     2.3680     2.3613
 3125.1632     8.6380  1486.1011      .2003      .1937    56.8347     4.5264     9.2004  4201.0801   124.6549      .0278     2.3908     2.3839
 3125.2394     8.6558  1480.1287      .1931      .1864    59.7264     4.1829     9.1965  4198.2695   124.5759      .0348     2.4198     2.4128
 3125.3156     8.6714  1478.0159      .1894      .1827    61.0606     4.0695     9.1951  4197.4785   124.5316      .0370     2.4333     2.4262
 3125.3918     8.6870  1475.9028      .1857      .1790    62.3948     3.9561     9.1937  4196.6875   124.4874      .0392     2.4467     2.4396
 3125.4680     8.7262  1474.9753      .1794      .1726    63.1627     3.9416     9.1972  4190.5439   124.2814      .0418     2.4684     2.4612
 3125.5442     8.7699  1474.9360      .1739      .1669    62.8854     4.1153     9.2146  4179.5264   124.0049      .0439     2.4844     2.4770
 3125.6204     8.8200  1472.7207      .1716      .1643    63.6590     4.3661     9.2438  4172.3486   123.8562      .0458     2.4933     2.4859
 3125.6966     8.8664  1468.2446      .1747      .1670    65.2308     4.5624     9.2668  4175.5986   123.9567      .0469     2.4950     2.4876
 3125.7728     8.8975  1466.5120      .1815      .1733    66.5269     4.6000     9.2686  4191.8643   124.1384      .0475     2.4931     2.4857
 3125.8490     8.9155  1472.8186      .1903      .1817    67.6476     4.4196     9.2463  4214.3086   124.1998      .0486     2.4932     2.4858
 3125.9252     8.9315  1487.5002      .1986      .1896    70.1298     4.0395     9.2142  4232.6211   124.1252      .0503     2.4994     2.4919
 3126.0014     8.9403  1496.9817      .2016      .1925    72.4867     3.8126     9.2027  4236.8389   124.1349      .0509     2.5056     2.4981
 3126.0776     8.9492  1506.4631      .2047      .1954    74.8436     3.5856     9.1913  4241.0557   124.1446      .0515     2.5118     2.5043
 3126.1538     8.9666  1522.9360      .2067      .1972    80.3432     3.2445     9.1854  4241.0039   124.2572      .0516     2.5288     2.5212
 3126.2300     8.9752  1531.2764      .2037      .1942    85.4273     3.1567     9.1908  4234.9150   124.2542      .0502     2.5476     2.5401
 3126.3062     8.9684  1529.7620      .1989      .1897    89.3285     3.3333     9.1979  4222.9736   124.0291      .0470     2.5642     2.5566
 3126.3824     8.9611  1521.5981      .1989      .1897    90.6525     3.6263     9.1991  4211.3516   123.8089      .0412     2.5732     2.5656
 3126.4586     8.9642  1511.6455      .2047      .1953    88.6647     3.8105     9.1948  4206.0166   123.8665      .0325     2.5721     2.5645
 3126.5348     8.9760  1503.0442      .2100      .2004    85.0143     3.7747     9.1888  4211.5801   124.2002      .0231     2.5650     2.5574
 3126.6110     8.9903  1497.4067      .2098      .2001    82.0272     3.6173     9.1790  4225.2412   124.5316      .0165     2.5589     2.5512
 3126.6872     8.9927  1495.3801      .2074      .1977    79.3636     3.5163     9.1662  4238.0986   124.5442      .0140     2.5562     2.5486
 3126.7634     8.9824  1497.8784      .2091      .1994    75.7561     3.5427     9.1473  4244.5557   124.4534      .0138     2.5518     2.5442
 3126.8396     8.9724  1506.0894      .2142      .2044    72.7898     3.6289     9.1283  4245.9941   124.4686      .0124     2.5377     2.5301
 3126.9158     8.9671  1517.0898      .2153      .2055    72.8536     3.6822     9.1057  4245.8223   124.5782      .0082     2.5120     2.5045
 3126.9920     8.9603  1523.9993      .2066      .1972    75.7655     3.6753     9.0936  4246.2236   124.6438      .0029     2.4828     2.4754
 3127.0682     8.9481  1522.8582      .1927      .1838    78.6642     3.6263     9.1020  4246.5684   124.5882     -.0003     2.4615     2.4542
 3127.1444     8.9374  1515.5281      .1798      .1714    79.5202     3.5429     9.1274  4242.1465   124.5934     -.0002     2.4547     2.4474
 3127.2206     8.9430  1507.6335      .1741      .1659    79.4744     3.4265     9.1542  4230.4062   124.7687      .0026     2.4616     2.4543
 3127.2968     8.9719  1502.0002      .1780      .1694    79.5131     3.3157     9.1667  4212.1289   124.8853      .0061     2.4761     2.4687
 3127.3730     9.0004  1498.4858      .1888      .1797    80.0874     3.2787     9.1715  4193.8125   124.6411      .0081     2.4908     2.4833
 3127.4492     9.0055  1494.5518      .2023      .1927    81.0180     3.3488     9.1807  4182.2490   124.2339      .0080     2.5010     2.4935
 3127.5254     8.9894  1489.9773      .2099      .2001    81.3527     3.4792     9.2082  4184.4033   124.0581      .0067     2.5063     2.4988
 3127.6016     8.9683  1487.4871      .2090      .1994    80.2453     3.5603     9.2446  4204.2051   124.2084      .0055     2.5083     2.5008
 3127.6778     8.9540  1489.3462      .2035      .1942    77.1090     3.5079     9.2740  4236.1504   124.4136      .0054     2.5081     2.5007
 3127.7540     8.9457  1496.6201      .1955      .1865    72.5742     3.3498     9.2883  4265.7061   124.4434      .0062     2.5056     2.4982
 3127.8302     8.9406  1507.8147      .1854      .1768    68.5622     3.2006     9.2862  4280.5752   124.2859      .0075     2.5026     2.4951
 3127.9064     8.9436  1519.8325      .1767      .1683    66.6439     3.1706     9.2760  4280.1211   124.0966      .0102     2.5048     2.4973
 3127.9826     8.9562  1528.6890      .1723      .1640    66.2368     3.3013     9.2675  4268.6992   123.9755      .0158     2.5185     2.5110
 3128.0588     8.9649  1531.5371      .1727      .1643    66.7196     3.5349     9.2501  4252.3682   123.9060      .0239     2.5436     2.5360
 3128.1350     8.9641  1522.8872      .1773      .1688    67.9826     3.7565     9.2216  4230.3281   123.9042      .0317     2.5710     2.5634
 3128.2112     8.9608  1501.3677      .1817      .1731    69.2750     3.9142     9.1896  4195.8271   123.9444      .0349     2.5886     2.5809
