~VERSION INFORMATION
VERS.                                                 2.0:   CWLS Log ASCII Standard-VERSION 2.0
WRAP.                                                  NO:   One line per depth step
~Well Information Block
STRT.M                                          2880.7898:   Top Depth
STOP.M                                          3212.2598:   Bottom Depth
STEP.M                                             .07620:   Depth Increment
NULL.                                            -999.250:   Null Value
FLD .                                                 Q15:   Field Name
WELL.                                            15/12-19:   NAME
WBN .                                            15/12-19:   WELLBORE
NATI.                                                 NOR:   COUNTRY
APD .M                                       42.519996643:   ABOVE PERM DATUM
CTRY.                                                 NOR:   COUNTRY
COMP.                                     BG GROUP NORWAY:   OPERATOR
PDAT.                                      MEAN SEA LEVEL:   PERM DATUM
STAT.                         NORWEGIAN CONTINENTAL SHELF:   STATE
LATI.                            058 00' 13.644" N    DMS:   SURF. LATITUDE
LONG.                            001 55' 16.370" E    DMS:   SURF. LONGITUDE
PBWE.                                            15/12-19:   PB WELL ID
APIN.                                            15/12-19:   PB WELLBORE ID
PBWS.                                                 ALL:   PB WELL NAME SET
~PARAMETER INFORMATION (log)
LNAM.                                 WLC_PETRO_COMPOSITE:   NAME
LTYP.                                                PAP.:   LOG TYPE
LSRV.                                          WL.PET.LOG:   LOG SERVICE
LSOU.                                            BG NORGE:   LOG SOURCE
LVSN.                                                   4:   LOG VERSION
BHIS.                                                   R:   BRIEF HISTORY
R1  .                                    DATA CONSISTS OF:   COMMENT  1
R2  .                                  EWL ZDL-CN, RUN 1B:   COMMENT  2
EDF .M                                       42.519996643:   ELEV DRILL FLOOR
ELZ .M                                       42.519996643:   ELEVATION LOG ZERO
FHIS.                                             RAW-LIS:   FULL HISTORY
EKB .M                                       42.519996643:   KB ELEVATION
LMF .                                                  DF:   LOGS MEAS FROM
EPD .M                                                0.0:   ELEV PERM DATUM
EGL .M                                                0.0:   GROUND LEVEL
QCRM.                   WAITING FOR OPERATOR CONFIRMATION:   QC COMMENT
QCCO.                                             UNKNOWN:   QC COMPANY
~Curve Information Block
#MNEM.UNIT                                        API CODE    No Description
#=========                                        ========    == ===========
DEPT.M                                       00 001 00 00:     1  DEPTH
CALX.IN                                                  :     2  Caliper
CHT.LB                                                   :     3  Cable Tension
CN.V/V                                                   :     4  Neutron Porosity
CNCF.V/V                                                 :     5  Neutron Porosity
GR.GAPI                                                  :     6  Gamma Ray
PE.B/E                                                   :     7  Photoelectic Factor
SPD.M/MN                                                 :     8  Cable Speed
TTEN.LB                                                  :     9  Cable Tension
WTBH.DEGC                                                :    10  Temperature
ZCOR.G/CC                                                :    11  Density Correction
ZDEN.G/CC                                                :    12  Bulk Density
ZDNC.G/CC                                                :    13  Bulk Density
~ASCII
# ...
 3141.0890     8.9833  1539.2983      .2061      .1965    64.5942     3.3569     8.9072  4265.6816   123.9543      .0337     2.4673     2.4599
 3141.1652     8.9927  1537.5562      .2096      .1998    65.6284     3.3804     8.8691  4258.1855   124.2205      .0303     2.4657     2.4583
 3141.2414     9.0138  1536.4141      .2091      .1992    68.2061     3.4476     8.8190  4250.9277   124.7036      .0276     2.4643     2.4570
 3141.3176     9.0267  1537.2935      .2027      .1928    70.8893     3.5151     8.7775  4247.5391   125.2424      .0254     2.4620     2.4546
 3141.3938     9.0309  1539.7051      .1923      .1828    72.3216     3.5356     8.7676  4245.0400   125.4128      .0238     2.4586     2.4513
 3141.4700     9.0339  1542.6230      .1829      .1737    71.5746     3.4759     8.7958  4244.3809   125.1581      .0229     2.4550     2.4477
 3141.5462     9.0346  1544.3254      .1808      .1717    69.2258     3.3582     8.8447  4249.4590   124.7411      .0228     2.4512     2.4438
 3141.6224     9.0388  1546.3289      .1894      .1799    66.5593     3.2662     8.8801  4260.3105   124.4026      .0233     2.4461     2.4388
 3141.6986     9.0441  1550.4290      .2032      .1932    65.0582     3.2895     8.8904  4278.0742   124.3087      .0237     2.4385     2.4312
 3141.7748     9.0427  1556.5476      .2115      .2012    64.9860     3.4727     8.8799  4302.2705   124.3718      .0231     2.4277     2.4205
 3141.8510     9.0235  1565.6541      .2093      .1992    65.0835     3.8097     8.8679  4324.8018   124.5913      .0209     2.4150     2.4078
 3141.9272     8.9832  1580.2805      .2022      .1927    65.0411     4.2583     8.8721  4333.7461   124.9159      .0177     2.4029     2.3958
 3142.0034     8.9357  1595.9541      .1970      .1881    64.5728     4.7425     8.8953  4321.0371   125.0924      .0145     2.3943     2.3872
 3142.0796     8.9109  1603.2048      .1984      .1896    64.5257     5.1556     8.9294  4291.7676   124.8861      .0122     2.3908     2.3837
 3142.1558     8.9184  1595.5383      .2041      .1951    66.3474     5.3868     8.9596  4263.6104   124.4701      .0111     2.3938     2.3868
 3142.2320     8.9348  1572.8457      .2116      .2022    70.1128     5.3524     8.9836  4249.9521   124.3182      .0123     2.4052     2.3981
 3142.3082     8.9447  1545.3936      .2173      .2077    73.5840     5.0286     8.9979  4248.1074   124.4833      .0166     2.4258     2.4186
 3142.3844     8.9484  1526.9495      .2210      .2112    74.7506     4.5059     9.0062  4248.8564   124.6977      .0242     2.4524     2.4450
 3142.4606     8.9536  1522.9470      .2244      .2144    73.7017     3.9725     9.0027  4250.3535   124.6935      .0326     2.4755     2.4681
 3142.5368     8.9606  1526.9170      .2269      .2168    71.2524     3.5901     8.9856  4251.8184   124.5141      .0384     2.4843     2.4769
 3142.6130     8.9655  1531.4924      .2266      .2164    68.6404     3.4280     8.9578  4253.5967   124.4778      .0397     2.4750     2.4676
 3142.6892     8.9617  1532.4558      .2173      .2075    66.1254     3.4949     8.9284  4252.7373   124.7145      .0381     2.4542     2.4469
 3142.7654     8.9464  1528.9634      .2042      .1950    63.6093     3.7638     8.9089  4244.2412   124.9185      .0361     2.4324     2.4252
 3142.8416     8.9273  1523.0757      .1941      .1853    62.9935     4.1554     8.9013  4229.8301   124.8525      .0351     2.4173     2.4101
 3142.9178     8.9049  1515.2834      .1937      .1851    65.7426     4.5161     8.9014  4213.3330   124.7555      .0354     2.4135     2.4064
 3142.9940     8.8886  1506.7859      .2025      .1937    71.2919     4.6503     8.9061  4201.1602   124.7248      .0372     2.4246     2.4175
 3143.0702     8.8865  1499.1001      .2135      .2044    77.3248     4.4494     8.9192  4200.5859   124.6971      .0410     2.4529     2.4456
 3143.1464     8.8954  1494.6985      .2241      .2147    82.2815     4.0347     8.9350  4214.6816   124.7037      .0467     2.4953     2.4879
 3143.2226     8.9018  1496.3970      .2319      .2221    85.0318     3.6724     8.9446  4239.5039   124.7923      .0522     2.5407     2.5331
 3143.2988     8.8970  1505.3672      .2349      .2251    84.8023     3.5109     8.9426  4268.3223   124.9901      .0536     2.5717     2.5641
 3143.3750     8.8867  1518.5410      .2280      .2185    83.1467     3.5166     8.9280  4291.4844   125.1045      .0487     2.5771     2.5695
 3143.4512     8.8789  1531.3496      .2116      .2026    81.5481     3.5915     8.9057  4297.7354   124.7580      .0405     2.5620     2.5544
 3143.5274     8.8844  1540.1545      .1943      .1859    81.2948     3.6616     8.8872  4280.5186   123.9882      .0346     2.5424     2.5349
 3143.6036     8.9046  1541.2224      .1866      .1782    82.2854     3.7054     8.8794  4244.3242   123.4214      .0352     2.5315     2.5240
 3143.6798     8.9327  1531.9915      .1897      .1810    84.4772     3.7451     8.8932  4202.6836   123.5781      .0418     2.5319     2.5244
 3143.7560     8.9584  1513.2922      .1971      .1880    87.6242     3.8000     8.9286  4175.8184   124.2280      .0510     2.5374     2.5298
 3143.8322     8.9736  1492.3936      .2060      .1965    90.1414     3.8465     8.9685  4175.9834   124.8169      .0580     2.5391     2.5315
 3143.9084     8.9776  1483.3584      .2151      .2053    90.2462     3.8378     8.9877  4199.8369   125.0302      .0602     2.5323     2.5248
 3143.9846     8.9686  1496.5105      .2212      .2112    86.9849     3.7539     8.9835  4243.5137   125.0041      .0582     2.5188     2.5113
 3144.0608     8.9485  1526.5166      .2223      .2124    82.1470     3.6270     8.9608  4302.4160   125.0060      .0541     2.5038     2.4963
 3144.1370     8.9309  1564.8621      .2183      .2087    78.3651     3.5333     8.9257  4364.9824   124.9636      .0499     2.4917     2.4842
 3144.2132     8.9291  1606.9224      .2123      .2029    76.7486     3.5539     8.8878  4410.6875   124.7813      .0465     2.4842     2.4768
 3144.2894     8.9390  1646.6526      .2116      .2022    76.4688     3.7331     8.8547  4418.4160   124.3844      .0435     2.4807     2.4733
 3144.3656     8.9422  1677.4441      .2144      .2049    76.4768     4.0552     8.8398  4384.2617   124.0276      .0405     2.4806     2.4732
 3144.4418     8.9353  1686.0825      .2118      .2024    76.9556     4.4301     8.8431  4330.8242   124.0212      .0378     2.4848     2.4774
 3144.5180     8.9386  1662.0620      .2035      .1943    78.0259     4.7051     8.8558  4287.9814   124.2766      .0363     2.4943     2.4868
 3144.5942     8.9608  1614.5339      .1968      .1876    79.4752     4.7554     8.8652  4265.5283   124.5069      .0357     2.5070     2.4996
 3144.6704     8.9825  1567.9021      .1979      .1886    81.1901     4.5971     8.8676  4257.3467   124.4596      .0345     2.5170     2.5095
 3144.7466     8.9816  1538.3960      .2069      .1973    82.0239     4.3649     8.8533  4253.4785   124.2016      .0312     2.5183     2.5108
 3144.8228     8.9683  1525.3611      .2152      .2054    81.3504     4.1944     8.8236  4246.2471   124.0420      .0260     2.5108     2.5033
 3144.8990     8.9685  1519.8401      .2179      .2080    80.0115     4.1533     8.7893  4237.4111   124.2076      .0209     2.5002     2.4927
 3144.9752     8.9835  1512.1746      .2203      .2102    78.6041     4.2227     8.7709  4230.6377   124.5992      .0179     2.4922     2.4847
 3145.0514     8.9892  1503.5710      .2231      .2129    76.7179     4.3048     8.7839  4221.9990   124.9652      .0172     2.4877     2.4803
 3145.1276     8.9696  1497.5300      .2192      .2093    74.7117     4.2905     8.8194  4210.8320   125.1498      .0179     2.4840     2.4766
 3145.2038     8.9417  1490.5730      .2066      .1973    73.3316     4.1569     8.8561  4201.7363   125.1280      .0190     2.4781     2.4707
 3145.2800     8.9262  1483.2986      .1935      .1848    72.4550     3.9794     8.8812  4199.7881   124.9610      .0198     2.4690     2.4617
