~VERSION INFORMATION
VERS.                                                 2.0:   CWLS Log ASCII Standard-VERSION 2.0
WRAP.                                                  NO:   One line per depth step
~Well Information Block
STRT.M                                          2880.7898:   Top Depth
STOP.M                                          3212.2598:   Bottom Depth
STEP.M                                             .07620:   Depth Increment
NULL.                                            -999.250:   Null Value
FLD .                                                 Q15:   Field Name
WELL.                                            15/12-19:   NAME
WBN .                                            15/12-19:   WELLBORE
NATI.                                                 NOR:   COUNTRY
APD .M                                       42.519996643:   ABOVE PERM DATUM
CTRY.                                                 NOR:   COUNTRY
COMP.                                     BG GROUP NORWAY:   OPERATOR
PDAT.                                      MEAN SEA LEVEL:   PERM DATUM
STAT.                         NORWEGIAN CONTINENTAL SHELF:   STATE
LATI.                            058 00' 13.644" N    DMS:   SURF. LATITUDE
LONG.                            001 55' 16.370" E    DMS:   SURF. LONGITUDE
PBWE.                                            15/12-19:   PB WELL ID
APIN.                                            15/12-19:   PB WELLBORE ID
PBWS.                                                 ALL:   PB WELL NAME SET
~PARAMETER INFORMATION (log)
LNAM.                                 WLC_PETRO_COMPOSITE:   NAME
LTYP.                                                PAP.:   LOG TYPE
LSRV.                                          WL.PET.LOG:   LOG SERVICE
LSOU.                                            BG NORGE:   LOG SOURCE
LVSN.                                                   4:   LOG VERSION
BHIS.                                                   R:   BRIEF HISTORY
R1  .                                    DATA CONSISTS OF:   COMMENT  1
R2  .                                  EWL ZDL-CN, RUN 1B:   COMMENT  2
EDF .M                                       42.519996643:   ELEV DRILL FLOOR
ELZ .M                                       42.519996643:   ELEVATION LOG ZERO
FHIS.                                             RAW-LIS:   FULL HISTORY
EKB .M                                       42.519996643:   KB ELEVATION
LMF .                                                  DF:   LOGS MEAS FROM
EPD .M                                                0.0:   ELEV PERM DATUM
EGL .M                                                0.0:   GROUND LEVEL
QCRM.                   WAITING FOR OPERATOR CONFIRMATION:   QC COMMENT
QCCO.                                             UNKNOWN:   QC COMPANY
~Curve Information Block
#MNEM.UNIT                                        API CODE    No Description
#=========                                        ========    == ===========
DEPT.M                                       00 001 00 00:     1  DEPTH
CALX.IN                                                  :     2  Caliper
CHT.LB                                                   :     3  Cable Tension
CN.V/V                                                   :     4  Neutron Porosity
CNCF.V/V                                                 :     5  Neutron Porosity
GR.GAPI                                                  :     6  Gamma Ray
PE.B/E                                                   :     7  Photoelectic Factor
SPD.M/MN                                                 :     8  Cable Speed
TTEN.LB                                                  :     9  Cable Tension
WTBH.DEGC                                                :    10  Temperature
ZCOR.G/CC                                                :    11  Density Correction
ZDEN.G/CC                                                :    12  Bulk Density
ZDNC.G/CC                                                :    13  Bulk Density
~ASCII
# ...
 3102.6842     8.9085  1582.4077      .1588      .1513    57.0463     3.0242     9.3863  4246.1621   123.1140      .0246     2.4806     2.4732
 3102.7604     8.9192  1567.3650      .1526      .1453    51.7942     2.8944     9.3835  4234.8818   123.3471      .0232     2.4691     2.4617
 3102.8366     8.9171  1558.5801      .1513      .1440    48.9025     2.8527     9.3814  4218.8408   123.6644      .0254     2.4719     2.4645
 3102.9128     8.9049  1551.6353      .1522      .1449    48.1049     2.8888     9.3836  4204.4385   123.9100      .0306     2.4880     2.4806
 3102.9890     8.8907  1541.2078      .1514      .1442    49.2659     2.9595     9.3805  4201.1416   124.0660      .0363     2.5094     2.5019
 3103.0652     8.8811  1528.7476      .1484      .1414    51.5773     3.0206     9.3757  4206.4717   124.0480      .0397     2.5253     2.5178
 3103.1414     8.8771  1519.3423      .1464      .1394    53.2011     3.0481     9.3765  4205.3242   123.7340      .0393     2.5286     2.5211
 3103.2176     8.8812  1514.3933      .1475      .1406    52.7143     3.0246     9.3838  4191.1768   123.3658      .0355     2.5191     2.5116
 3103.2938     8.8936  1511.7222      .1495      .1424    51.1426     2.9429     9.3969  4171.8672   123.3316      .0304     2.5020     2.4946
 3103.3700     8.9116  1508.2629      .1505      .1432    50.4161     2.8415     9.4176  4159.7539   123.6601      .0266     2.4859     2.4785
 3103.4462     8.9233  1502.8911      .1519      .1445    51.0022     2.8021     9.4361  4158.4854   124.1493      .0260     2.4784     2.4710
 3103.5224     8.9253  1495.7920      .1574      .1498    52.0671     2.8872     9.4424  4165.3506   124.6467      .0290     2.4820     2.4746
 3103.5986     8.9150  1489.6543      .1662      .1584    51.7595     3.0759     9.4350  4181.9658   124.8979      .0334     2.4917     2.4843
 3103.6748     8.8960  1488.5503      .1718      .1640    50.1324     3.2747     9.4244  4204.8418   124.7961      .0358     2.4988     2.4913
 3103.7510     8.8779  1494.8223      .1704      .1627    49.5936     3.4043     9.4172  4223.9805   124.4088      .0347     2.4977     2.4903
 3103.8272     8.8681  1508.1238      .1655      .1580    51.7198     3.4614     9.4101  4229.3740   123.9053      .0312     2.4901     2.4827
 3103.9034     8.8720  1522.8662      .1614      .1541    55.7244     3.4887     9.4060  4221.1738   123.5971      .0276     2.4813     2.4740
 3103.9796     8.8788  1534.5828      .1594      .1521    60.5670     3.5112     9.4032  4210.1191   123.5141      .0258     2.4767     2.4693
 3104.0558     8.8782  1540.5994      .1592      .1518    65.5598     3.5144     9.4028  4205.2129   123.5805      .0266     2.4792     2.4718
 3104.1320     8.8637  1541.7598      .1584      .1512    70.3453     3.4720     9.3958  4208.1396   123.7177      .0299     2.4902     2.4828
 3104.2082     8.8453  1540.9644      .1555      .1485    74.3891     3.3852     9.3807  4214.0488   123.8685      .0351     2.5086     2.5012
 3104.2844     8.8379  1539.9260      .1514      .1446    76.9843     3.2885     9.3697  4219.9648   123.9000      .0409     2.5305     2.5230
 3104.3606     8.8411  1539.0229      .1472      .1405    77.8651     3.2197     9.3734  4223.2666   123.7257      .0452     2.5500     2.5424
 3104.4368     8.8462  1535.2852      .1473      .1405    78.1884     3.2022     9.3763  4221.7432   123.4938      .0464     2.5620     2.5545
 3104.5130     8.8521  1528.0078      .1555      .1485    79.4537     3.2361     9.3529  4212.5586   123.3693      .0437     2.5639     2.5564
 3104.5892     8.8593  1521.6365      .1695      .1620    82.0290     3.2922     9.3055  4193.5557   123.3209      .0382     2.5565     2.5489
 3104.6654     8.8617  1520.9573      .1843      .1763    86.7069     3.3267     9.2709  4171.2295   123.1850      .0318     2.5444     2.5369
 3104.7416     8.8582  1523.7571      .1962      .1878    92.0709     3.3167     9.2757  4161.4160   122.9975      .0272     2.5350     2.5275
 3104.8178     8.8582  1523.5747      .2002      .1917    95.4175     3.2832     9.3093  4174.5879   122.9120      .0257     2.5328     2.5253
 3104.8940     8.8723  1518.3584      .1949      .1865    94.9588     3.2743     9.3398  4208.2236   123.0559      .0266     2.5369     2.5294
 3104.9702     8.8860  1519.5029      .1889      .1806    92.2072     3.3250     9.3427  4251.4990   123.4155      .0281     2.5428     2.5352
 3105.0464     8.8824  1542.2456      .1877      .1795    90.7501     3.4422     9.3215  4285.3125   123.7789      .0287     2.5468     2.5392
 3105.1226     8.8594  1585.6675      .1911      .1829    90.5450     3.6106     9.2996  4298.0498   123.9716      .0281     2.5487     2.5411
 3105.1988     8.8303  1625.6348      .1963      .1882    89.4948     3.7723     9.2996  4290.5654   124.0608      .0268     2.5491     2.5416
 3105.2750     8.8054  1635.2654      .1999      .1919    87.1755     3.8224     9.3240  4273.6104   124.0854      .0244     2.5460     2.5385
 3105.3512     8.7878  1611.8867      .2009      .1930    84.6834     3.7011     9.3686  4256.4687   123.9949      .0200     2.5352     2.5277
 3105.4274     8.7770  1573.1995      .1999      .1921    82.5175     3.4679     9.4097  4238.8232   123.6980      .0137     2.5160     2.5085
 3105.5036     8.7744  1538.6035      .1966      .1889    80.2243     3.2333     9.4293  4216.2354   123.1837      .0070     2.4930     2.4856
 3105.5798     8.7864  1509.0103      .1941      .1864    77.6400     3.0644     9.4308  4183.6621   122.8103      .0024     2.4736     2.4663
 3105.6560     8.7988  1478.2090      .1986      .1906    76.2294     2.9725     9.4378  4138.7451   122.8827      .0014     2.4626     2.4554
 3105.7322     8.7958  1449.8755      .2117      .2034    76.8682     2.9507     9.4655  4083.4893   123.3156      .0035     2.4603     2.4530
 3105.8084     8.7863  1432.5642      .2268      .2182    78.0870     2.9988     9.5088  4032.0825   123.6947      .0071     2.4634     2.4561
 3105.8846     8.7847  1431.7837      .2332      .2245    78.5541     3.1132     9.5479  4003.8784   123.7598      .0106     2.4686     2.4613
 3105.9608     8.7973  1446.1426      .2277      .2190    79.0064     3.2620     9.5629  4031.6836   123.6621      .0133     2.4742     2.4669
 3106.0370     8.8122  1471.6079      .2161      .2076    79.5789     3.3907     9.5458  4142.8506   123.7543      .0154     2.4800     2.4726
 3106.1132     8.8150  1507.1084      .2071      .1988    78.7204     3.4590     9.4819  4317.7441   124.1105      .0170     2.4854     2.4780
 3106.1894     8.8098  1567.4900      .2023      .1942    76.6089     3.4613     9.3699  4490.6572   124.3700      .0181     2.4895     2.4822
 3106.2656     8.8020  1667.7981      .1996      .1916    75.0188     3.4136     9.2411  4593.6455   124.3142      .0190     2.4918     2.4845
 3106.3418     8.7940  1792.1052      .1987      .1908    74.9094     3.3433     9.1510  4607.0039   124.0143      .0200     2.4925     2.4851
 3106.4180     8.7847  1895.3098      .1992      .1914    75.5198     3.2937     9.1240  4567.0234   123.6936      .0214     2.4923     2.4849
 3106.4942     8.7864  1936.9087      .2007      .1928    75.1780     3.3111     9.1412  4522.4502   123.4889      .0230     2.4915     2.4841
 3106.5704     8.8024  1919.1577      .2006      .1926    73.5709     3.4115     9.1620  4484.3799   123.3702      .0242     2.4891     2.4817
 3106.6466     8.8155  1872.2769      .1984      .1904    71.7799     3.5598     9.1761  4446.1523   123.4041      .0246     2.4842     2.4768
 3106.7228     8.8094  1819.0210      .1976      .1896    70.5409     3.6871     9.1888  4411.8643   123.6640      .0246     2.4775     2.4702
 3106.7990     8.7845  1763.9397      .2003      .1924    69.8309     3.7380     9.2020  4382.0439   124.0535      .0247     2.4703     2.4630
 3106.8752     8.7707  1714.4780      .2055      .1976    68.8834     3.7125     9.2175  4349.3525   124.2839      .0249     2.4625     2.4553
