~VERSION INFORMATION
VERS.                                                 2.0:   CWLS Log ASCII Standard-VERSION 2.0
WRAP.                                                  NO:   One line per depth step
~Well Information Block
STRT.M                                          2880.7898:   Top Depth
STOP.M                                          3212.2598:   Bottom Depth
STEP.M                                             .07620:   Depth Increment
NULL.                                            -999.250:   Null Value
FLD .                                                 Q15:   Field Name
WELL.                                            15/12-19:   NAME
WBN .                                            15/12-19:   WELLBORE
NATI.                                                 NOR:   COUNTRY
APD .M                                       42.519996643:   ABOVE PERM DATUM
CTRY.                                                 NOR:   COUNTRY
COMP.                                     BG GROUP NORWAY:   OPERATOR
PDAT.                                      MEAN SEA LEVEL:   PERM DATUM
STAT.                         NORWEGIAN CONTINENTAL SHELF:   STATE
LATI.                            058 00' 13.644" N    DMS:   SURF. LATITUDE
LONG.                            001 55' 16.370" E    DMS:   SURF. LONGITUDE
PBWE.                                            15/12-19:   PB WELL ID
APIN.                                            15/12-19:   PB WELLBORE ID
PBWS.                                                 ALL:   PB WELL NAME SET
~PARAMETER INFORMATION (log)
LNAM.                                 WLC_PETRO_COMPOSITE:   NAME
LTYP.                                                PAP.:   LOG TYPE
LSRV.                                          WL.PET.LOG:   LOG SERVICE
LSOU.                                            BG NORGE:   LOG SOURCE
LVSN.                                                   4:   LOG VERSION
BHIS.                                                   R:   BRIEF HISTORY
R1  .                                    DATA CONSISTS OF:   COMMENT  1
R2  .                                  EWL ZDL-CN, RUN 1B:   COMMENT  2
EDF .M                                       42.519996643:   ELEV DRILL FLOOR
ELZ .M                                       42.519996643:   ELEVATION LOG ZERO
FHIS.                                             RAW-LIS:   FULL HISTORY
EKB .M                                       42.519996643:   KB ELEVATION
LMF .                                                  DF:   LOGS MEAS FROM
EPD .M                                                0.0:   ELEV PERM DATUM
EGL .M                                                0.0:   GROUND LEVEL
QCRM.                   WAITING FOR OPERATOR CONFIRMATION:   QC COMMENT
QCCO.                                             UNKNOWN:   QC COMPANY
~Curve Information Block
#MNEM.UNIT                                        API CODE    No Description
#=========                                        ========    == ===========
DEPT.M                                       00 001 00 00:     1  DEPTH
CALX.IN                                                  :     2  Caliper
CHT.LB                                                   :     3  Cable Tension
CN.V/V                                                   :     4  Neutron Porosity
CNCF.V/V                                                 :     5  Neutron Porosity
GR.GAPI                                                  :     6  Gamma Ray
PE.B/E                                                   :     7  Photoelectic Factor
SPD.M/MN                                                 :     8  Cable Speed
TTEN.LB                                                  :     9  Cable Tension
WTBH.DEGC                                                :    10  Temperature
ZCOR.G/CC                                                :    11  Density Correction
ZDEN.G/CC                                                :    12  Bulk Density
ZDNC.G/CC                                                :    13  Bulk Density
~ASCII
# ...
 2914.9274     8.8803  1532.2517      .2122      .2032    85.2377     3.3886     9.9682  4038.2231   114.3737      .0236     2.5895     2.5819
 2915.0036     8.8801  1528.5410      .2144      .2054    83.9711     3.2945     9.9806  4035.0371   114.1606      .0232     2.5908     2.5831
 2915.0798     8.8740  1525.7307      .2161      .2071    83.0170     3.3386     9.9766  4035.4390   114.1522      .0235     2.5912     2.5836
 2915.1560     8.8746  1523.4675      .2167      .2077    81.0772     3.4708     9.9454  4038.7974   114.2847      .0236     2.5891     2.5815
 2915.2322     8.8868  1522.2451      .2147      .2056    78.5231     3.5666     9.9080  4040.6587   114.3114      .0233     2.5839     2.5762
 2915.3084     8.9039  1521.9768      .2113      .2021    76.4668     3.5520     9.8956  4038.6245   114.2269      .0230     2.5783     2.5707
 2915.3846     8.9131  1522.0417      .2064      .1974    76.6131     3.4653     9.9168  4037.4487   114.1071      .0243     2.5773     2.5697
 2915.4608     8.9033  1522.7356      .2038      .1949    78.2016     3.3891     9.9417  4040.7788   114.1670      .0277     2.5831     2.5755
 2915.5370     8.8815  1524.6096      .2039      .1952    79.4926     3.3695     9.9495  4048.6411   114.2559      .0318     2.5926     2.5849
 2915.6132     8.8639  1527.6433      .2050      .1963    80.2008     3.4006     9.9375  4055.7856   114.0919      .0342     2.5990     2.5913
 2915.6894     8.8583  1531.0144      .2063      .1976    81.2430     3.4475     9.9228  4055.4717   113.7668      .0332     2.5969     2.5892
 2915.7656     8.8590  1533.5298      .2085      .1998    82.4818     3.4612     9.9180  4046.7163   113.5203      .0290     2.5857     2.5781
 2915.8418     8.8636  1533.0989      .2127      .2039    82.3604     3.3941     9.9341  4034.9521   113.4323      .0230     2.5689     2.5614
 2915.9180     8.8698  1529.1074      .2159      .2069    80.7038     3.2485     9.9638  4027.2622   113.3258      .0173     2.5524     2.5448
 2915.9942     8.8768  1523.4761      .2150      .2059    77.7222     3.1052    10.0006  4026.6270   113.1336      .0139     2.5421     2.5346
 2916.0704     8.8844  1518.4614      .2086      .1997    75.8367     3.0670    10.0302  4030.3872   113.1319      .0143     2.5420     2.5344
 2916.1466     8.8806  1515.2568      .1997      .1911    77.3723     3.1676    10.0500  4033.4575   113.5379      .0180     2.5511     2.5435
 2916.2228     8.8663  1514.9365      .1964      .1880    80.8006     3.3399    10.0681  4033.2002   114.0757      .0227     2.5635     2.5560
 2916.2990     8.8497  1518.0925      .2024      .1939    83.0631     3.4787    10.0811  4032.4561   114.3542      .0263     2.5731     2.5655
 2916.3752     8.8429  1522.9832      .2128      .2041    81.9419     3.5359    10.0884  4035.4390   114.3185      .0278     2.5776     2.5700
 2916.4514     8.8508  1526.3855      .2199      .2109    78.9214     3.5474    10.0844  4040.9536   114.2279      .0279     2.5787     2.5710
 2916.5276     8.8709  1526.2334      .2186      .2095    77.1463     3.5730    10.0693  4047.3491   114.1015      .0273     2.5787     2.5711
 2916.6038     8.8959  1524.0613      .2100      .2009    78.3987     3.6348    10.0474  4050.3628   113.7197      .0263     2.5777     2.5701
 2916.6800     8.9112  1522.9172      .2029      .1939    81.4472     3.7090    10.0307  4043.2778   113.2504      .0244     2.5741     2.5664
 2916.7562     8.9127  1522.4910      .2041      .1951    83.1171     3.7572    10.0212  4027.1987   113.1511      .0212     2.5665     2.5589
 2916.8324     8.9068  1519.5215      .2128      .2036    82.0743     3.7692    10.0224  4009.3271   113.5284      .0174     2.5566     2.5490
 2916.9086     8.9007  1513.9104      .2187      .2094    78.3729     3.7710    10.0192  3997.0122   114.0344      .0148     2.5489     2.5413
 2916.9848     8.8999  1508.9197      .2138      .2046    74.3278     3.7869    10.0066  3994.1074   114.3752      .0149     2.5482     2.5406
 2917.0610     8.9054  1507.4529      .2017      .1929    72.8744     3.8079     9.9990  4000.3711   114.5207      .0181     2.5555     2.5479
 2917.1372     8.9113  1510.3655      .1933      .1847    74.1759     3.8068    10.0058  4011.6748   114.4847      .0229     2.5669     2.5593
 2917.2134     8.9114  1516.8381      .1955      .1868    76.2707     3.7707    10.0133  4024.8511   114.1440      .0270     2.5764     2.5688
 2917.2896     8.9032  1525.6733      .2045      .1956    77.7864     3.7056    10.0088  4039.8340   113.5063      .0289     2.5805     2.5729
 2917.3658     8.8902  1535.0767      .2103      .2013    79.1147     3.6219     9.9933  4050.7642   113.0558      .0291     2.5804     2.5728
 2917.4420     8.8828  1542.5530      .2086      .1998    80.2863     3.5291     9.9735  4050.8804   113.2087      .0287     2.5792     2.5716
 2917.5182     8.8903  1545.2080      .2052      .1963    80.3581     3.4407     9.9701  4040.8047   113.6626      .0283     2.5783     2.5706
 2917.5944     8.9030  1542.4333      .2035      .1946    78.5785     3.3678     9.9832  4027.6636   113.8677      .0278     2.5769     2.5693
 2917.6706     8.9057  1534.7722      .2064      .1973    75.2472     3.3119    10.0043  4020.8618   113.7361      .0271     2.5753     2.5677
 2917.7468     8.9009  1523.3267      .2149      .2057    72.5142     3.2752    10.0304  4023.7271   113.6094      .0272     2.5753     2.5677
 2917.8230     8.8997  1511.7090      .2255      .2160    71.3904     3.2658    10.0485  4032.4819   113.6889      .0284     2.5781     2.5705
 2917.8992     8.9115  1505.3972      .2364      .2265    70.7726     3.2854    10.0496  4041.8652   113.7647      .0298     2.5814     2.5738
 2917.9754     8.9340  1508.4500      .2420      .2317    70.1727     3.3263    10.0430  4048.3247   113.6812      .0298     2.5812     2.5735
 2918.0516     8.9573  1519.8484      .2361      .2258    70.0431     3.3831    10.0256  4054.3804   113.6662      .0282     2.5767     2.5691
 2918.1278     8.9698  1534.1643      .2246      .2145    70.9088     3.4576    10.0050  4061.9595   113.8934      .0262     2.5715     2.5639
 2918.2040     8.9638  1544.8999      .2176      .2077    72.3428     3.5510     9.9868  4069.4482   114.2448      .0252     2.5693     2.5617
 2918.2802     8.9458  1549.0486      .2149      .2053    73.7416     3.6527     9.9745  4072.4551   114.3839      .0254     2.5701     2.5625
 2918.3564     8.9233  1547.6704      .2116      .2023    74.7911     3.7421     9.9687  4065.9175   114.2190      .0258     2.5712     2.5636
 2918.4326     8.9064  1543.4050      .2071      .1981    75.9503     3.7974     9.9700  4055.3838   114.0618      .0256     2.5705     2.5629
 2918.5088     8.9004  1538.9980      .2023      .1935    78.0327     3.7992     9.9794  4051.0244   114.0472      .0244     2.5679     2.5603
 2918.5850     8.8990  1536.1260      .2022      .1934    79.0004     3.7471     9.9911  4055.9297   114.0498      .0222     2.5641     2.5565
 2918.6612     8.8935  1535.0396      .2072      .1983    76.7460     3.6836    10.0033  4062.2661   113.9400      .0195     2.5605     2.5530
 2918.7374     8.8879  1534.7471      .2134      .2044    71.4617     3.6715    10.0041  4062.9038   113.7673      .0170     2.5591     2.5515
 2918.8136     8.8896  1534.8220      .2180      .2087    66.0083     3.7240     9.9824  4059.5454   113.6604      .0154     2.5604     2.5528
 2918.8898     8.8965  1535.7659      .2207      .2114    63.7084     3.7734     9.9369  4056.3901   113.7215      .0146     2.5629     2.5553
 2918.9660     8.9042  1537.1477      .2224      .2129    65.1753     3.7332     9.8867  4056.6475   113.9197      .0141     2.5644     2.5568
 2919.0422     8.9043  1538.0144      .2208      .2114    68.7691     3.6045     9.8538  4057.3916   113.9996      .0143     2.5650     2.5574
 2919.1184     8.8974  1537.2776      .2179      .2086    71.7871     3.4940     9.8548  4054.4937   113.8224      .0158     2.5662     2.5586
