~VERSION INFORMATION
VERS.                                                 2.0:   CWLS Log ASCII Standard-VERSION 2.0
WRAP.                                                  NO:   One line per depth step
~Well Information Block
STRT.M                                          2880.7898:   Top Depth
STOP.M                                          3212.2598:   Bottom Depth
STEP.M                                             .07620:   Depth Increment
NULL.                                            -999.250:   Null Value
FLD .                                                 Q15:   Field Name
WELL.                                            15/12-19:   NAME
WBN .                                            15/12-19:   WELLBORE
NATI.                                                 NOR:   COUNTRY
APD .M                                       42.519996643:   ABOVE PERM DATUM
CTRY.                                                 NOR:   COUNTRY
COMP.                                     BG GROUP NORWAY:   OPERATOR
PDAT.                                      MEAN SEA LEVEL:   PERM DATUM
STAT.                         NORWEGIAN CONTINENTAL SHELF:   STATE
LATI.                            058 00' 13.644" N    DMS:   SURF. LATITUDE
LONG.                            001 55' 16.370" E    DMS:   SURF. LONGITUDE
PBWE.                                            15/12-19:   PB WELL ID
APIN.                                            15/12-19:   PB WELLBORE ID
PBWS.                                                 ALL:   PB WELL NAME SET
~PARAMETER INFORMATION (log)
LNAM.                                 WLC_PETRO_COMPOSITE:   NAME
LTYP.                                                PAP.:   LOG TYPE
LSRV.                                          WL.PET.LOG:   LOG SERVICE
LSOU.                                            BG NORGE:   LOG SOURCE
LVSN.                                                   4:   LOG VERSION
BHIS.                                                   R:   BRIEF HISTORY
R1  .                                    DATA CONSISTS OF:   COMMENT  1
R2  .                                  EWL ZDL-CN, RUN 1B:   COMMENT  2
EDF .M                                       42.519996643:   ELEV DRILL FLOOR
ELZ .M                                       42.519996643:   ELEVATION LOG ZERO
FHIS.                                             RAW-LIS:   FULL HISTORY
EKB .M                                       42.519996643:   KB ELEVATION
LMF .                                                  DF:   LOGS MEAS FROM
EPD .M                                                0.0:   ELEV PERM DATUM
EGL .M                                                0.0:   GROUND LEVEL
QCRM.                   WAITING FOR OPERATOR CONFIRMATION:   QC COMMENT
QCCO.                                             UNKNOWN:   QC COMPANY
~Curve Information Block
#MNEM.UNIT                                        API CODE    No Description
#=========                                        ========    == ===========
DEPT.M                                       00 001 00 00:     1  DEPTH
CALX.IN                                                  :     2  Caliper
CHT.LB                                                   :     3  Cable Tension
CN.V/V                                                   :     4  Neutron Porosity
CNCF.V/V                                                 :     5  Neutron Porosity
GR.GAPI                                                  :     6  Gamma Ray
PE.B/E                                                   :     7  Photoelectic Factor
SPD.M/MN                                                 :     8  Cable Speed
TTEN.LB                                                  :     9  Cable Tension
WTBH.DEGC                                                :    10  Temperature
ZCOR.G/CC                                                :    11  Density Correction
ZDEN.G/CC                                                :    12  Bulk Density
ZDNC.G/CC                                                :    13  Bulk Density
~ASCII
# ...
 2957.5994     9.0377  1568.6663      .2720      .2598    76.2800     4.8919     9.8506  4119.6035   118.6225      .0269     2.6006     2.5929
 2957.6756     9.0286  1551.6716      .2835      .2710    75.7675     4.7282     9.8219  4138.0889   119.1422      .0297     2.6040     2.5963
 2957.7518     9.0351  1551.8613      .2841      .2715    76.3804     4.5388     9.8089  4141.2207   119.7245      .0339     2.6121     2.6044
 2957.8280     9.0562  1558.2581      .2789      .2663    77.1871     4.4091     9.8069  4127.6758   119.8406      .0384     2.6224     2.6147
 2957.9042     9.0828  1560.8833      .2759      .2631    77.0014     4.4300     9.8051  4104.3721   119.5229      .0421     2.6310     2.6233
 2957.9804     9.1023  1555.2886      .2740      .2611    74.8833     4.6089     9.7951  4079.0562   119.2155      .0440     2.6344     2.6267
 2958.0566     9.1027  1543.0342      .2671      .2544    70.7853     4.8518     9.7866  4059.1372   119.1875      .0443     2.6314     2.6237
 2958.1328     9.0864  1529.5305      .2536      .2415    67.3275     5.0505     9.7926  4051.0454   119.2395      .0439     2.6244     2.6167
 2958.2090     9.0662  1520.2351      .2429      .2313    67.6348     5.1578     9.8107  4058.6479   119.1945      .0436     2.6182     2.6105
 2958.2852     9.0560  1518.6433      .2381      .2268    71.4720     5.1648     9.8183  4080.6621   119.1146      .0441     2.6161     2.6084
 2958.3614     9.0543  1525.7166      .2414      .2300    75.2021     5.0603     9.8094  4111.6348   119.2290      .0450     2.6178     2.6101
 2958.4376     9.0518  1537.0361      .2496      .2380    75.7260     4.8662     9.7820  4145.8428   119.4921      .0461     2.6197     2.6120
 2958.5138     9.0482  1548.4661      .2593      .2473    73.9110     4.6773     9.7514  4172.0459   119.6200      .0472     2.6190     2.6113
 2958.5900     9.0454  1562.4460      .2721      .2598    74.0562     4.5981     9.7427  4174.5967   119.5288      .0486     2.6152     2.6075
 2958.6662     9.0418  1576.9871      .2839      .2712    77.5649     4.6481     9.7581  4148.6504   119.3404      .0509     2.6105     2.6028
 2958.7424     9.0415  1583.1843      .2881      .2753    80.4536     4.7570     9.7909  4107.0146   119.2925      .0547     2.6072     2.5996
 2958.8186     9.0487  1573.5955      .2869      .2741    79.5397     4.8485     9.8268  4069.1270   119.3878      .0600     2.6073     2.5996
 2958.8948     9.0651  1549.4302      .2946      .2814    75.7991     4.9073     9.8533  4049.1748   119.4513      .0663     2.6123     2.6046
 2958.9710     9.0898  1524.0652      .3109      .2969    72.5583     4.9621     9.8557  4050.0962   119.2479      .0719     2.6216     2.6139
 2959.0472     9.1155  1514.9277      .3237      .3090    71.8827     5.0243     9.8434  4067.1436   118.8125      .0744     2.6323     2.6246
 2959.1234     9.1361  1526.8396      .3207      .3059    73.5854     5.0633     9.8287  4097.1377   118.4910      .0721     2.6406     2.6329
 2959.1996     9.1455  1548.1240      .3000      .2857    75.2759     5.0429     9.8183  4135.1953   118.4438      .0647     2.6440     2.6363
 2959.2758     9.1443  1566.9524      .2766      .2632    76.3927     4.9610     9.8045  4165.6455   118.6160      .0536     2.6425     2.6348
 2959.3520     9.1464  1580.8574      .2605      .2476    77.0647     4.8433     9.7808  4174.9697   118.8395      .0411     2.6374     2.6297
 2959.4282     9.1637  1592.3848      .2476      .2350    76.1464     4.7252     9.7517  4159.5625   119.1061      .0297     2.6304     2.6227
 2959.5044     9.1825  1599.0747      .2346      .2224    72.4846     4.6549     9.7318  4125.4102   119.4756      .0215     2.6240     2.6163
 2959.5806     9.1867  1592.1306      .2247      .2128    67.0932     4.6947     9.7281  4085.4849   119.8953      .0174     2.6207     2.6130
 2959.6568     9.1721  1568.5396      .2182      .2067    63.8843     4.8841     9.7424  4052.1958   120.3218      .0172     2.6219     2.6142
 2959.7330     9.1525  1538.1802      .2154      .2041    65.2203     5.1787     9.7687  4034.2202   120.6392      .0193     2.6264     2.6187
 2959.8092     9.1450  1515.8516      .2166      .2053    69.7229     5.4366     9.7833  4029.5156   120.6646      .0221     2.6317     2.6240
 2959.8854     9.1519  1513.0425      .2203      .2088    73.4043     5.5117     9.7790  4039.6450   120.2838      .0243     2.6361     2.6284
 2959.9616     9.1639  1529.4321      .2233      .2117    74.6626     5.3663     9.7516  4073.2012   119.6766      .0261     2.6406     2.6329
 2960.0378     9.1704  1554.0769      .2247      .2129    74.5021     5.0722     9.7150  4133.4219   119.3485      .0278     2.6472     2.6395
 2960.1140     9.1747  1580.5281      .2242      .2124    73.9248     4.7382     9.6886  4203.8955   119.5189      .0298     2.6560     2.6483
 2960.1902     9.1781  1609.4023      .2210      .2093    73.0451     4.4608     9.6701  4253.8330   119.8316      .0314     2.6638     2.6561
 2960.2664     9.1805  1640.9087      .2191      .2075    71.3923     4.3043     9.6552  4261.6152   119.8644      .0315     2.6666     2.6589
 2960.3426     9.1753  1670.0439      .2249      .2131    70.1457     4.2848     9.6551  4227.7236   119.7546      .0295     2.6622     2.6545
 2960.4188     9.1593  1683.5889      .2388      .2266    70.7723     4.3688     9.6690  4176.4629   119.7219      .0257     2.6522     2.6445
 2960.4950     9.1448  1667.1963      .2531      .2405    72.6808     4.5002     9.6882  4129.0195   119.5915      .0214     2.6406     2.6329
 2960.5712     9.1462  1625.9294      .2564      .2437    74.0874     4.6373     9.7129  4091.8213   119.3131      .0176     2.6306     2.6229
 2960.6474     9.1649  1582.6667      .2455      .2330    74.5272     4.7655     9.7575  4069.8926   119.0103      .0146     2.6230     2.6153
 2960.7236     9.1823  1554.4268      .2329      .2207    74.8635     4.8796     9.8158  4070.5869   119.0209      .0122     2.6169     2.6092
 2960.7998     9.1823  1545.7500      .2311      .2190    75.8273     4.9742     9.8649  4092.7993   119.3209      .0103     2.6120     2.6043
 2960.8760     9.1719  1554.1433      .2395      .2272    76.9855     5.0518     9.8879  4123.2734   119.5737      .0096     2.6096     2.6019
 2960.9522     9.1622  1574.9426      .2484      .2358    76.9080     5.1280     9.8824  4151.0010   119.5284      .0104     2.6110     2.6033
 2961.0284     9.1587  1600.8154      .2503      .2377    75.2333     5.2208     9.8726  4176.2080   119.2636      .0125     2.6157     2.6080
 2961.1046     9.1560  1622.5422      .2480      .2355    73.7969     5.3276     9.8633  4201.9531   119.1674      .0149     2.6216     2.6139
 2961.1808     9.1476  1634.0154      .2485      .2361    72.8653     5.4061     9.8445  4222.2646   119.2174      .0166     2.6266     2.6189
 2961.2570     9.1495  1635.3613      .2536      .2409    71.5132     5.3831     9.8051  4222.4658   119.2287      .0168     2.6295     2.6218
 2961.3332     9.1660  1630.5442      .2578      .2449    69.8231     5.2141     9.7629  4193.3711   119.0463      .0156     2.6298     2.6221
 2961.4094     9.1844  1620.1970      .2559      .2429    68.9563     4.9509     9.7349  4142.6260   118.8056      .0131     2.6274     2.6197
 2961.4856     9.1872  1602.4307      .2484      .2356    68.8187     4.7282     9.7289  4086.1958   118.7698      .0100     2.6231     2.6154
 2961.5618     9.1716  1579.2961      .2465      .2340    68.1059     4.6651     9.7546  4033.5352   118.8661      .0073     2.6188     2.6111
 2961.6380     9.1557  1556.3230      .2601      .2472    67.5065     4.7813     9.8031  3999.0625   118.8701      .0060     2.6160     2.6083
 2961.7142     9.1513  1536.7239      .2892      .2753    68.3994     4.9844     9.8448  4002.8271   118.6906      .0060     2.6147     2.6070
 2961.7904     9.1548  1522.8000      .3185      .3036    71.5664     5.1238     9.8575  4049.8125   118.7255      .0068     2.6134     2.6057
