~VERSION INFORMATION
VERS.                                                 2.0:   CWLS Log ASCII Standard-VERSION 2.0
WRAP.                                                  NO:   One line per depth step
~Well Information Block
STRT.M                                          2880.7898:   Top Depth
STOP.M                                          3212.2598:   Bottom Depth
STEP.M                                             .07620:   Depth Increment
NULL.                                            -999.250:   Null Value
FLD .                                                 Q15:   Field Name
WELL.                                            15/12-19:   NAME
WBN .                                            15/12-19:   WELLBORE
NATI.                                                 NOR:   COUNTRY
APD .M                                       42.519996643:   ABOVE PERM DATUM
CTRY.                                                 NOR:   COUNTRY
COMP.                                     BG GROUP NORWAY:   OPERATOR
PDAT.                                      MEAN SEA LEVEL:   PERM DATUM
STAT.                         NORWEGIAN CONTINENTAL SHELF:   STATE
LATI.                            058 00' 13.644" N    DMS:   SURF. LATITUDE
LONG.                            001 55' 16.370" E    DMS:   SURF. LONGITUDE
PBWE.                                            15/12-19:   PB WELL ID
APIN.                                            15/12-19:   PB WELLBORE ID
PBWS.                                                 ALL:   PB WELL NAME SET
~PARAMETER INFORMATION (log)
LNAM.                                 WLC_PETRO_COMPOSITE:   NAME
LTYP.                                                PAP.:   LOG TYPE
LSRV.                                          WL.PET.LOG:   LOG SERVICE
LSOU.                                            BG NORGE:   LOG SOURCE
LVSN.                                                   4:   LOG VERSION
BHIS.                                                   R:   BRIEF HISTORY
R1  .                                    DATA CONSISTS OF:   COMMENT  1
R2  .                                  EWL ZDL-CN, RUN 1B:   COMMENT  2
EDF .M                                       42.519996643:   ELEV DRILL FLOOR
ELZ .M                                       42.519996643:   ELEVATION LOG ZERO
FHIS.                                             RAW-LIS:   FULL HISTORY
EKB .M                                       42.519996643:   KB ELEVATION
LMF .                                                  DF:   LOGS MEAS FROM
EPD .M                                                0.0:   ELEV PERM DATUM
EGL .M                                                0.0:   GROUND LEVEL
QCRM.                   WAITING FOR OPERATOR CONFIRMATION:   QC COMMENT
QCCO.                                             UNKNOWN:   QC COMPANY
~Curve Information Block
#MNEM.UNIT                                        API CODE    No Description
#=========                                        ========    == ===========
DEPT.M                                       00 001 00 00:     1  DEPTH
CALX.IN                                                  :     2  Caliper
CHT.LB                                                   :     3  Cable Tension
CN.V/V                                                   :     4  Neutron Porosity
CNCF.V/V                                                 :     5  Neutron Porosity
GR.GAPI                                                  :     6  Gamma Ray
PE.B/E                                                   :     7  Photoelectic Factor
SPD.M/MN                                                 :     8  Cable Speed
TTEN.LB                                                  :     9  Cable Tension
WTBH.DEGC                                                :    10  Temperature
ZCOR.G/CC                                                :    11  Density Correction
ZDEN.G/CC                                                :    12  Bulk Density
ZDNC.G/CC                                                :    13  Bulk Density
~ASCII
# ...
 3017.3402     8.8819  1553.3816      .2856      .2745    80.6631     4.4412     9.9342  4141.2754   121.6645      .0402     2.5398     2.5322
 3017.4164     8.8645  1543.4478      .3250      .3130    80.2472     4.5540     9.9222  4127.9873   121.7172      .0441     2.5685     2.5609
 3017.4926     8.8499  1535.4434      .3575      .3449    77.5581     4.4967     9.9288  4114.1543   121.6300      .0435     2.5857     2.5781
 3017.5688     8.8381  1528.6582      .3591      .3466    75.4305     4.3422     9.9327  4102.3574   121.5757      .0385     2.5880     2.5804
 3017.6450     8.8368  1521.0796      .3346      .3227    75.3537     4.2075     9.9321  4096.1855   121.7018      .0321     2.5796     2.5720
 3017.7212     8.8489  1513.2471      .3089      .2975    76.7080     4.1403     9.9364  4099.8066   121.8741      .0270     2.5651     2.5575
 3017.7974     8.8652  1508.1335      .2934      .2822    77.9483     4.0946     9.9449  4113.9824   121.8351      .0239     2.5455     2.5379
 3017.8736     8.8764  1508.5662      .2828      .2718    77.3088     3.9976     9.9475  4132.5479   121.5371      .0218     2.5206     2.5131
 3017.9498     8.8780  1515.0339      .2682      .2576    75.0694     3.8229     9.9418  4147.3594   121.2354      .0204     2.4931     2.4857
 3018.0260     8.8698  1526.1426      .2521      .2420    71.6929     3.6197     9.9324  4154.8242   121.2050      .0202     2.4680     2.4606
 3018.1022     8.8573  1538.2378      .2446      .2349    66.7502     3.4846     9.9212  4158.4687   121.4825      .0217     2.4488     2.4415
 3018.1784     8.8448  1547.3838      .2488      .2391    61.8058     3.4935     9.9141  4159.3848   121.9353      .0243     2.4348     2.4276
 3018.2546     8.8274  1548.9692      .2512      .2416    58.9616     3.6499     9.9139  4153.2705   122.2839      .0263     2.4218     2.4147
 3018.3308     8.8059  1542.5703      .2413      .2321    59.8169     3.8992     9.9273  4139.7822   122.3836      .0260     2.4051     2.3980
 3018.4070     8.7921  1531.3071      .2294      .2206    63.3794     4.1874     9.9549  4125.5508   122.2888      .0234     2.3841     2.3771
 3018.4832     8.7903  1520.0696      .2220      .2135    66.6643     4.4858     9.9803  4117.2812   121.9582      .0203     2.3628     2.3560
 3018.5594     8.7898  1513.6196      .2194      .2109    67.1621     4.7440     9.9771  4114.4990   121.5058      .0190     2.3466     2.3398
 3018.6356     8.7763  1512.0974      .2222      .2138    64.3833     4.8629     9.9583  4115.8457   121.1689      .0202     2.3382     2.3315
 3018.7118     8.7568  1512.6726      .2295      .2211    61.3776     4.7787     9.9470  4117.9736   121.1554      .0234     2.3365     2.3299
 3018.7880     8.7517  1511.7070      .2388      .2301    59.8664     4.5594     9.9598  4119.4951   121.2928      .0274     2.3393     2.3326
 3018.8642     8.7692  1508.9324      .2419      .2331    59.9068     4.3528     9.9836  4120.3828   121.2747      .0315     2.3448     2.3380
 3018.9404     8.7918  1506.0046      .2331      .2243    60.0448     4.2523     9.9886  4118.4648   121.0456      .0354     2.3522     2.3454
 3019.0166     8.8033  1503.4045      .2178      .2093    60.0356     4.2416     9.9683  4112.1445   120.8419      .0385     2.3600     2.3532
 3019.0928     8.8070  1501.4929      .2087      .2004    60.8938     4.2436     9.9380  4101.6416   120.9498      .0401     2.3656     2.3587
 3019.1690     8.8077  1501.3921      .2049      .1967    62.6307     4.2036     9.9275  4089.7339   121.2125      .0399     2.3667     2.3598
 3019.2452     8.8051  1504.2349      .2007      .1927    64.0905     4.1274     9.9377  4081.2925   121.3944      .0381     2.3631     2.3563
 3019.3214     8.7931  1506.5828      .1983      .1904    63.7973     4.0532     9.9562  4082.9033   121.5428      .0357     2.3575     2.3507
 3019.3976     8.7736  1503.4614      .1960      .1883    64.2091     4.0041     9.9694  4095.8745   121.7986      .0339     2.3545     2.3477
 3019.4738     8.7579  1497.4460      .1954      .1879    66.6021     3.9662     9.9608  4113.8379   122.1901      .0341     2.3587     2.3519
 3019.5500     8.7579  1496.4063      .1969      .1894    69.8786     3.9190     9.9176  4129.5684   122.3956      .0365     2.3730     2.3661
 3019.6262     8.7697  1504.8396      .1984      .1907    71.7977     3.8928     9.8559  4138.7510   122.1704      .0410     2.3967     2.3897
 3019.7024     8.7837  1517.6392      .1966      .1889    71.5945     3.9690     9.8127  4140.1318   121.6555      .0466     2.4256     2.4184
 3019.7786     8.8010  1526.2075      .1896      .1819    70.9828     4.1953     9.8139  4137.8340   121.0970      .0515     2.4527     2.4455
 3019.8548     8.8215  1527.0432      .1829      .1752    70.0797     4.4895     9.8496  4134.3027   120.8044      .0539     2.4711     2.4638
 3019.9310     8.8372  1522.2231      .1817      .1740    68.7826     4.6621     9.8952  4127.9307   120.9444      .0527     2.4770     2.4697
 3020.0072     8.8414  1516.3691      .1855      .1776    66.5427     4.5888     9.9257  4116.8496   121.3846      .0485     2.4720     2.4647
 3020.0834     8.8460  1510.7339      .1842      .1763    63.7198     4.3341     9.9357  4105.0850   121.7753      .0431     2.4631     2.4558
 3020.1596     8.8625  1506.1870      .1742      .1665    60.2375     4.0709     9.9399  4099.8066   121.8589      .0387     2.4600     2.4527
 3020.2358     8.8913  1502.9272      .1620      .1545    55.9832     3.9482     9.9477  4104.6582   121.6094      .0372     2.4714     2.4640
 3020.3120     8.9226  1499.7119      .1528      .1454    52.9601     4.0281     9.9718  4119.8936   121.2961      .0389     2.4999     2.4924
 3020.3882     8.9394  1498.2871      .1495      .1421    53.3705     4.2610    10.0075  4134.9082   121.3007      .0421     2.5400     2.5325
 3020.4644     8.9370  1501.4546      .1504      .1429    58.1146     4.5154    10.0348  4138.2334   121.5934      .0435     2.5796     2.5720
 3020.5406     8.9238  1508.6165      .1544      .1469    64.7133     4.6711    10.0349  4127.9053   121.8691      .0407     2.6071     2.5994
 3020.6168     8.9065  1514.5212      .1640      .1563    69.7060     4.6635    10.0166  4111.6367   121.9706      .0341     2.6194     2.6117
 3020.6930     8.8937  1513.9690      .1807      .1726    72.4398     4.4851     9.9955  4095.1279   121.8934      .0270     2.6223     2.6146
 3020.7692     8.8986  1505.6157      .2027      .1939    73.8495     4.2185     9.9893  4077.9907   121.7467      .0227     2.6236     2.6159
 3020.8454     8.9145  1492.5977      .2212      .2117    75.1175     4.0069    10.0019  4060.3696   121.6489      .0225     2.6277     2.6200
 3020.9216     8.9231  1480.4819      .2274      .2176    76.7004     3.9318    10.0205  4050.1289   121.6157      .0252     2.6334     2.6257
 3020.9978     8.9165  1472.7415      .2241      .2144    78.9175     3.9541    10.0289  4059.8857   121.7485      .0279     2.6348     2.6271
 3021.0740     8.9041  1474.3860      .2222      .2127    81.1675     3.9842    10.0185  4087.7500   121.9898      .0276     2.6256     2.6180
 3021.1502     8.9029  1488.8257      .2269      .2173    82.2687     3.9666     9.9932  4120.9805   122.1431      .0241     2.6064     2.5988
 3021.2264     8.9174  1511.6948      .2307      .2208    81.8088     3.8947     9.9623  4148.8818   122.0903      .0195     2.5854     2.5778
 3021.3026     8.9288  1536.9712      .2251      .2153    79.6100     3.7864     9.9378  4170.2656   121.8507      .0170     2.5721     2.5645
 3021.3788     8.9243  1560.3779      .2119      .2025    76.3455     3.6667     9.9158  4187.7666   121.5211      .0177     2.5695     2.5619
 3021.4550     8.9156  1579.5461      .2019      .1930    72.5239     3.5659     9.9029  4197.4141   121.2496      .0203     2.5722     2.5646
 3021.5312     8.9092  1594.7424      .2025      .1936    67.9956     3.5076     9.9066  4196.0303   121.2424      .0220     2.5707     2.5631
