~VERSION INFORMATION
VERS.                                                 2.0:   CWLS Log ASCII Standard-VERSION 2.0
WRAP.                                                  NO:   One line per depth step
~Well Information Block
STRT.M                                          2880.7898:   Top Depth
STOP.M                                          3212.2598:   Bottom Depth
STEP.M                                             .07620:   Depth Increment
NULL.                                            -999.250:   Null Value
FLD .                                                 Q15:   Field Name
WELL.                                            15/12-19:   NAME
WBN .                                            15/12-19:   WELLBORE
NATI.                                                 NOR:   COUNTRY
APD .M                                       42.519996643:   ABOVE PERM DATUM
CTRY.                                                 NOR:   COUNTRY
COMP.                                     BG GROUP NORWAY:   OPERATOR
PDAT.                                      MEAN SEA LEVEL:   PERM DATUM
STAT.                         NORWEGIAN CONTINENTAL SHELF:   STATE
LATI.                            058 00' 13.644" N    DMS:   SURF. LATITUDE
LONG.                            001 55' 16.370" E    DMS:   SURF. LONGITUDE
PBWE.                                            15/12-19:   PB WELL ID
APIN.                                            15/12-19:   PB WELLBORE ID
PBWS.                                                 ALL:   PB WELL NAME SET
~PARAMETER INFORMATION (log)
LNAM.                                 WLC_PETRO_COMPOSITE:   NAME
LTYP.                                                PAP.:   LOG TYPE
LSRV.                                          WL.PET.LOG:   LOG SERVICE
LSOU.                                            BG NORGE:   LOG SOURCE
LVSN.                                                   4:   LOG VERSION
BHIS.                                                   R:   BRIEF HISTORY
R1  .                                    DATA CONSISTS OF:   COMMENT  1
R2  .                                  EWL ZDL-CN, RUN 1B:   COMMENT  2
EDF .M                                       42.519996643:   ELEV DRILL FLOOR
ELZ .M                                       42.519996643:   ELEVATION LOG ZERO
FHIS.                                             RAW-LIS:   FULL HISTORY
EKB .M                                       42.519996643:   KB ELEVATION
LMF .                                                  DF:   LOGS MEAS FROM
EPD .M                                                0.0:   ELEV PERM DATUM
EGL .M                                                0.0:   GROUND LEVEL
QCRM.                   WAITING FOR OPERATOR CONFIRMATION:   QC COMMENT
QCCO.                                             UNKNOWN:   QC COMPANY
~Curve Information Block
#MNEM.UNIT                                        API CODE    No Description
#=========                                        ========    == ===========
DEPT.M                                       00 001 00 00:     1  DEPTH
CALX.IN                                                  :     2  Caliper
CHT.LB                                                   :     3  Cable Tension
CN.V/V                                                   :     4  Neutron Porosity
CNCF.V/V                                                 :     5  Neutron Porosity
GR.GAPI                                                  :     6  Gamma Ray
PE.B/E                                                   :     7  Photoelectic Factor
SPD.M/MN                                                 :     8  Cable Speed
TTEN.LB                                                  :     9  Cable Tension
WTBH.DEGC                                                :    10  Temperature
ZCOR.G/CC                                                :    11  Density Correction
ZDEN.G/CC                                                :    12  Bulk Density
ZDNC.G/CC                                                :    13  Bulk Density
~ASCII
# ...
 3162.4250     8.9146  1510.0737      .1850      .1766    58.7410     3.7636     8.7458  4251.2725   124.0252      .0234     2.3955     2.3885
 3162.5012     8.9235  1520.9915      .1830      .1746    60.4743     3.7985     8.7445  4255.4316   124.1638      .0242     2.4048     2.3977
 3162.5774     8.9414  1526.3057      .1884      .1797    62.1088     3.9288     8.7475  4262.2383   124.2519      .0281     2.4246     2.4174
 3162.6536     8.9564  1526.6228      .1970      .1879    64.0316     3.9555     8.7458  4270.2705   124.2239      .0321     2.4458     2.4385
 3162.7298     8.9601  1527.7722      .2046      .1952    66.1532     3.8068     8.7383  4272.9648   124.3243      .0339     2.4612     2.4539
 3162.8060     8.9477  1530.2292      .2087      .1993    67.4281     3.5897     8.7208  4267.8594   124.6547      .0331     2.4695     2.4621
 3162.8822     8.9345  1529.9766      .2079      .1986    67.6480     3.4505     8.7006  4256.5820   125.0444      .0307     2.4734     2.4660
 3162.9584     8.9380  1524.9231      .2046      .1954    67.7857     3.4483     8.6853  4245.0137   125.2117      .0284     2.4776     2.4702
 3163.0346     8.9552  1516.6140      .2041      .1948    67.7527     3.5343     8.6800  4238.5547   125.0042      .0271     2.4858     2.4784
 3163.1108     8.9610  1510.0212      .2089      .1993    66.9171     3.5983     8.6886  4236.7783   124.7197      .0273     2.4986     2.4912
 3163.1870     8.9484  1508.6455      .2144      .2048    65.1020     3.5637     8.6966  4241.5117   124.6404      .0287     2.5135     2.5061
 3163.2632     8.9355  1511.6167      .2154      .2058    63.4731     3.4570     8.6864  4253.5117   124.6930      .0309     2.5259     2.5184
 3163.3394     8.9280  1516.2573      .2116      .2022    63.7767     3.3562     8.6539  4267.9443   124.8113      .0330     2.5310     2.5234
 3163.4156     8.9288  1521.2346      .2077      .1985    66.0418     3.3038     8.6240  4275.7187   124.8385      .0340     2.5264     2.5189
 3163.4918     8.9400  1525.3967      .2084      .1990    68.0544     3.3020     8.6154  4273.2842   124.7177      .0338     2.5145     2.5070
 3163.5680     8.9559  1528.8677      .2110      .2014    68.3778     3.3468     8.6303  4266.1064   124.5674      .0337     2.5013     2.4939
 3163.6442     8.9677  1532.6172      .2126      .2029    67.8222     3.4281     8.6599  4260.9434   124.4932      .0348     2.4930     2.4856
 3163.7204     8.9651  1535.2852      .2121      .2024    67.2159     3.5047     8.6868  4262.3184   124.4543      .0373     2.4917     2.4842
 3163.7966     8.9504  1535.0325      .2141      .2045    67.3167     3.5088     8.7000  4269.2051   124.4234      .0395     2.4940     2.4865
 3163.8728     8.9412  1532.2444      .2200      .2103    68.0210     3.4031     8.6981  4277.7900   124.4251      .0397     2.4939     2.4864
 3163.9490     8.9481  1530.7090      .2273      .2173    68.7034     3.2270     8.6857  4283.7842   124.3776      .0372     2.4874     2.4800
 3164.0252     8.9627  1533.6602      .2346      .2243    69.4809     3.0650     8.6837  4283.4707   124.3014      .0330     2.4750     2.4676
 3164.1014     8.9675  1538.9099      .2372      .2267    70.4885     2.9831     8.7031  4275.7803   124.2644      .0286     2.4596     2.4522
 3164.1776     8.9496  1539.5237      .2351      .2248    71.0703     3.0087     8.7388  4263.6953   124.2336      .0247     2.4439     2.4366
 3164.2538     8.9168  1531.9690      .2315      .2216    70.5632     3.1463     8.7701  4252.6211   124.2300      .0217     2.4311     2.4239
 3164.3300     8.8861  1520.2773      .2257      .2163    69.3596     3.3842     8.7873  4247.1084   124.2931      .0203     2.4245     2.4173
 3164.4062     8.8858  1500.5757      .2081      .1992    67.9409     3.9829     8.7867  4251.5889   124.3237      .0238     2.4335     2.4262
 3164.4824     8.8971  1494.4685      .2080      .1990    69.4795     4.2217     8.7761  4254.4258   124.4036      .0267     2.4427     2.4355
 3164.5586     8.8864  1490.7051      .2142      .2051    72.1896     4.3686     8.7560  4249.9238   124.6227      .0287     2.4502     2.4430
 3164.6348     8.8507  1488.8738      .2175      .2086    75.5282     4.4135     8.7323  4237.8389   124.8389      .0296     2.4555     2.4482
 3164.7110     8.8149  1487.6128      .2109      .2024    79.2753     4.3644     8.7127  4223.5762   124.8949      .0299     2.4604     2.4532
 3164.7872     8.8027  1486.3911      .2039      .1958    83.0882     4.2569     8.7074  4215.0830   124.7380      .0301     2.4686     2.4613
 3164.8634     8.8140  1485.0237      .2082      .1999    85.8755     4.1452     8.7104  4216.6865   124.5272      .0310     2.4847     2.4773
 3164.9396     8.8294  1484.3406      .2213      .2125    86.3273     4.0644     8.7138  4229.0010   124.5566      .0338     2.5119     2.5045
 3165.0158     8.8318  1486.1733      .2279      .2188    84.8551     4.0017     8.7053  4248.1738   124.7093      .0379     2.5471     2.5396
 3165.0920     8.8328  1492.4199      .2198      .2110    82.4598     3.9313     8.6889  4266.3115   124.7820      .0407     2.5793     2.5717
 3165.1682     8.8428  1502.7153      .2059      .1975    80.8138     3.8737     8.6784  4277.1592   124.7763      .0389     2.5964     2.5888
 3165.2444     8.8459  1512.0854      .1950      .1868    80.1884     3.8741     8.6769  4272.9746   124.7954      .0322     2.5952     2.5876
 3165.3206     8.8325  1513.7734      .1913      .1834    79.5443     3.9332     8.6822  4253.4521   124.8552      .0235     2.5826     2.5750
 3165.3968     8.8090  1505.2039      .1935      .1857    78.1657     3.9935     8.6861  4222.4873   124.8648      .0164     2.5679     2.5603
 3165.4730     8.7956  1490.9004      .1989      .1910    76.0909     4.0031     8.6952  4186.4111   124.7666      .0124     2.5575     2.5499
 3165.5492     8.8042  1475.7915      .2035      .1954    74.5947     3.9847     8.7166  4158.8467   124.5667      .0117     2.5542     2.5466
 3165.6254     8.8240  1465.0483      .2043      .1960    75.2732     4.0244     8.7549  4150.3066   124.3000      .0133     2.5582     2.5507
 3165.7016     8.8329  1463.4668      .2016      .1933    78.5270     4.1845     8.7982  4171.6523   124.0177      .0162     2.5667     2.5591
 3165.7778     8.8160  1471.3342      .1980      .1900    83.4987     4.4437     8.8161  4230.5166   123.8436      .0188     2.5735     2.5659
 3165.8540     8.7779  1492.5637      .1979      .1902    87.4274     4.7177     8.7882  4316.2236   123.9079      .0200     2.5720     2.5644
 3165.9302     8.7333  1535.7698      .2009      .1934    85.7862     4.9069     8.7274  4397.5703   124.1778      .0191     2.5582     2.5507
 3166.0064     8.7033  1600.6223      .2071      .1997    76.8499     4.9396     8.6632  4446.3086   124.3480      .0163     2.5314     2.5239
 3166.0826     8.6946  1667.9517      .2154      .2079    63.8601     4.8173     8.6291  4451.1074   124.3398      .0124     2.4946     2.4873
 3166.1588     8.6914  1714.1309      .2197      .2121    52.9421     4.6278     8.6315  4417.2939   124.2308      .0089     2.4550     2.4478
 3166.2350     8.6884  1721.2998      .2182      .2107    47.5603     4.4894     8.6518  4370.2568   124.0232      .0078     2.4211     2.4140
 3166.3112     8.6950  1687.9773      .2131      .2056    46.7436     4.4724     8.6677  4330.8545   123.7841      .0096     2.3993     2.3923
 3166.3874     8.7107  1634.7444      .2054      .1980    47.0860     4.5588     8.6688  4304.5898   123.6385      .0140     2.3922     2.3852
 3166.4636     8.7384  1585.2839      .1963      .1889    47.2566     4.6682     8.6615  4289.2285   123.6474      .0203     2.3995     2.3926
 3166.5398     8.7717  1553.3599      .1872      .1798    48.4331     4.7249     8.6586  4272.1289   123.7144      .0275     2.4195     2.4124
 3166.6160     8.7989  1537.8738      .1828      .1754    49.7866     4.7024     8.6733  4247.4492   123.8278      .0349     2.4477     2.4405
