~VERSION INFORMATION
VERS.                                                 2.0:   CWLS Log ASCII Standard-VERSION 2.0
WRAP.                                                  NO:   One line per depth step
~Well Information Block
STRT.M                                          2880.7898:   Top Depth
STOP.M                                          3212.2598:   Bottom Depth
STEP.M                                             .07620:   Depth Increment
NULL.                                            -999.250:   Null Value
FLD .                                                 Q15:   Field Name
WELL.                                            15/12-19:   NAME
WBN .                                            15/12-19:   WELLBORE
NATI.                                                 NOR:   COUNTRY
APD .M                                       42.519996643:   ABOVE PERM DATUM
CTRY.                                                 NOR:   COUNTRY
COMP.                                     BG GROUP NORWAY:   OPERATOR
PDAT.                                      MEAN SEA LEVEL:   PERM DATUM
STAT.                         NORWEGIAN CONTINENTAL SHELF:   STATE
LATI.                            058 00' 13.644" N    DMS:   SURF. LATITUDE
LONG.                            001 55' 16.370" E    DMS:   SURF. LONGITUDE
PBWE.                                            15/12-19:   PB WELL ID
APIN.                                            15/12-19:   PB WELLBORE ID
PBWS.                                                 ALL:   PB WELL NAME SET
~PARAMETER INFORMATION (log)
LNAM.                                 WLC_PETRO_COMPOSITE:   NAME
LTYP.                                                PAP.:   LOG TYPE
LSRV.                                          WL.PET.LOG:   LOG SERVICE
LSOU.                                            BG NORGE:   LOG SOURCE
LVSN.                                                   4:   LOG VERSION
BHIS.                                                   R:   BRIEF HISTORY
R1  .                                    DATA CONSISTS OF:   COMMENT  1
R2  .                                  EWL ZDL-CN, RUN 1B:   COMMENT  2
EDF .M                                       42.519996643:   ELEV DRILL FLOOR
ELZ .M                                       42.519996643:   ELEVATION LOG ZERO
FHIS.                                             RAW-LIS:   FULL HISTORY
EKB .M                                       42.519996643:   KB ELEVATION
LMF .                                                  DF:   LOGS MEAS FROM
EPD .M                                                0.0:   ELEV PERM DATUM
EGL .M                                                0.0:   GROUND LEVEL
QCRM.                   WAITING FOR OPERATOR CONFIRMATION:   QC COMMENT
QCCO.                                             UNKNOWN:   QC COMPANY
~Curve Information Block
#MNEM.UNIT                                        API CODE    No Description
#=========                                        ========    == ===========
DEPT.M                                       00 001 00 00:     1  DEPTH
CALX.IN                                                  :     2  Caliper
CHT.LB                                                   :     3  Cable Tension
CN.V/V                                                   :     4  Neutron Porosity
CNCF.V/V                                                 :     5  Neutron Porosity
GR.GAPI                                                  :     6  Gamma Ray
PE.B/E                                                   :     7  Photoelectic Factor
SPD.M/MN                                                 :     8  Cable Speed
TTEN.LB                                                  :     9  Cable Tension
WTBH.DEGC                                                :    10  Temperature
ZCOR.G/CC                                                :    11  Density Correction
ZDEN.G/CC                                                :    12  Bulk Density
ZDNC.G/CC                                                :    13  Bulk Density
~ASCII
# ...
 3060.0122     8.8484  1510.4861      .0537      .0498    23.5839     3.7617     9.7849  4165.9268   122.1401      .0437     2.5814     2.5738
 3060.0884     8.8722  1518.9980      .0521      .0482    25.7140     3.6634     9.7831  4160.2500   122.2875      .0492     2.6192     2.6115
 3060.1646     8.8758  1522.6379      .0550      .0510    28.0008     3.3821     9.7788  4152.0947   122.2591      .0501     2.6464     2.6387
 3060.2408     8.8566  1517.4097      .0606      .0565    29.1364     3.0832     9.7752  4140.3848   122.1600      .0467     2.6598     2.6521
 3060.3170     8.8266  1505.9272      .0659      .0617    29.7289     2.9376     9.7718  4127.1816   122.1050      .0416     2.6621     2.6544
 3060.3932     8.8033  1495.0054      .0705      .0663    32.4595     3.0059     9.7789  4115.9922   122.1185      .0369     2.6566     2.6489
 3060.4694     8.8038  1487.7007      .0768      .0724    38.0174     3.2186     9.7839  4110.9971   122.1366      .0328     2.6444     2.6367
 3060.5456     8.8272  1482.6814      .0874      .0826    44.8409     3.4166     9.7722  4112.6289   122.1110      .0290     2.6256     2.6179
 3060.6218     8.8460  1478.5696      .1039      .0985    50.6523     3.4604     9.7414  4116.8516   122.0264      .0250     2.6021     2.5944
 3060.6980     8.8431  1477.9504      .1219      .1159    54.1498     3.3513     9.7083  4123.5947   121.9934      .0215     2.5774     2.5698
 3060.7742     8.8223  1483.7820      .1337      .1275    55.6822     3.2154     9.6943  4135.3350   122.0154      .0198     2.5557     2.5482
 3060.8504     8.7994  1494.4224      .1383      .1321    56.3726     3.1551     9.7101  4151.2061   122.0231      .0205     2.5394     2.5319
 3060.9266     8.7868  1506.2668      .1417      .1355    56.4835     3.1609     9.7329  4165.6953   121.8797      .0232     2.5279     2.5204
 3061.0028     8.7860  1515.9214      .1474      .1410    55.1607     3.1672     9.7426  4173.7920   121.6518      .0268     2.5177     2.5103
 3061.0790     8.7888  1522.8091      .1551      .1485    52.7354     3.1562     9.7354  4173.7891   121.6749      .0299     2.5059     2.4985
 3061.1552     8.7865  1528.3496      .1630      .1561    49.7805     3.1621     9.7215  4166.8154   121.9556      .0320     2.4909     2.4836
 3061.2314     8.7876  1532.3474      .1694      .1624    46.1922     3.1800     9.7175  4158.5518   122.2447      .0328     2.4726     2.4653
 3061.3076     8.7965  1534.4387      .1752      .1680    42.2252     3.1347     9.7362  4155.1338   122.2434      .0323     2.4518     2.4445
 3061.3838     8.8112  1535.4487      .1770      .1696    38.5843     2.9656     9.7772  4158.2354   121.9501      .0307     2.4306     2.4234
 3061.4600     8.8250  1536.2119      .1682      .1610    36.6491     2.7200     9.8147  4166.4111   121.6991      .0287     2.4117     2.4046
 3061.5362     8.8274  1537.3848      .1514      .1446    36.8324     2.5188     9.8342  4175.3105   121.7098      .0267     2.3979     2.3909
 3061.6124     8.8181  1538.8997      .1344      .1282    37.5874     2.4567     9.8355  4181.5410   121.9607      .0251     2.3923     2.3853
 3061.6886     8.8026  1539.9314      .1187      .1131    36.9831     2.5723     9.8332  4183.7178   122.1890      .0245     2.3990     2.3920
 3061.7648     8.7927  1539.3088      .0999      .0949    34.5269     2.8680     9.8359  4179.2168   122.2415      .0263     2.4232     2.4160
 3061.8410     8.7908  1536.1685      .0792      .0748    31.2421     3.2982     9.8354  4167.7051   122.1575      .0317     2.4675     2.4602
 3061.9172     8.7940  1529.0535      .0622      .0582    28.2873     3.7238     9.8137  4151.5205   122.1460      .0398     2.5272     2.5197
 3061.9934     8.7992  1517.9390      .0507      .0471    26.5122     3.9666     9.7827  4135.0215   122.1759      .0466     2.5875     2.5799
 3062.0696     8.8089  1505.1328      .0445      .0410    25.9941     3.9835     9.7678  4121.5000   122.0756      .0474     2.6309     2.6233
 3062.1458     8.8288  1492.7927      .0417      .0383    26.7700     3.8858     9.7776  4111.7432   121.7321      .0412     2.6504     2.6427
 3062.2220     8.8493  1483.0911      .0408      .0373    28.3956     3.7964     9.7972  4103.1035   121.1461      .0320     2.6536     2.6459
 3062.2982     8.8614  1476.6501      .0412      .0377    30.0876     3.7673     9.8093  4094.8350   120.7989      .0246     2.6525     2.6448
 3062.3744     8.8567  1473.2478      .0435      .0399    31.9390     3.7931     9.8096  4091.2520   120.9599      .0206     2.6526     2.6449
 3062.4506     8.8425  1473.3718      .0488      .0451    33.7848     3.8566     9.8048  4096.8213   121.4478      .0190     2.6537     2.6460
 3062.5268     8.8326  1477.7075      .0560      .0521    34.8866     3.9458     9.8010  4115.0117   121.7760      .0184     2.6552     2.6475
 3062.6030     8.8370  1486.3101      .0622      .0582    34.1156     4.0426     9.7940  4141.2773   121.8028      .0182     2.6575     2.6498
 3062.6792     8.8505  1500.5249      .0641      .0599    31.1349     4.1286     9.7875  4165.8682   121.6951      .0182     2.6608     2.6531
 3062.7554     8.8645  1520.1016      .0621      .0579    27.2617     4.2143     9.7823  4181.7959   121.7342      .0180     2.6634     2.6557
 3062.8316     8.8742  1539.3616      .0601      .0559    24.4090     4.3402     9.7715  4187.6270   121.8878      .0173     2.6636     2.6558
 3062.9078     8.8657  1552.1877      .0591      .0550    23.1716     4.5188     9.7530  4185.6406   121.7725      .0164     2.6601     2.6523
 3062.9840     8.8462  1555.9121      .0593      .0552    22.7069     4.6853     9.7471  4180.4775   121.5798      .0162     2.6540     2.6463
 3063.0602     8.8305  1553.4714      .0607      .0567    22.5141     4.7419     9.7564  4176.8311   121.4147      .0180     2.6482     2.6405
 3063.1364     8.8250  1549.4124      .0639      .0598    22.9710     4.6663     9.7736  4174.7344   121.2478      .0222     2.6450     2.6373
 3063.2126     8.8251  1546.2483      .0692      .0650    24.2100     4.5410     9.7836  4174.4199   121.0798      .0281     2.6433     2.6356
 3063.2888     8.8212  1543.1824      .0760      .0715    25.4763     4.4529     9.7803  4174.9912   121.0260      .0335     2.6384     2.6307
 3063.3650     8.8163  1540.5544      .0829      .0782    26.1924     4.4068     9.7737  4174.5049   121.1301      .0361     2.6264     2.6188
 3063.4412     8.8178  1540.2024      .0898      .0849    26.5648     4.3533     9.7743  4174.3320   121.2796      .0357     2.6093     2.6016
 3063.5174     8.8267  1540.7627      .0980      .0928    27.0167     4.2669     9.7841  4176.6592   121.3516      .0338     2.5937     2.5861
 3063.5936     8.8323  1541.5510      .1065      .1011    27.4354     4.1723     9.7935  4183.1445   121.3061      .0323     2.5855     2.5779
 3063.6698     8.8286  1543.6265      .1127      .1071    27.9324     4.0894     9.8025  4190.6904   121.3776      .0315     2.5845     2.5769
 3063.7460     8.8217  1547.9961      .1135      .1080    29.0724     3.9839     9.8014  4194.1055   121.5404      .0306     2.5856     2.5780
 3063.8222     8.8175  1552.2161      .1098      .1044    30.8764     3.8084     9.7878  4192.8447   121.6521      .0284     2.5834     2.5758
 3063.8984     8.8172  1552.3608      .1060      .1006    32.3319     3.5762     9.7711  4191.2969   121.7312      .0255     2.5768     2.5692
 3063.9746     8.8231  1548.7715      .1046      .0992    32.6027     3.3636     9.7643  4192.8447   121.7144      .0238     2.5696     2.5620
 3064.0508     8.8453  1545.6147      .1041      .0987    32.9287     3.2452     9.7555  4194.1055   121.5560      .0247     2.5657     2.5581
 3064.1270     8.8815  1545.8389      .1030      .0975    34.8420     3.2310     9.7382  4190.6904   121.4321      .0281     2.5659     2.5583
 3064.2032     8.9035  1547.6479      .1013      .0957    38.0741     3.2614     9.7117  4183.1445   121.5156      .0328     2.5678     2.5602
