~VERSION INFORMATION
VERS.                                                 2.0:   CWLS Log ASCII Standard-VERSION 2.0
WRAP.                                                  NO:   One line per depth step
~Well Information Block
STRT.M                                          2880.7898:   Top Depth
STOP.M                                          3212.2598:   Bottom Depth
STEP.M                                             .07620:   Depth Increment
NULL.                                            -999.250:   Null Value
FLD .                                                 Q15:   Field Name
WELL.                                            15/12-19:   NAME
WBN .                                            15/12-19:   WELLBORE
NATI.                                                 NOR:   COUNTRY
APD .M                                       42.519996643:   ABOVE PERM DATUM
CTRY.                                                 NOR:   COUNTRY
COMP.                                     BG GROUP NORWAY:   OPERATOR
PDAT.                                      MEAN SEA LEVEL:   PERM DATUM
STAT.                         NORWEGIAN CONTINENTAL SHELF:   STATE
LATI.                            058 00' 13.644" N    DMS:   SURF. LATITUDE
LONG.                            001 55' 16.370" E    DMS:   SURF. LONGITUDE
PBWE.                                            15/12-19:   PB WELL ID
APIN.                                            15/12-19:   PB WELLBORE ID
PBWS.                                                 ALL:   PB WELL NAME SET
~PARAMETER INFORMATION (log)
LNAM.                                 WLC_PETRO_COMPOSITE:   NAME
LTYP.                                                PAP.:   LOG TYPE
LSRV.                                          WL.PET.LOG:   LOG SERVICE
LSOU.                                            BG NORGE:   LOG SOURCE
LVSN.                                                   4:   LOG VERSION
BHIS.                                                   R:   BRIEF HISTORY
R1  .                                    DATA CONSISTS OF:   COMMENT  1
R2  .                                  EWL ZDL-CN, RUN 1B:   COMMENT  2
EDF .M                                       42.519996643:   ELEV DRILL FLOOR
ELZ .M                                       42.519996643:   ELEVATION LOG ZERO
FHIS.                                             RAW-LIS:   FULL HISTORY
EKB .M                                       42.519996643:   KB ELEVATION
LMF .                                                  DF:   LOGS MEAS FROM
EPD .M                                                0.0:   ELEV PERM DATUM
EGL .M                                                0.0:   GROUND LEVEL
QCRM.                   WAITING FOR OPERATOR CONFIRMATION:   QC COMMENT
QCCO.                                             UNKNOWN:   QC COMPANY
~Curve Information Block
#MNEM.UNIT                                        API CODE    No Description
#=========                                        ========    == ===========
DEPT.M                                       00 001 00 00:     1  DEPTH
CALX.IN                                                  :     2  Caliper
CHT.LB                                                   :     3  Cable Tension
CN.V/V                                                   :     4  Neutron Porosity
CNCF.V/V                                                 :     5  Neutron Porosity
GR.GAPI                                                  :     6  Gamma Ray
PE.B/E                                                   :     7  Photoelectic Factor
SPD.M/MN                                                 :     8  Cable Speed
TTEN.LB                                                  :     9  Cable Tension
WTBH.DEGC                                                :    10  Temperature
ZCOR.G/CC                                                :    11  Density Correction
ZDEN.G/CC                                                :    12  Bulk Density
ZDNC.G/CC                                                :    13  Bulk Density
~ASCII
# ...
 3205.0970     8.7698  1477.7131      .2191      .2108    73.2478     4.4229     5.1177  4237.8154  -999.2500      .0063     2.3711     2.3642
 3205.1732     8.7714  1478.4868      .2113      .2032    74.0453     4.4246     5.1132  4239.6758  -999.2500      .0038     2.3570     2.3502
 3205.2494     8.7790  1480.9780      .2083      .2002    74.8953     4.5394     5.1175  4243.2637  -999.2500      .0053     2.3601     2.3533
 3205.3256     8.7889  1483.0737      .2108      .2026    75.3550     4.7448     5.1279  4245.7627  -999.2500      .0102     2.3798     2.3729
 3205.4018     8.7927  1482.3884      .2143      .2060    74.4933     4.9604     5.1395  4246.3936  -999.2500      .0165     2.4103     2.4032
 3205.4780     8.7852  1478.8970      .2137      .2055    73.2287     5.0727     5.1463  4246.1641  -999.2500      .0221     2.4427     2.4355
 3205.5542     8.7726  1474.5857      .2076      .1996    72.5065     5.0005     5.1476  4243.4365  -999.2500      .0260     2.4684     2.4611
 3205.6304     8.7694  1471.8340      .2026      .1948    72.2966     4.7503     5.1432  4237.2646  -999.2500      .0282     2.4821     2.4748
 3205.7066     8.7819  1471.2534      .2036      .1957    72.4718     4.4040     5.1383  4231.9014  -999.2500      .0293     2.4838     2.4764
 3205.7828     8.7999  1472.4661      .2091      .2008    73.0223     4.0583     5.1392  4231.9014  -999.2500      .0298     2.4752     2.4679
 3205.8590     8.8157  1474.3325      .2135      .2050  -999.2500     3.7694     5.1440  4237.2646  -999.2500      .0291     2.4580     2.4507
 3205.9352     8.8239  1475.4155      .2144      .2059  -999.2500     3.5391     5.1452  4243.3516  -999.2500      .0275     2.4340     2.4268
 3206.0114     8.8200  1474.9409      .2156      .2071  -999.2500     3.3438     5.1409  4246.5654  -999.2500      .0259     2.4077     2.4006
 3206.0876     8.8012  1473.6414      .2184      .2099  -999.2500     3.1745     5.1314  4246.5654  -999.2500      .0249     2.3841     2.3771
 3206.1638     8.7813  1472.9563      .2219      .2135  -999.2500     3.0555     5.1242  4243.3516  -999.2500      .0242     2.3661     2.3593
 3206.2400     8.7827  1472.5898      .2203      .2119  -999.2500     3.0320     5.1237  4237.2646  -999.2500      .0226     2.3554     2.3486
 3206.3162     8.8051  1472.0173      .2135      .2051  -999.2500     3.1480     5.1270  4231.8164  -999.2500      .0205     2.3544     2.3476
 3206.3924     8.8267  1470.9875      .2089      .2004  -999.2500     3.4292     5.1286  4232.3027  -999.2500      .0192     2.3669     2.3600
 3206.4686     8.8298  1470.4312      .2087      .2002  -999.2500     3.8514     5.1265  4237.4375  -999.2500      .0206     2.3951     2.3881
 3206.5448     8.8256  1469.5222      .2096      .2011  -999.2500     4.2818     5.1242  4241.0244  -999.2500      .0248     2.4348     2.4276
 3206.6210     8.8290  1466.5486      .2095      .2010  -999.2500     4.5099     5.1231  4240.2500  -999.2500      .0292     2.4717     2.4644
 3206.6972     8.8315  1462.4033      .2118      .2033  -999.2500     4.4480     5.1228  4238.2168  -999.2500      .0297     2.4866     2.4792
 3206.7734     8.8204  1460.5059      .2176      .2089  -999.2500     4.1985     5.1223  4239.5908  -999.2500      .0248     2.4698     2.4625
 3206.8496     8.7940  1464.1428      .2232      .2146  -999.2500     3.9074     5.1202  4243.2637  -999.2500      .0179     2.4305     2.4233
 3206.9258     8.7659  1471.7344      .2231      .2148  -999.2500     3.6638     5.1127  4245.8477  -999.2500      .0136     2.3857     2.3787
 3207.0020     8.7467  1478.9114      .2194      .2113  -999.2500     3.4929     5.0980  4245.9922  -999.2500      .0133     2.3468     2.3400
 3207.0782     8.7364  1482.4998      .2179      .2100  -999.2500     3.3821     5.0774  4245.9922  -999.2500      .0157     2.3169     2.3104
 3207.1544     8.7328  1483.1313      .2227      .2147  -999.2500     3.3066     5.0637  4245.8477  -999.2500      .0189     2.2960     2.2896
 3207.2306     8.7295  1482.1299      .2305      .2223  -999.2500     3.2420     5.0615  4243.4336  -999.2500      .0214     2.2840     2.2776
 3207.3068     8.7212  1479.7854      .2325      .2244  -999.2500     3.1710     5.0709  4239.1279  -999.2500      .0228     2.2808     2.2744
 3207.3830     8.7110  1477.8264      .2285      .2205  -999.2500     3.0982     5.0771  4236.4365  -999.2500      .0232     2.2861     2.2797
 3207.4592     8.7133  1478.5627      .2207      .2129  -999.2500     3.0662     5.0693  4243.5801  -999.2500      .0232     2.2999     2.2934
 3207.5354     8.7327  1484.2961      .2141      .2063  -999.2500     3.1479     5.0517  4262.2383  -999.2500      .0242     2.3232     2.3166
 3207.6116     8.7542  1493.8713      .2104      .2026  -999.2500     3.4065     5.0344  4282.2070  -999.2500      .0275     2.3562     2.3495
 3207.6878     8.7620  1501.3933      .2071      .1992  -999.2500     3.8204     5.0340  4287.6563  -999.2500      .0333     2.3946     2.3876
 3207.7640     8.7612  1500.6572      .2034      .1957  -999.2500     4.2306     5.0503  4273.3711  -999.2500      .0390     2.4277     2.4205
 3207.8402     8.7644  1491.5259  -999.2500  -999.2500  -999.2500     4.4549     5.0724  4252.3916  -999.2500      .0406     2.4422     2.4350
 3207.9164     8.7683  1479.9119  -999.2500  -999.2500  -999.2500     4.4702     5.0878  4241.4023  -999.2500      .0360     2.4324     2.4252
 3207.9926     8.7660  1471.5623  -999.2500  -999.2500  -999.2500     4.3794     5.0952  4244.4678  -999.2500      .0277     2.4071     2.4000
 3208.0688     8.7592  1469.1819  -999.2500  -999.2500  -999.2500     4.2678     5.0977  4250.8926  -999.2500      .0212     2.3839     2.3769
 3208.1450     8.7616  1471.0012  -999.2500  -999.2500  -999.2500     4.1420     5.0982  4251.9316  -999.2500      .0201     2.3761     2.3692
 3208.2212     8.7843  1473.6611  -999.2500  -999.2500  -999.2500     3.9643     5.0928  4248.5732  -999.2500      .0240     2.3859     2.3790
 3208.2974     8.8194  1475.4932  -999.2500  -999.2500  -999.2500     3.7491     5.0822  4245.0166  -999.2500      .0292     2.4057     2.3986
 3208.3736     8.8524  1476.2246  -999.2500  -999.2500  -999.2500     3.6096     5.0696  4245.0166  -999.2500      .0323     2.4259     2.4188
 3208.4498     8.8830  1475.9731  -999.2500  -999.2500  -999.2500     3.6733     5.0599  4248.5732  -999.2500      .0325     2.4426     2.4354
 3208.5260     8.9155  1476.4456  -999.2500  -999.2500  -999.2500     3.9494     5.0549  4252.1016  -999.2500      .0317     2.4569     2.4496
 3208.6022     8.9337  1478.7949  -999.2500  -999.2500  -999.2500     4.2661     5.0551  4250.0889  -999.2500      .0316     2.4695     2.4621
 3208.6784     8.9352  1480.7690  -999.2500  -999.2500  -999.2500     4.4006     5.0576  4244.2080  -999.2500      .0320     2.4778     2.4704
 3208.7546     8.9380  1482.5715  -999.2500  -999.2500  -999.2500     4.3472     5.0534  4246.0791  -999.2500      .0315     2.4777     2.4703
 3208.8308     8.9573  1488.9114  -999.2500  -999.2500  -999.2500     4.3183     5.0387  4263.5225  -999.2500      .0288     2.4677     2.4603
 3208.9070     8.9924  1504.8269  -999.2500  -999.2500  -999.2500     4.5010     5.0156  4289.0020  -999.2500      .0242     2.4504     2.4431
 3208.9832     9.0182  1527.9895  -999.2500  -999.2500  -999.2500     4.9289     4.9940  4309.4668  -999.2500      .0191     2.4316     2.4243
 3209.0594     9.0313  1550.5059  -999.2500  -999.2500  -999.2500     5.4820     4.9790  4324.3955  -999.2500      .0152     2.4173     2.4101
 3209.1356     9.0339  1567.8499  -999.2500  -999.2500  -999.2500     5.9224     4.9687  4342.0479  -999.2500      .0133     2.4108     2.4036
 3209.2118     9.0064  1580.0891  -999.2500  -999.2500  -999.2500     6.0172     4.9509  4361.6123  -999.2500      .0129     2.4111     2.4039
 3209.2880     8.9340  1588.5293  -999.2500  -999.2500  -999.2500     5.7448     4.9325  4371.1113  -999.2500      .0130     2.4145     2.4074
