~VERSION INFORMATION
VERS.                                                 2.0:   CWLS Log ASCII Standard-VERSION 2.0
WRAP.                                                  NO:   One line per depth step
~Well Information Block
STRT.M                                          2880.7898:   Top Depth
STOP.M                                          3212.2598:   Bottom Depth
STEP.M                                             .07620:   Depth Increment
NULL.                                            -999.250:   Null Value
FLD .                                                 Q15:   Field Name
WELL.                                            15/12-19:   NAME
WBN .                                            15/12-19:   WELLBORE
NATI.                                                 NOR:   COUNTRY
APD .M                                       42.519996643:   ABOVE PERM DATUM
CTRY.                                                 NOR:   COUNTRY
COMP.                                     BG GROUP NORWAY:   OPERATOR
PDAT.                                      MEAN SEA LEVEL:   PERM DATUM
STAT.                         NORWEGIAN CONTINENTAL SHELF:   STATE
LATI.                            058 00' 13.644" N    DMS:   SURF. LATITUDE
LONG.                            001 55' 16.370" E    DMS:   SURF. LONGITUDE
PBWE.                                            15/12-19:   PB WELL ID
APIN.                                            15/12-19:   PB WELLBORE ID
PBWS.                                                 ALL:   PB WELL NAME SET
~PARAMETER INFORMATION (log)
LNAM.                                 WLC_PETRO_COMPOSITE:   NAME
LTYP.                                                PAP.:   LOG TYPE
LSRV.                                          WL.PET.LOG:   LOG SERVICE
LSOU.                                            BG NORGE:   LOG SOURCE
LVSN.                                                   4:   LOG VERSION
BHIS.                                                   R:   BRIEF HISTORY
R1  .                                    DATA CONSISTS OF:   COMMENT  1
R2  .                                  EWL ZDL-CN, RUN 1B:   COMMENT  2
EDF .M                                       42.519996643:   ELEV DRILL FLOOR
ELZ .M                                       42.519996643:   ELEVATION LOG ZERO
FHIS.                                             RAW-LIS:   FULL HISTORY
EKB .M                                       42.519996643:   KB ELEVATION
LMF .                                                  DF:   LOGS MEAS FROM
EPD .M                                                0.0:   ELEV PERM DATUM
EGL .M                                                0.0:   GROUND LEVEL
QCRM.                   WAITING FOR OPERATOR CONFIRMATION:   QC COMMENT
QCCO.                                             UNKNOWN:   QC COMPANY
~Curve Information Block
#MNEM.UNIT                                        API CODE    No Description
#=========                                        ========    == ===========
DEPT.M                                       00 001 00 00:     1  DEPTH
CALX.IN                                                  :     2  Caliper
CHT.LB                                                   :     3  Cable Tension
CN.V/V                                                   :     4  Neutron Porosity
CNCF.V/V                                                 :     5  Neutron Porosity
GR.GAPI                                                  :     6  Gamma Ray
PE.B/E                                                   :     7  Photoelectic Factor
SPD.M/MN                                                 :     8  Cable Speed
TTEN.LB                                                  :     9  Cable Tension
WTBH.DEGC                                                :    10  Temperature
ZCOR.G/CC                                                :    11  Density Correction
ZDEN.G/CC                                                :    12  Bulk Density
ZDNC.G/CC                                                :    13  Bulk Density
~ASCII
# ...
 3038.6762     8.9376  1511.3318      .2232      .2134    66.2741     2.7533     9.8984  4144.2588   122.4326      .0199     2.4759     2.4685
 3038.7524     8.9322  1507.2395      .2228      .2131    64.0879     2.7343     9.8948  4133.5850   122.3692      .0182     2.4635     2.4562
 3038.8286     8.9347  1504.2708      .2187      .2091    62.6161     2.7322     9.8992  4121.2705   122.3585      .0178     2.4609     2.4536
 3038.9048     8.9409  1502.1880      .2110      .2016    62.0354     2.7388     9.9187  4110.9121   122.4069      .0177     2.4661     2.4587
 3038.9810     8.9418  1500.3296      .2038      .1946    63.3351     2.7756     9.9566  4107.7520   122.4074      .0178     2.4768     2.4694
 3039.0572     8.9403  1499.6655      .2032      .1941    66.6599     2.8754    10.0091  4110.5361   122.3312      .0185     2.4918     2.4844
 3039.1334     8.9447  1502.2087      .2114      .2019    70.8033     3.0612    10.0613  4117.7969   122.3435      .0205     2.5085     2.5010
 3039.2096     8.9538  1509.0991      .2216      .2117    73.1631     3.3228    10.0935  4131.9180   122.5580      .0233     2.5206     2.5131
 3039.2858     8.9587  1517.0676      .2255      .2154    72.1683     3.6110    10.0914  4151.9268   122.9192      .0247     2.5196     2.5121
 3039.3620     8.9502  1525.9744      .2243      .2143    69.0190     3.8671    10.0632  4172.8115   123.1629      .0233     2.5016     2.4941
 3039.4382     8.9348  1537.9326      .2257      .2159    66.2582     4.0426    10.0266  4187.3086   123.0785      .0200     2.4714     2.4640
 3039.5144     8.9228  1550.6135      .2317      .2218    65.2165     4.0998    10.0008  4191.0137   122.6865      .0169     2.4380     2.4308
 3039.5906     8.9169  1558.3579      .2365      .2265    64.1952     4.0178     9.9891  4184.0342   122.2851      .0154     2.4082     2.4010
 3039.6668     8.9138  1556.3115      .2344      .2245    61.4438     3.8042     9.9858  4170.2324   122.2078      .0155     2.3844     2.3774
 3039.7430     8.9147  1546.2161      .2251      .2155    57.4733     3.5032     9.9793  4153.2988   122.4706      .0162     2.3669     2.3599
 3039.8192     8.9275  1532.8779      .2171      .2076    56.1239     3.2209     9.9786  4140.9590   122.6468      .0168     2.3571     2.3502
 3039.8954     8.9403  1519.5396      .2092      .1998    54.7746     2.9387     9.9778  4128.6182   122.8231      .0174     2.3473     2.3405
 3039.9716     8.9432  1507.0581      .2082      .1988    55.9572     2.7886     9.9937  4126.8662   122.5051      .0176     2.3440     2.3372
 3040.0478     8.9287  1498.6941      .2105      .2012    56.8867     2.7469    10.0040  4127.3545   122.0655      .0183     2.3470     2.3402
 3040.1240     8.9079  1497.0911      .2142      .2049    57.4158     2.8169     9.9969  4127.6709   121.8956      .0207     2.3606     2.3537
 3040.2002     8.9029  1499.0967      .2197      .2103    58.9621     3.0188     9.9825  4127.5010   122.0741      .0258     2.3890     2.3820
 3040.2764     8.9202  1501.6733      .2247      .2150    61.8069     3.3728     9.9713  4127.9023   122.3166      .0338     2.4329     2.4257
 3040.3526     8.9475  1503.0107      .2310      .2209    66.6695     3.8248     9.9701  4128.0752   122.5267      .0435     2.4875     2.4801
 3040.4288     8.9576  1502.1946      .2394      .2290    73.1464     4.1883     9.9684  4125.5791   122.7946      .0519     2.5429     2.5354
 3040.5050     8.9426  1498.9834      .2450      .2345    79.8847     4.2821     9.9668  4120.0664   122.9632      .0559     2.5876     2.5800
 3040.5812     8.9228  1492.9866      .2452      .2349    85.4869     4.1513     9.9708  4111.9775   122.9103      .0544     2.6151     2.6074
 3040.6574     8.9179  1485.3027      .2463      .2360    89.3475     4.0041     9.9908  4103.8809   122.6475      .0493     2.6274     2.6197
 3040.7336     8.9251  1478.4702      .2550      .2443    92.6161     3.9604    10.0108  4097.8223   122.2991      .0438     2.6294     2.6217
 3040.8098     8.9257  1474.8181      .2637      .2528    95.2465     3.9576    10.0265  4092.8320   122.0339      .0391     2.6222     2.6145
 3040.8860     8.9150  1475.1099      .2656      .2547    95.9516     3.8803    10.0320  4091.0776   121.9005      .0343     2.6031     2.5955
 3040.9622     8.9130  1478.4275      .2568      .2462    93.7816     3.7123    10.0200  4097.7119   121.8621      .0289     2.5730     2.5654
 3041.0384     8.9331  1483.4744      .2457      .2353    89.3410     3.5292     9.9979  4113.6680   121.9316      .0239     2.5390     2.5314
 3041.1146     8.9548  1490.3096      .2446      .2340    84.6797     3.3951     9.9729  4132.8623   122.2489      .0207     2.5096     2.5021
 3041.1908     8.9571  1501.7842      .2562      .2452    81.1720     3.3148     9.9550  4149.2842   122.6688      .0201     2.4900     2.4826
 3041.2670     8.9501  1517.7131      .2734      .2619    78.9090     3.2612     9.9437  4160.8213   122.9054      .0218     2.4803     2.4729
 3041.3432     8.9518  1532.7495      .2785      .2669    77.5535     3.2182     9.9393  4167.9365   122.8812      .0249     2.4777     2.4704
 3041.4194     8.9695  1541.4146      .2677      .2563    77.1988     3.1904     9.9317  4170.8066   122.6819      .0286     2.4788     2.4714
 3041.4956     8.9933  1543.1213      .2528      .2416    76.9635     3.1855     9.9234  4167.3887   122.3501      .0321     2.4803     2.4729
 3041.5718     9.0005  1541.9985      .2453      .2342    75.0609     3.1982     9.9226  4159.4414   122.0156      .0344     2.4798     2.4724
 3041.6480     8.9830  1540.4883      .2491      .2381    71.9278     3.2174     9.9299  4153.0410   121.9018      .0352     2.4756     2.4682
 3041.7242     8.9602  1537.6641      .2588      .2477    69.3624     3.2492     9.9391  4150.7998   122.0728      .0347     2.4673     2.4600
 3041.8004     8.9509  1531.6855      .2632      .2521    68.5910     3.3174     9.9399  4150.5713   122.4312      .0333     2.4555     2.4482
 3041.8766     8.9551  1524.6814      .2574      .2464    69.4563     3.4301     9.9164  4150.7148   122.8004      .0312     2.4410     2.4338
 3041.9528     8.9618  1520.8208      .2446      .2339    70.4579     3.5495     9.8784  4153.3574   122.8430      .0284     2.4251     2.4179
 3042.0290     8.9547  1521.2603      .2325      .2223    70.3195     3.6083     9.8414  4159.9307   122.4786      .0253     2.4095     2.4023
 3042.1052     8.9343  1523.7424      .2258      .2160    69.6948     3.5676     9.8252  4165.4668   122.1501      .0230     2.3955     2.3885
 3042.1814     8.9183  1525.3945      .2243      .2146    68.5332     3.4459     9.8367  4162.9697   122.0695      .0220     2.3845     2.3775
 3042.2576     8.9167  1525.3286      .2226      .2130    66.4559     3.2866     9.8628  4152.0098   122.1529      .0226     2.3776     2.3706
 3042.3338     8.9190  1523.8774      .2185      .2090    64.7292     3.1173     9.8926  4138.2354   122.2774      .0237     2.3765     2.3695
 3042.4100     8.9191  1520.6084      .2177      .2082    64.5220     2.9567     9.9157  4127.0977   122.4465      .0245     2.3833     2.3762
 3042.4862     8.9281  1514.2651      .2204      .2108    66.0238     2.8480     9.9428  4118.6279   122.6685      .0253     2.3998     2.3927
 3042.5624     8.9513  1506.7686      .2248      .2148    68.3313     2.8602     9.9708  4110.8525   122.9015      .0273     2.4270     2.4198
 3042.6386     8.9771  1501.1980      .2244      .2142    71.4468     3.0396     9.9959  4107.3242   123.0862      .0313     2.4627     2.4554
 3042.7148     8.9839  1498.2136      .2187      .2087    75.1264     3.3365    10.0118  4113.5547   123.0990      .0361     2.4999     2.4924
 3042.7910     8.9634  1496.4932      .2146      .2049    78.8290     3.5935    10.0173  4128.1602   123.0326      .0389     2.5275     2.5200
 3042.8672     8.9320  1496.3164      .2159      .2064    80.6265     3.6708    10.0110  4139.6953   122.9345      .0370     2.5366     2.5290
