~VERSION INFORMATION
VERS.                                                 2.0:   CWLS Log ASCII Standard-VERSION 2.0
WRAP.                                                  NO:   One line per depth step
~Well Information Block
STRT.M                                          2880.7898:   Top Depth
STOP.M                                          3212.2598:   Bottom Depth
STEP.M                                             .07620:   Depth Increment
NULL.                                            -999.250:   Null Value
FLD .                                                 Q15:   Field Name
WELL.                                            15/12-19:   NAME
WBN .                                            15/12-19:   WELLBORE
NATI.                                                 NOR:   COUNTRY
APD .M                                       42.519996643:   ABOVE PERM DATUM
CTRY.                                                 NOR:   COUNTRY
COMP.                                     BG GROUP NORWAY:   OPERATOR
PDAT.                                      MEAN SEA LEVEL:   PERM DATUM
STAT.                         NORWEGIAN CONTINENTAL SHELF:   STATE
LATI.                            058 00' 13.644" N    DMS:   SURF. LATITUDE
LONG.                            001 55' 16.370" E    DMS:   SURF. LONGITUDE
PBWE.                                            15/12-19:   PB WELL ID
APIN.                                            15/12-19:   PB WELLBORE ID
PBWS.                                                 ALL:   PB WELL NAME SET
~PARAMETER INFORMATION (log)
LNAM.                                 WLC_PETRO_COMPOSITE:   NAME
LTYP.                                                PAP.:   LOG TYPE
LSRV.                                          WL.PET.LOG:   LOG SERVICE
LSOU.                                            BG NORGE:   LOG SOURCE
LVSN.                                                   4:   LOG VERSION
BHIS.                                                   R:   BRIEF HISTORY
R1  .                                    DATA CONSISTS OF:   COMMENT  1
R2  .                                  EWL ZDL-CN, RUN 1B:   COMMENT  2
EDF .M                                       42.519996643:   ELEV DRILL FLOOR
ELZ .M                                       42.519996643:   ELEVATION LOG ZERO
FHIS.                                             RAW-LIS:   FULL HISTORY
EKB .M                                       42.519996643:   KB ELEVATION
LMF .                                                  DF:   LOGS MEAS FROM
EPD .M                                                0.0:   ELEV PERM DATUM
EGL .M                                                0.0:   GROUND LEVEL
QCRM.                   WAITING FOR OPERATOR CONFIRMATION:   QC COMMENT
QCCO.                                             UNKNOWN:   QC COMPANY
~Curve Information Block
#MNEM.UNIT                                        API CODE    No Description
#=========                                        ========    == ===========
DEPT.M                                       00 001 00 00:     1  DEPTH
CALX.IN                                                  :     2  Caliper
CHT.LB                                                   :     3  Cable Tension
CN.V/V                                                   :     4  Neutron Porosity
CNCF.V/V                                                 :     5  Neutron Porosity
GR.GAPI                                                  :     6  Gamma Ray
PE.B/E                                                   :     7  Photoelectic Factor
SPD.M/MN                                                 :     8  Cable Speed
TTEN.LB                                                  :     9  Cable Tension
WTBH.DEGC                                                :    10  Temperature
ZCOR.G/CC                                                :    11  Density Correction
ZDEN.G/CC                                                :    12  Bulk Density
ZDNC.G/CC                                                :    13  Bulk Density
~ASCII
# ...
 3183.7610     8.9130  1483.8455      .2182      .2088    53.5916     4.6861    10.1447  4263.7803   122.8215      .0218     2.3374     2.3306
 3183.8372     8.9152  1475.4617      .2096      .2004    53.7673     4.8933    10.1582  4261.6904   122.8234      .0223     2.3518     2.3450
 3183.9134     8.9119  1471.6807      .2076      .1985    53.3685     4.8603    10.1724  4260.8828   122.8977      .0217     2.3614     2.3545
 3183.9896     8.9156  1473.9866      .2111      .2019    52.7890     4.6364    10.1762  4260.8828   123.0209      .0190     2.3624     2.3555
 3184.0658     8.9284  1479.0149      .2114      .2020    51.3479     4.3691    10.1676  4261.7754   122.9500      .0151     2.3571     2.3502
 3184.1420     8.9397  1483.0205      .2078      .1985    49.0657     4.1537    10.1571  4263.2939   122.6434      .0123     2.3520     2.3451
 3184.2182     8.9366  1485.4900      .2057      .1964    47.6563     3.9832    10.1519  4266.5391   122.2892      .0119     2.3511     2.3442
 3184.2944     8.9200  1486.3628      .2070      .1979    47.4566     3.8160    10.1443  4272.2773   122.1903      .0134     2.3536     2.3467
 3184.3706     8.9065  1486.3845      .2099      .2007    48.1595     3.6645    10.1280  4275.8652   122.2506      .0153     2.3562     2.3493
 3184.4468     8.9034  1487.0662      .2115      .2023    49.4134     3.5953    10.0994  4274.5713   122.2736      .0166     2.3571     2.3503
 3184.5230     8.9126  1490.0188      .2131      .2038    50.7630     3.6516    10.0722  4269.2920   122.3030      .0174     2.3569     2.3500
 3184.5992     8.9210  1494.1921      .2172      .2077    51.4082     3.8054    10.0601  4263.9287   122.4216      .0182     2.3563     2.3494
 3184.6754     8.9135  1497.2290      .2260      .2163    50.3661     3.9752    10.0678  4263.0361   122.5503      .0191     2.3548     2.3480
 3184.7516     8.8978  1498.4453      .2328      .2230    47.9232     4.0839    10.0870  4266.7959   122.4078      .0197     2.3513     2.3445
 3184.8278     8.8829  1498.3625      .2307      .2212    45.3922     4.1078    10.1067  4270.0391   122.0060      .0197     2.3448     2.3380
 3184.9040     8.8727  1497.5022      .2253      .2160    44.2150     4.0687    10.0999  4267.7715   121.7805      .0193     2.3358     2.3290
 3184.9802     8.8633  1494.9102      .2232      .2140    44.8003     3.9986    10.0609  4261.2861   122.0562      .0196     2.3266     2.3199
 3185.0564     8.8508  1490.0071      .2248      .2157    45.9307     3.9275    10.0122  4253.6816   122.6460      .0214     2.3206     2.3140
 3185.1326     8.8382  1484.7434      .2239      .2149    46.1084     3.8774     9.9892  4247.3662   123.0550      .0250     2.3196     2.3130
 3185.2088     8.8334  1481.5164      .2203      .2115    44.9400     3.8366    10.0120  4244.3809   123.1315      .0295     2.3226     2.3159
 3185.2850     8.8342  1479.8396      .2205      .2117    43.8473     3.7581    10.0596  4246.7920   123.1097      .0336     2.3267     2.3200
 3185.3612     8.8220  1478.1323      .2262      .2173    44.2060     3.6172    10.1025  4255.6895   123.1709      .0365     2.3299     2.3232
 3185.4374     8.7936  1478.8701      .2286      .2199    45.0186     3.4537    10.1183  4268.8906   123.1797      .0383     2.3328     2.3262
 3185.5136     8.7633  1484.3525      .2182      .2100    44.5628     3.3382    10.1084  4282.8086   122.9671      .0400     2.3391     2.3324
 3185.5898     8.7537  1492.1047      .2003      .1927    43.1811     3.3125    10.0831  4294.1201   122.6592      .0430     2.3540     2.3472
 3185.6660     8.7752  1497.6516      .1889      .1814    43.0552     3.3583    10.0637  4300.5205   122.4358      .0488     2.3826     2.3756
 3185.7422     8.8057  1498.5701      .1913      .1835    45.2182     3.4063    10.0737  4299.0586   122.3722      .0581     2.4251     2.4180
 3185.8184     8.8230  1494.8550      .2028      .1946    47.8379     3.4015    10.1133  4290.3926   122.4748      .0684     2.4733     2.4659
 3185.8946     8.8309  1485.2920      .2169      .2082    49.1315     3.3634    10.1518  4274.6963   122.6967      .0753     2.5123     2.5048
 3185.9708     8.8420  1469.0408      .2312      .2220    50.0845     3.3454    10.1750  4247.1982   122.9736      .0756     2.5320     2.5245
 3186.0470     8.8528  1449.4207      .2400      .2305    53.0633     3.3642    10.1932  4203.6211   123.2209      .0706     2.5347     2.5272
 3186.1232     8.8545  1430.1211      .2373      .2278    58.1289     3.3901    10.2519  4146.0010   123.3456      .0645     2.5303     2.5228
 3186.1994     8.8475  1414.4211      .2233      .2142    62.6439     3.3887    10.4392  4099.2070   123.4193      .0599     2.5256     2.5181
 3186.2756     8.8433  1406.4338      .2078      .1992    64.4516     3.3562    10.4969  4087.7075   123.4643      .0572     2.5218     2.5143
 3186.3518     8.8491  1405.9832      .2004      .1920    64.1605     3.3116     9.9205  4131.6738   123.4556      .0554     2.5175     2.5100
 3186.4280     8.8503  1434.4685      .2007      .1923    63.3742     3.2764     8.6614  4239.2373   123.4583      .0531     2.5105     2.5031
 3186.5042     8.8352  1523.3193      .1996      .1914    62.9953     3.2781     7.3308  4384.8740   123.5390      .0489     2.4985     2.4910
 3186.5804     8.8160  1665.9614      .1911      .1833    62.4826     3.3577     6.6866  4517.2041   123.5691      .0424     2.4813     2.4740
 3186.6566     8.8074  1808.4231      .1804      .1730    61.1991     3.5466     6.9175  4586.1260   123.4104      .0349     2.4629     2.4557
 3186.7328     8.8035  1887.0227      .1724      .1652    59.4731     3.8287     7.6127  4587.3135   123.1061      .0286     2.4491     2.4419
 3186.8090     8.8022  1884.3677      .1714      .1642    57.0296     4.1345     8.2616  4549.8271   122.8228      .0248     2.4435     2.4363
 3186.8852     8.8115  1835.9209      .1799      .1724    55.1349     4.3989     8.7631  4510.9687   122.7225      .0234     2.4459     2.4387
 3186.9614     8.8312  1786.4053      .1922      .1842    54.5004     4.6050     9.1959  4482.5713   122.7021      .0233     2.4531     2.4458
 3187.0376     8.8522  1741.2583      .2005      .1921    55.2348     4.7209     9.4698  4451.8682   122.6432      .0234     2.4603     2.4530
 3187.1138     8.8546  1690.9651      .2007      .1922    56.8049     4.6527     9.5831  4414.3535   122.5666      .0232     2.4639     2.4566
 3187.1900     8.8279  1648.3613      .1958      .1877    58.1541     4.3529     9.6219  4370.8184   122.6319      .0227     2.4621     2.4548
 3187.2662     8.7835  1621.9421      .1939      .1862    59.4777     3.9350     9.6607  4326.3135   122.8472      .0220     2.4550     2.4478
 3187.3424     8.7419  1603.6748      .1962      .1888    60.5574     3.5784     9.7053  4289.0586   123.0920      .0212     2.4438     2.4366
 3187.4186     8.7109  1579.1863      .1988      .1916    61.8179     3.3696     9.7375  4268.5391   123.1992      .0203     2.4304     2.4233
 3187.4948     8.6960  1543.6643      .2027      .1955    61.6393     3.2902     9.7615  4264.3545   123.1206      .0200     2.4176     2.4106
 3187.5710     8.7009  1511.4055      .2088      .2014    58.8176     3.2930     9.7746  4268.9717   123.0630      .0204     2.4078     2.4008
 3187.6472     8.7181  1495.1077      .2101      .2026    53.9350     3.3454     9.7716  4276.6660   123.0459      .0211     2.4010     2.3940
 3187.7234     8.7342  1492.6741      .2017      .1942    48.8580     3.4180     9.7440  4281.7793   123.0237      .0210     2.3951     2.3881
 3187.7996     8.7421  1493.8105      .1883      .1811    45.6038     3.4652     9.7095  4280.7705   122.9700      .0195     2.3882     2.3813
 3187.8758     8.7411  1493.7693      .1792      .1723    44.6418     3.4447     9.6911  4273.2842   122.9096      .0173     2.3809     2.3740
 3187.9520     8.7304  1491.8652      .1798      .1729    46.3204     3.3542     9.6952  4261.0547   122.8606      .0155     2.3753     2.3684
