~VERSION INFORMATION
VERS.                                                 2.0:   CWLS Log ASCII Standard-VERSION 2.0
WRAP.                                                  NO:   One line per depth step
~Well Information Block
STRT.M                                          2880.7898:   Top Depth
STOP.M                                          3212.2598:   Bottom Depth
STEP.M                                             .07620:   Depth Increment
NULL.                                            -999.250:   Null Value
FLD .                                                 Q15:   Field Name
WELL.                                            15/12-19:   NAME
WBN .                                            15/12-19:   WELLBORE
NATI.                                                 NOR:   COUNTRY
APD .M                                       42.519996643:   ABOVE PERM DATUM
CTRY.                                                 NOR:   COUNTRY
COMP.                                     BG GROUP NORWAY:   OPERATOR
PDAT.                                      MEAN SEA LEVEL:   PERM DATUM
STAT.                         NORWEGIAN CONTINENTAL SHELF:   STATE
LATI.                            058 00' 13.644" N    DMS:   SURF. LATITUDE
LONG.                            001 55' 16.370" E    DMS:   SURF. LONGITUDE
PBWE.                                            15/12-19:   PB WELL ID
APIN.                                            15/12-19:   PB WELLBORE ID
PBWS.                                                 ALL:   PB WELL NAME SET
~PARAMETER INFORMATION (log)
LNAM.                                 WLC_PETRO_COMPOSITE:   NAME
LTYP.                                                PAP.:   LOG TYPE
LSRV.                                          WL.PET.LOG:   LOG SERVICE
LSOU.                                            BG NORGE:   LOG SOURCE
LVSN.                                                   4:   LOG VERSION
BHIS.                                                   R:   BRIEF HISTORY
R1  .                                    DATA CONSISTS OF:   COMMENT  1
R2  .                                  EWL ZDL-CN, RUN 1B:   COMMENT  2
EDF .M                                       42.519996643:   ELEV DRILL FLOOR
ELZ .M                                       42.519996643:   ELEVATION LOG ZERO
FHIS.                                             RAW-LIS:   FULL HISTORY
EKB .M                                       42.519996643:   KB ELEVATION
LMF .                                                  DF:   LOGS MEAS FROM
EPD .M                                                0.0:   ELEV PERM DATUM
EGL .M                                                0.0:   GROUND LEVEL
QCRM.                   WAITING FOR OPERATOR CONFIRMATION:   QC COMMENT
QCCO.                                             UNKNOWN:   QC COMPANY
~Curve Information Block
#MNEM.UNIT                                        API CODE    No Description
#=========                                        ========    == ===========
DEPT.M                                       00 001 00 00:     1  DEPTH
CALX.IN                                                  :     2  Caliper
CHT.LB                                                   :     3  Cable Tension
CN.V/V                                                   :     4  Neutron Porosity
CNCF.V/V                                                 :     5  Neutron Porosity
GR.GAPI                                                  :     6  Gamma Ray
PE.B/E                                                   :     7  Photoelectic Factor
SPD.M/MN                                                 :     8  Cable Speed
TTEN.LB                                                  :     9  Cable Tension
WTBH.DEGC                                                :    10  Temperature
ZCOR.G/CC                                                :    11  Density Correction
ZDEN.G/CC                                                :    12  Bulk Density
ZDNC.G/CC                                                :    13  Bulk Density
~ASCII
# ...
 2974.6682     8.7499  1508.6621      .1747      .1678    47.2801     2.6281     9.9088  4046.8320   120.7045      .0297     2.4002     2.3932
 2974.7444     8.7479  1504.3186      .1799      .1729    48.7553     2.8042     9.9075  4036.7876   120.6119      .0312     2.4194     2.4123
 2974.8206     8.7502  1501.0759      .1780      .1710    49.9305     2.9593     9.8775  4023.4409   120.5629      .0314     2.4310     2.4238
 2974.8968     8.7612  1498.1333      .1709      .1640    51.1002     3.0433     9.8342  4016.6743   120.5584      .0296     2.4357     2.4286
 2974.9730     8.7687  1497.2502      .1688      .1620    52.5582     3.0380     9.8052  4020.3115   120.6606      .0261     2.4382     2.4311
 2975.0492     8.7657  1498.6277      .1758      .1687    55.1920     3.0025     9.8047  4030.2998   120.9400      .0228     2.4464     2.4392
 2975.1254     8.7655  1501.3347      .1869      .1796    59.7520     3.0594     9.8278  4041.3809   121.1279      .0227     2.4680     2.4607
 2975.2016     8.7797  1504.3235      .1905      .1830    66.5104     3.3155     9.8453  4049.6143   120.8641      .0269     2.5053     2.4979
 2975.2778     8.7938  1506.7595      .1851      .1776    73.4260     3.7675     9.8450  4054.3853   120.2322      .0333     2.5509     2.5433
 2975.3540     8.7913  1509.0623      .1813      .1739    79.5008     4.2671     9.8399  4058.3413   119.8610      .0372     2.5906     2.5830
 2975.4302     8.7801  1509.6936      .1875      .1800    84.7219     4.6331     9.8473  4057.9678   120.0335      .0355     2.6142     2.6066
 2975.5064     8.7751  1510.3193      .2065      .1985    88.4065     4.8138     9.8742  4049.6709   120.4169      .0299     2.6238     2.6162
 2975.5826     8.7788  1513.6089      .2250      .2165    89.0101     4.8774     9.9169  4036.0078   120.5501      .0247     2.6286     2.6209
 2975.6588     8.7805  1519.2678      .2301      .2215    84.5765     4.8813     9.9600  4027.0049   120.3789      .0216     2.6338     2.6262
 2975.7350     8.7739  1524.6860      .2255      .2170    77.0926     4.8172     9.9845  4032.4819   120.3373      .0198     2.6386     2.6309
 2975.8112     8.7636  1526.1143      .2190      .2108    70.3366     4.6713     9.9898  4051.2485   120.5486      .0182     2.6415     2.6339
 2975.8874     8.7576  1523.6370      .2125      .2045    67.6435     4.4886     9.9800  4073.0313   120.8696      .0172     2.6439     2.6362
 2975.9636     8.7631  1523.1118      .2079      .2000    69.4469     4.3518     9.9680  4085.4873   121.1117      .0177     2.6469     2.6393
 2976.0398     8.7775  1530.2061      .2098      .2017    73.5414     4.3038     9.9655  4088.3569   121.1353      .0192     2.6494     2.6418
 2976.1160     8.7933  1542.8054      .2155      .2072    77.9811     4.3159     9.9767  4088.1865   120.8965      .0211     2.6495     2.6418
 2976.1922     8.7978  1553.7466      .2199      .2114    80.7423     4.3327     9.9823  4089.9390   120.5196      .0227     2.6478     2.6401
 2976.2684     8.7924  1558.6189      .2199      .2114    81.8266     4.3277     9.9719  4098.4297   120.4106      .0244     2.6467     2.6390
 2976.3446     8.7957  1558.6174      .2164      .2080    82.3580     4.2980     9.9466  4110.5439   120.6326      .0259     2.6471     2.6394
 2976.4208     8.8107  1559.7493      .2150      .2065    82.7563     4.2295     9.9209  4116.3086   120.9629      .0263     2.6468     2.6391
 2976.4970     8.8263  1564.5073      .2145      .2059    82.2486     4.1066     9.9044  4110.6240   120.9975      .0246     2.6420     2.6343
 2976.5732     8.8285  1569.0112      .2079      .1995    81.0811     3.9476     9.8926  4096.3682   120.7149      .0210     2.6320     2.6244
 2976.6494     8.8156  1570.9893      .1938      .1859    80.2164     3.7932     9.8769  4082.0132   120.3704      .0169     2.6207     2.6130
 2976.7256     8.7950  1569.8235      .1787      .1713    79.5165     3.6715     9.8585  4075.3833   120.1543      .0141     2.6136     2.6059
 2976.8018     8.7815  1566.4912      .1708      .1638    79.4184     3.6034     9.8578  4077.4526   120.2605      .0142     2.6145     2.6068
 2976.8780     8.7805  1563.5330      .1738      .1668    80.0795     3.6273     9.8723  4084.2188   120.4583      .0172     2.6229     2.6152
 2976.9542     8.7770  1562.2361      .1835      .1762    81.0034     3.7808     9.8857  4091.7744   120.6596      .0220     2.6336     2.6259
 2977.0304     8.7654  1562.8564      .1886      .1812    81.6526     4.0400     9.8889  4098.9473   120.7680      .0261     2.6391     2.6315
 2977.1066     8.7459  1564.9370      .1824      .1753    81.8880     4.3056     9.8864  4102.8486   120.7066      .0282     2.6354     2.6277
 2977.1828     8.7279  1567.3826      .1725      .1658    81.8944     4.4925     9.8875  4101.6465   120.5566      .0289     2.6237     2.6160
 2977.2590     8.7167  1568.9033      .1680      .1615    82.3709     4.6126     9.8981  4096.2754   120.4369      .0297     2.6084     2.6008
 2977.3352     8.7131  1568.4570      .1729      .1663    82.8250     4.7042     9.9025  4090.5981   120.4751      .0317     2.5919     2.5843
 2977.4114     8.7188  1563.6118      .1849      .1780    81.6329     4.7298     9.8983  4088.1865   120.6101      .0336     2.5724     2.5648
 2977.4876     8.7316  1556.0969      .1970      .1897    77.9400     4.6174     9.8922  4088.0381   120.7856      .0334     2.5472     2.5397
 2977.5638     8.7429  1550.5293      .2006      .1930    72.4867     4.3643     9.8929  4086.2051   120.8558      .0306     2.5177     2.5103
 2977.6400     8.7399  1548.2158      .1936      .1863    66.6460     4.0529     9.9024  4080.3506   120.7639      .0267     2.4904     2.4831
 2977.7162     8.7216  1545.4363      .1850      .1781    61.5552     3.7935     9.9168  4074.4956   120.7419      .0245     2.4732     2.4659
 2977.7924     8.7061  1537.8623      .1799      .1732    58.9384     3.6712     9.9269  4072.6626   120.7663      .0255     2.4702     2.4629
 2977.8686     8.7130  1527.2668      .1780      .1713    58.8960     3.7106     9.9214  4072.4287   120.6416      .0292     2.4788     2.4715
 2977.9448     8.7332  1518.7876      .1757      .1689    59.4803     3.8562     9.9095  4070.3340   120.4082      .0333     2.4907     2.4834
 2978.0210     8.7415  1515.7761      .1727      .1659    60.3879     3.9980     9.9010  4065.4004   120.2379      .0353     2.4970     2.4896
 2978.0972     8.7355  1516.7866      .1730      .1663    63.0064     4.0532     9.9066  4056.8179   120.3100      .0345     2.4939     2.4866
 2978.1734     8.7274  1517.2295      .1774      .1706    67.3703     4.0254     9.9173  4047.7485   120.4967      .0320     2.4836     2.4763
 2978.2496     8.7278  1513.2275      .1855      .1785    71.2246     3.9682     9.9186  4042.6421   120.6585      .0289     2.4698     2.4626
 2978.3258     8.7401  1505.0620      .1971      .1897    71.7103     3.9054     9.9023  4043.0435   120.6824      .0257     2.4548     2.4475
 2978.4020     8.7437  1497.4146      .2115      .2037    67.4310     3.8112     9.8782  4048.3223   120.5747      .0223     2.4397     2.4325
 2978.4782     8.7331  1493.8428      .2219      .2139    61.0805     3.6474     9.8514  4054.4087   120.5632      .0193     2.4270     2.4199
 2978.5544     8.7318  1493.3979      .2208      .2129    57.0439     3.4094     9.8270  4057.7080   120.7325      .0175     2.4194     2.4124
 2978.6306     8.7514  1494.5833      .2123      .2044    56.0746     3.1496     9.8092  4057.2217   121.1043      .0175     2.4186     2.4115
 2978.7068     8.7701  1496.3193      .2055      .1976    56.9498     2.9622     9.8063  4054.2363   121.5153      .0194     2.4236     2.4165
 2978.7830     8.7655  1499.6494      .2050      .1972    57.8411     2.9275     9.8236  4050.7339   121.7485      .0226     2.4313     2.4242
 2978.8592     8.7408  1503.6252      .2082      .2004    57.1734     3.0454     9.8467  4048.9575   121.5802      .0259     2.4362     2.4291
