~VERSION INFORMATION
VERS.                                                 2.0:   CWLS Log ASCII Standard-VERSION 2.0
WRAP.                                                  NO:   One line per depth step
~Well Information Block
STRT.M                                          2880.7898:   Top Depth
STOP.M                                          3212.2598:   Bottom Depth
STEP.M                                             .07620:   Depth Increment
NULL.                                            -999.250:   Null Value
FLD .                                                 Q15:   Field Name
WELL.                                            15/12-19:   NAME
WBN .                                            15/12-19:   WELLBORE
NATI.                                                 NOR:   COUNTRY
APD .M                                       42.519996643:   ABOVE PERM DATUM
CTRY.                                                 NOR:   COUNTRY
COMP.                                     BG GROUP NORWAY:   OPERATOR
PDAT.                                      MEAN SEA LEVEL:   PERM DATUM
STAT.                         NORWEGIAN CONTINENTAL SHELF:   STATE
LATI.                            058 00' 13.644" N    DMS:   SURF. LATITUDE
LONG.                            001 55' 16.370" E    DMS:   SURF. LONGITUDE
PBWE.                                            15/12-19:   PB WELL ID
APIN.                                            15/12-19:   PB WELLBORE ID
PBWS.                                                 ALL:   PB WELL NAME SET
~PARAMETER INFORMATION (log)
LNAM.                                 WLC_PETRO_COMPOSITE:   NAME
LTYP.                                                PAP.:   LOG TYPE
LSRV.                                          WL.PET.LOG:   LOG SERVICE
LSOU.                                            BG NORGE:   LOG SOURCE
LVSN.                                                   4:   LOG VERSION
BHIS.                                                   R:   BRIEF HISTORY
R1  .                                    DATA CONSISTS OF:   COMMENT  1
R2  .                                  EWL ZDL-CN, RUN 1B:   COMMENT  2
EDF .M                                       42.519996643:   ELEV DRILL FLOOR
ELZ .M                                       42.519996643:   ELEVATION LOG ZERO
FHIS.                                             RAW-LIS:   FULL HISTORY
EKB .M                                       42.519996643:   KB ELEVATION
LMF .                                                  DF:   LOGS MEAS FROM
EPD .M                                                0.0:   ELEV PERM DATUM
EGL .M                                                0.0:   GROUND LEVEL
QCRM.                   WAITING FOR OPERATOR CONFIRMATION:   QC COMMENT
QCCO.                                             UNKNOWN:   QC COMPANY
~Curve Information Block
#MNEM.UNIT                                        API CODE    No Description
#=========                                        ========    == ===========
DEPT.M                                       00 001 00 00:     1  DEPTH
CALX.IN                                                  :     2  Caliper
CHT.LB                                                   :     3  Cable Tension
CN.V/V                                                   :     4  Neutron Porosity
CNCF.V/V                                                 :     5  Neutron Porosity
GR.GAPI                                                  :     6  Gamma Ray
PE.B/E                                                   :     7  Photoelectic Factor
SPD.M/MN                                                 :     8  Cable Speed
TTEN.LB                                                  :     9  Cable Tension
WTBH.DEGC                                                :    10  Temperature
ZCOR.G/CC                                                :    11  Density Correction
ZDEN.G/CC                                                :    12  Bulk Density
ZDNC.G/CC                                                :    13  Bulk Density
~ASCII
# ...
 2893.5914     8.8150  -999.2500      .2363  -999.2500    14.6742  -999.2500  -999.2500  -999.2500   114.6329  -999.2500  -999.2500  -999.2500
 2893.6676     8.8239  -999.2500      .2421  -999.2500    15.0155  -999.2500  -999.2500  -999.2500   115.0455  -999.2500  -999.2500  -999.2500
 2893.7438     8.8422  -999.2500      .2408  -999.2500    14.2982  -999.2500  -999.2500  -999.2500   115.3980  -999.2500  -999.2500  -999.2500
 2893.8200     8.8515  -999.2500      .2343  -999.2500    12.9296  -999.2500  -999.2500  -999.2500   115.7383  -999.2500  -999.2500  -999.2500
 2893.8962     8.8471  -999.2500      .2287      .2195    11.9617  -999.2500  -999.2500  -999.2500   116.0330  -999.2500  -999.2500  -999.2500
 2893.9724     8.8422  -999.2500      .2253      .2162    11.9048  -999.2500  -999.2500  -999.2500   116.2441  -999.2500  -999.2500  -999.2500
 2894.0486     8.8430  -999.2500      .2242      .2152    12.2894  -999.2500  -999.2500  -999.2500   116.3532  -999.2500  -999.2500  -999.2500
 2894.1248     8.8463  -999.2500      .2294      .2202    12.8656  -999.2500  -999.2500  -999.2500   116.4083  -999.2500  -999.2500  -999.2500
 2894.2010     8.8423  -999.2500      .2419      .2324    13.6176  -999.2500  -999.2500  -999.2500   116.4068  -999.2500  -999.2500  -999.2500
 2894.2772     8.8307  -999.2500      .2534      .2437    14.4612    12.1709  -999.2500  -999.2500   116.3682  -999.2500  -999.2500  -999.2500
 2894.3534     8.8257  -999.2500      .2540      .2443    15.2693    12.5717  -999.2500  -999.2500   116.2622  -999.2500  -999.2500  -999.2500
 2894.4296     8.8283  -999.2500      .2442      .2347    15.6768    12.9370  -999.2500  -999.2500   116.0943  -999.2500  -999.2500  -999.2500
 2894.5058     8.8325  1452.7297      .2381      .2288    15.5599    13.1619     6.1910  3928.6299   115.9818  -999.2500  -999.2500  -999.2500
 2894.5820     8.8317  1452.2546      .2441      .2346    15.4025    13.3803     6.1815  3933.1338   115.9541  -999.2500  -999.2500  -999.2500
 2894.6582     8.8178  1452.7732      .2552      .2456    15.4577    13.8801     6.1721  3936.9502   115.8684     -.8014     2.3539     2.3471
 2894.7344     8.8017  1454.3933      .2648      .2551    15.3268    14.8041     6.1639  3938.9033   115.6691     -.8123     2.3707     2.3638
 2894.8106     8.7981  1455.8591      .2706      .2607    14.7445    15.8500     6.1660  3936.6338   115.4944     -.8223     2.3848     2.3778
 2894.8868     8.8078  1455.8831      .2725      .2625    13.8193    16.3457     6.1776  3932.5601   115.4525     -.8295     2.3944     2.3874
 2894.9630     8.8273  1453.8743      .2725      .2623    12.9289    15.9533     6.1919  3930.8687   115.5440     -.8339     2.3880     2.3810
 2895.0392     8.8465  1450.7476      .2724      .2620    12.4485    14.9794     6.1983  3932.6450   115.6835     -.8345     2.3600     2.3532
 2895.1154     8.8591  1448.6665      .2731      .2626    12.4442    13.9396     6.1931  3936.2324   115.8392     -.8281     2.3229     2.3163
 2895.1916     8.8610  1448.9846      .2735      .2629    12.3562    13.1787     6.1813  3938.8159   116.0336     -.8127     2.2935     2.2870
 2895.2678     8.8498  1450.3789      .2687      .2584    12.0729    12.7558     6.1689  3939.0454   116.2238     -.7907     2.2777     2.2713
 2895.3440     8.8340  1451.0090      .2603      .2503    12.0731    12.5261     6.1678  3938.6436   116.3248     -.7661     2.2719     2.2655
 2895.4202     8.8221  1451.0276      .2585      .2487    12.5056    12.3248     6.1752  3938.2422   116.3088     -.7431     2.2712     2.2649
 2895.4964     8.8195  1450.8999      .2639      .2540    13.1678    12.0939     6.1866  3938.4712   116.2866     -.7244     2.2726     2.2662
 2895.5726     8.8253  1452.0188      .2678      .2577    13.5334    11.8721     6.1935  3940.9702   116.4173     -.7122     2.2729     2.2666
 2895.6488     8.8372  1455.8298      .2650      .2548    13.4881    11.6993     6.1930  3945.0444   116.6311     -.7066     2.2696     2.2632
 2895.7250     8.8473  1461.0652      .2584      .2484    13.3220    11.5631     6.1835  3946.5059   116.7561     -.7061     2.2625     2.2562
 2895.8012     8.8488  1464.7881      .2515      .2417    13.3752    11.4579     6.1726  3942.5479   116.6904     -.7073     2.2554     2.2491
 2895.8774     8.8495  1464.7971      .2462      .2365    13.6801    11.4445     6.1668  3935.6304   116.4601     -.7076     2.2528     2.2465
 2895.9536     8.8534  1461.8274      .2420      .2323    13.8669    11.6010     6.1654  3928.3721   116.1291     -.7060     2.2570     2.2507
 2896.0298     8.8517  1458.5667      .2356      .2262    14.0323    11.9114     6.1653  3924.2344   115.7597     -.7027     2.2673     2.2609
 2896.1060     8.8402  1457.2627      .2306      .2214    14.5805    12.2348     6.1637  3922.7158   115.5572     -.6989     2.2803     2.2739
 2896.1822     8.8296  1457.4717      .2275      .2185    15.7437    12.4451     6.1641  3922.6309   115.6520     -.6960     2.2912     2.2847
 2896.2584     8.8365  1457.4343      .2252      .2163    17.2526    12.5645     6.1685  3924.6362   115.9841     -.6949     2.2961     2.2896
 2896.3346     8.8514  1457.3601      .2261      .2169    18.2869    12.6533     6.1781  3928.4595   116.3151     -.6955     2.2952     2.2887
 2896.4108     8.8472  1457.9858      .2335      .2242    18.5120    12.6473     6.1784  3933.5352   116.3185     -.6965     2.2930     2.2865
 2896.4870     8.8242  1459.0962      .2438      .2344    18.4123    12.4337     6.1609  3937.0376   115.9781     -.6962     2.2942     2.2877
 2896.5632     8.8051  1459.5569      .2463      .2370    18.3993    12.0999     6.1347  3936.8086   115.5668     -.6943     2.2993     2.2928
 2896.6394     8.8088  1458.4841      .2389      .2297    18.6339    11.9125     6.1199  3931.2090   115.4315     -.6922     2.3035     2.2970
 2896.7156     8.8226  1455.8567      .2303      .2212    19.1706    11.9700     6.1274  3922.6309   115.7075     -.6919     2.3013     2.2948
 2896.7918     8.8258  1453.1379      .2295      .2205    19.8719    12.1015     6.1469  3916.0581   116.1406     -.6939     2.2921     2.2857
 2896.8680     8.8253  1451.9973      .2384      .2291    20.3354    12.0941     6.1589  3916.2871   116.4190     -.6973     2.2819     2.2755
 2896.9442     8.8410  1453.2551      .2453      .2357    19.7550    11.8847     6.1533  3926.5039   116.1667     -.6992     2.2834     2.2769
 2897.0204     8.8568  1454.5127      .2523      .2424    19.1745    11.6754     6.1477  3936.7212   115.9144     -.7011     2.2848     2.2784
 2897.0966     8.8669  1457.9922      .2521      .2421    17.8433    11.5659     6.1462  3944.8125   115.5808     -.7020     2.2984     2.2919
 2897.1728     8.8577  1461.4817      .2485      .2387    16.8701    11.6683     6.1561  3945.7056   115.4154     -.7049     2.3116     2.3050
 2897.2490     8.8439  1462.8438      .2422      .2327    16.6614    12.0539     6.1751  3939.1323   115.5857     -.7117     2.3188     2.3121
 2897.3252     8.8331  1460.6533      .2361      .2269    17.3702    12.7798     6.2020  3930.0610   115.8773     -.7218     2.3198     2.3131
 2897.4014     8.8297  1456.1860      .2378      .2286    18.7028    13.7207     6.2273  3924.1519   115.9887     -.7331     2.3174     2.3108
 2897.4776     8.8267  1453.6775      .2510      .2414    19.7282    14.4554     6.2427  3924.3809   115.8145     -.7437     2.3131     2.3065
 2897.5538     8.8229  1455.4500      .2726      .2624    19.8509    14.5232     6.2444  3932.3872   115.5597     -.7525     2.3056     2.2990
 2897.6300     8.8227  1460.4238      .2960      .2852    19.3674    13.9073     6.2372  3945.2168   115.6356     -.7592     2.2935     2.2870
 2897.7062     8.8312  1465.3574      .3107      .2995    19.1040    13.0854     6.2299  3953.1641   115.9682     -.7630     2.2781     2.2717
 2897.7824     8.8405  1466.8125      .3180      .3065    18.9645    12.5632     6.2290  3950.2378   116.1923     -.7626     2.2639     2.2576
