~VERSION INFORMATION
VERS.                                                 2.0:   CWLS Log ASCII Standard-VERSION 2.0
WRAP.                                                  NO:   One line per depth step
~Well Information Block
STRT.M                                          2880.7898:   Top Depth
STOP.M                                          3212.2598:   Bottom Depth
STEP.M                                             .07620:   Depth Increment
NULL.                                            -999.250:   Null Value
FLD .                                                 Q15:   Field Name
WELL.                                            15/12-19:   NAME
WBN .                                            15/12-19:   WELLBORE
NATI.                                                 NOR:   COUNTRY
APD .M                                       42.519996643:   ABOVE PERM DATUM
CTRY.                                                 NOR:   COUNTRY
COMP.                                     BG GROUP NORWAY:   OPERATOR
PDAT.                                      MEAN SEA LEVEL:   PERM DATUM
STAT.                         NORWEGIAN CONTINENTAL SHELF:   STATE
LATI.                            058 00' 13.644" N    DMS:   SURF. LATITUDE
LONG.                            001 55' 16.370" E    DMS:   SURF. LONGITUDE
PBWE.                                            15/12-19:   PB WELL ID
APIN.                                            15/12-19:   PB WELLBORE ID
PBWS.                                                 ALL:   PB WELL NAME SET
~PARAMETER INFORMATION (log)
LNAM.                                 WLC_PETRO_COMPOSITE:   NAME
LTYP.                                                PAP.:   LOG TYPE
LSRV.                                          WL.PET.LOG:   LOG SERVICE
LSOU.                                            BG NORGE:   LOG SOURCE
LVSN.                                                   4:   LOG VERSION
BHIS.                                                   R:   BRIEF HISTORY
R1  .                                    DATA CONSISTS OF:   COMMENT  1
R2  .                                  EWL ZDL-CN, RUN 1B:   COMMENT  2
EDF .M                                       42.519996643:   ELEV DRILL FLOOR
ELZ .M                                       42.519996643:   ELEVATION LOG ZERO
FHIS.                                             RAW-LIS:   FULL HISTORY
EKB .M                                       42.519996643:   KB ELEVATION
LMF .                                                  DF:   LOGS MEAS FROM
EPD .M                                                0.0:   ELEV PERM DATUM
EGL .M                                                0.0:   GROUND LEVEL
QCRM.                   WAITING FOR OPERATOR CONFIRMATION:   QC COMMENT
QCCO.                                             UNKNOWN:   QC COMPANY
~Curve Information Block
#MNEM.UNIT                                        API CODE    No Description
#=========                                        ========    == ===========
DEPT.M                                       00 001 00 00:     1  DEPTH
CALX.IN                                                  :     2  Caliper
CHT.LB                                                   :     3  Cable Tension
CN.V/V                                                   :     4  Neutron Porosity
CNCF.V/V                                                 :     5  Neutron Porosity
GR.GAPI                                                  :     6  Gamma Ray
PE.B/E                                                   :     7  Photoelectic Factor
SPD.M/MN                                                 :     8  Cable Speed
TTEN.LB                                                  :     9  Cable Tension
WTBH.DEGC                                                :    10  Temperature
ZCOR.G/CC                                                :    11  Density Correction
ZDEN.G/CC                                                :    12  Bulk Density
ZDNC.G/CC                                                :    13  Bulk Density
~ASCII
# ...
 2936.2634     8.8596  1494.2000      .1563      .1492    29.1072     5.8593     9.9982  4042.3799   114.5594      .0144     2.6485     2.6408
 2936.3396     8.8928  1509.0383      .1596      .1522    26.1114     5.7942     9.9962  4103.8574   114.7242      .0130     2.6450     2.6373
 2936.4158     8.9099  1535.5996      .1643      .1566    23.3324     5.8318     9.9914  4149.4561   114.6275      .0132     2.6467     2.6390
 2936.4920     8.8989  1567.7703      .1670      .1593    22.8529     5.9632     9.9783  4163.3809   114.3610      .0157     2.6555     2.6478
 2936.5682     8.8696  1595.9749      .1620      .1546    24.9732     6.1238     9.9603  4151.3359   114.2385      .0197     2.6696     2.6619
 2936.6444     8.8397  1608.1624      .1500      .1432    27.3664     6.2310     9.9359  4127.2812   114.4217      .0238     2.6845     2.6768
 2936.7206     8.8218  1600.0325      .1374      .1311    27.6946     6.2381     9.9147  4095.9360   114.8176      .0270     2.6967     2.6890
 2936.7968     8.8156  1579.0886      .1289      .1229    26.6094     6.1515     9.9185  4053.7378   115.0755      .0294     2.7047     2.6970
 2936.8730     8.8102  1555.5247      .1274      .1214    25.3330     6.0167     9.9522  4001.5947   115.0139      .0308     2.7070     2.6993
 2936.9492     8.7990  1536.0024      .1322      .1262    24.7455     5.8897    10.0019  3960.5801   114.8874      .0305     2.7015     2.6938
 2937.0254     8.7943  1523.7737      .1421      .1359    24.5890     5.8009    10.0502  3953.6670   114.9626      .0283     2.6883     2.6806
 2937.1016     8.8097  1521.9573      .1542      .1474    24.7117     5.7321    10.0670  3994.1929   115.1286      .0252     2.6709     2.6632
 2937.1778     8.8262  1532.7441      .1624      .1553    25.7437     5.6411    10.0368  4078.7964   115.2535      .0224     2.6545     2.6468
 2937.2540     8.8314  1560.8713      .1639      .1567    27.3718     5.5218     9.9670  4178.9639   115.3717      .0210     2.6439     2.6362
 2937.3302     8.8288  1610.1001      .1639      .1567    28.7301     5.4273     9.8976  4257.3594   115.4671      .0211     2.6412     2.6335
 2937.4064     8.8240  1671.3555      .1684      .1612    29.0308     5.4088     9.8497  4286.4141   115.5266      .0218     2.6447     2.6371
 2937.4826     8.8169  1723.6726      .1746      .1673    28.6206     5.4426     9.8189  4267.5898   115.6236      .0212     2.6497     2.6420
 2937.5588     8.8088  1744.6516      .1739      .1666    28.6325     5.4487     9.7946  4219.9150   115.9272      .0177     2.6506     2.6429
 2937.6350     8.8032  1727.7886      .1629      .1559    29.3853     5.3826     9.7762  4167.3369   116.5233      .0112     2.6451     2.6374
 2937.7112     8.8058  1686.2009      .1472      .1407    30.4074     5.2757     9.7913  4123.1904   117.2740      .0031     2.6351     2.6274
 2937.7874     8.8189  1640.4783      .1362      .1299    30.9448     5.1855     9.8388  4090.1279   117.6193     -.0036     2.6252     2.6176
 2937.8636     8.8321  1600.0852      .1339      .1277    30.8069     5.1354     9.8942  4070.8960   117.3862     -.0086     2.6169     2.6093
 2937.9398     8.8425  1571.4841      .1403      .1338    30.5480     5.1145     9.9313  4066.0215   116.9411     -.0121     2.6110     2.6034
 2938.0160     8.8491  1562.7502      .1523      .1454    30.7724     5.1190     9.9506  4077.3911   116.6111     -.0139     2.6090     2.6013
 2938.0922     8.8519  1569.7961      .1636      .1563    31.4907     5.1601     9.9494  4105.1445   116.5616     -.0138     2.6104     2.6028
 2938.1684     8.8597  1580.5740      .1713      .1637    31.3492     5.2300     9.9325  4142.0801   116.6700     -.0127     2.6120     2.6043
 2938.2446     8.8859  1588.9387      .1771      .1691    30.7071     5.2975     9.9167  4171.1562   116.8540     -.0116     2.6101     2.6024
 2938.3208     8.9255  1597.3752      .1827      .1743    32.2321     5.3394     9.9196  4179.7930   116.9854     -.0103     2.6051     2.5975
 2938.3970     8.9650  1605.7500      .1887      .1798    37.0082     5.3569     9.9446  4165.6201   117.0940     -.0080     2.6016     2.5939
 2938.4732     8.9903  1609.2893      .1952      .1859    41.9221     5.3601     9.9802  4133.3340   117.1354     -.0040     2.6029     2.5953
 2938.5494     9.0012  1596.0222      .2021      .1925    43.1870     5.3422    10.0136  4090.6597   117.0407      .0012     2.6090     2.6013
 2938.6256     9.0127  1559.9089      .2057      .1959    40.9523     5.2894    10.0328  4047.4722   116.9556      .0072     2.6168     2.6091
 2938.7018     9.0263  1511.6707      .2033      .1934    38.7678     5.2222    10.0426  4008.0327   116.9298      .0105     2.6206     2.6129
 2938.7780     9.0352  1468.5134      .1957      .1860    38.8401     5.1866    10.0522  3961.6523   117.0099      .0107     2.6189     2.6112
 2938.8542     9.0355  1443.4189      .1896      .1801    39.4078     5.1923    10.0791  3902.2017   117.1561      .0081     2.6126     2.6049
 2938.9304     9.0316  1436.0520      .1882      .1788    39.8319     5.1974    10.1270  3839.0356   117.1525      .0041     2.6043     2.5966
 2939.0066     9.0248  1439.7668      .1877      .1784    41.4417     5.1703    10.1904  3803.1392   116.9073      .0007     2.5975     2.5899
 2939.0828     9.0168  1452.6782      .1897      .1804    44.2120     5.1430    10.2389  3837.7480   116.5917     -.0003     2.5958     2.5882
 2939.1590     9.0114  1474.6628      .1946      .1852    45.5005     5.1782    10.2206  3965.2988   116.4066      .0012     2.5996     2.5919
 2939.2352     9.0032  1513.6909      .1960      .1865    43.1315     5.2823    10.1066  4157.0303   116.3811      .0051     2.6072     2.5995
 2939.3114     8.9825  1591.3174      .1856      .1767    39.1440     5.3824     9.9349  4342.5029   116.4165      .0098     2.6159     2.6082
 2939.3876     8.9436  1716.6072      .1692      .1611    37.5459     5.4195     9.7875  4458.2549   116.5272      .0144     2.6230     2.6153
 2939.4638     8.8963  1859.2397      .1609      .1534    40.2447     5.4468     9.7243  4484.0352   116.6890      .0182     2.6268     2.6191
 2939.5400     8.8712  1965.7178      .1705      .1629    45.0485     5.5928     9.7386  4450.3447   116.9015      .0209     2.6262     2.6186
 2939.6162     8.8825  1996.4387      .2039      .1952    48.8934     5.9393     9.7756  4402.4092   117.0221      .0226     2.6219     2.6142
 2939.6924     8.9125  1957.4922      .2602      .2495    50.4190     6.4356     9.7997  4359.3516   116.8633      .0245     2.6162     2.6085
 2939.7686     8.9275  1892.4878      .3288      .3160    49.1333     6.8857     9.8165  4319.6865   116.6290      .0273     2.6115     2.6038
 2939.8448     8.9194  1833.6802      .3795      .3655    47.3891     7.0506     9.8335  4282.0605   116.5824      .0311     2.6076     2.6000
 2939.9210     8.9080  1786.6448      .3761      .3623    50.5697     6.8293     9.8495  4242.2578   116.6612      .0353     2.6028     2.5951
 2939.9972     8.9015  1751.5598      .3435      .3306    61.4341     6.3345     9.8712  4196.1348   116.5970      .0390     2.5955     2.5879
 2940.0734     8.8909  1723.4641      .3210      .3088    75.6728     5.7897     9.9047  4150.5361   116.3945      .0412     2.5852     2.5776
 2940.1496     8.8614  1689.1301      .3214      .3095    85.3414     5.3625     9.9450  4120.6992   116.3292      .0405     2.5698     2.5622
 2940.2258     8.8283  1646.3940      .3337      .3219    85.9810     5.0842     9.9615  4116.5918   116.6242      .0357     2.5470     2.5394
 2940.3020     8.8190  1606.6233      .3359      .3241    80.5155     4.8923     9.9498  4132.1445   116.8310      .0276     2.5192     2.5118
 2940.3782     8.8383  1583.8516      .3146      .3032    75.5294     4.7242     9.9230  4146.1240   116.4188      .0195     2.4956     2.4882
 2940.4544     8.8653  1583.0496      .2876      .2766    73.3449     4.5812     9.9057  4141.1338   115.6261      .0149     2.4864     2.4790
