~VERSION INFORMATION
VERS.                                                 2.0:   CWLS Log ASCII Standard-VERSION 2.0
WRAP.                                                  NO:   One line per depth step
~Well Information Block
STRT.M                                          2880.7898:   Top Depth
STOP.M                                          3212.2598:   Bottom Depth
STEP.M                                             .07620:   Depth Increment
NULL.                                            -999.250:   Null Value
FLD .                                                 Q15:   Field Name
WELL.                                            15/12-19:   NAME
WBN .                                            15/12-19:   WELLBORE
NATI.                                                 NOR:   COUNTRY
APD .M                                       42.519996643:   ABOVE PERM DATUM
CTRY.                                                 NOR:   COUNTRY
COMP.                                     BG GROUP NORWAY:   OPERATOR
PDAT.                                      MEAN SEA LEVEL:   PERM DATUM
STAT.                         NORWEGIAN CONTINENTAL SHELF:   STATE
LATI.                            058 00' 13.644" N    DMS:   SURF. LATITUDE
LONG.                            001 55' 16.370" E    DMS:   SURF. LONGITUDE
PBWE.                                            15/12-19:   PB WELL ID
APIN.                                            15/12-19:   PB WELLBORE ID
PBWS.                                                 ALL:   PB WELL NAME SET
~PARAMETER INFORMATION (log)
LNAM.                                 WLC_PETRO_COMPOSITE:   NAME
LTYP.                                                PAP.:   LOG TYPE
LSRV.                                          WL.PET.LOG:   LOG SERVICE
LSOU.                                            BG NORGE:   LOG SOURCE
LVSN.                                                   4:   LOG VERSION
BHIS.                                                   R:   BRIEF HISTORY
R1  .                                    DATA CONSISTS OF:   COMMENT  1
R2  .                                  EWL ZDL-CN, RUN 1B:   COMMENT  2
EDF .M                                       42.519996643:   ELEV DRILL FLOOR
ELZ .M                                       42.519996643:   ELEVATION LOG ZERO
FHIS.                                             RAW-LIS:   FULL HISTORY
EKB .M                                       42.519996643:   KB ELEVATION
LMF .                                                  DF:   LOGS MEAS FROM
EPD .M                                                0.0:   ELEV PERM DATUM
EGL .M                                                0.0:   GROUND LEVEL
QCRM.                   WAITING FOR OPERATOR CONFIRMATION:   QC COMMENT
QCCO.                                             UNKNOWN:   QC COMPANY
~Curve Information Block
#MNEM.UNIT                                        API CODE    No Description
#=========                                        ========    == ===========
DEPT.M                                       00 001 00 00:     1  DEPTH
CALX.IN                                                  :     2  Caliper
CHT.LB                                                   :     3  Cable Tension
CN.V/V                                                   :     4  Neutron Porosity
CNCF.V/V                                                 :     5  Neutron Porosity
GR.GAPI                                                  :     6  Gamma Ray
PE.B/E                                                   :     7  Photoelectic Factor
SPD.M/MN                                                 :     8  Cable Speed
TTEN.LB                                                  :     9  Cable Tension
WTBH.DEGC                                                :    10  Temperature
ZCOR.G/CC                                                :    11  Density Correction
ZDEN.G/CC                                                :    12  Bulk Density
ZDNC.G/CC                                                :    13  Bulk Density
~ASCII
# ...
 3081.3482     8.6882  1722.8516      .1698      .1635    71.7107     2.8799     9.3938  4282.4687   122.7894      .0323     2.5311     2.5236
 3081.4244     8.6920  1700.9429      .1641      .1579    70.8194     3.1326     9.4506  4240.1318   122.8418      .0381     2.5643     2.5568
 3081.5006     8.6959  1672.7000      .1555      .1495    73.7536     3.5296     9.4946  4214.5088   123.2628      .0436     2.5945     2.5869
 3081.5768     8.6863  1633.8696      .1508      .1450    77.0862     3.8849     9.5072  4215.1396   123.5983      .0449     2.6061     2.5985
 3081.6530     8.6694  1590.0630      .1578      .1519    76.6212     4.0717     9.4891  4230.0312   123.5461      .0410     2.5935     2.5859
 3081.7292     8.6598  1565.6370      .1763      .1701    72.0127     4.1270     9.4623  4236.0010   123.2622      .0346     2.5643     2.5568
 3081.8054     8.6614  1568.4109      .1939      .1872    66.3807     4.1448     9.4485  4223.0586   123.0302      .0292     2.5300     2.5225
 3081.8816     8.6630  1580.8044      .1959      .1892    61.9821     4.1319     9.4498  4198.9023   122.9511      .0256     2.4965     2.4892
 3081.9578     8.6559  1578.4094      .1856      .1792    59.4171     4.0193     9.4552  4179.9297   123.0325      .0233     2.4660     2.4588
 3082.0340     8.6418  1558.5769      .1756      .1695    58.1834     3.7821     9.4614  4175.1924   123.2556      .0217     2.4402     2.4330
 3082.1102     8.6315  1536.1626      .1733      .1673    57.2602     3.4999     9.4579  4182.1104   123.6264      .0208     2.4207     2.4137
 3082.1864     8.6375  1523.1338      .1767      .1706    55.7220     3.2842     9.4473  4191.1768   123.8872      .0202     2.4082     2.4012
 3082.2626     8.6501  1521.0061      .1822      .1758    53.1175     3.1778     9.4426  4194.9111   123.7500      .0199     2.4016     2.3947
 3082.3388     8.6626  1523.3545      .1879      .1813    50.2635     3.1380     9.4557  4191.4951   123.4154      .0199     2.4004     2.3934
 3082.4150     8.6786  1524.0381      .1927      .1859    48.7847     3.1117     9.4681  4181.1367   123.2600      .0205     2.4040     2.3970
 3082.4912     8.6950  1520.3784      .1984      .1913    49.9954     3.1106     9.4519  4168.7373   123.3786      .0222     2.4122     2.4052
 3082.5674     8.7013  1514.9321      .2061      .1988    52.9995     3.1926     9.4107  4158.7217   123.6283      .0249     2.4234     2.4163
 3082.6436     8.6961  1510.1223      .2122      .2048    56.0310     3.3804     9.3778  4152.4082   123.7678      .0279     2.4339     2.4267
 3082.7198     8.6882  1505.7952      .2120      .2046    57.6357     3.6249     9.3804  4150.7129   123.6694      .0297     2.4385     2.4314
 3082.7960     8.6921  1499.7798      .2071      .1998    57.0490     3.8582     9.4012  4152.9824   123.5035      .0293     2.4345     2.4274
 3082.8722     8.7235  1493.2878      .2044      .1970    55.0347     4.0517     9.4195  4156.8838   123.3667      .0272     2.4239     2.4168
 3082.9484     8.7733  1491.4846      .2068      .1988    53.9795     4.2078     9.4269  4160.5850   123.2492      .0248     2.4126     2.4056
 3083.0246     8.8216  1496.6533      .2078      .1995    55.3037     4.3308     9.4356  4164.6348   123.1593      .0240     2.4065     2.3995
 3083.1008     8.8500  1504.9680      .2018      .1934    58.3081     4.4248     9.4440  4171.1484   123.0652      .0254     2.4085     2.4014
 3083.1770     8.8564  1510.2581      .1940      .1857    61.5895     4.4984     9.4513  4180.9648   122.9168      .0289     2.4179     2.4108
 3083.2532     8.8526  1511.5962      .1951      .1868    63.9519     4.5407     9.4623  4191.0088   122.8540      .0336     2.4315     2.4243
 3083.3294     8.8533  1512.6785      .2079      .1993    65.4628     4.5053     9.4865  4195.3125   123.0450      .0381     2.4440     2.4368
 3083.4056     8.8684  1516.3889      .2256      .2164    65.9411     4.3559     9.5175  4191.3252   123.2936      .0415     2.4515     2.4442
 3083.4818     8.8859  1519.7207      .2379      .2281    64.6689     4.1283     9.5385  4181.4531   123.3809      .0439     2.4536     2.4463
 3083.5580     8.8882  1517.2920      .2418      .2319    61.9101     3.9121     9.5527  4169.3965   123.2663      .0455     2.4514     2.4441
 3083.6342     8.8752  1509.0964      .2432      .2334    59.3854     3.7699     9.5674  4156.0811   123.1488      .0457     2.4449     2.4377
 3083.7104     8.8620  1500.1550      .2453      .2355    58.4436     3.7085     9.5858  4143.9111   123.2665      .0437     2.4334     2.4262
 3083.7866     8.8587  1493.8694      .2508      .2409    58.5302     3.7204     9.5947  4139.0342   123.5283      .0399     2.4186     2.4114
 3083.8628     8.8640  1490.9980      .2554      .2453    58.4372     3.8138     9.5853  4144.7187   123.6617      .0360     2.4050     2.3979
 3083.9390     8.8657  1492.4570      .2569      .2468    56.9752     3.9800     9.5609  4158.0010   123.5764      .0333     2.3960     2.3890
 3084.0152     8.8518  1497.4521      .2554      .2454    54.9730     4.1517     9.5308  4172.8984   123.4507      .0315     2.3913     2.3843
 3084.0914     8.8320  1504.6116      .2503      .2406    54.6003     4.2234     9.5060  4184.2100   123.4713      .0299     2.3888     2.3818
 3084.1676     8.8194  1512.5637      .2465      .2370    56.0253     4.1350     9.4944  4189.5449   123.5774      .0285     2.3882     2.3812
 3084.2438     8.8085  1519.5066      .2464      .2371    57.6482     3.9352     9.4821  4188.9141   123.6028      .0285     2.3915     2.3846
 3084.3200     8.7964  1523.7161      .2460      .2368    57.7391     3.7537     9.4635  4181.3096   123.5454      .0308     2.4005     2.3934
 3084.3962     8.7787  1523.6030      .2386      .2297    56.6354     3.7172     9.4458  4169.0537   123.5818      .0352     2.4143     2.4072
 3084.4724     8.7521  1517.3586      .2257      .2175    56.0244     3.8856     9.4419  4158.9531   123.6951      .0406     2.4304     2.4232
 3084.5486     8.7227  1505.5095      .2095      .2019    56.9417     4.2209     9.4521  4152.8975   123.7409      .0458     2.4456     2.4384
 3084.6248     8.6962  1492.2009      .1947      .1876    58.5998     4.5828     9.4659  4148.7900   123.6727      .0501     2.4572     2.4500
 3084.7010     8.6784  1481.1458      .1888      .1820    59.6978     4.7856     9.4726  4144.9766   123.5552      .0531     2.4641     2.4569
 3084.7772     8.6757  1473.7744      .1895      .1827    59.9428     4.7234     9.4719  4141.5039   123.4741      .0552     2.4671     2.4599
 3084.8534     8.6832  1470.5991      .1890      .1823    59.1970     4.4609     9.4796  4139.3789   123.3394      .0566     2.4677     2.4604
 3084.9296     8.6918  1470.9985      .1816      .1750    58.1598     4.1871     9.4947  4138.6914   123.1234      .0574     2.4661     2.4588
 3085.0058     8.7116  1472.1426      .1711      .1645    57.8223     4.0783     9.5101  4139.0625   122.9311      .0576     2.4624     2.4551
 3085.0820     8.7433  1472.7048      .1687      .1620    58.4366     4.1967     9.5212  4141.0156   122.8835      .0571     2.4574     2.4502
 3085.1582     8.7664  1473.3906      .1774      .1703    60.1097     4.4710     9.5282  4146.7285   122.8433      .0559     2.4528     2.4455
 3085.2344     8.7667  1474.6365      .1917      .1842    62.3981     4.7354     9.5195  4157.2598   122.7167      .0543     2.4502     2.4430
 3085.3106     8.7462  1476.0874      .2003      .1928    64.2248     4.8361     9.4990  4169.8877   122.6344      .0526     2.4511     2.4439
 3085.3868     8.7205  1478.7205      .1954      .1882    65.2873     4.7467     9.4767  4177.3770   122.6447      .0512     2.4557     2.4485
 3085.4630     8.7024  1484.3962      .1876      .1808    65.9977     4.5613     9.4636  4175.1641   122.8161      .0498     2.4620     2.4548
 3085.5392     8.6847  1492.5371      .1838      .1771    66.2404     4.3740     9.4606  4165.1240   122.9753      .0471     2.4652     2.4579
