~VERSION INFORMATION
VERS.                                                 2.0:   CWLS Log ASCII Standard-VERSION 2.0
WRAP.                                                  NO:   One line per depth step
~Well Information Block
STRT.M                                          2748.8876:   Top Depth
STOP.M                                          3723.6380:   Bottom Depth
STEP.M                                             .15240:   Depth Increment
NULL.                                            -999.250:   Null Value
FLD .                                             WILDCAT:   Field Name
WELL.                                              15/6-5:   NAME
WBN .                                              15/6-5:   WELLBORE
NATI.                                                 NOR:   COUNTRY
BHT1.DEGF                                           104.0:   BH TEMP 1
BS1 .IN                                             17.50:   BIT SIZE 1
CTRY.                                                 NOR:   COUNTRY
CBD1.M                                       166.79998779:   CSG 1 DRILL DEP
CBL1.M                                              166.0:   CSG 1 LOG DEP
CS1 .IN                                              30.0:   CSG 1 SIZE
COMP.                                      ESSO NORGE A/S:   OPERATOR
PDAT.                                                 MSL:   PERM DATUM
PROV.                                           NORTH SEA:   PROVINCE
COUN.                                         DRILLMASTER:   RIG NAME
SPUD.                                          1977/10/10:   SPUD DATE
LATI.                                       58 30 29.90 N:   SURF. LATITUDE
LONG.                                        1 45 50.70 E:   SURF. LONGITUDE
BTD1.                                      383.20001221 M:   TOTAL DEPTH 1
PBWE.                                              15/6-5:   PB WELL ID
APIN.                                              15/6-5:   PB WELLBORE ID
PBWS.                                                 all:   PB WELL NAME SET
~PARAMETER INFORMATION (log)
LNAM.                              FDC/CNL/GR  COMPOSITED:   NAME
LTYP.                                         DEPTH MATCH:   LOG TYPE
LSRV.                                            DEN/NEUT:   LOG SERVICE
LSOU.                                             SPT/NPD:   LOG SOURCE
LVSN.                                                   1:   LOG VERSION
BHIS.                                                   R:   BRIEF HISTORY
FHIS.                                             RAW-LIS:   FULL HISTORY
LCNM.                                                 SCH:   LOGGING CONTRACTOR
TOOL.                             FDC/CNL/GR (COMPOSITED):   TOOL STRING
~Curve Information Block
#MNEM.UNIT                                        API CODE    No Description
#=========                                        ========    == ===========
DEPT.M                                       00 001 00 00:     1  DEPTH
CALI.IN                                                  :     2  Caliper
DRHO.G/CC                                                :     3  Bulk density correction
GR.GAPI                                                  :     4  Gamma Ray
NPHI.%                                                   :     5  Neutron porosity
RHOB.G/CC                                                :     6  Bulk density
~ASCII
# ...
 3325.2644     8.9297      .0705    41.6906    13.7916     2.5528
 3325.4168     8.9238      .0329    39.8896    13.8278     2.5088
 3325.5692     8.9180      .0256    38.4161    13.2451     2.5478
 3325.7216     8.9360      .0406    37.1003    12.9307     2.5671
 3325.8740     8.9741      .0270    37.0154    13.1257     2.5672
 3326.0264     8.9522      .0471    36.4936    13.2112     2.5881
 3326.1788     8.9349      .0481    33.4861    12.4460     2.5764
 3326.3312     8.9348      .0287    30.1100    11.3281     2.5648
 3326.4836     8.9347      .0185    29.5072    10.8488     2.5782
 3326.6360     8.9346      .0305    29.0148    11.0052     2.5860
 3326.7884     8.9288      .0101    28.4511    10.6038     2.5666
 3326.9408     8.9224      .0082    26.6024     9.0846     2.5815
 3327.0932     8.9160      .0145    25.3298     8.2560     2.6030
 3327.2456     8.9198      .0299    27.7955     8.5608     2.6214
 3327.3980     8.9268      .0441    33.1468    10.3623     2.6322
 3327.5504     8.9338      .0420    35.1890    11.4474     2.6119
 3327.7028     8.9423      .0224    34.2627    12.1733     2.5884
 3327.8552     8.9508      .0416    33.5805    11.9749     2.5842
 3328.0076     8.9579      .0296    31.9033    11.3496     2.5832
 3328.1600     8.9641      .0204    32.0058    11.3209     2.5877
 3328.3124     8.9704      .0298    32.4083    11.2576     2.5996
 3328.4648     8.9692      .0192    32.3755    11.3549     2.5883
 3328.6172     8.9605      .0252    35.4690    12.3255     2.5831
 3328.7696     8.9518      .0335    40.1115    13.4556     2.5789
 3328.9220     8.9431      .0330    41.4353    13.9430     2.5687
 3329.0744     8.9344      .0421    40.2276    13.7916     2.5870
 3329.2268     8.9483      .0330    39.8802    13.7704     2.5699
 3329.3792     8.9655      .0162    40.7938    13.7782     2.5497
 3329.5316     8.9677      .0215    39.3243    13.3916     2.5467
 3329.6840     8.9584      .0379    40.4396    13.2392     2.5582
 3329.8364     8.9491      .0637    44.1476    13.8141     2.5730
 3329.9888     8.9397      .0825    46.9150    15.3687     2.5615
 3330.1412     8.9343      .0871    48.2189    16.9397     2.5610
 3330.2936     8.9400      .0385    46.8852    16.4636     2.5350
 3330.4460     8.9456      .0308    44.8786    14.3794     2.5378
 3330.5984     8.9513      .0470    43.0295    13.0137     2.5690
 3330.7508     8.9584      .0495    41.1286    13.2952     2.5710
 3330.9032     8.9658      .0512    39.6105    13.9141     2.5647
 3331.0556     8.9712      .0460    38.8209    14.0275     2.5709
 3331.2080     8.9652      .0355    37.0855    13.9177     2.5590
 3331.3604     8.9591      .0292    36.6833    14.0779     2.5612
 3331.5128     8.9530      .0090    36.0811    14.1622     2.5441
 3331.6652     8.9517      .0018    35.4779    13.9228     2.5343
 3331.8176     9.0270      .0057    36.1133    13.5924     2.5428
 3331.9700     8.9717      .0098    35.6358    13.2316     2.5489
 3332.1224     8.9716      .0098    36.1789    12.8708     2.5422
 3332.2748     8.9715      .0120    39.3391    12.4083     2.5453
 3332.4272     8.9714      .0167    40.0596    11.6748     2.5631
 3332.5796     8.9714      .0225    40.2179    11.4277     2.5787
 3332.7320     8.9713      .0205    40.6992    11.6950     2.5722
 3332.8844     8.9712      .0246    41.6200    11.8103     2.5692
 3333.0368     8.9711      .0205    41.4629    12.0176     2.5799
 3333.1892     8.9710      .0295    40.4712    12.3030     2.5924
 3333.3416     8.9782      .0272    39.4795    12.2907     2.5821
 3333.4940     8.9902      .0262    41.0236    12.5386     2.5819
 3333.6464     8.9989      .0258    42.3773    12.8111     2.5785
 3333.7988     9.0074      .0288    41.4740    13.3900     2.5637
 3333.9512     9.0028      .0334    40.7243    13.8212     2.5685
 3334.1036     8.9907      .0369    40.9717    14.1167     2.5791
 3334.2560     8.9785      .0545    42.4244    14.0665     2.5952
 3334.4084     8.9704      .0552    44.2288    13.5255     2.5883
 3334.5608     8.9703      .0604    44.7782    12.9845     2.5992
 3334.7132     8.9866      .0745    43.9680    13.3177     2.6124
 3334.8656     9.0100      .0455    42.4111    13.7992     2.5946
 3335.0180     9.0099      .0275    41.1570    13.8966     2.5795
 3335.1704     8.9982      .0177    43.7480    13.9176     2.5706
 3335.3228     8.9841      .0312    46.2551    14.0816     2.5770
 3335.4752     8.9699      .0287    47.1184    14.4449     2.5744
 3335.6276     8.9698      .0390    48.4404    14.8405     2.5727
 3335.7800     8.9894      .0231    50.5434    14.4348     2.5546
 3335.9324     9.0154      .0286    51.9757    14.6370     2.5560
 3336.0848     9.0394      .0381    51.1629    14.6760     2.5496
 3336.2372     9.0285      .0173    49.4413    14.2526     2.5252
 3336.3896     8.9996      .0563    47.1384    14.4940     2.5449
 3336.5420     8.9776      .0829    43.6260    14.9222     2.5646
 3336.6944     8.9599      .0744    40.5544    15.4159     2.5501
 3336.8468     8.9421      .0609    38.0054    14.0057     2.5594
 3336.9992     8.9435      .0481    36.1972    12.4777     2.5590
 3337.1516     9.0273      .0275    35.7112    11.3608     2.5777
 3337.3040     9.0049      .0445    37.8278    10.7721     2.5953
 3337.4564     9.0001      .0471    38.9561    11.3328     2.5980
 3337.6088     9.0214      .0561    38.9715    12.0307     2.5926
 3337.7612     8.9812      .0325    37.8998    12.6937     2.5793
 3337.9136     8.9464      .0447    35.8044    13.2849     2.5977
 3338.0660     8.9343      .0841    34.2508    13.5665     2.6193
 3338.2184     8.9287      .0584    33.3124    13.1020     2.5923
 3338.3708     8.9378      .0404    31.8643    12.2501     2.5815
 3338.5232     8.9618      .0558    30.6417    12.5628     2.6055
 3338.6756     8.9857      .0671    31.6422    13.1059     2.6124
 3338.8280     8.9713      .0520    34.1669    13.6749     2.5840
 3338.9804     8.9527      .0369    36.7477    14.2681     2.5681
 3339.1328     8.9481      .0287    38.0117    14.7066     2.5271
 3339.2852     8.9480      .0548    35.4805    14.7878     2.5557
 3339.4376     8.9479      .0673    33.7236    14.5986     2.5656
 3339.5900     8.9561      .0497    33.0051    13.7995     2.5519
 3339.7424     8.9677      .0291    32.3128    13.0533     2.5380
 3339.8948     8.9676      .0230    33.5428    13.2775     2.5379
 3340.0472     8.9694      .0161    34.6380    13.3863     2.5242
 3340.1996     8.9827      .0462    35.0390    12.0447     2.5476
 3340.3520     8.9872      .0384    33.8577    11.6739     2.5461
 3340.5044     8.9872      .0251    32.0560    11.7551     2.5319
 3340.6568     8.9871      .0147    30.8559    11.5387     2.5330
 3340.8092     8.9870      .0145    29.6658    11.3819     2.5207
 3340.9616     8.9869      .0389    30.9108    11.5641     2.5559
 3341.1140     8.9868      .0604    34.5821    12.5394     2.5721
 3341.2664     8.9868      .0760    37.5795    14.3385     2.5731
 3341.4188     8.9867      .0457    39.2798    15.8153     2.5461
 3341.5712     8.9866      .0153    39.6843    15.0637     2.5201
 3341.7236     8.9865      .0364    41.7650    14.3825     2.5368
 3341.8760     8.9864      .0508    43.4620    14.2079     2.5514
 3342.0284     8.9864      .0466    42.8221    14.2124     2.5476
 3342.1808     8.9863      .0379    40.8532    13.8972     2.5341
 3342.3332     8.9862      .0500    38.9982    13.5209     2.5500
 3342.4856     8.9828      .0397    37.4667    13.1498     2.5560
 3342.6380     9.0798      .0499    36.7692    12.8477     2.5481
 3342.7904     8.9731      .0410    37.0964    13.7049     2.5253
 3342.9428     8.9859      .0499    37.9763    15.1443     2.5295
 3343.0952     8.9858      .0473    39.1781    15.8523     2.5481
 3343.2476     8.9988      .0579    39.8217    15.1170     2.5686
 3343.4000     9.0147      .0555    41.2031    14.4740     2.5820
 3343.5524     9.0307      .0457    42.5163    14.9011     2.5594
 3343.7048     9.0467      .0445    42.6123    15.0569     2.5452
