~VERSION INFORMATION
VERS.                                                 2.0:   CWLS Log ASCII Standard-VERSION 2.0
WRAP.                                                  NO:   One line per depth step
~Well Information Block
STRT.M                                          2748.8876:   Top Depth
STOP.M                                          3723.6380:   Bottom Depth
STEP.M                                             .15240:   Depth Increment
NULL.                                            -999.250:   Null Value
FLD .                                             WILDCAT:   Field Name
WELL.                                              15/6-5:   NAME
WBN .                                              15/6-5:   WELLBORE
NATI.                                                 NOR:   COUNTRY
BHT1.DEGF                                           104.0:   BH TEMP 1
BS1 .IN                                             17.50:   BIT SIZE 1
CTRY.                                                 NOR:   COUNTRY
CBD1.M                                       166.79998779:   CSG 1 DRILL DEP
CBL1.M                                              166.0:   CSG 1 LOG DEP
CS1 .IN                                              30.0:   CSG 1 SIZE
COMP.                                      ESSO NORGE A/S:   OPERATOR
PDAT.                                                 MSL:   PERM DATUM
PROV.                                           NORTH SEA:   PROVINCE
COUN.                                         DRILLMASTER:   RIG NAME
SPUD.                                          1977/10/10:   SPUD DATE
LATI.                                       58 30 29.90 N:   SURF. LATITUDE
LONG.                                        1 45 50.70 E:   SURF. LONGITUDE
BTD1.                                      383.20001221 M:   TOTAL DEPTH 1
PBWE.                                              15/6-5:   PB WELL ID
APIN.                                              15/6-5:   PB WELLBORE ID
PBWS.                                                 all:   PB WELL NAME SET
~PARAMETER INFORMATION (log)
LNAM.                              FDC/CNL/GR  COMPOSITED:   NAME
LTYP.                                         DEPTH MATCH:   LOG TYPE
LSRV.                                            DEN/NEUT:   LOG SERVICE
LSOU.                                             SPT/NPD:   LOG SOURCE
LVSN.                                                   1:   LOG VERSION
BHIS.                                                   R:   BRIEF HISTORY
FHIS.                                             RAW-LIS:   FULL HISTORY
LCNM.                                                 SCH:   LOGGING CONTRACTOR
TOOL.                             FDC/CNL/GR (COMPOSITED):   TOOL STRING
~Curve Information Block
#MNEM.UNIT                                        API CODE    No Description
#=========                                        ========    == ===========
DEPT.M                                       00 001 00 00:     1  DEPTH
CALI.IN                                                  :     2  Caliper
DRHO.G/CC                                                :     3  Bulk density correction
GR.GAPI                                                  :     4  Gamma Ray
NPHI.%                                                   :     5  Neutron porosity
RHOB.G/CC                                                :     6  Bulk density
~ASCII
# ...
 3566.9708     9.4658      .0454    89.3789    38.0459     2.3408
 3567.1232     9.4649      .0804    91.8952    39.7377     2.3192
 3567.2756     9.4543      .0934    91.9406    37.3461     2.2702
 3567.4280     9.3740      .0898    88.8799    35.2911     2.2537
 3567.5804     9.6572      .1307    89.4732    33.8376     2.2669
 3567.7328     9.7856      .1211    93.3530    34.7543     2.2511
 3567.8852     9.7867      .1202    93.9302    36.3634     2.2561
 3568.0376     9.8011      .1234    92.4573    38.0308     2.2615
 3568.1900     9.9116      .1109    92.6556    38.7954     2.2674
 3568.3424    10.1935      .0919    92.5518    39.3724     2.2804
 3568.4948    10.2971      .0520    90.0579    40.0538     2.3159
 3568.6472     9.5388      .0487    86.3784    39.7308     2.3339
 3568.7996     9.8069      .0977    83.4066    38.5771     2.3633
 3568.9520     9.6388      .1361    79.8117    37.2922     2.3834
 3569.1044     9.6874      .0896    72.6761    33.7821     2.3618
 3569.2568     9.4456      .0233    65.5518    32.3234     2.3431
 3569.4092     9.5904      .0007    59.2784    32.8824     2.3372
 3569.5616     9.6914     -.0088    60.3760    33.6944     2.3302
 3569.7140     9.6973      .0351    63.6920    34.1986     2.3460
 3569.8664     9.6780      .1046    67.0227    32.7230     2.3784
 3570.0188     9.8535      .0852    70.6776    31.7061     2.3382
 3570.1712    10.4604      .1303    74.9389    33.3099     2.3240
 3570.3236    11.0078      .1420    81.6245    33.3299     2.2836
 3570.4760    11.5047      .1234    87.6598    32.5425     2.2588
 3570.6284    11.6188      .1271    90.3168    33.4637     2.2555
 3570.7808    11.8311      .1424    89.9996    34.3524     2.2586
 3570.9332    12.0336      .1334    90.6406    35.7684     2.2541
 3571.0856    11.9788      .1359    87.2236    36.7060     2.2587
 3571.2380    12.2434      .1354    85.3543    36.4922     2.2649
 3571.3904    12.3752      .1265    79.5616    35.8754     2.2758
 3571.5428    12.3949      .1309    74.4062    34.9878     2.2994
 3571.6952    11.6123      .1223    76.2634    35.5484     2.3212
 3571.8476    10.0568      .1073    80.6793    36.6240     2.3513
 3572.0000    10.5053      .1544    80.2585    37.1124     2.3426
 3572.1524    11.2200      .1425    80.0174    36.4780     2.3264
 3572.3048    11.4733      .1432    77.5828    36.2664     2.3569
 3572.4572    11.5323      .1575    76.6222    36.5667     2.3707
 3572.6096    11.9972      .1369    77.0808    36.9656     2.3391
 3572.7620    12.2334      .1216    76.7763    37.6884     2.3064
 3572.9144    11.7108      .1471    75.0253    37.6803     2.3483
 3573.0668    10.2571      .1324    74.1927    38.3407     2.3780
 3573.2192    10.8030      .0940    75.2273    39.8544     2.3299
 3573.3716    11.0644      .0816    72.9153    39.2672     2.3065
 3573.5240    11.2514      .0872    71.1739    38.1703     2.2821
 3573.6764    11.4568      .0926    70.0217    37.2063     2.2322
 3573.8288    11.4579      .0556    70.3564    36.2813     2.2009
 3573.9812    10.9386      .0138    72.8301    34.3969     2.2057
 3574.1336    10.9976      .0703    74.3200    36.7583     2.2346
 3574.2860    11.0549      .1225    74.3033    37.0125     2.2836
 3574.4384    10.9436      .1296    72.6556    35.4812     2.2694
 3574.5908    10.8324      .1376    76.3063    34.6030     2.3219
 3574.7432    11.1113      .1688    78.1328    34.9921     2.3468
 3574.8956    11.0440      .1731    79.9479    37.0392     2.3459
 3575.0480    11.1498      .1616    76.3964    36.8829     2.3339
 3575.2004    11.2050      .1578    73.8347    34.9706     2.3461
 3575.3528    11.2357      .1565    72.6023    35.8902     2.3467
 3575.5052    11.1960      .1524    71.9996    37.1238     2.3513
 3575.6576    11.1515      .1735    71.9811    35.7914     2.3736
 3575.8100    11.1273      .1830    75.1840    34.5336     2.3798
 3575.9624    10.9050      .1641    75.7092    33.7239     2.3611
 3576.1148    10.8178      .1451    73.8133    34.1933     2.3523
 3576.2672    11.2731      .1328    74.4056    34.9741     2.3402
 3576.4196    10.8914      .1322    74.9342    35.7514     2.3278
 3576.5720    11.6839      .1387    78.0985    35.5600     2.3373
 3576.7244    11.8181      .1140    81.2781    34.7390     2.3303
 3576.8768    11.7405      .1090    81.2738    34.6926     2.3237
 3577.0292    11.7010      .1113    80.7758    35.4142     2.3269
 3577.1816    11.7014      .1110    80.5101    34.9064     2.3281
 3577.3340    11.6838      .1138    80.3493    35.4011     2.3349
 3577.4864    11.5793      .1177    80.7099    36.9363     2.3231
 3577.6388    11.3076      .1233    80.2007    38.9385     2.2870
 3577.7912    10.7707      .1285    78.7009    40.2144     2.2820
 3577.9436    10.2563      .1332    76.9196    38.4106     2.2714
 3578.0960    10.0048      .1235    75.8949    36.5690     2.2548
 3578.2484     9.9908      .1182    73.0530    33.9769     2.2729
 3578.4008    10.0239      .1224    70.5524    32.1050     2.2950
 3578.5532    10.1511      .1027    69.9195    31.7430     2.2941
 3578.7056    10.5747      .0678    71.4459    32.2254     2.2960
 3578.8580    10.3450      .0074    74.2918    30.7209     2.3445
 3579.0104     9.7641      .0108    76.5487    31.0128     2.3620
 3579.1628     9.5967      .0818    76.8919    31.5011     2.3925
 3579.3152     9.5417      .1799    76.1291    31.4154     2.4201
 3579.4676     9.9489      .1826    75.4704    33.1287     2.3533
 3579.6200    11.1981      .1655    76.9222    34.0889     2.3481
 3579.7724    11.1176      .1641    78.6772    34.1966     2.3825
 3579.9248    10.5946      .1785    81.9566    35.0831     2.4025
 3580.0772    10.9930      .1678    83.8459    36.8688     2.3771
 3580.2296    10.9201      .1420    84.3100    38.6192     2.3391
 3580.3820    11.0808      .0884    80.3992    39.3921     2.2621
 3580.5344    11.8355      .0497    74.4869    40.0536     2.1755
 3580.6868    10.9075      .0358    71.5281    39.4457     2.0832
 3580.8392    10.3452      .0778    70.6942    38.0085     2.0887
 3580.9916    11.1768      .0971    70.0359    37.8809     2.0829
 3581.1440    11.2278      .0969    69.6689    38.4627     2.1353
 3581.2964    11.3036      .1051    73.3342    38.1536     2.2102
 3581.4488    11.4356      .1162    78.7499    37.0861     2.3238
 3581.6012    11.5968      .1066    80.4068    37.6721     2.3503
 3581.7536    11.7622      .1125    79.6885    36.7755     2.3571
 3581.9060    11.6807      .1306    80.0063    35.2624     2.3503
 3582.0584    11.3456      .1352    75.8609    34.0531     2.3082
 3582.2108    11.2328      .1141    73.7122    33.7757     2.2789
 3582.3632    10.7906      .0931    77.8404    34.2016     2.2631
 3582.5156     9.5838      .1076    81.8080    34.6674     2.3185
 3582.6680    10.4658      .1563    80.4565    35.1492     2.3263
 3582.8204    10.8502      .1596    81.4369    35.6559     2.3457
 3582.9728    10.9885      .1705    80.2381    36.1708     2.3756
 3583.1252    11.0149      .1791    81.4337    35.8129     2.3870
 3583.2776    10.9913      .1694    80.1114    34.9100     2.3836
 3583.4300    11.0013      .1618    78.1369    35.3490     2.3711
 3583.5824    11.0328      .1627    76.6397    33.7294     2.3667
 3583.7348    11.0103      .1788    76.4331    33.0521     2.3741
 3583.8872    11.1258      .1673    75.3052    34.5728     2.3309
 3584.0396    10.0900      .1436    77.1227    36.1118     2.3094
 3584.1920    10.4256      .1314    79.2503    34.3774     2.2640
 3584.3444    10.5770      .1246    76.1721    34.1464     2.2537
 3584.4968    11.2455      .1087    75.3134    35.3474     2.2609
 3584.6492    11.3476      .0937    73.5612    34.1019     2.2504
 3584.8016    11.3780      .0949    72.8537    32.8793     2.2549
 3584.9540    11.3678      .1008    71.2817    33.9134     2.2733
 3585.1064    11.2726      .1085    69.8865    34.5359     2.3166
 3585.2588    10.4886      .1049    68.0921    33.8480     2.3710
 3585.4112    10.1191      .1340    67.6047    31.5597     2.3992
