~VERSION INFORMATION
VERS.                                                 2.0:   CWLS Log ASCII Standard-VERSION 2.0
WRAP.                                                  NO:   One line per depth step
~Well Information Block
STRT.M                                          2748.8876:   Top Depth
STOP.M                                          3723.6380:   Bottom Depth
STEP.M                                             .15240:   Depth Increment
NULL.                                            -999.250:   Null Value
FLD .                                             WILDCAT:   Field Name
WELL.                                              15/6-5:   NAME
WBN .                                              15/6-5:   WELLBORE
NATI.                                                 NOR:   COUNTRY
BHT1.DEGF                                           104.0:   BH TEMP 1
BS1 .IN                                             17.50:   BIT SIZE 1
CTRY.                                                 NOR:   COUNTRY
CBD1.M                                       166.79998779:   CSG 1 DRILL DEP
CBL1.M                                              166.0:   CSG 1 LOG DEP
CS1 .IN                                              30.0:   CSG 1 SIZE
COMP.                                      ESSO NORGE A/S:   OPERATOR
PDAT.                                                 MSL:   PERM DATUM
PROV.                                           NORTH SEA:   PROVINCE
COUN.                                         DRILLMASTER:   RIG NAME
SPUD.                                          1977/10/10:   SPUD DATE
LATI.                                       58 30 29.90 N:   SURF. LATITUDE
LONG.                                        1 45 50.70 E:   SURF. LONGITUDE
BTD1.                                      383.20001221 M:   TOTAL DEPTH 1
PBWE.                                              15/6-5:   PB WELL ID
APIN.                                              15/6-5:   PB WELLBORE ID
PBWS.                                                 all:   PB WELL NAME SET
~PARAMETER INFORMATION (log)
LNAM.                              FDC/CNL/GR  COMPOSITED:   NAME
LTYP.                                         DEPTH MATCH:   LOG TYPE
LSRV.                                            DEN/NEUT:   LOG SERVICE
LSOU.                                             SPT/NPD:   LOG SOURCE
LVSN.                                                   1:   LOG VERSION
BHIS.                                                   R:   BRIEF HISTORY
FHIS.                                             RAW-LIS:   FULL HISTORY
LCNM.                                                 SCH:   LOGGING CONTRACTOR
TOOL.                             FDC/CNL/GR (COMPOSITED):   TOOL STRING
~Curve Information Block
#MNEM.UNIT                                        API CODE    No Description
#=========                                        ========    == ===========
DEPT.M                                       00 001 00 00:     1  DEPTH
CALI.IN                                                  :     2  Caliper
DRHO.G/CC                                                :     3  Bulk density correction
GR.GAPI                                                  :     4  Gamma Ray
NPHI.%                                                   :     5  Neutron porosity
RHOB.G/CC                                                :     6  Bulk density
~ASCII
# ...
 3511.1924    12.7124      .0808    67.7093    36.5976     2.1500
 3511.3448    12.1051      .0609    63.0773    37.1917     2.0846
 3511.4972    11.5364      .0306    60.4872    36.6121     2.0279
 3511.6496    11.3264      .0238    59.5715    34.9720     1.9717
 3511.8020    11.9815      .0481    61.6941    33.3580     1.9320
 3511.9544    12.3117      .0338    63.8672    33.3435     1.9239
 3512.1068    12.3326      .0347    63.1972    34.6009     1.9687
 3512.2592    12.0771      .0490    63.0874    35.3805     2.0451
 3512.4116    11.2491      .0634    63.9257    33.2027     2.1335
 3512.5640    11.0961      .0382    65.0542    29.3472     2.2405
 3512.7164    11.4673      .0073    65.0997    25.5240     2.3462
 3512.8688    11.5581      .1051    65.5459    28.2400     2.3692
 3513.0212    11.6974      .1063    67.8725    31.0945     2.2598
 3513.1736    12.0349      .0937    68.0514    33.5351     2.2574
 3513.3260    12.1416      .1002    69.1223    34.1832     2.2840
 3513.4784    12.2465      .1072    70.8028    36.4531     2.2721
 3513.6308    12.4726      .0892    74.1883    36.2573     2.2281
 3513.7832    12.6161      .0843    75.5251    36.0027     2.2572
 3513.9356    12.5567      .0999    74.2402    36.3401     2.2781
 3514.0880    12.6765      .0965    72.5945    35.6752     2.2526
 3514.2404    11.9126      .0956    73.4743    34.5839     2.2420
 3514.3928    12.2776      .1180    75.1366    34.5520     2.2603
 3514.5452    12.4276      .1279    76.9389    34.9836     2.2881
 3514.6976    12.4055      .0954    77.7100    35.6632     2.2880
 3514.8500    12.3067      .1054    75.8494    36.2975     2.2974
 3515.0024    12.2172      .1061    73.5101    37.4198     2.2845
 3515.1548    12.6052      .0882    74.4206    37.2362     2.2546
 3515.3072    13.3541      .1042    72.8873    36.4417     2.2899
 3515.4596    12.9941      .1232    71.1363    37.0969     2.3135
 3515.6120    12.9755      .1231    71.1405    35.4706     2.3200
 3515.7644    12.9159      .1244    69.3848    33.8468     2.3360
 3515.9168    12.5418      .0891    69.7575    33.5177     2.3400
 3516.0692    12.2012      .0537    70.6122    34.3685     2.3365
 3516.2216    12.0687      .0979    69.8884    35.6812     2.3712
 3516.3740    12.0206      .1350    69.1122    37.5092     2.3860
 3516.5264    12.1446      .1046    66.8174    36.8830     2.3167
 3516.6788    12.4808      .1118    68.1405    35.6646     2.3077
 3516.8312    12.5176      .1098    69.1184    34.4449     2.3043
 3516.9836    12.7212      .1023    69.4044    33.0441     2.3030
 3517.1360    12.9919      .0905    71.2887    32.4502     2.2985
 3517.2884    13.0318      .0863    70.7293    32.4229     2.2942
 3517.4408    12.9996      .0890    71.5019    32.5345     2.2853
 3517.5932    12.8331      .0856    70.8635    32.4986     2.2542
 3517.7456    12.5156      .0708    70.2003    31.4173     2.2190
 3517.8980    11.9863      .0516    68.1662    29.3966     2.1495
 3518.0504    11.3621      .0457    65.8923    27.3808     2.1056
 3518.2028    12.1461      .0738    63.3069    25.9858     2.0873
 3518.3552    12.6739      .1024    63.4073    28.0369     2.1350
 3518.5076    12.4976      .1179    66.9774    30.0979     2.1990
 3518.6600    12.3651      .1254    69.8712    32.1522     2.2705
 3518.8124    12.0986      .1050    70.3164    33.1944     2.2906
 3518.9648    12.4829      .1143    68.4662    32.9523     2.2875
 3519.1172    12.6951      .0958    66.5401    33.1156     2.2577
 3519.2696    13.0983      .0754    66.6585    33.7659     2.2265
 3519.4220    12.8624      .0841    65.4488    36.1858     2.2379
 3519.5744    12.8462      .0758    63.1241    36.8626     2.2179
 3519.7268    12.8612      .0771    62.0457    35.4410     2.1992
 3519.8792    12.7465      .0994    58.9085    33.9097     2.2187
 3520.0316    12.5240      .0886    57.3662    32.7931     2.2069
 3520.1840    12.3520      .0941    59.7945    30.4491     2.1808
 3520.3364    11.5845      .1037    61.9555    28.1088     2.1811
 3520.4888    11.3516      .1172    62.9448    26.5252     2.1622
 3520.6412    12.4303      .1197    63.9932    27.5636     2.1375
 3520.7936    12.6348      .1157    66.0555    29.8621     2.1180
 3520.9460    12.6574      .0929    66.8168    32.8375     2.0905
 3521.0984    12.5030      .0865    68.0274    34.2726     2.0773
 3521.2508    12.0591      .0954    69.2438    33.8188     2.1101
 3521.4032    12.3872      .0997    70.7124    33.2854     2.1553
 3521.5556    12.1481      .0879    72.3517    32.6342     2.2125
 3521.7080    11.9479      .0981    73.3953    32.3287     2.2846
 3521.8604    12.2671      .0709    72.1351    31.9370     2.2782
 3522.0128    12.7886      .0610    69.9464    31.5323     2.2942
 3522.1652    12.7945      .1067    67.9751    32.0966     2.3224
 3522.3176    12.5810      .1328    68.4398    33.0140     2.3475
 3522.4700    12.3172      .1273    69.0129    32.4651     2.3330
 3522.6224    12.3898      .1522    69.1448    31.6281     2.3245
 3522.7748    12.6291      .1821    67.8953    31.7403     2.3407
 3522.9272    12.9881      .1925    62.0748    32.2415     2.3308
 3523.0796    12.9365      .1495    55.9720    32.3669     2.2600
 3523.2320    11.9733      .1323    52.0180    32.6824     2.2383
 3523.3844    12.3536      .1141    50.4792    33.0678     2.2507
 3523.5368    12.3134      .1325    50.3443    31.9419     2.2782
 3523.6892    12.2739      .0961    51.4800    30.8179     2.2513
 3523.8416    12.4944      .0753    51.7651    29.6885     2.2498
 3523.9940    12.6275      .0900    51.2452    31.5566     2.2484
 3524.1464    12.4473      .1047    52.0398    33.3610     2.2616
 3524.2988    11.1882      .0920    54.0425    34.6411     2.3115
 3524.4512    10.5746      .1412    61.4703    33.7540     2.3757
 3524.6036    11.1452      .1288    72.7656    33.1365     2.2378
 3524.7560    11.7051      .0895    78.4483    33.4061     2.1815
 3524.9084    11.6160      .0555    75.9612    32.1372     2.1725
 3525.0608    11.9062      .0231    73.8065    30.7142     2.1934
 3525.2132    11.9615      .0573    73.0303    28.8882     2.2039
 3525.3656    12.0772      .0916    72.6714    27.0387     2.2052
 3525.5180    12.7860      .0894    72.2747    27.6764     2.1987
 3525.6704    13.1036      .0778    72.0065    28.4166     2.1889
 3525.8228    12.5172      .1031    70.3188    29.1960     2.1790
 3525.9752    12.8027      .1197    68.1442    31.1875     2.1849
 3526.1276    12.6949      .1326    67.0331    32.8663     2.2336
 3526.2800    12.3385      .1222    65.2608    33.8172     2.2668
 3526.4324    11.3097      .1102    66.7257    33.0357     2.2761
 3526.5848    11.2537      .0911    66.2923    31.8079     2.2549
 3526.7372    11.5367      .1056    65.0051    33.0520     2.2555
 3526.8896    12.6333      .0948    64.9009    33.8045     2.2293
 3527.0420    12.6580      .1040    64.6394    32.3574     2.2038
 3527.1944    12.6382      .1104    63.5400    31.2285     2.1874
 3527.3468    12.5881      .1133    63.3495    30.7652     2.1792
 3527.4992    12.5160      .1177    64.4277    31.6791     2.1892
 3527.6516    12.4628      .1231    61.7978    32.3876     2.2414
 3527.8040    12.3842      .1342    65.2467    31.5951     2.2986
 3527.9564    12.2993      .1428    65.8311    30.6122     2.3062
 3528.1088    12.2537      .1269    64.2213    30.8135     2.3112
 3528.2612    12.3090      .1296    58.7870    29.1196     2.3536
 3528.4136    12.4870      .1673    53.2242    26.5975     2.4142
 3528.5660    11.1431      .1868    48.9681    20.4555     2.4957
 3528.7184    11.1545      .1789    48.7717    13.5807     2.4777
 3528.8708    11.2214      .1540    48.6827    14.6191     2.4208
 3529.0232    11.2375      .1287    54.8112    15.6591     2.3390
 3529.1756    11.2083      .1123    62.4317    16.9556     2.2255
 3529.3280    11.1603      .1180    65.6391    20.2750     2.1453
 3529.4804    11.3425      .1040    65.8798    26.5669     2.1156
 3529.6328    11.5179      .0961    68.1389    31.8889     2.1247
