~VERSION INFORMATION
VERS.                                                 2.0:   CWLS Log ASCII Standard-VERSION 2.0
WRAP.                                                  NO:   One line per depth step
~Well Information Block
STRT.M                                          2748.8876:   Top Depth
STOP.M                                          3723.6380:   Bottom Depth
STEP.M                                             .15240:   Depth Increment
NULL.                                            -999.250:   Null Value
FLD .                                             WILDCAT:   Field Name
WELL.                                              15/6-5:   NAME
WBN .                                              15/6-5:   WELLBORE
NATI.                                                 NOR:   COUNTRY
BHT1.DEGF                                           104.0:   BH TEMP 1
BS1 .IN                                             17.50:   BIT SIZE 1
CTRY.                                                 NOR:   COUNTRY
CBD1.M                                       166.79998779:   CSG 1 DRILL DEP
CBL1.M                                              166.0:   CSG 1 LOG DEP
CS1 .IN                                              30.0:   CSG 1 SIZE
COMP.                                      ESSO NORGE A/S:   OPERATOR
PDAT.                                                 MSL:   PERM DATUM
PROV.                                           NORTH SEA:   PROVINCE
COUN.                                         DRILLMASTER:   RIG NAME
SPUD.                                          1977/10/10:   SPUD DATE
LATI.                                       58 30 29.90 N:   SURF. LATITUDE
LONG.                                        1 45 50.70 E:   SURF. LONGITUDE
BTD1.                                      383.20001221 M:   TOTAL DEPTH 1
PBWE.                                              15/6-5:   PB WELL ID
APIN.                                              15/6-5:   PB WELLBORE ID
PBWS.                                                 all:   PB WELL NAME SET
~PARAMETER INFORMATION (log)
LNAM.                              FDC/CNL/GR  COMPOSITED:   NAME
LTYP.                                         DEPTH MATCH:   LOG TYPE
LSRV.                                            DEN/NEUT:   LOG SERVICE
LSOU.                                             SPT/NPD:   LOG SOURCE
LVSN.                                                   1:   LOG VERSION
BHIS.                                                   R:   BRIEF HISTORY
FHIS.                                             RAW-LIS:   FULL HISTORY
LCNM.                                                 SCH:   LOGGING CONTRACTOR
TOOL.                             FDC/CNL/GR (COMPOSITED):   TOOL STRING
~Curve Information Block
#MNEM.UNIT                                        API CODE    No Description
#=========                                        ========    == ===========
DEPT.M                                       00 001 00 00:     1  DEPTH
CALI.IN                                                  :     2  Caliper
DRHO.G/CC                                                :     3  Bulk density correction
GR.GAPI                                                  :     4  Gamma Ray
NPHI.%                                                   :     5  Neutron porosity
RHOB.G/CC                                                :     6  Bulk density
~ASCII
# ...
 2879.0372     8.6023      .0264     7.9744     8.9098     2.4216
 2879.1896     8.5901      .0508     7.9422     7.8528     2.4851
 2879.3420     8.5966      .0762     7.5392     7.1539     2.5518
 2879.4944     8.7640      .0747     7.8649     6.3048     2.5838
 2879.6468     8.9498      .1033     9.1837     5.3233     2.5918
 2879.7992     9.2680      .1260     9.1340     4.8949     2.5858
 2879.9516     9.6137      .1154     9.2614     5.2394     2.5519
 2880.1040     9.6914      .0966     9.8995     5.4228     2.5393
 2880.2564     9.4782      .0907    10.5495     5.3920     2.5525
 2880.4088     9.4615      .1345    11.0201     5.3828     2.5738
 2880.5612     9.3555      .1537    11.0652     5.7050     2.5901
 2880.7136     9.1253      .0939    11.0249     5.6047     2.5363
 2880.8660     9.2172      .0518    11.3632     5.4045     2.5080
 2881.0184     9.3433      .1117    12.9091     6.2683     2.5235
 2881.1708     9.5904      .1547    14.1634     7.9556     2.4713
 2881.3232     9.7117      .1353    13.0592     6.5385     2.4468
 2881.4756     9.6410      .1242    11.1326     4.6580     2.5222
 2881.6280     9.5531      .1155    10.5467     4.7277     2.5967
 2881.7804     9.1258      .0963    11.0848     5.0894     2.6382
 2881.9328     8.9366      .1076    11.5261     5.6862     2.6616
 2882.0852     8.8921      .0851    11.7679     5.6570     2.6372
 2882.2376     8.8921      .0930    13.3328     6.1208     2.6282
 2882.3900     8.9000      .1468    17.0631     8.3429     2.6417
 2882.5424     8.9156      .1797    22.9902    12.5065     2.5984
 2882.6948     8.9423      .1536    28.9343    17.4833     2.5036
 2882.8472     9.0352      .1214    31.6108    21.1770     2.4324
 2882.9996     9.0247      .0801    31.8372    20.4793     2.4349
 2883.1520     9.0119      .0698    25.1847    17.4193     2.4781
 2883.3044     8.9710      .0463    22.5740    13.1473     2.5113
 2883.4568     9.0975      .0827    23.3838    10.8237     2.5486
 2883.6092     9.1615      .0765    26.2530    12.1122     2.5066
 2883.7616     9.0913      .0479    27.2568    14.3905     2.4588
 2883.9140     9.1700      .0588    26.9811    16.4997     2.4338
 2884.0664     9.0193      .0740    26.7756    17.4603     2.4308
 2884.2188     8.9593      .0693    26.9295    18.4622     2.4108
 2884.3712     9.0166      .0605    27.1071    17.3574     2.4146
 2884.5236     9.0531      .1043    27.1614    15.3221     2.4606
 2884.6760     9.0584      .1325    25.5766    14.8762     2.4655
 2884.8284     9.3882      .1027    23.3346    15.2204     2.4564
 2884.9808     9.1080      .1440    21.1729    12.5257     2.4984
 2885.1332     9.3006      .1450    20.3471    11.2649     2.4818
 2885.2856     9.5544      .1380    20.4402    12.9858     2.4343
 2885.4380     9.8857      .1253    20.9516    15.1925     2.3945
 2885.5904    10.1078      .0878    21.2600    16.3416     2.3770
 2885.7428     9.7418      .0663    20.5470    17.0161     2.4136
 2885.8952     8.9923      .1012    21.3140    15.3343     2.4824
 2886.0476     9.1253      .1388    22.3214    14.1667     2.5014
 2886.2000     9.2703      .1442    22.5423    13.2470     2.5046
 2886.3524     9.2416      .1487    22.8318    14.0868     2.4802
 2886.5048     9.1424      .1654    23.8240    15.2175     2.4624
 2886.6572     9.3139      .1589    23.4084    12.6351     2.4703
 2886.8096     9.6756      .1557    20.8702    10.0411     2.4466
 2886.9620     9.9310      .1457    20.4119    10.7642     2.4275
 2887.1144    10.2217      .1262    20.7010    12.8944     2.4095
 2887.2668     9.8983      .1060    20.9227    15.0232     2.4118
 2887.4192     9.6547      .1146    19.4217    18.5721     2.3843
 2887.5716    10.0478      .0642    14.3920    21.7849     2.3738
 2887.7240    10.1049      .0381     9.2065    19.0983     2.4174
 2887.8764    10.0168      .0227     9.0486    13.3701     2.4664
 2888.0288     9.6783      .0183     9.5893     8.6358     2.5073
 2888.1812     9.0843      .0188    10.5003     6.9844     2.5560
 2888.3336     8.8403      .0187    11.8494     7.5259     2.5398
 2888.4860     8.8980      .0352    14.5743     9.8230     2.5212
 2888.6384     8.8198      .0752    17.6757    13.8400     2.5253
 2888.7908     8.9054      .0627    18.8643    16.1288     2.5330
 2888.9432     8.8530      .0603    17.9790    13.1663     2.6113
 2889.0956     8.8556      .0755    18.2301     9.9687     2.6398
 2889.2480     8.8632      .0535    19.6464    10.9905     2.6028
 2889.4004     8.8708      .0200    21.0817    13.1684     2.5484
 2889.5528     8.8853      .0292    22.1339    14.7929     2.4976
 2889.7052     8.9014      .0460    22.3460    15.4225     2.4964
 2889.8576     8.9130      .0390    22.1113    14.2873     2.4705
 2890.0100     8.9130      .0520    21.0673    11.7783     2.4660
 2890.1624     8.9155      .0479    19.7603     8.1492     2.4525
 2890.3148     8.9286      .0161    17.7261     6.9267     2.4410
 2890.4672     8.9062      .0149    15.1595     7.7017     2.4728
 2890.6196     8.8824      .0265    15.2161     8.8132     2.4835
 2890.7720     8.8795      .0666    17.7613    10.4413     2.4302
 2890.9244     9.0324      .0906    20.0310    13.1167     2.3808
 2891.0768     9.0140      .0225    18.4077    15.8928     2.3773
 2891.2292     8.8226      .0104    13.6191    13.3453     2.4678
 2891.3816     8.8170      .0187    10.8119     9.8028     2.5428
 2891.5340     8.8293      .0218    11.1817    10.2876     2.5175
 2891.6864     8.8179      .0299    13.0180    12.4361     2.4768
 2891.8388     8.8010      .0460    13.7205    14.7992     2.4550
 2891.9912     8.8135      .0204    11.3575    16.0229     2.4207
 2892.1436     8.7253      .0141     9.4015    12.4531     2.4756
 2892.2960     8.6344      .0197     9.0716    11.3899     2.5203
 2892.4484     8.6440      .0212     8.6629    11.6718     2.5234
 2892.6008     8.6539      .0171     8.3498    11.5078     2.5131
 2892.7532     8.6455      .0135     9.2791    11.1181     2.4968
 2892.9056     8.6340      .0100    10.4923    10.7809     2.4652
 2893.0580     8.6515      .0116    11.4291    10.9980     2.4517
 2893.2104     8.7493      .0288    11.1312    12.2865     2.4617
 2893.3628     8.7672      .0206    11.1703    12.1468     2.4897
 2893.5152     8.7653      .0234    11.1515     9.6201     2.5484
 2893.6676     8.7976      .0269    10.6779     7.8967     2.5520
 2893.8200     8.8051      .0148    11.7218     8.1487     2.5288
 2893.9724     8.7937      .0070    14.2182     8.8836     2.5129
 2894.1248     8.7937      .0051    18.1260     9.9442     2.5009
 2894.2772     8.8036      .0069    23.2955    12.1762     2.4597
 2894.4296     8.8558      .0182    31.5445    17.8040     2.3762
 2894.5820     9.1981      .0523    38.8846    24.1440     2.2846
 2894.7344     9.7357      .0292    43.9605    29.5448     2.2055
 2894.8868     9.3565      .0005    43.8263    30.1836     2.1808
 2895.0392     9.3080     -.0150    39.9037    30.1394     2.1929
 2895.1916     9.3242     -.0149    35.3942    33.5482     2.2137
 2895.3440     9.3212     -.0082    30.6589    32.9179     2.2444
 2895.4964     9.2865      .0003    23.5912    26.4477     2.3057
 2895.6488     8.9882      .0122    13.8239    18.7137     2.3857
 2895.8012     8.5145      .0261     8.8841    16.6191     2.4226
 2895.9536     8.5145      .0376     8.5814    18.7162     2.4185
 2896.1060     8.5146      .0258     8.6803    19.9331     2.3974
 2896.2584     8.5146      .0123     9.1449    20.2252     2.3750
 2896.4108     8.5146      .0028     9.3798    19.8898     2.3622
 2896.5632     8.5146      .0038     9.2393    20.1529     2.3558
 2896.7156     8.5146      .0174     8.9396    21.0094     2.3494
 2896.8680     8.5146      .0226     8.6562    21.4908     2.3417
 2897.0204     8.5147      .0235     8.8489    21.4587     2.3369
 2897.1728     8.5153      .0152     9.0816    22.1741     2.3294
 2897.3252     8.5175      .0105     9.4374    22.8841     2.3259
 2897.4776     8.5197      .0137     9.5283    23.5422     2.3327
