~VERSION INFORMATION
VERS.                                                 2.0:   CWLS Log ASCII Standard-VERSION 2.0
WRAP.                                                  NO:   One line per depth step
~Well Information Block
STRT.M                                          2748.8876:   Top Depth
STOP.M                                          3723.6380:   Bottom Depth
STEP.M                                             .15240:   Depth Increment
NULL.                                            -999.250:   Null Value
FLD .                                             WILDCAT:   Field Name
WELL.                                              15/6-5:   NAME
WBN .                                              15/6-5:   WELLBORE
NATI.                                                 NOR:   COUNTRY
BHT1.DEGF                                           104.0:   BH TEMP 1
BS1 .IN                                             17.50:   BIT SIZE 1
CTRY.                                                 NOR:   COUNTRY
CBD1.M                                       166.79998779:   CSG 1 DRILL DEP
CBL1.M                                              166.0:   CSG 1 LOG DEP
CS1 .IN                                              30.0:   CSG 1 SIZE
COMP.                                      ESSO NORGE A/S:   OPERATOR
PDAT.                                                 MSL:   PERM DATUM
PROV.                                           NORTH SEA:   PROVINCE
COUN.                                         DRILLMASTER:   RIG NAME
SPUD.                                          1977/10/10:   SPUD DATE
LATI.                                       58 30 29.90 N:   SURF. LATITUDE
LONG.                                        1 45 50.70 E:   SURF. LONGITUDE
BTD1.                                      383.20001221 M:   TOTAL DEPTH 1
PBWE.                                              15/6-5:   PB WELL ID
APIN.                                              15/6-5:   PB WELLBORE ID
PBWS.                                                 all:   PB WELL NAME SET
~PARAMETER INFORMATION (log)
LNAM.                              FDC/CNL/GR  COMPOSITED:   NAME
LTYP.                                         DEPTH MATCH:   LOG TYPE
LSRV.                                            DEN/NEUT:   LOG SERVICE
LSOU.                                             SPT/NPD:   LOG SOURCE
LVSN.                                                   1:   LOG VERSION
BHIS.                                                   R:   BRIEF HISTORY
FHIS.                                             RAW-LIS:   FULL HISTORY
LCNM.                                                 SCH:   LOGGING CONTRACTOR
TOOL.                             FDC/CNL/GR (COMPOSITED):   TOOL STRING
~Curve Information Block
#MNEM.UNIT                                        API CODE    No Description
#=========                                        ========    == ===========
DEPT.M                                       00 001 00 00:     1  DEPTH
CALI.IN                                                  :     2  Caliper
DRHO.G/CC                                                :     3  Bulk density correction
GR.GAPI                                                  :     4  Gamma Ray
NPHI.%                                                   :     5  Neutron porosity
RHOB.G/CC                                                :     6  Bulk density
~ASCII
# ...
 2934.8156     8.8482      .0268    12.3552     5.2210     2.6042
 2934.9680     8.8458      .0329    14.6351     7.7933     2.5899
 2935.1204     8.8616      .0527    18.8682    10.3705     2.5668
 2935.2728     8.8642      .0894    22.8097    12.9981     2.5433
 2935.4252     8.8895      .1131    25.2967    16.2210     2.5035
 2935.5776     8.8968      .0718    25.8007    17.6617     2.4509
 2935.7300     8.8869      .0680    23.2828    15.9544     2.4731
 2935.8824     8.8727      .0340    22.4918    14.1160     2.4593
 2936.0348     8.8630      .0734    23.5838    11.5657     2.4554
 2936.1872     8.8718      .1434    25.3545    12.5136     2.4540
 2936.3396     9.0948      .1753    22.8197    12.0142     2.4301
 2936.4920     9.8326      .1708    19.8341     8.4271     2.4347
 2936.6444    10.0404      .1564    17.0930     6.0505     2.4357
 2936.7968    10.0612      .1650    15.8798     6.5806     2.4523
 2936.9492    10.1013      .1715    17.2370     8.5251     2.4674
 2937.1016    10.2029      .1480    17.1625    10.1207     2.4635
 2937.2540    10.0720      .1161    17.9705    11.4971     2.4843
 2937.4064     9.4497      .0858    18.7484    10.8733     2.5185
 2937.5588     8.9654      .1169    19.0149     9.7421     2.6085
 2937.7112     8.9815      .1347    17.4226     9.2375     2.5936
 2937.8636     9.0839      .1438    16.5258     8.8325     2.5748
 2938.0160     9.0853      .1534    16.6248     8.6939     2.5838
 2938.1684     9.0665      .1128    17.6890     8.7916     2.5632
 2938.3208     8.9720      .0802    17.5415     8.4799     2.5453
 2938.4732     8.8818      .1023    15.1843     7.6552     2.5634
 2938.6256     8.9581      .0989    14.3169     7.4179     2.5986
 2938.7780     8.9625      .0597    15.1377     8.3064     2.5665
 2938.9304     8.9306      .0771    15.6889     9.2291     2.5806
 2939.0828     8.9018      .0892    16.8162    10.0385     2.5691
 2939.2352     8.8890      .0721    18.1157    10.4571     2.5520
 2939.3876     8.8876      .1271    18.3711    10.0970     2.5923
 2939.5400     8.9274      .1453    18.9901    10.8402     2.5912
 2939.6924     9.0293      .1163    19.4086    11.8769     2.5603
 2939.8448     9.2054      .0560    18.5473    11.3652     2.5222
 2939.9972     9.0309      .0616    17.3161     9.6782     2.5610
 2940.1496     8.8481      .1147    16.3099     8.1839     2.5931
 2940.3020     8.8753      .1405    15.6005     7.9045     2.5810
 2940.4544     8.9633      .1688    16.0837     8.5460     2.5902
 2940.6068     9.1921      .1395    16.7786     9.5257     2.5361
 2940.7592     9.2633      .1076    17.3105    10.6748     2.4933
 2940.9116     9.0807      .1001    17.4947    11.5138     2.4730
 2941.0640     9.1370      .1055    16.3428    11.9737     2.4468
 2941.2164     9.0234      .1242    16.3489    13.0195     2.4304
 2941.3688     9.3612      .1089    17.5886    13.9046     2.4364
 2941.5212     9.5599      .0867    19.3750    13.7779     2.4657
 2941.6736     9.2520      .0986    21.9798    12.5388     2.5260
 2941.8260     8.9250      .1474    23.7717    13.4144     2.5737
 2941.9784     8.9800      .1445    23.9517    14.8550     2.5324
 2942.1308     9.1453      .1554    21.7639    12.8445     2.5345
 2942.2832     9.1415      .1722    19.4735    10.2866     2.5453
 2942.4356     9.3922      .1720    18.6018    11.2264     2.5135
 2942.5880     9.5832      .1552    19.2167    11.8360     2.4781
 2942.7404     9.6925      .1173    17.4477    11.0389     2.4516
 2942.8928     9.3702      .1216    15.6522    11.1513     2.4905
 2943.0452     9.1290      .1280    15.4182    11.6982     2.5228
 2943.1976     9.2879      .1430    15.1986    11.1445     2.5446
 2943.3500     9.3382      .1587    15.2722    10.5073     2.5473
 2943.5024     9.4828      .1492    17.4643    10.7659     2.5086
 2943.6548     9.5941      .1140    19.7660    10.7107     2.4476
 2943.8072     9.3993      .0753    19.1367    10.1821     2.4192
 2943.9596     8.9757      .0967    17.2296     9.5792     2.4438
 2944.1120     8.8758      .1615    14.6366     8.3074     2.4887
 2944.2644     9.4710      .1643    12.2532     6.7496     2.4858
 2944.4168     9.7452      .1391    10.2577     4.6882     2.5004
 2944.5692     9.6682      .1214     9.6371     4.0464     2.5213
 2944.7216     9.6684      .1444     9.1961     4.4500     2.5329
 2944.8740     9.6724      .1623     8.2553     5.1904     2.5439
 2945.0264     9.4037      .1508     8.4119     5.3411     2.5586
 2945.1788     9.0389      .1582     8.7919     4.7734     2.5793
 2945.3312     9.4053      .1784     9.0553     4.9246     2.5910
 2945.4836     9.7808      .1738    10.6791     5.7599     2.5610
 2945.6360     9.6493      .1443    12.9303     6.7573     2.5122
 2945.7884     9.6903      .1189    15.4815     8.3064     2.4864
 2945.9408     9.7330      .1528    18.5587    10.5835     2.5051
 2946.0932     9.5552      .1451    20.6557    13.3053     2.4947
 2946.2456     9.5136      .0958    21.2329    13.3843     2.4586
 2946.3980     9.1404      .1021    22.6222    12.9738     2.4882
 2946.5504     8.8673      .1501    24.1371    13.1070     2.5342
 2946.7028     8.8632      .1877    23.3262    12.7413     2.5710
 2946.8552     8.9327      .1444    23.4239    12.5202     2.5211
 2947.0076     9.1000      .1020    24.1385    12.0303     2.4959
 2947.1600     8.8818      .1622    24.9592    11.1308     2.5228
 2947.3124     9.2937      .1626    23.1565    10.0710     2.4799
 2947.4648     9.9399      .1579    20.3699     9.2971     2.4557
 2947.6172     9.9846      .1517    20.3818     9.9700     2.4749
 2947.7696     9.7680      .1263    22.5006    12.1643     2.4811
 2947.9220     9.5588      .0581    23.0648    14.2598     2.4802
 2948.0744     9.0880      .0193    22.4186    14.0966     2.4519
 2948.2268     8.8398      .0114    23.2065    14.8255     2.4188
 2948.3792     8.9193     -.0013    22.6591    15.1870     2.4166
 2948.5316     8.9222      .0001    22.6669    15.2136     2.4469
 2948.6840     8.8823      .0161    23.4381    14.1615     2.4912
 2948.8364     8.8178      .0405    24.0003    13.3095     2.5362
 2948.9888     8.8882      .0693    23.5088    13.7281     2.5587
 2949.1412     8.8695      .0741    22.0651    14.5981     2.5753
 2949.2936     8.8667      .0358    19.4799    13.1245     2.5321
 2949.4460     8.8502      .0074    17.1569    11.6181     2.5168
 2949.5984     8.9051      .0169    18.2350    10.6935     2.5186
 2949.7508     8.8826      .0152    18.1626    11.9710     2.5199
 2949.9032     8.8729      .0089    16.2965    12.4842     2.5251
 2950.0556     8.8558      .0307    15.4554    10.7703     2.5628
 2950.2080     8.8234      .0470    15.5140    10.7318     2.5985
 2950.3604     8.8295      .0713    17.2374    13.7749     2.6117
 2950.5128     8.8468      .0920    19.3231    15.4750     2.5778
 2950.6652     8.8740      .0498    19.1998    14.5270     2.5338
 2950.8176     8.9026      .0566    18.3600    13.8990     2.5614
 2950.9700     9.0149      .0466    18.7507    14.9880     2.5444
 2951.1224     8.8869      .0651    19.0508    15.9039     2.5116
 2951.2748     8.8642      .0935    19.0595    16.0739     2.5013
 2951.4272     8.8722      .1052    17.8543    12.9247     2.4814
 2951.5796     8.9217      .0664    16.3092     9.9719     2.4782
 2951.7320     8.8322      .1078    15.6485     9.4394     2.5389
 2951.8844     8.9192      .1288    15.1186    10.2900     2.5663
 2952.0368     9.1979      .0888    14.0333     9.9995     2.5568
 2952.1892     9.2355      .0532    13.1535    11.0205     2.5223
 2952.3416     8.9446      .0699    14.7672    12.7831     2.5241
 2952.4940     8.8398      .0733    16.8532    13.0084     2.5433
 2952.6464     8.8488      .0345    17.6354    11.0644     2.5289
 2952.7988     8.8451      .0378    16.5837     9.4573     2.5534
 2952.9512     8.8348      .0711    17.4816     9.8426     2.5909
 2953.1036     8.8399      .0766    18.9316    11.4829     2.5593
 2953.2560     8.8413      .0675    17.7572    11.7096     2.5373
