~VERSION INFORMATION
VERS.                                                 2.0:   CWLS Log ASCII Standard-VERSION 2.0
WRAP.                                                  NO:   One line per depth step
~Well Information Block
STRT.M                                          2748.8876:   Top Depth
STOP.M                                          3723.6380:   Bottom Depth
STEP.M                                             .15240:   Depth Increment
NULL.                                            -999.250:   Null Value
FLD .                                             WILDCAT:   Field Name
WELL.                                              15/6-5:   NAME
WBN .                                              15/6-5:   WELLBORE
NATI.                                                 NOR:   COUNTRY
BHT1.DEGF                                           104.0:   BH TEMP 1
BS1 .IN                                             17.50:   BIT SIZE 1
CTRY.                                                 NOR:   COUNTRY
CBD1.M                                       166.79998779:   CSG 1 DRILL DEP
CBL1.M                                              166.0:   CSG 1 LOG DEP
CS1 .IN                                              30.0:   CSG 1 SIZE
COMP.                                      ESSO NORGE A/S:   OPERATOR
PDAT.                                                 MSL:   PERM DATUM
PROV.                                           NORTH SEA:   PROVINCE
COUN.                                         DRILLMASTER:   RIG NAME
SPUD.                                          1977/10/10:   SPUD DATE
LATI.                                       58 30 29.90 N:   SURF. LATITUDE
LONG.                                        1 45 50.70 E:   SURF. LONGITUDE
BTD1.                                      383.20001221 M:   TOTAL DEPTH 1
PBWE.                                              15/6-5:   PB WELL ID
APIN.                                              15/6-5:   PB WELLBORE ID
PBWS.                                                 all:   PB WELL NAME SET
~PARAMETER INFORMATION (log)
LNAM.                              FDC/CNL/GR  COMPOSITED:   NAME
LTYP.                                         DEPTH MATCH:   LOG TYPE
LSRV.                                            DEN/NEUT:   LOG SERVICE
LSOU.                                             SPT/NPD:   LOG SOURCE
LVSN.                                                   1:   LOG VERSION
BHIS.                                                   R:   BRIEF HISTORY
FHIS.                                             RAW-LIS:   FULL HISTORY
LCNM.                                                 SCH:   LOGGING CONTRACTOR
TOOL.                             FDC/CNL/GR (COMPOSITED):   TOOL STRING
~Curve Information Block
#MNEM.UNIT                                        API CODE    No Description
#=========                                        ========    == ===========
DEPT.M                                       00 001 00 00:     1  DEPTH
CALI.IN                                                  :     2  Caliper
DRHO.G/CC                                                :     3  Bulk density correction
GR.GAPI                                                  :     4  Gamma Ray
NPHI.%                                                   :     5  Neutron porosity
RHOB.G/CC                                                :     6  Bulk density
~ASCII
 2748.8876  -999.2500      .2522  -999.2500  -999.2500  -999.2500
 2749.0400  -999.2500      .2522     -.0020     -.0378  -999.2500
 2749.1924  -999.2500      .2523     -.1258     -.0365  -999.2500
 2749.3448  -999.2500      .2523      .0589     -.0352  -999.2500
 2749.4972     5.9809      .2524    21.8486     -.0339  -999.2500
 2749.6496     5.9806      .2525    23.6032     -.0326  -999.2500
 2749.8020     5.9803      .2525    24.2028     -.0314     2.9501
 2749.9544     5.9800      .2526    23.3557     -.0301     2.9501
 2750.1068     5.9797      .2526    21.9392     -.0288     2.9501
 2750.2592     5.9794      .2527    20.7609     -.0275     2.9501
 2750.4116     5.9791      .2527    20.5808     -.0263     2.9502
 2750.5640     5.9788      .2528    20.2749     -.0250     2.9502
 2750.7164     5.9785      .2529    20.2792     -.0237     2.9502
 2750.8688     5.9782      .2529    20.5571     -.0224     2.9503
 2751.0212     5.9779      .2530    21.3801     -.0211     2.9503
 2751.1736     5.9776      .2530    21.5026     -.0199     2.9503
 2751.3260     5.9773      .2531    20.8624     -.0186     2.9503
 2751.4784     5.9770      .2531    20.1683     -.0173     2.9504
 2751.6308     5.9767      .2532    19.3288     -.0160     2.9504
 2751.7832     5.9764      .2533    17.7612     -.0148     2.9504
 2751.9356     5.9761      .2533    18.5013     -.0135     2.9505
 2752.0880     5.9758      .2534    20.3341     -.0122     2.9505
 2752.2404     5.9755      .2534    20.9508     -.0109     2.9505
 2752.3928     5.9752      .2535    21.1552     -.0097     2.9505
 2752.5452     5.9749      .2536    23.0921     -.0084     2.9506
 2752.6976     5.9746      .2536    26.4546     -.0071     2.9506
 2752.8500     5.9743      .2533    28.7339     -.0058     2.9506
 2753.0024     5.9739      .2530    30.4156     -.0045     2.9507
 2753.1548     5.9736      .2528    32.6624     -.0033     2.9507
 2753.3072     5.9733      .2524    35.8450     -.0020     2.9507
 2753.4596     5.9730      .2515    37.5876     -.0007     2.9507
 2753.6120     5.9727      .2507    36.1394      .0006     2.9508
 2753.7644     5.9724      .2493    34.1267      .0018     2.9508
 2753.9168     5.9721      .2477    30.1272      .0031     2.9508
 2754.0692     5.9718      .2457    26.4315      .0044     2.9509
 2754.2216     5.9715      .2427    23.6906      .0057     2.9509
 2754.3740     5.9712      .2393    22.8016      .0069     2.9509
 2754.5264     5.9716      .2347    22.3206      .0082     2.9509
 2754.6788     5.9721      .2276    21.9218      .0095     2.9510
 2754.8312     5.9726      .2083    22.5530      .0108     2.9510
 2754.9836     5.9731      .1755    23.2209      .0120     2.9510
 2755.1360     5.9736      .1427    22.9325      .0133     2.9511
 2755.2884     5.9741      .0507    22.3472      .0146     2.9511
 2755.4408     5.9746     -.0549    21.9737      .0159     2.9511
 2755.5932     5.9750     -.1859    22.2866      .0171     2.9511
 2755.7456     5.9755     -.3883    22.4726      .0643     2.9512
 2755.8980     5.9760     -.6033    22.6551      .0301     2.9512
 2756.0504     5.9765     -.7535    22.9427    32.7860     2.9512
 2756.2028     5.9770     -.7627    23.3463    45.5544     2.9513
 2756.3552     5.9775     -.7629    24.5218    45.7720     2.9513
 2756.5076     5.9780     -.7629    24.7713    45.7733     2.9513
 2756.6600     5.9785     -.7629    24.1182    45.7547     2.9513
 2756.8124     5.9790     -.7632    22.8761    45.7319     2.9514
 2756.9648     5.9794     -.7638    22.3362    45.7175     2.9514
 2757.1172     5.9799     -.7637    23.0500    45.7185     2.9514
 2757.2696     5.9804     -.7633    23.5562    45.7113     2.9515
 2757.4220     5.9809     -.7629    22.8566    45.6736     2.9515
 2757.5744     5.9814     -.7626    21.8779    45.6936     2.9515
 2757.7268     5.9819     -.7622    21.4957    45.7232     2.9515
 2757.8792     5.9824     -.7619    21.7337    45.7249     2.9516
 2758.0316     5.9829     -.7616    22.0473    45.7171     2.9516
 2758.1840     5.9834     -.7612    22.1380    45.6815     2.9516
 2758.3364     5.9837     -.7598    22.1952    45.6448     2.9517
 2758.4888     5.9841     -.7579    22.4580    45.5885     2.9517
 2758.6412     5.9844     -.7556    21.8311    45.3825     2.9517
 2758.7936     5.9848     -.7498    21.4459    45.1238     2.9517
 2758.9460     5.9851     -.7428    20.6380    44.8012     2.9517
 2759.0984     5.9854     -.7283    19.8372    43.8359     2.9517
 2759.2508     5.9858     -.7014    19.8000    42.0003     2.9517
 2759.4032     5.9861     -.6655    20.8281    39.6860     2.9517
 2759.5556     5.9864     -.6164    21.7325    36.6689     2.9517
 2759.7080     5.9868     -.5554    21.8682    33.6214     2.9516
 2759.8604     5.9871     -.5124    21.2661    31.3444     2.9516
 2760.0128     5.9875     -.5058    20.6617    30.3673     2.9516
 2760.1652     5.9878     -.5034    20.2649    30.2068     2.9516
 2760.3176     5.9881     -.5020    19.9599    30.1813     2.9516
 2760.4700     5.9885     -.5009    19.8275    30.2026     2.9516
 2760.6224     5.9888     -.5004    19.9578    30.2280     2.9516
 2760.7748     5.9891     -.5001    20.5088    30.2649     2.9516
 2760.9272     5.9895     -.5005    20.9698    30.3113     2.9516
 2761.0796     5.9898     -.5009    21.3133    30.3576     2.9516
 2761.2320     5.9901     -.5011    20.8152    30.3356     2.9516
 2761.3844     5.9905     -.5011    20.6148    30.3054     2.9516
 2761.5368     5.9908     -.5011    21.1086    30.2753     2.9516
 2761.6892     5.9912     -.5011    22.9772    30.2450     2.9516
 2761.8416     5.9915     -.5012    25.5093    30.2135     2.9516
 2761.9940     5.9918     -.5008    27.8552    30.1810     2.9516
 2762.1464     5.9922     -.5002    30.7652    30.1463     2.9516
 2762.2988     5.9925     -.4981    31.3151    30.0790     2.9516
 2762.4512     5.9928     -.4964    29.5380    29.9928     2.9516
 2762.6036     5.9932     -.4951    27.7704    29.9137     2.9516
 2762.7560     5.9935     -.4938    25.9893    29.8170     2.9516
 2762.9084     5.9939     -.4882    23.7346    29.6395     2.9516
 2763.0608     5.9941     -.4788    21.2601    29.3733     2.9516
 2763.2132     5.9943     -.4669    19.5903    28.8199     2.9516
 2763.3656     5.9945     -.4448    18.6909    27.6264     2.9516
 2763.5180     5.9947     -.4095    18.2795    26.2925     2.9516
 2763.6704     5.9948     -.3590    18.9090    22.6992     2.9516
 2763.8228     5.9950     -.3072    18.6073    18.5882     2.9516
 2763.9752     5.9952     -.2656    19.7334    16.1457     2.9516
 2764.1276     5.9954     -.2587    20.0840    15.0166     2.9516
 2764.2800     5.9956     -.2585    19.1333    14.8652     2.9516
 2764.4324     5.9958     -.2589    19.0110    14.8406     2.9516
 2764.5848     5.9960     -.2585    19.8007    14.8236     2.9516
 2764.7372     5.9961     -.2581    20.0052    14.8242     2.9516
 2764.8896     5.9963     -.2581    20.1334    14.8254     2.9516
 2765.0420     5.9965     -.2581    20.2874    14.8267     2.9516
 2765.1944     5.9967     -.2581    20.5930    14.8280     2.9516
 2765.3468     5.9969     -.2581    21.4864    14.8293     2.9516
 2765.4992     5.9971     -.2582    22.0546    14.8305     2.9516
 2765.6516     5.9972     -.2582    20.9557    14.8318     2.9516
 2765.8040     5.9974     -.2582    19.1595    14.8331     2.9516
 2765.9564     5.9976     -.2582    17.6848    14.7947     2.9516
 2766.1088     5.9978     -.2582    16.8111    14.7467     2.9516
 2766.2612     5.9980     -.2583    15.7548    14.6988     2.9516
 2766.4136     5.9982     -.2583    14.5472    14.6355     2.9516
 2766.5660     5.9983     -.2576    13.5062    14.5205     2.9517
 2766.7184     5.9985     -.2567    13.0235    14.3616     2.9517
 2766.8708     5.9987     -.2536    13.9680    14.1221     2.9517
 2767.0232     5.9989     -.2511    14.7042    13.6953     2.9517
 2767.1756     5.9991     -.2444    15.1698    12.8447     2.9517
 2767.3280     5.9993     -.2276    16.2407    11.7692     2.9517
