~VERSION INFORMATION
VERS.                                                 2.0:   CWLS Log ASCII Standard-VERSION 2.0
WRAP.                                                  NO:   One line per depth step
~Well Information Block
STRT.M                                          2748.8876:   Top Depth
STOP.M                                          3723.6380:   Bottom Depth
STEP.M                                             .15240:   Depth Increment
NULL.                                            -999.250:   Null Value
FLD .                                             WILDCAT:   Field Name
WELL.                                              15/6-5:   NAME
WBN .                                              15/6-5:   WELLBORE
NATI.                                                 NOR:   COUNTRY
BHT1.DEGF                                           104.0:   BH TEMP 1
BS1 .IN                                             17.50:   BIT SIZE 1
CTRY.                                                 NOR:   COUNTRY
CBD1.M                                       166.79998779:   CSG 1 DRILL DEP
CBL1.M                                              166.0:   CSG 1 LOG DEP
CS1 .IN                                              30.0:   CSG 1 SIZE
COMP.                                      ESSO NORGE A/S:   OPERATOR
PDAT.                                                 MSL:   PERM DATUM
PROV.                                           NORTH SEA:   PROVINCE
COUN.                                         DRILLMASTER:   RIG NAME
SPUD.                                          1977/10/10:   SPUD DATE
LATI.                                       58 30 29.90 N:   SURF. LATITUDE
LONG.                                        1 45 50.70 E:   SURF. LONGITUDE
BTD1.                                      383.20001221 M:   TOTAL DEPTH 1
PBWE.                                              15/6-5:   PB WELL ID
APIN.                                              15/6-5:   PB WELLBORE ID
PBWS.                                                 all:   PB WELL NAME SET
~PARAMETER INFORMATION (log)
LNAM.                              FDC/CNL/GR  COMPOSITED:   NAME
LTYP.                                         DEPTH MATCH:   LOG TYPE
LSRV.                                            DEN/NEUT:   LOG SERVICE
LSOU.                                             SPT/NPD:   LOG SOURCE
LVSN.                                                   1:   LOG VERSION
BHIS.                                                   R:   BRIEF HISTORY
FHIS.                                             RAW-LIS:   FULL HISTORY
LCNM.                                                 SCH:   LOGGING CONTRACTOR
TOOL.                             FDC/CNL/GR (COMPOSITED):   TOOL STRING
~Curve Information Block
#MNEM.UNIT                                        API CODE    No Description
#=========                                        ========    == ===========
DEPT.M                                       00 001 00 00:     1  DEPTH
CALI.IN                                                  :     2  Caliper
DRHO.G/CC                                                :     3  Bulk density correction
GR.GAPI                                                  :     4  Gamma Ray
NPHI.%                                                   :     5  Neutron porosity
RHOB.G/CC                                                :     6  Bulk density
~ASCII
# ...
 3064.9652     8.9513      .0168    20.9389     7.0430     2.5944
 3065.1176     8.9412      .0179    24.1754     6.6834     2.5885
 3065.2700     8.9538      .0212    24.5811     6.5787     2.5844
 3065.4224     8.9759      .0264    24.4404     8.5995     2.5678
 3065.5748     8.9758      .0120    23.8949    10.9418     2.5476
 3065.7272     8.9757      .0257    23.3096    13.0854     2.5710
 3065.8796     8.9755      .0413    23.1184    13.8149     2.5953
 3066.0320     8.9754      .0492    22.6671    14.3762     2.5873
 3066.1844     8.9753      .0306    21.2314    15.0421     2.5644
 3066.3368     8.9752      .0242    19.9242    15.0293     2.5435
 3066.4892     8.9751      .0209    18.4360    14.5499     2.5270
 3066.6416     8.9732      .0343    17.8115    13.9977     2.5410
 3066.7940     8.9687      .0263    18.0781    13.6833     2.5438
 3066.9464     8.9643      .0198    17.8106    13.4406     2.5499
 3067.0988     8.9599      .0377    18.2803    13.1031     2.5654
 3067.2512     8.9557      .0554    19.0017    12.6191     2.5911
 3067.4036     8.9600      .0482    19.8824    11.9931     2.5750
 3067.5560     8.9670      .0173    19.3156    11.3209     2.5505
 3067.7084     8.9737      .0170    17.4896    10.9989     2.5358
 3067.8608     8.9740      .0250    17.2222    10.9206     2.5493
 3068.0132     8.9706      .0123    17.6260    11.4783     2.5340
 3068.1656     8.9605      .0118    15.7655    11.6619     2.5431
 3068.3180     8.9537      .0259    14.9311    11.6213     2.5596
 3068.4704     8.9536      .0391    15.2132    11.6885     2.5656
 3068.6228     8.9534      .0297    15.4939    11.8199     2.5621
 3068.7752     8.9533      .0195    15.6784    11.9738     2.5618
 3068.9276     8.9534      .0190    15.9106    12.1694     2.5711
 3069.0800     8.9625      .0354    16.5993    12.4097     2.5797
 3069.2324     8.9664      .0320    17.2379    12.4480     2.5685
 3069.3848     8.9400      .0202    17.5469    12.5354     2.5662
 3069.5372     9.1144      .0332    18.0621    12.8187     2.5823
 3069.6896     8.9592      .0292    17.0685    12.8793     2.5849
 3069.8420     8.9525      .0367    14.9655    12.9068     2.5880
 3069.9944     8.9524      .0284    14.6897    12.8053     2.5849
 3070.1468     8.9738      .0063    15.1370    12.5964     2.5547
 3070.2992     9.0891      .0044    16.1294    12.3738     2.5468
 3070.4516     8.9554      .0094    15.5868    12.2460     2.5368
 3070.6040     8.9846      .0109    15.0436    12.3079     2.5440
 3070.7564     8.9842      .0066    14.5079    12.6833     2.5292
 3070.9088     8.9749      .0078    14.2459    13.0681     2.5183
 3071.0612     8.9714      .0268    14.2822    13.0252     2.5446
 3071.2136     8.9713      .0364    14.4531    12.9397     2.5462
 3071.3660     8.9712      .0460    14.6241    12.9612     2.5579
 3071.5184     8.9711      .0511    14.9425    12.7371     2.5700
 3071.6708     8.9709      .0413    16.0200    12.2884     2.5647
 3071.8232     8.9708      .0467    16.4952    12.1927     2.5883
 3071.9756     8.9707      .0330    16.2800    12.3164     2.5823
 3072.1280     8.9706      .0494    16.1751    11.9991     2.5961
 3072.2804     8.9776      .0514    16.9257    11.6107     2.5966
 3072.4328     8.9907      .0396    16.8960    11.1614     2.5923
 3072.5852     8.9991      .0273    17.6520    10.5393     2.5796
 3072.7376     9.0070      .0416    18.2909    10.6036     2.5811
 3072.8900     8.9902      .0369    16.7138    10.9263     2.5871
 3073.0424     8.9698      .0215    14.9484    11.0881     2.5718
 3073.1948     8.9697      .0100    14.8701    10.8227     2.5515
 3073.3472     8.9696      .0128    16.1944    10.8625     2.5390
 3073.4996     8.9651      .0299    16.7356    10.8497     2.5411
 3073.6520     8.9550      .0498    16.5980    10.6570     2.5593
 3073.8044     8.9403      .0419    16.1068    10.2330     2.5619
 3073.9568     8.9773      .0400    15.0896     9.8301     2.5722
 3074.1092     9.0605      .0337    15.2687     9.6461     2.5838
 3074.2616     9.0017      .0233    15.5878     9.8571     2.5850
 3074.4140     8.9844      .0266    16.9799    10.4362     2.5942
 3074.5664     8.9791      .0315    18.2186    11.1509     2.5859
 3074.7188     8.9737      .0255    17.1293    11.6339     2.5664
 3074.8712     8.9686      .0259    15.4517    11.7609     2.5441
 3075.0236     8.9683      .0397    13.9138    11.7791     2.5531
 3075.1760     8.9619      .0318    13.5714    11.3101     2.5474
 3075.3284     8.9536      .0043    13.9198    11.0101     2.5225
 3075.4808     9.0285      .0159    13.7596    10.7130     2.5341
 3075.6332     8.9818      .0318    14.5229    10.4510     2.5727
 3075.7856     8.9330      .0481    14.7454    10.3070     2.5942
 3075.9380     8.9853      .0368    14.8972    10.2082     2.5802
 3076.0904     9.1490      .0214    14.7370    10.1463     2.5687
 3076.2428     9.0134      .0341    15.0403    10.1957     2.5771
 3076.3952     9.2068      .0429    16.1889    10.3753     2.5562
 3076.5476     9.0055      .0462    17.8773    10.9270     2.5625
 3076.7000     8.9907      .0365    19.4457    11.5021     2.5473
 3076.8524     8.9867      .0245    18.6050    11.4067     2.5561
 3077.0048     8.9877      .0542    17.9581    10.8580     2.5795
 3077.1572     9.0196      .0510    18.8746    10.7730     2.5707
 3077.3096     9.0973      .0252    19.2231    10.8856     2.5454
 3077.4620     9.0002      .0142    19.1838    10.8363     2.5457
 3077.6144     9.0623      .0166    18.8822    10.7644     2.5555
 3077.7668     9.0337      .0053    17.9958    11.0039     2.5411
 3077.9192     9.0428      .0029    17.0491    11.5606     2.5491
 3078.0716     9.0945      .0184    16.0331    12.1079     2.5702
 3078.2240     8.9909      .0274    15.7825    12.1411     2.5883
 3078.3764     9.0374      .0217    17.2574    12.0249     2.5790
 3078.5288     9.0007      .0290    18.6372    12.5997     2.5813
 3078.6812     9.0433      .0526    19.1694    13.4415     2.5797
 3078.8336     9.0386      .0601    18.4745    14.2538     2.5694
 3078.9860     9.0358      .0337    17.7354    15.1843     2.5435
 3079.1384     9.0310      .0177    17.9210    16.0879     2.5376
 3079.2908     9.0254      .0119    17.8346    16.9196     2.5364
 3079.4432     9.0046      .0212    16.5103    16.9146     2.5406
 3079.5956     9.0181      .0459    16.6866    16.7517     2.5755
 3079.7480     9.0577      .0595    16.5291    16.6166     2.5893
 3079.9004     8.9396      .0500    16.1035    16.4807     2.5744
 3080.0528     8.8700      .0239    15.6983    16.2761     2.5471
 3080.2052     8.8240      .0043    15.9438    15.6541     2.5297
 3080.3576     8.8297     -.0044    16.8543    14.9334     2.5145
 3080.5100     8.8633      .0033    20.1688    14.2437     2.5119
 3080.6624     8.8243      .0132    24.0012    13.7400     2.5252
 3080.8148     8.8244      .0250    23.3187    13.4378     2.5454
 3080.9672     8.8377      .0362    23.1564    13.3149     2.5652
 3081.1196     8.9073      .0373    23.8446    13.3765     2.5805
 3081.2720     8.8418      .0190    23.3129    13.5680     2.5928
 3081.4244     9.0130      .0231    22.0061    13.6005     2.5870
 3081.5768     8.8656      .0327    22.6238    13.5610     2.5901
 3081.7292     8.8069      .0378    23.1708    13.5004     2.6016
 3081.8816     8.8385      .0306    22.2253    13.2703     2.6113
 3082.0340     8.8710      .0233    20.9986    12.9646     2.6118
 3082.1864     8.8417      .0321    22.3624    13.1937     2.6031
 3082.3388     8.8230      .0235    24.3484    13.7383     2.5685
 3082.4912     8.8259      .0110    24.9402    13.8901     2.5561
 3082.6436     8.8388      .0088    24.4121    13.7096     2.5753
 3082.7960     8.8425      .0138    24.4929    13.3973     2.5856
 3082.9484     8.8424      .0069    24.2389    13.0607     2.5736
 3083.1008     8.8389      .0153    23.5340    12.7241     2.5801
 3083.2532     8.8262      .0281    22.4510    12.4277     2.5949
 3083.4056     8.8324      .0396    20.9837    12.2141     2.6070
