~VERSION INFORMATION
VERS.                                                 2.0:   CWLS Log ASCII Standard-VERSION 2.0
WRAP.                                                  NO:   One line per depth step
~Well Information Block
STRT.M                                          2748.8876:   Top Depth
STOP.M                                          3723.6380:   Bottom Depth
STEP.M                                             .15240:   Depth Increment
NULL.                                            -999.250:   Null Value
FLD .                                             WILDCAT:   Field Name
WELL.                                              15/6-5:   NAME
WBN .                                              15/6-5:   WELLBORE
NATI.                                                 NOR:   COUNTRY
BHT1.DEGF                                           104.0:   BH TEMP 1
BS1 .IN                                             17.50:   BIT SIZE 1
CTRY.                                                 NOR:   COUNTRY
CBD1.M                                       166.79998779:   CSG 1 DRILL DEP
CBL1.M                                              166.0:   CSG 1 LOG DEP
CS1 .IN                                              30.0:   CSG 1 SIZE
COMP.                                      ESSO NORGE A/S:   OPERATOR
PDAT.                                                 MSL:   PERM DATUM
PROV.                                           NORTH SEA:   PROVINCE
COUN.                                         DRILLMASTER:   RIG NAME
SPUD.                                          1977/10/10:   SPUD DATE
LATI.                                       58 30 29.90 N:   SURF. LATITUDE
LONG.                                        1 45 50.70 E:   SURF. LONGITUDE
BTD1.                                      383.20001221 M:   TOTAL DEPTH 1
PBWE.                                              15/6-5:   PB WELL ID
APIN.                                              15/6-5:   PB WELLBORE ID
PBWS.                                                 all:   PB WELL NAME SET
~PARAMETER INFORMATION (log)
LNAM.                              FDC/CNL/GR  COMPOSITED:   NAME
LTYP.                                         DEPTH MATCH:   LOG TYPE
LSRV.                                            DEN/NEUT:   LOG SERVICE
LSOU.                                             SPT/NPD:   LOG SOURCE
LVSN.                                                   1:   LOG VERSION
BHIS.                                                   R:   BRIEF HISTORY
FHIS.                                             RAW-LIS:   FULL HISTORY
LCNM.                                                 SCH:   LOGGING CONTRACTOR
TOOL.                             FDC/CNL/GR (COMPOSITED):   TOOL STRING
~Curve Information Block
#MNEM.UNIT                                        API CODE    No Description
#=========                                        ========    == ===========
DEPT.M                                       00 001 00 00:     1  DEPTH
CALI.IN                                                  :     2  Caliper
DRHO.G/CC                                                :     3  Bulk density correction
GR.GAPI                                                  :     4  Gamma Ray
NPHI.%                                                   :     5  Neutron porosity
RHOB.G/CC                                                :     6  Bulk density
~ASCII
# ...
 3381.0428    10.5649      .1006   127.3535    40.0661     2.2291
 3381.1952    10.8029      .1116   125.7537    38.9386     2.2384
 3381.3476    10.3605      .0753   126.4797    37.1725     2.2283
 3381.5000    10.0133      .0735   129.2886    35.4000     2.2278
 3381.6524    10.0837      .1032   131.2563    35.8465     2.2552
 3381.8048     9.9635      .1095   129.9203    36.2564     2.2251
 3381.9572     9.9986      .1081   127.7617    35.6702     2.1894
 3382.1096    10.3726      .0898   126.7101    36.6569     2.1587
 3382.2620    10.0704      .0951   127.2913    37.1430     2.1660
 3382.4144     9.9542      .0580   123.6938    36.8981     2.1706
 3382.5668    10.4241      .0742   120.1020    35.8366     2.2219
 3382.7192     9.9822      .1023   116.5491    34.6248     2.2337
 3382.8716    10.3633      .1161   118.4866    34.3923     2.2374
 3383.0240    10.5154      .1253   117.4620    35.2021     2.2379
 3383.1764    10.4891      .1240   119.0975    36.1191     2.2198
 3383.3288    10.6995      .1085   120.7539    35.8908     2.2057
 3383.4812    10.1652      .1026   121.9206    35.5116     2.2191
 3383.6336     9.8143      .1140   122.5724    36.5917     2.2078
 3383.7860    10.1335      .0942   125.1484    37.5249     2.1925
 3383.9384    10.3607      .0559   127.3422    36.8834     2.2076
 3384.0908     9.7770      .0549   126.3811    36.9909     2.2429
 3384.2432     9.6568      .0764   118.7950    38.7649     2.2518
 3384.3956     9.9404      .1224   111.3709    39.7174     2.2498
 3384.5480    10.4068      .0996   108.7303    38.4925     2.2280
 3384.7004    10.5934      .0897   111.6216    37.2656     2.2422
 3384.8528    10.9356      .1117   112.1248    36.3270     2.2540
 3385.0052    10.6293      .1228   112.4982    36.2573     2.2454
 3385.1576    10.5508      .1050   113.6120    35.9693     2.2388
 3385.3100    10.8994      .0978   115.2884    35.7145     2.2364
 3385.4624    10.7767      .0882   117.5908    36.1037     2.2397
 3385.6148     9.9029      .0795   116.8512    37.5520     2.2533
 3385.7672     9.9602      .0740   112.3268    37.3000     2.2531
 3385.9196    10.0444      .0586   109.3519    37.7326     2.2285
 3386.0720     9.9547      .0795   108.2483    39.0166     2.2205
 3386.2244    10.0249      .0875   108.1374    38.3459     2.2171
 3386.3768    10.1880      .0787   114.0342    37.6715     2.2137
 3386.5292    10.6033      .0753   114.8951    38.1783     2.2103
 3386.6816    10.5430      .0690   111.9902    37.3545     2.2003
 3386.8340    10.6467      .0877   109.0772    36.8445     2.1947
 3386.9864    10.7323      .0798   110.2003    36.8805     2.1788
 3387.1388    10.9905      .0576   109.5192    36.0799     2.1636
 3387.2912    11.2226      .0713   109.7634    34.1475     2.1544
 3387.4436    11.2460      .0881   112.6041    32.0633     2.1475
 3387.5960    11.2132      .0979   115.7565    31.7290     2.1428
 3387.7484    11.1847      .0692   116.1455    32.7733     2.1721
 3387.9008    11.0435      .0653   112.3020    33.2390     2.2088
 3388.0532    10.3994      .0970   105.6522    33.3703     2.2290
 3388.2056    10.4615      .0740    99.5747    32.0905     2.2216
 3388.3580    10.4579      .0509    90.4455    30.1161     2.2524
 3388.5104    10.4612      .0291    82.3967    28.1260     2.2902
 3388.6628     9.8005      .0453    80.7458    30.4393     2.3067
 3388.8152     9.5483      .1120    85.3701    34.5148     2.2781
 3388.9676    10.7114      .1035    91.0227    36.5995     2.1914
 3389.1200    10.9011      .1043    94.9139    36.4365     2.1615
 3389.2724    10.8773      .0906    97.0372    35.4354     2.1800
 3389.4248    11.2943      .0836    98.3695    36.4566     2.1890
 3389.5772    11.6475      .1027    98.1290    36.1194     2.2191
 3389.7296    11.7863      .0969    98.2415    36.9201     2.2176
 3389.8820    11.9677      .1058   100.7179    37.7783     2.2183
 3390.0344    12.1596      .0991   109.4781    38.5083     2.2124
 3390.1868    11.6857      .0897   110.8907    38.4834     2.2064
 3390.3392    11.0607      .0964   109.5191    39.6197     2.2032
 3390.4916    10.8983      .0918   106.7821    40.5775     2.1936
 3390.6440    11.3875      .1086   107.8190    41.0935     2.2064
 3390.7964    11.7103      .1052   111.2885    41.0008     2.2002
 3390.9488    11.3952      .0984   114.7636    37.8559     2.2009
 3391.1012    11.0631      .1159   115.3065    35.9909     2.2171
 3391.2536    10.8209      .1204   112.8280    36.7016     2.2042
 3391.4060    10.6992      .1075   112.0828    37.3265     2.1970
 3391.5584    10.9959      .1080   113.1877    37.0116     2.2096
 3391.7108    10.9075      .1085   112.7989    38.0695     2.2138
 3391.8632    10.6458      .1091   110.2565    39.6952     2.2026
 3392.0156    10.5645      .1083   109.3368    40.4710     2.1962
 3392.1680    10.2900      .1075   110.4837    41.1232     2.1886
 3392.3204    10.2570      .1034   111.3587    39.8048     2.1731
 3392.4728    10.4201      .0895   111.4941    38.1485     2.1526
 3392.6252    10.5308      .0857   112.5360    37.1733     2.1452
 3392.7776    10.6310      .0950   114.0846    36.0014     2.1802
 3392.9300    10.6690      .0954   115.0819    35.2446     2.2239
 3393.0824    10.2510      .0946   112.8347    36.1846     2.2393
 3393.2348    10.7695      .1014   110.2082    37.2734     2.2478
 3393.3872    11.2230      .1098   110.3750    37.6504     2.2361
 3393.5396    11.5699      .0773   110.5026    37.8885     2.1836
 3393.6920    11.4366      .0589   109.5724    36.3094     2.1406
 3393.8444    11.0207      .0502   108.4067    34.4493     2.1166
 3393.9968    10.9828      .0677   110.3837    33.8187     2.1265
 3394.1492    11.0372      .0900   109.9942    33.3772     2.1667
 3394.3016    11.3646      .1045   111.4195    34.7996     2.2015
 3394.4540    11.3245      .1087   113.4365    35.6300     2.2224
 3394.6064    11.5676      .1143   108.1859    36.2811     2.2578
 3394.7588    11.0326      .1120   105.4282    36.2775     2.2724
 3394.9112    10.8836      .1291   102.2389    35.3703     2.2975
 3395.0636    10.6005      .0998    99.2056    35.4448     2.2915
 3395.2160    10.5920      .0819    99.2453    34.4080     2.2812
 3395.3684    10.4608      .0898   101.9181    34.6595     2.2884
 3395.5208    11.0719      .0972   102.5383    34.8182     2.2816
 3395.6732    11.4526      .0668   102.4100    35.5189     2.2597
 3395.8256    12.0127      .0712   100.9252    36.0021     2.2566
 3395.9780    11.5938      .0976   100.2465    36.5424     2.2671
 3396.1304    11.2352      .1051   101.7011    36.2877     2.2442
 3396.2828    10.2068      .1029   103.1239    36.0700     2.2139
 3396.4352    10.9299      .0998   104.3192    34.8228     2.2064
 3396.5876    10.6801      .1016   105.8758    33.8076     2.2088
 3396.7400    10.9381      .1182   106.7085    33.9189     2.2092
 3396.8924    11.3828      .0951   106.7297    34.8527     2.2120
 3397.0448    11.6500      .0925   107.1467    34.8670     2.2470
 3397.1972    11.5064      .1055   108.6321    35.3407     2.2717
 3397.3496    11.3852      .1158   110.8450    35.2460     2.2871
 3397.5020    11.6093      .1246   115.0144    36.8895     2.2878
 3397.6544    11.2479      .1028   115.9791    38.0389     2.2630
 3397.8068    10.9111      .0985   114.4829    37.2338     2.2449
 3397.9592    11.0109      .0919   112.2852    36.3784     2.2262
 3398.1116    11.3672      .1116   112.3999    35.6412     2.2342
 3398.2640    11.1334      .1268   112.6963    34.9871     2.2347
 3398.4164    10.7270      .1299   112.2711    35.0903     2.2404
 3398.5688    10.9697      .1306   110.2461    35.5659     2.2415
 3398.7212    11.2073      .1205   111.3341    36.1742     2.2262
 3398.8736    11.0523      .1071   112.4900    36.0196     2.2138
 3399.0260    11.3950      .1062   109.3256    36.4437     2.2134
 3399.1784    11.4027      .1175   108.0046    35.8225     2.2054
 3399.3308    11.2287      .1286   108.4548    35.2328     2.2018
 3399.4832    11.2058      .1149   110.0127    34.8894     2.1997
