~VERSION INFORMATION
VERS.                                                 2.0:   CWLS Log ASCII Standard-VERSION 2.0
WRAP.                                                  NO:   One line per depth step
~Well Information Block
STRT.M                                          2748.8876:   Top Depth
STOP.M                                          3723.6380:   Bottom Depth
STEP.M                                             .15240:   Depth Increment
NULL.                                            -999.250:   Null Value
FLD .                                             WILDCAT:   Field Name
WELL.                                              15/6-5:   NAME
WBN .                                              15/6-5:   WELLBORE
NATI.                                                 NOR:   COUNTRY
BHT1.DEGF                                           104.0:   BH TEMP 1
BS1 .IN                                             17.50:   BIT SIZE 1
CTRY.                                                 NOR:   COUNTRY
CBD1.M                                       166.79998779:   CSG 1 DRILL DEP
CBL1.M                                              166.0:   CSG 1 LOG DEP
CS1 .IN                                              30.0:   CSG 1 SIZE
COMP.                                      ESSO NORGE A/S:   OPERATOR
PDAT.                                                 MSL:   PERM DATUM
PROV.                                           NORTH SEA:   PROVINCE
COUN.                                         DRILLMASTER:   RIG NAME
SPUD.                                          1977/10/10:   SPUD DATE
LATI.                                       58 30 29.90 N:   SURF. LATITUDE
LONG.                                        1 45 50.70 E:   SURF. LONGITUDE
BTD1.                                      383.20001221 M:   TOTAL DEPTH 1
PBWE.                                              15/6-5:   PB WELL ID
APIN.                                              15/6-5:   PB WELLBORE ID
PBWS.                                                 all:   PB WELL NAME SET
~PARAMETER INFORMATION (log)
LNAM.                              FDC/CNL/GR  COMPOSITED:   NAME
LTYP.                                         DEPTH MATCH:   LOG TYPE
LSRV.                                            DEN/NEUT:   LOG SERVICE
LSOU.                                             SPT/NPD:   LOG SOURCE
LVSN.                                                   1:   LOG VERSION
BHIS.                                                   R:   BRIEF HISTORY
FHIS.                                             RAW-LIS:   FULL HISTORY
LCNM.                                                 SCH:   LOGGING CONTRACTOR
TOOL.                             FDC/CNL/GR (COMPOSITED):   TOOL STRING
~Curve Information Block
#MNEM.UNIT                                        API CODE    No Description
#=========                                        ========    == ===========
DEPT.M                                       00 001 00 00:     1  DEPTH
CALI.IN                                                  :     2  Caliper
DRHO.G/CC                                                :     3  Bulk density correction
GR.GAPI                                                  :     4  Gamma Ray
NPHI.%                                                   :     5  Neutron porosity
RHOB.G/CC                                                :     6  Bulk density
~ASCII
# ...
 3120.7436     8.9681      .0138    16.3084    10.9615     2.5375
 3120.8960     8.9764      .0157    16.9616    11.1167     2.5291
 3121.0484     8.9910      .0150    17.2562    11.2303     2.5456
 3121.2008     9.0142      .0117    17.4170    11.3436     2.5396
 3121.3532     9.0391      .0166    17.4700    11.5270     2.5385
 3121.5056     9.0393      .0212    17.2690    11.7352     2.5534
 3121.6580     9.0279      .0183    17.0675    11.2651     2.5619
 3121.8104     9.0071      .0158    17.1957    10.9965     2.5587
 3121.9628     8.9933      .0171    17.8107    11.2406     2.5593
 3122.1152     9.0279      .0142    16.8042    11.4892     2.5650
 3122.2676     9.0247      .0102    15.3432    11.6528     2.5678
 3122.4200     9.0080      .0098    16.1945    11.6426     2.5465
 3122.5724     9.0209      .0130    18.4964    11.4917     2.5481
 3122.7248     8.9734      .0160    21.0900    11.6401     2.5532
 3122.8772     8.9517      .0222    23.9765    12.6859     2.5396
 3123.0296     8.9492      .0418    25.5993    14.8181     2.5388
 3123.1820     8.8874      .0618    24.5179    16.1272     2.5544
 3123.3344     8.8755      .0500    21.7077    15.3278     2.5371
 3123.4868     8.9233      .0368    18.9289    13.4874     2.5322
 3123.6392     8.9120      .0354    18.8192    12.5671     2.5526
 3123.7916     8.9084      .0455    19.3379    12.3331     2.5755
 3123.9440     8.8893      .0598    19.5219    12.8066     2.5879
 3124.0964     8.8486      .0810    19.4638    13.9550     2.6046
 3124.2488     8.8624      .0855    18.9802    15.1181     2.6009
 3124.4012     8.8558      .0545    17.4834    15.8059     2.5596
 3124.5536     8.9456      .0155    16.6822    15.7893     2.5289
 3124.7060     8.9939      .0089    16.0822    14.4226     2.5262
 3124.8584     8.9710      .0185    16.3540    12.6579     2.5521
 3125.0108     8.9502      .0205    15.8211    12.0464     2.5503
 3125.1632     8.9479      .0102    14.5619    12.3557     2.5385
 3125.3156     8.9355      .0106    14.0284    12.8693     2.5396
 3125.4680     8.9400      .0176    14.0428    13.3004     2.5458
 3125.6204     8.9601      .0220    14.7697    13.7171     2.5473
 3125.7728     8.9520      .0258    15.8510    13.7584     2.5501
 3125.9252     8.9295      .0162    17.4336    13.4394     2.5386
 3126.0776     8.9283      .0159    17.6979    13.5656     2.5302
 3126.2300     8.9283      .0279    16.5982    14.3655     2.5401
 3126.3824     8.9283      .0394    15.7019    14.4859     2.5405
 3126.5348     8.9283      .0360    15.1988    14.0123     2.5302
 3126.6872     8.9283      .0302    14.5699    13.6259     2.5343
 3126.8396     8.9283      .0318    15.0712    13.4540     2.5430
 3126.9920     8.9283      .0387    17.0251    13.2781     2.5637
 3127.1444     8.9283      .0421    17.8763    13.2586     2.5732
 3127.2968     8.9283      .0485    18.0409    13.4612     2.5778
 3127.4492     8.9283      .0427    19.1867    13.4702     2.5844
 3127.6016     8.9283      .0337    20.0042    13.2892     2.5729
 3127.7540     8.9283      .0258    21.0282    13.1544     2.5655
 3127.9064     8.9225      .0107    20.6388    13.4733     2.5413
 3128.0588     8.8984      .0190    21.0014    13.8054     2.5433
 3128.2112     8.8752      .0275    21.8130    14.0798     2.5538
 3128.3636     8.8777      .0214    21.4951    14.3963     2.5575
 3128.5160     8.8976      .0115    20.6727    14.6543     2.5412
 3128.6684     8.9307      .0174    19.0079    14.6461     2.5254
 3128.8208     8.9070      .0238    17.4176    14.7234     2.5245
 3128.9732     8.9569      .0247    16.4060    14.8080     2.5263
 3129.1256     9.0056      .0129    16.5758    14.7356     2.5096
 3129.2780     9.0383      .0077    17.7691    14.4808     2.5009
 3129.4304     9.0246      .0236    17.8517    14.1799     2.5012
 3129.5828     8.9967      .0434    17.8282    14.0195     2.5219
 3129.7352     8.9673      .0467    18.0568    13.5837     2.5188
 3129.8876     8.9371      .0551    17.0123    13.0411     2.5197
 3130.0400     8.9028      .0444    16.6347    12.4984     2.5317
 3130.1924     8.8675      .0210    16.1189    12.0208     2.5188
 3130.3448     8.8377      .0315    15.6008    11.6942     2.5375
 3130.4972     8.8992      .0281    15.0914    11.4627     2.5538
 3130.6496     9.0850      .0163    15.1899    11.3163     2.5526
 3130.8020     8.9703      .0083    16.3108    11.3250     2.5459
 3130.9544     8.9176      .0024    16.4625    11.5884     2.5405
 3131.1068     8.9187      .0102    15.7868    11.9507     2.5566
 3131.2592     8.9283      .0160    14.8605    12.2387     2.5631
 3131.4116     8.9283      .0179    14.6197    12.2315     2.5520
 3131.5640     8.9277      .0206    14.4584    12.2028     2.5395
 3131.7164     8.9174      .0220    15.5928    12.3331     2.5325
 3131.8688     8.9133      .0231    16.7834    12.4290     2.5291
 3132.0212     8.9299      .0355    17.3307    12.5066     2.5504
 3132.1736     8.9563      .0501    17.3307    12.7181     2.5659
 3132.3260     8.9819      .0521    17.4053    13.1506     2.5563
 3132.4784     8.9806      .0392    17.9622    13.8723     2.5231
 3132.6308     8.9720      .0473    18.6674    15.1756     2.5169
 3132.7832     8.9548      .0231    17.9304    16.3185     2.4939
 3132.9356     8.9336      .0190    16.6076    16.1299     2.4707
 3133.0880     8.9392      .0257    16.3347    15.7463     2.4643
 3133.2404     8.9502      .0176    15.9932    15.5893     2.4529
 3133.3928     8.9583      .0137    15.1229    15.3751     2.4515
 3133.5452     8.9653      .0107    14.2510    15.4163     2.4560
 3133.6976     8.9473      .0163    13.4929    15.1462     2.4756
 3133.8500     8.9251      .0294    13.1805    14.8992     2.4873
 3134.0024     8.9142      .0409    14.0968    14.5644     2.5014
 3134.1548     8.9032      .0441    14.2715    14.2443     2.5176
 3134.3072     8.8922      .0337    14.3591    14.2652     2.5167
 3134.4596     8.8884      .0271    14.9598    14.4242     2.5041
 3134.6120     8.8884      .0393    14.2254    14.7648     2.4973
 3134.7644     8.8884      .0490    14.5620    15.0609     2.5050
 3134.9168     8.9278      .0375    15.5131    14.5937     2.5047
 3135.0692     8.9877      .0346    16.3434    13.9749     2.4922
 3135.2216     8.9686      .0449    16.8881    14.2285     2.5111
 3135.3740     8.9187      .0571    17.5156    14.7397     2.5338
 3135.5264     8.8747      .0552    17.1617    14.7236     2.5531
 3135.6788     8.8324      .0346    16.7094    14.5556     2.5383
 3135.8312     8.8748      .0287    17.5037    14.5773     2.5222
 3135.9836     8.8637      .0270    17.4758    14.9034     2.5152
 3136.1360     9.1706      .0380    17.8301    15.4784     2.5183
 3136.2884     9.0715      .0514    18.0701    16.0087     2.5219
 3136.4408     8.9187      .0287    17.7280    16.2352     2.5054
 3136.5932     8.9098      .0203    18.5969    15.9356     2.4986
 3136.7456     8.8796      .0176    18.7126    15.5154     2.4997
 3136.8980     8.8685      .0220    18.0571    14.9323     2.5136
 3137.0504     8.8499      .0276    18.0355    14.4310     2.5134
 3137.2028     8.7840      .0359    17.0878    14.3134     2.5040
 3137.3552     8.8167      .0435    16.1907    14.1487     2.5135
 3137.5076     9.3751      .0181    15.6022    13.7431     2.4982
 3137.6600     9.1351      .0127    15.4079    13.0611     2.5014
 3137.8124     8.9148      .0155    16.3643    12.7256     2.4946
 3137.9648     8.9239      .0258    17.4146    12.5448     2.4854
 3138.1172     8.9084      .0378    17.9283    12.5975     2.4811
 3138.2696     8.9043      .0488    17.6740    12.0734     2.4915
 3138.4220     8.8942      .0478    18.2155    11.5832     2.4918
 3138.5744     8.8970      .0259    17.7401    11.4920     2.4971
 3138.7268     8.9258      .0177    16.9323    11.5645     2.5161
 3138.8792     8.9629      .0159    16.9323    11.7717     2.5348
 3139.0316     8.9769      .0147    17.1389    12.0427     2.5370
 3139.1840     8.9855      .0136    17.9806    12.1849     2.5419
