~VERSION INFORMATION
VERS.                                                 2.0:   CWLS Log ASCII Standard-VERSION 2.0
WRAP.                                                  NO:   One line per depth step
~Well Information Block
STRT.M                                          2748.8876:   Top Depth
STOP.M                                          3723.6380:   Bottom Depth
STEP.M                                             .15240:   Depth Increment
NULL.                                            -999.250:   Null Value
FLD .                                             WILDCAT:   Field Name
WELL.                                              15/6-5:   NAME
WBN .                                              15/6-5:   WELLBORE
NATI.                                                 NOR:   COUNTRY
BHT1.DEGF                                           104.0:   BH TEMP 1
BS1 .IN                                             17.50:   BIT SIZE 1
CTRY.                                                 NOR:   COUNTRY
CBD1.M                                       166.79998779:   CSG 1 DRILL DEP
CBL1.M                                              166.0:   CSG 1 LOG DEP
CS1 .IN                                              30.0:   CSG 1 SIZE
COMP.                                      ESSO NORGE A/S:   OPERATOR
PDAT.                                                 MSL:   PERM DATUM
PROV.                                           NORTH SEA:   PROVINCE
COUN.                                         DRILLMASTER:   RIG NAME
SPUD.                                          1977/10/10:   SPUD DATE
LATI.                                       58 30 29.90 N:   SURF. LATITUDE
LONG.                                        1 45 50.70 E:   SURF. LONGITUDE
BTD1.                                      383.20001221 M:   TOTAL DEPTH 1
PBWE.                                              15/6-5:   PB WELL ID
APIN.                                              15/6-5:   PB WELLBORE ID
PBWS.                                                 all:   PB WELL NAME SET
~PARAMETER INFORMATION (log)
LNAM.                              FDC/CNL/GR  COMPOSITED:   NAME
LTYP.                                         DEPTH MATCH:   LOG TYPE
LSRV.                                            DEN/NEUT:   LOG SERVICE
LSOU.                                             SPT/NPD:   LOG SOURCE
LVSN.                                                   1:   LOG VERSION
BHIS.                                                   R:   BRIEF HISTORY
FHIS.                                             RAW-LIS:   FULL HISTORY
LCNM.                                                 SCH:   LOGGING CONTRACTOR
TOOL.                             FDC/CNL/GR (COMPOSITED):   TOOL STRING
~Curve Information Block
#MNEM.UNIT                                        API CODE    No Description
#=========                                        ========    == ===========
DEPT.M                                       00 001 00 00:     1  DEPTH
CALI.IN                                                  :     2  Caliper
DRHO.G/CC                                                :     3  Bulk density correction
GR.GAPI                                                  :     4  Gamma Ray
NPHI.%                                                   :     5  Neutron porosity
RHOB.G/CC                                                :     6  Bulk density
~ASCII
# ...
 3195.1148     8.8153      .0196    22.6320    11.1136     2.5592
 3195.2672     8.8314      .0283    21.8191    11.0851     2.5855
 3195.4196     8.8479      .0472    21.2532    10.8534     2.6006
 3195.5720     8.8735      .0378    20.7585    10.3515     2.6021
 3195.7244     8.8836      .0224    19.5600     9.8943     2.5849
 3195.8768     8.8726      .0234    17.9743     9.9730     2.5901
 3196.0292     8.8577      .0310    18.0645    10.2312     2.6073
 3196.1816     8.8405      .0332    18.7682    10.3655     2.6144
 3196.3340     8.8250      .0311    19.5238    10.4399     2.6057
 3196.4864     8.8128      .0267    20.7833    10.7734     2.5886
 3196.6388     8.8187      .0212    22.1051    11.3598     2.5790
 3196.7912     8.8383      .0259    22.1509    11.1258     2.5904
 3196.9436     8.8661      .0325    22.0059    10.7744     2.5961
 3197.0960     8.8827      .0319    22.9447    10.9106     2.5944
 3197.2484     8.8663      .0276    23.1915    11.0633     2.5951
 3197.4008     8.8466      .0141    22.8068    10.7396     2.5612
 3197.5532     8.8205      .0094    22.2823     9.7576     2.5543
 3197.7056     8.8178      .0165    19.8946     8.8536     2.5666
 3197.8580     8.8339      .0219    19.1576     8.1047     2.5793
 3198.0104     8.8538      .0290    18.8272     7.8374     2.6022
 3198.1628     8.8906      .0235    18.6430     7.6633     2.6083
 3198.3152     8.8692      .0256    19.0292     7.7567     2.5933
 3198.4676     8.7954      .0433    20.2392     8.9840     2.5849
 3198.6200     8.7928      .0449    20.2652     9.8343     2.5907
 3198.7724     8.7963      .0324    19.9908    10.3836     2.5802
 3198.9248     8.7999      .0192    20.2122    10.1647     2.5704
 3199.0772     8.8034      .0088    19.5303    10.0193     2.5644
 3199.2296     8.8070      .0209    20.1265     9.4277     2.5814
 3199.3820     8.8088      .0291    19.7545     8.9241     2.5994
 3199.5344     8.8088      .0373    19.7211     9.2870     2.6085
 3199.6868     8.8088      .0344    19.4072     9.0725     2.5941
 3199.8392     8.8088      .0314    19.6132     8.6248     2.6024
 3199.9916     8.8088      .0356    19.9967     8.1147     2.6228
 3200.1440     8.8078      .0353    19.3886     7.5620     2.6361
 3200.2964     8.8008      .0357    17.9915     7.1028     2.6370
 3200.4488     8.7933      .0376    17.7035     7.4044     2.6269
 3200.6012     8.7827      .0300    19.9790     8.1218     2.5975
 3200.7536     8.7854      .0224    21.6529     9.3405     2.5746
 3200.9060     8.8776      .0401    22.3864    10.2349     2.5845
 3201.0584     8.9511      .0389    22.3268    11.0385     2.5903
 3201.2108     8.9015      .0448    21.3393    10.8560     2.5957
 3201.3632     8.8623      .0521    21.5680    10.5184     2.6097
 3201.5156     8.8489      .0321    22.5615    10.5907     2.5880
 3201.6680     8.8355      .0591    22.1318    10.8463     2.6094
 3201.8204     8.8202      .0652    22.3184    10.7633     2.6280
 3201.9728     8.8202      .0504    22.9678    10.1237     2.5995
 3202.1252     8.8433      .0421    22.5546     9.8926     2.5925
 3202.2776     8.8308      .0331    21.0088     9.8966     2.5914
 3202.4300     8.8198      .0364    19.7609     9.7135     2.6012
 3202.5824     8.8098      .0145    19.5396     9.4330     2.5765
 3202.7348     8.8166      .0054    20.0970     9.8896     2.5599
 3202.8872     8.8262      .0200    20.1986    10.3225     2.5720
 3203.0396     8.8358      .0386    19.6179    10.2860     2.5917
 3203.1920     8.8455      .0477    19.1184    10.1340     2.6029
 3203.3444     8.8426      .0523    19.2856     9.9784     2.6053
 3203.4968     8.8350      .0243    19.0316    10.1793     2.5858
 3203.6492     8.8273      .0310    19.7894    10.3379     2.5728
 3203.8016     8.8187      .0236    19.5302    10.0297     2.5702
 3203.9540     8.8101      .0361    18.9643     8.8463     2.5871
 3204.1064     8.8081      .0270    19.0135     7.8139     2.5934
 3204.2588     8.8260      .0157    19.6434     7.6613     2.5946
 3204.4112     8.8808      .0149    21.5535     8.3356     2.5955
 3204.5636     8.8512      .0441    23.1099     9.4746     2.6033
 3204.7160     8.8478      .0502    23.5941    10.5817     2.6049
 3204.8684     8.8478      .0489    23.3469    11.1680     2.5934
 3205.0208     8.8409      .0344    22.8054    11.3104     2.5813
 3205.1732     8.8211      .0118    22.2939    11.4310     2.5622
 3205.3256     8.8009      .0186    22.2217    11.4974     2.5743
 3205.4780     8.7968      .0331    22.5446    11.5041     2.5745
 3205.6304     8.9195      .0453    21.6214    11.4656     2.5760
 3205.7828     8.8557      .0511    20.8034    11.2976     2.5836
 3205.9352     8.9683      .0488    18.7810    11.0487     2.5791
 3206.0876     8.8103      .0432    18.6327    10.7806     2.5824
 3206.2400     8.7985      .0544    19.3766    10.1336     2.6143
 3206.3924     8.8844      .0685    19.2026     9.3586     2.6321
 3206.5448     8.8349      .0631    18.2996     8.4079     2.6335
 3206.6972     8.7619      .0418    17.9369     7.9600     2.6100
 3206.8496     8.7955      .0462    19.5995     9.0087     2.6138
 3207.0020     8.8290      .0455    21.1906    10.4279     2.6126
 3207.1544     8.8551      .0335    22.1712    10.8356     2.5937
 3207.3068     8.8507      .0206    21.8801    10.9598     2.5682
 3207.4592     8.8103      .0305    22.0712    10.9173     2.5659
 3207.6116     8.8075      .0317    22.5978    10.7149     2.5839
 3207.7640     8.8074      .0197    21.9914    10.4460     2.5608
 3207.9164     8.8391      .0152    21.6686    10.0122     2.5664
 3208.0688     8.8138      .0191    21.4401     9.1787     2.5719
 3208.2212     8.8218      .0173    19.9338     8.2359     2.5766
 3208.3736     8.8273      .0156    18.6958     7.8281     2.5690
 3208.5260     8.8166      .0144    17.7786     8.3050     2.5777
 3208.6784     8.8073      .0136    18.0358     9.0849     2.5840
 3208.8308     8.8072      .0178    18.2488     9.6029     2.5695
 3208.9832     8.8072      .0229    17.4722     9.6128     2.5584
 3209.1356     8.8298      .0318    18.2256     9.0867     2.5812
 3209.2880     8.8991      .0306    19.3561     8.6833     2.5900
 3209.4404     8.8706      .0209    19.1632     8.5760     2.5796
 3209.5928     8.8143      .0270    19.3869     8.6940     2.5828
 3209.7452     8.7889      .0383    20.0606     9.2771     2.5843
 3209.8976     8.7871      .0272    19.8392    10.0501     2.5773
 3210.0500     8.7871      .0186    18.4538     9.9769     2.5742
 3210.2024     8.7955      .0091    16.9404     8.9060     2.5735
 3210.3548     8.8217      .0114    17.1368     8.8342     2.5830
 3210.5072     8.8439      .0108    17.8716     8.9425     2.5893
 3210.6596     8.8320      .0094    19.0647     8.7671     2.5801
 3210.8120     8.8268      .0124    21.1110     8.8267     2.5615
 3210.9644     8.8268      .0277    23.1574     9.6879     2.5669
 3211.1168     8.8229      .0314    23.2716    10.6248     2.5729
 3211.2692     8.8120      .0258    22.4236    10.3089     2.5802
 3211.4216     8.8121      .0248    21.6474     9.5618     2.5847
 3211.5740     8.8221      .0217    21.4153     9.1838     2.5803
 3211.7264     8.8216      .0165    23.0098    10.1532     2.5611
 3211.8788     8.8123      .0123    23.2892    10.5180     2.5631
 3212.0312     8.8030      .0065    23.2451    10.1628     2.5547
 3212.1836     8.7937      .0137    24.4456     9.8541     2.5573
 3212.3360     8.8056      .0191    24.9913     9.7300     2.5582
 3212.4884     8.8705      .0105    23.8472     9.3971     2.5547
 3212.6408     8.8207      .0137    22.5724     8.5586     2.5573
 3212.7932     8.7775      .0253    21.2320     8.2284     2.5814
 3212.9456     8.7907      .0300    21.4307     8.5136     2.5891
 3213.0980     8.8663      .0485    22.6692     9.0448     2.5965
 3213.2504     8.9320      .0443    22.7419     9.3138     2.5970
 3213.4028     8.7956      .0304    21.3599     8.6460     2.5896
 3213.5552     8.7829      .0180    19.2048     7.7262     2.5820
