~VERSION INFORMATION
VERS.                                                 2.0:   CWLS Log ASCII Standard-VERSION 2.0
WRAP.                                                  NO:   One line per depth step
~Well Information Block
STRT.M                                          2748.8876:   Top Depth
STOP.M                                          3723.6380:   Bottom Depth
STEP.M                                             .15240:   Depth Increment
NULL.                                            -999.250:   Null Value
FLD .                                             WILDCAT:   Field Name
WELL.                                              15/6-5:   NAME
WBN .                                              15/6-5:   WELLBORE
NATI.                                                 NOR:   COUNTRY
BHT1.DEGF                                           104.0:   BH TEMP 1
BS1 .IN                                             17.50:   BIT SIZE 1
CTRY.                                                 NOR:   COUNTRY
CBD1.M                                       166.79998779:   CSG 1 DRILL DEP
CBL1.M                                              166.0:   CSG 1 LOG DEP
CS1 .IN                                              30.0:   CSG 1 SIZE
COMP.                                      ESSO NORGE A/S:   OPERATOR
PDAT.                                                 MSL:   PERM DATUM
PROV.                                           NORTH SEA:   PROVINCE
COUN.                                         DRILLMASTER:   RIG NAME
SPUD.                                          1977/10/10:   SPUD DATE
LATI.                                       58 30 29.90 N:   SURF. LATITUDE
LONG.                                        1 45 50.70 E:   SURF. LONGITUDE
BTD1.                                      383.20001221 M:   TOTAL DEPTH 1
PBWE.                                              15/6-5:   PB WELL ID
APIN.                                              15/6-5:   PB WELLBORE ID
PBWS.                                                 all:   PB WELL NAME SET
~PARAMETER INFORMATION (log)
LNAM.                              FDC/CNL/GR  COMPOSITED:   NAME
LTYP.                                         DEPTH MATCH:   LOG TYPE
LSRV.                                            DEN/NEUT:   LOG SERVICE
LSOU.                                             SPT/NPD:   LOG SOURCE
LVSN.                                                   1:   LOG VERSION
BHIS.                                                   R:   BRIEF HISTORY
FHIS.                                             RAW-LIS:   FULL HISTORY
LCNM.                                                 SCH:   LOGGING CONTRACTOR
TOOL.                             FDC/CNL/GR (COMPOSITED):   TOOL STRING
~Curve Information Block
#MNEM.UNIT                                        API CODE    No Description
#=========                                        ========    == ===========
DEPT.M                                       00 001 00 00:     1  DEPTH
CALI.IN                                                  :     2  Caliper
DRHO.G/CC                                                :     3  Bulk density correction
GR.GAPI                                                  :     4  Gamma Ray
NPHI.%                                                   :     5  Neutron porosity
RHOB.G/CC                                                :     6  Bulk density
~ASCII
# ...
 3009.1868     9.5916      .1709    10.4557     6.2327     2.5047
 3009.3392     9.7313      .1609     9.8280     6.4115     2.5162
 3009.4916     9.8733      .1582     9.4584     6.4124     2.5272
 3009.6440     9.7603      .1844    10.8416     6.2685     2.5647
 3009.7964     9.5491      .1472    10.7817     6.2994     2.5429
 3009.9488     9.3931      .1251    10.1677     6.4662     2.5788
 3010.1012     9.0965      .0916     9.9058     6.5608     2.5786
 3010.2536     9.2136      .0756    10.4145     6.5372     2.5969
 3010.4060     9.0410      .0515    11.0156     6.5301     2.6151
 3010.5584     8.8654      .0325    11.5552     6.3565     2.5901
 3010.7108     8.8848      .0196    12.3305     6.3008     2.5852
 3010.8632     8.8910      .0215    12.7403     6.5905     2.6094
 3011.0156     8.8795      .0298    12.9263     6.3331     2.6251
 3011.1680     8.8521      .0455    12.7382     6.0955     2.6555
 3011.3204     8.8507      .0432    12.3820     5.7835     2.6571
 3011.4728     8.8506      .0390    12.2906     5.3124     2.6520
 3011.6252     8.8504      .0368    11.6303     4.9703     2.6555
 3011.7776     8.8618      .0268    10.6013     4.8189     2.6404
 3011.9300     8.8817      .0317    10.6548     4.7266     2.6510
 3012.0824     8.8897      .0349    10.7929     4.6105     2.6492
 3012.2348     8.8903      .0290    11.0263     4.7120     2.6489
 3012.3872     8.9079      .0204    11.3652     5.1465     2.6246
 3012.5396     8.9262      .0176    11.6694     5.6055     2.6297
 3012.6920     8.9020      .0227    12.0098     5.7608     2.6222
 3012.8444     8.8958      .0257    12.9157     5.7392     2.6262
 3012.9968     8.9086      .0221    13.8556     5.7808     2.6148
 3013.1492     8.9081      .0134    13.4047     6.0344     2.6053
 3013.3016     8.9008      .0091    12.2111     6.4606     2.5988
 3013.4540     8.8914      .0057    11.4742     6.7715     2.6028
 3013.6064     8.8824      .0057    11.2079     6.1744     2.6110
 3013.7588     8.8736      .0170    11.6855     5.8035     2.6236
 3013.9112     8.8632      .0275    13.1683     5.7320     2.6296
 3014.0636     8.8497      .0258    14.6909     5.7879     2.6212
 3014.2160     8.8362      .0313    16.3494     5.9541     2.6216
 3014.3684     8.8384      .0362    16.1811     6.2281     2.6277
 3014.5208     8.8683      .0226    15.3059     6.5172     2.6174
 3014.6732     8.8756      .0167    14.1976     7.1231     2.6072
 3014.8256     8.8454      .0238    13.9480     8.1313     2.6091
 3014.9780     8.8269      .0407    13.8889     8.8257     2.6197
 3015.1304     8.8273      .0358    13.7202     8.7852     2.6254
 3015.2828     8.8486      .0294    13.2893     7.9335     2.6209
 3015.4352     8.8780      .0420    12.8510     7.2959     2.6279
 3015.5876     8.8859      .0540    12.0793     6.7151     2.6398
 3015.7400     8.8811      .0484    11.1768     6.3178     2.6330
 3015.8924     8.8701      .0313    10.3372     6.2104     2.6080
 3016.0448     8.8655      .0189    10.1776     6.3301     2.6000
 3016.1972     8.8654      .0284    10.4897     5.8097     2.6100
 3016.3496     8.8709      .0290    11.0451     5.6113     2.6252
 3016.5020     8.8800      .0286    11.4217     5.4910     2.6188
 3016.6544     8.8848      .0241    11.1218     5.4911     2.6229
 3016.8068     8.8844      .0103     9.8898     5.6916     2.6057
 3016.9592     8.8736      .0074    10.9810     5.9086     2.5993
 3017.1116     8.8490      .0100    11.8932     5.5866     2.6135
 3017.2640     8.8392      .0151    12.3372     5.2675     2.6152
 3017.4164     8.8690      .0201    13.4856     5.1630     2.6193
 3017.5688     8.8838      .0192    15.7902     5.7099     2.6098
 3017.7212     8.8836      .0146    18.3423     7.0881     2.5985
 3017.8736     8.8904      .0313    22.0742     8.7373     2.5965
 3018.0260     8.9032      .0480    24.8007    10.6699     2.6082
 3018.1784     8.9030      .0451    26.5967    12.8042     2.6152
 3018.3308     8.9028      .0343    25.9736    12.8031     2.5985
 3018.4832     8.9027      .0300    25.8436    12.2247     2.6010
 3018.6356     8.9025      .0473    25.8957    12.2447     2.6213
 3018.7880     8.9024      .0399    27.0813    13.2134     2.6050
 3018.9404     8.9022      .0239    29.0326    14.2682     2.5795
 3019.0928     8.9020      .0129    30.7015    15.1288     2.5794
 3019.2452     8.9019      .0111    31.5485    14.9449     2.5778
 3019.3976     8.9017      .0191    31.1351    14.6785     2.5862
 3019.5500     8.9015      .0277    30.1130    14.9278     2.5991
 3019.7024     8.9014      .0282    29.2028    14.5754     2.6031
 3019.8548     8.9012      .0227    29.1638    14.2144     2.5836
 3020.0072     8.9010      .0329    29.5348    14.0420     2.5772
 3020.1596     8.9009      .0397    28.3629    13.8627     2.5582
 3020.3120     8.9007      .0514    26.5090    13.5253     2.5394
 3020.4644     8.9006      .0820    27.7901    14.1731     2.5526
 3020.6168     8.9004      .1084    30.8997    14.7185     2.5756
 3020.7692     8.9002      .1008    35.0491    14.9367     2.5771
 3020.9216     8.9241      .0750    36.4095    14.1865     2.5917
 3021.0740     8.9639      .0324    36.7231    14.1803     2.5612
 3021.2264     8.9723      .0370    36.0035    15.7022     2.5799
 3021.3788     8.9790      .0477    35.3214    17.0726     2.6085
 3021.5312     8.9790      .0421    34.6738    17.9121     2.6038
 3021.6836     8.9788      .0190    33.7329    16.7770     2.5702
 3021.8360     8.9787      .0075    34.3156    17.3419     2.5550
 3021.9884     8.9785      .0089    33.3392    18.0186     2.5569
 3022.1408     8.9783      .0268    31.9136    17.4236     2.5806
 3022.2932     8.9782      .0362    30.2194    16.7031     2.6014
 3022.4456     8.9780      .0362    30.7233    15.7557     2.6023
 3022.5980     8.9816      .0267    32.3350    14.7717     2.5802
 3022.7504     8.9855      .0246    32.3719    14.1754     2.5790
 3022.9028     8.9895      .0219    30.9878    14.3136     2.5758
 3023.0552     8.9935      .0253    31.1773    14.5506     2.5809
 3023.2076     8.9969      .0195    33.4493    14.7258     2.5831
 3023.3600     8.9969      .0328    32.8912    14.4520     2.6003
 3023.5124     8.9968      .0511    31.5267    13.4916     2.6218
 3023.6648     8.9966      .0477    30.5969    13.2660     2.6164
 3023.8172     8.9964      .0579    29.1044    13.5074     2.6285
 3023.9696     8.9992      .0477    26.8730    13.7284     2.6156
 3024.1220     9.0026      .0394    25.4509    13.7439     2.6019
 3024.2744     9.0061      .0328    25.3826    13.6199     2.5971
 3024.4268     9.0096      .0510    25.6382    13.3589     2.6249
 3024.5792     9.0131      .0563    25.4430    12.9772     2.6336
 3024.7316     9.0135      .0334    24.3941    12.8482     2.6063
 3024.8840     9.0083      .0263    23.3199    13.1943     2.5984
 3025.0364     9.0029      .0370    24.1843    13.4818     2.6008
 3025.1888     8.9975      .0411    25.0154    13.2486     2.5924
 3025.3412     9.0052      .0314    25.9091    12.9934     2.5730
 3025.4936     9.0251      .0212    26.4904    13.0441     2.5694
 3025.6460     9.0279      .0173    27.0029    13.5204     2.5673
 3025.7984     9.0157      .0312    27.8713    13.7213     2.5912
 3025.9508     9.0035      .0402    29.3223    13.5477     2.5941
 3026.1032     8.9944      .0476    31.5835    13.9393     2.6004
 3026.2556     8.9938      .0445    34.0018    15.2976     2.5866
 3026.4080     9.0017      .0602    36.8692    17.2006     2.5851
 3026.5604     9.0216      .0595    38.6438    19.1291     2.5872
 3026.7128     9.0269      .0480    37.5745    20.1067     2.5880
 3026.8652     9.0130      .0527    36.5056    20.6100     2.5901
 3027.0176     9.0056      .0344    35.4375    20.5170     2.5792
 3027.1700     8.9988      .0150    34.3231    19.8795     2.5522
 3027.3224     8.9878      .0190    32.4950    19.2756     2.5501
 3027.4748     8.9591      .0293    30.5466    18.9619     2.5710
 3027.6272     8.9325      .0308    32.5656    18.7204     2.5593
