~VERSION INFORMATION
VERS.                                                 2.0:   CWLS Log ASCII Standard-VERSION 2.0
WRAP.                                                  NO:   One line per depth step
~Well Information Block
STRT.M                                          2748.8876:   Top Depth
STOP.M                                          3723.6380:   Bottom Depth
STEP.M                                             .15240:   Depth Increment
NULL.                                            -999.250:   Null Value
FLD .                                             WILDCAT:   Field Name
WELL.                                              15/6-5:   NAME
WBN .                                              15/6-5:   WELLBORE
NATI.                                                 NOR:   COUNTRY
BHT1.DEGF                                           104.0:   BH TEMP 1
BS1 .IN                                             17.50:   BIT SIZE 1
CTRY.                                                 NOR:   COUNTRY
CBD1.M                                       166.79998779:   CSG 1 DRILL DEP
CBL1.M                                              166.0:   CSG 1 LOG DEP
CS1 .IN                                              30.0:   CSG 1 SIZE
COMP.                                      ESSO NORGE A/S:   OPERATOR
PDAT.                                                 MSL:   PERM DATUM
PROV.                                           NORTH SEA:   PROVINCE
COUN.                                         DRILLMASTER:   RIG NAME
SPUD.                                          1977/10/10:   SPUD DATE
LATI.                                       58 30 29.90 N:   SURF. LATITUDE
LONG.                                        1 45 50.70 E:   SURF. LONGITUDE
BTD1.                                      383.20001221 M:   TOTAL DEPTH 1
PBWE.                                              15/6-5:   PB WELL ID
APIN.                                              15/6-5:   PB WELLBORE ID
PBWS.                                                 all:   PB WELL NAME SET
~PARAMETER INFORMATION (log)
LNAM.                              FDC/CNL/GR  COMPOSITED:   NAME
LTYP.                                         DEPTH MATCH:   LOG TYPE
LSRV.                                            DEN/NEUT:   LOG SERVICE
LSOU.                                             SPT/NPD:   LOG SOURCE
LVSN.                                                   1:   LOG VERSION
BHIS.                                                   R:   BRIEF HISTORY
FHIS.                                             RAW-LIS:   FULL HISTORY
LCNM.                                                 SCH:   LOGGING CONTRACTOR
TOOL.                             FDC/CNL/GR (COMPOSITED):   TOOL STRING
~Curve Information Block
#MNEM.UNIT                                        API CODE    No Description
#=========                                        ========    == ===========
DEPT.M                                       00 001 00 00:     1  DEPTH
CALI.IN                                                  :     2  Caliper
DRHO.G/CC                                                :     3  Bulk density correction
GR.GAPI                                                  :     4  Gamma Ray
NPHI.%                                                   :     5  Neutron porosity
RHOB.G/CC                                                :     6  Bulk density
~ASCII
# ...
 3641.3420     8.4855      .0153    40.0181    16.9145     2.3552
 3641.4944     8.3836      .0204    37.3821    17.3266     2.3578
 3641.6468     8.3588      .0198    37.4318    17.7143     2.3606
 3641.7992     8.3441      .0297    38.0516    17.9842     2.3766
 3641.9516     8.3362      .0262    38.1498    18.2871     2.3720
 3642.1040     8.3727      .0141    38.6565    18.5959     2.3579
 3642.2564     8.3861      .0253    38.0052    18.7941     2.3558
 3642.4088     8.3744      .0350    37.4879    18.5333     2.3753
 3642.5612     8.3616      .0464    37.8634    17.5601     2.3928
 3642.7136     8.3429      .0331    37.9169    16.8648     2.3816
 3642.8660     8.3134      .0246    39.2514    16.4699     2.3937
 3643.0184     8.2987      .0179    40.4854    16.3998     2.4059
 3643.1708     8.3424      .0166    41.5618    16.5548     2.4171
 3643.3232     8.3745      .0181    40.8469    16.7659     2.4222
 3643.4756     8.3561      .0204    39.9308    16.8748     2.4054
 3643.6280     8.3511      .0246    39.1308    16.7595     2.3885
 3643.7804     8.3516      .0295    39.5982    16.5772     2.3674
 3643.9328     8.3162      .0190    40.0657    16.3239     2.3467
 3644.0852     8.3083      .0249    40.3495    16.1224     2.3562
 3644.2376     8.3140      .0307    40.6560    16.0913     2.3739
 3644.3900     8.3567      .0201    40.5982    16.3448     2.3645
 3644.5424     8.4007      .0300    39.8517    16.7986     2.3638
 3644.6948     8.4312      .0467    40.8898    17.2301     2.3795
 3644.8472     8.4142      .0586    42.6938    16.9292     2.3949
 3644.9996     8.3985      .0372    45.3156    16.4615     2.3774
 3645.1520     8.3988      .0281    45.8834    16.0807     2.3592
 3645.3044     8.3992      .0306    44.4447    16.9360     2.3698
 3645.4568     8.3996      .0151    42.7595    16.8905     2.3512
 3645.6092     8.3999      .0114    41.9202    16.9014     2.3477
 3645.7616     8.4003      .0158    40.7178    17.4283     2.3552
 3645.9140     8.4007      .0219    39.1987    17.6594     2.3615
 3646.0664     8.4007      .0095    37.8486    17.0875     2.3501
 3646.2188     8.3901      .0135    39.7346    16.5148     2.3583
 3646.3712     8.3818      .0223    40.5514    17.2961     2.3804
 3646.5236     8.3822      .0303    40.2087    18.1268     2.3861
 3646.6760     8.3826      .0295    39.7934    18.2369     2.3415
 3646.8284     8.3883      .0113    39.7365    18.1999     2.3238
 3646.9808     8.4020      .0153    39.4827    18.1686     2.3361
 3647.1332     8.4036      .0189    40.0268    18.1625     2.3385
 3647.2856     8.4039      .0195    41.5054    17.9277     2.3369
 3647.4380     8.4043      .0192    40.9685    17.5173     2.3376
 3647.5904     8.4047      .0223    41.9004    17.2893     2.3414
 3647.7428     8.4112      .0216    40.4964    17.2122     2.3414
 3647.8952     8.4216      .0182    39.9562    17.4878     2.3337
 3648.0476     8.4162      .0115    37.7437    17.5489     2.3187
 3648.2000     8.4015      .0255    35.1403    17.6350     2.3327
 3648.3524     8.3868      .0245    33.8239    18.0232     2.3379
 3648.5048     8.3869      .0328    33.2256    17.9537     2.3367
 3648.6572     8.3959      .0368    33.0363    18.4875     2.3322
 3648.8096     8.4135      .0399    33.3275    18.9171     2.3246
 3648.9620     8.4263      .0198    33.4872    18.8012     2.3101
 3649.1144     8.4180      .0176    32.5285    18.5948     2.3185
 3649.2668     8.4098      .0203    31.5698    17.9863     2.3257
 3649.4192     8.3967      .0288    32.2758    17.6111     2.3361
 3649.5716     8.3829      .0243    33.2038    17.6053     2.3441
 3649.7240     8.3694      .0178    33.9843    17.7546     2.3374
 3649.8764     8.3605      .0317    33.0524    17.9619     2.3489
 3650.0288     8.3516      .0397    34.3782    17.8009     2.3297
 3650.1812     8.3732      .0182    37.2897    17.2929     2.3145
 3650.3336     8.3916      .0032    36.7536    17.0824     2.3120
 3650.4860     8.3921      .0011    37.5340    17.2349     2.3212
 3650.6384     8.4235      .0120    38.3144    17.0760     2.3286
 3650.7908     8.4529      .0128    38.3342    16.7568     2.3295
 3650.9432     8.4534      .0169    40.1974    16.9728     2.3404
 3651.0956     8.4467      .0198    42.0606    17.3356     2.3459
 3651.2480     8.4397      .0108    42.1208    17.6444     2.3488
 3651.4004     8.4329      .0083    40.8845    16.8762     2.3533
 3651.5528     8.4267      .0125    40.4719    17.1134     2.3594
 3651.7052     8.4205      .0182    40.2381    17.6158     2.3631
 3651.8576     8.3965      .0230    41.2982    17.0702     2.3425
 3652.0100     8.3369      .0230    40.0859    16.7233     2.3408
 3652.1624     8.3853      .0228    39.8954    16.5641     2.3369
 3652.3148     8.6984      .0222    41.4359    16.6093     2.3505
 3652.4672     8.6271      .0201    43.6856    16.9237     2.3551
 3652.6196     8.4445      .0181    45.1819    17.3120     2.3624
 3652.7720     8.4590      .0138    44.2181    17.6498     2.3728
 3652.9244     8.4509      .0115    42.0352    17.9269     2.3832
 3653.0768     8.4428      .0169    39.6560    18.2413     2.3792
 3653.2292     8.4450      .0231    37.6105    18.4193     2.3711
 3653.3816     8.4509      .0291    36.4558    18.5491     2.3573
 3653.5340     8.4569      .0363    36.5013    18.6444     2.3413
 3653.6864     8.4624      .0343    36.1699    18.6429     2.3221
 3653.8388     8.4629      .0307    32.9891    18.5386     2.3002
 3653.9912     8.4634      .0343    31.5512    18.1483     2.3076
 3654.1436     8.4639      .0111    32.7652    17.4714     2.2879
 3654.2960     8.4644      .0158    31.5154    17.1712     2.2956
 3654.4484     8.4649      .0227    32.3458    17.4702     2.3058
 3654.6008     8.4654      .0243    33.4071    17.6594     2.3180
 3654.7532     8.4659      .0219    32.3998    16.8640     2.3226
 3654.9056     8.4641      .0168    30.5660    16.5408     2.3227
 3655.0580     8.4496      .0191    31.1174    16.1547     2.3282
 3655.2104     8.4350      .0211    32.1679    15.9965     2.3387
 3655.3628     8.4316      .0189    33.0310    16.0455     2.3381
 3655.5152     8.4392      .0190    33.5532    16.4058     2.3443
 3655.6676     8.4468      .0330    34.0176    16.4325     2.3553
 3655.8200     8.4703      .0277    32.8372    15.4064     2.3580
 3655.9724     8.5009      .0323    31.1892    14.3573     2.3612
 3656.1248     8.5530      .0310    29.4766    13.2629     2.3488
 3656.2772     8.6196      .0337    28.5002    12.6310     2.3394
 3656.4296     8.6940      .0485    27.6832    12.1948     2.3611
 3656.5820     8.7481      .0633    27.5087    11.7586     2.4133
 3656.7344     8.7713      .0433    27.5678    10.2518     2.4705
 3656.8868     8.7718      .0248    27.7920     7.1559     2.6226
 3657.0392     8.7595      .0316    27.7680     3.8892     2.6890
 3657.1916     8.7299      .0496    27.4123     1.3913     2.6995
 3657.3440     8.7135      .0385    26.6727      .9770     2.6905
 3657.4964     8.7140      .0302    26.2380      .7993     2.6880
 3657.6488     8.7145      .0362    26.1491     1.1988     2.7090
 3657.8012     8.7150      .0403    26.1541     1.3872     2.7122
 3657.9536     8.7155      .0439    26.0551     1.5363     2.7043
 3658.1060     8.6856      .0478    25.8236     1.5566     2.7189
 3658.2584     8.6485      .0473    26.2306     1.5506     2.7372
 3658.4108     8.6122      .0370    27.2988     1.4391     2.7178
 3658.5632     8.5799      .0238    28.6931     1.5409     2.6862
 3658.7156     8.5552      .0214    29.0642     1.6429     2.6868
 3658.8680     8.5457      .0344    28.4680     1.8012     2.7130
 3659.0204     8.5364      .0506    28.6442     2.0171     2.7363
 3659.1728     8.5277      .0668    29.0756     2.4106     2.7450
 3659.3252     8.5208      .0538    29.6539     2.9305     2.7175
 3659.4776     8.5213      .0485    31.0409     3.8585     2.7031
 3659.6300     8.5218      .0585    32.9597     6.1198     2.6806
 3659.7824     8.5223      .0649    34.8056     9.6978     2.6511
