~VERSION INFORMATION
VERS.                                                 2.0:   CWLS Log ASCII Standard-VERSION 2.0
WRAP.                                                  NO:   One line per depth step
~Well Information Block
STRT.M                                          2748.8876:   Top Depth
STOP.M                                          3723.6380:   Bottom Depth
STEP.M                                             .15240:   Depth Increment
NULL.                                            -999.250:   Null Value
FLD .                                             WILDCAT:   Field Name
WELL.                                              15/6-5:   NAME
WBN .                                              15/6-5:   WELLBORE
NATI.                                                 NOR:   COUNTRY
BHT1.DEGF                                           104.0:   BH TEMP 1
BS1 .IN                                             17.50:   BIT SIZE 1
CTRY.                                                 NOR:   COUNTRY
CBD1.M                                       166.79998779:   CSG 1 DRILL DEP
CBL1.M                                              166.0:   CSG 1 LOG DEP
CS1 .IN                                              30.0:   CSG 1 SIZE
COMP.                                      ESSO NORGE A/S:   OPERATOR
PDAT.                                                 MSL:   PERM DATUM
PROV.                                           NORTH SEA:   PROVINCE
COUN.                                         DRILLMASTER:   RIG NAME
SPUD.                                          1977/10/10:   SPUD DATE
LATI.                                       58 30 29.90 N:   SURF. LATITUDE
LONG.                                        1 45 50.70 E:   SURF. LONGITUDE
BTD1.                                      383.20001221 M:   TOTAL DEPTH 1
PBWE.                                              15/6-5:   PB WELL ID
APIN.                                              15/6-5:   PB WELLBORE ID
PBWS.                                                 all:   PB WELL NAME SET
~PARAMETER INFORMATION (log)
LNAM.                              FDC/CNL/GR  COMPOSITED:   NAME
LTYP.                                         DEPTH MATCH:   LOG TYPE
LSRV.                                            DEN/NEUT:   LOG SERVICE
LSOU.                                             SPT/NPD:   LOG SOURCE
LVSN.                                                   1:   LOG VERSION
BHIS.                                                   R:   BRIEF HISTORY
FHIS.                                             RAW-LIS:   FULL HISTORY
LCNM.                                                 SCH:   LOGGING CONTRACTOR
TOOL.                             FDC/CNL/GR (COMPOSITED):   TOOL STRING
~Curve Information Block
#MNEM.UNIT                                        API CODE    No Description
#=========                                        ========    == ===========
DEPT.M                                       00 001 00 00:     1  DEPTH
CALI.IN                                                  :     2  Caliper
DRHO.G/CC                                                :     3  Bulk density correction
GR.GAPI                                                  :     4  Gamma Ray
NPHI.%                                                   :     5  Neutron porosity
RHOB.G/CC                                                :     6  Bulk density
~ASCII
# ...
 3697.1204     9.2186      .0608    85.4976    26.5122     2.5738
 3697.2728     9.2584      .0701    83.5119    26.3944     2.5582
 3697.4252     9.3049      .0750    80.6911    25.5323     2.5755
 3697.5776     9.3424      .0439    77.7012    23.9005     2.5534
 3697.7300     9.3705      .0254    75.0901    23.2788     2.5455
 3697.8824     9.4037      .0472    73.5102    24.1190     2.5699
 3698.0348     9.3768      .0433    75.6536    25.3405     2.5605
 3698.1872     9.2063      .0460    76.6615    25.5779     2.5921
 3698.3396     9.1177      .0528    75.2570    25.7827     2.6156
 3698.4920     9.1344      .0019    72.8936    25.0641     2.6589
 3698.6444     9.1936     -.0406    66.8547    24.3512     2.7375
 3698.7968     9.1703     -.0261    64.4112    24.5362     2.7717
 3698.9492     9.2433     -.0029    67.3690    24.8628     2.7402
 3699.1016     9.2500      .0211    72.8344    24.7824     2.6725
 3699.2540     9.1897      .0461    73.8969    24.2132     2.5857
 3699.4064     9.2288      .0419    74.4006    24.5128     2.5057
 3699.5588     9.1781      .0213    76.2466    24.7629     2.4733
 3699.7112     9.1334      .0284    78.0369    25.2773     2.4859
 3699.8636     9.1333      .0446    79.7596    26.2774     2.5011
 3700.0160     9.1807      .0487    81.2645    27.1787     2.5032
 3700.1684     9.2674      .0474    82.1090    27.7752     2.5091
 3700.3208     9.2765      .0443    81.7570    27.7907     2.5068
 3700.4732     9.2741      .0493    83.2195    28.6467     2.5112
 3700.6256     9.2395      .0484    87.4804    29.9271     2.5164
 3700.7780     9.2068      .0364    93.5594    28.6867     2.5038
 3700.9304     9.1963      .0247    96.9657    26.7084     2.4845
 3701.0828     9.2116      .0146    99.8025    25.6489     2.4657
 3701.2352     9.2600      .0060    99.6870    25.7913     2.4300
 3701.3876     9.3153      .0168    99.3302    27.0963     2.3772
 3701.5400     9.3097      .0436    99.7520    30.9416     2.2746
 3701.6924     9.0329      .0696   100.2296    36.4303     2.1196
 3701.8448     8.8237      .0720   102.2988    41.9125     1.9965
 3701.9972     8.7709      .0607   104.5909    45.0094     1.9347
 3702.1496     8.7681      .0398   103.9350    45.0102     1.9104
 3702.3020     8.8253      .0357   103.5375    45.0109     1.9295
 3702.4544     8.9952      .0633   105.6141    44.8260     1.9684
 3702.6068     9.1135      .0831   108.6239    43.1858     2.0487
 3702.7592     8.9247      .0698   112.6600    41.1307     2.1477
 3702.9116     9.0235      .0250   115.8869    38.7059     2.2608
 3703.0640     9.0558     -.0023   118.0694    35.6848     2.3191
 3703.2164     9.0452     -.0076   114.8213    33.4170     2.2878
 3703.3688     8.9928     -.0072   108.5706    32.0479     2.2306
 3703.5212     8.9238      .0089   101.3254    31.8049     2.0908
 3703.6736     8.9234      .0532    96.8537    32.2309     1.9194
 3703.8260     8.9530      .1313    80.2596    34.4343     1.8488
 3703.9784     8.9654      .1694    62.5761    38.8758     1.8196
 3704.1308     8.9545      .1438    55.6901    44.4640     1.7876
 3704.2832     8.9281      .1042    54.5150    45.8862     1.7005
 3704.4356     8.9269      .0352    52.1834    45.3660     1.5801
 3704.5880     8.9334      .0028    48.7412    45.5403     1.4825
 3704.7404     8.9473      .0043    47.5043    45.2187     1.4731
 3704.8928     8.9677      .0185    49.7827    45.1906     1.4915
 3705.0452     8.9687      .0169    54.5566    45.1785     1.5618
 3705.1976     8.9989      .0001    59.6298    45.1663     1.6340
 3705.3500     9.0900      .0093    67.6601    45.1541     1.6975
 3705.5024     9.3114     -.0026    72.9829    45.1420     1.7228
 3705.6548     9.7790     -.0080    74.0956    45.1298     1.7430
 3705.8072    10.3032      .0057    72.7640    45.1176     1.7600
 3705.9596    10.5832     -.0078    71.2732    45.1055     1.7225
 3706.1120     9.6335      .0093    71.3175    45.0933     1.6850
 3706.2644     9.6115     -.0015    75.4052    45.0812     1.7073
 3706.4168    10.4310      .0030    81.6146    45.0690     1.8023
 3706.5692     9.8131      .0127    82.9283    45.0568     1.8771
 3706.7216     9.3632      .0282    80.5298    45.0447     1.8743
 3706.8740     9.2800      .0731    76.6810    45.0441     1.7629
 3707.0264     9.0833      .0537    77.5034    45.1356     1.7223
 3707.1788     9.0618      .0195    78.6029    45.3828     1.7661
 3707.3312     8.9843      .0304    76.6084    45.7461     1.8089
 3707.4836     9.1342      .0362    73.1014    45.4600     1.8118
 3707.6360     9.3069      .0527    68.1617    44.0356     1.8031
 3707.7884     9.4619      .0216    64.3812    41.1953     1.8165
 3707.9408     9.9375      .0208    61.8722    33.5761     1.9512
 3708.0932     9.5176      .0288    52.2157    26.2369     2.0937
 3708.2456     9.5494     -.0012    45.6062    17.0024     2.2402
 3708.3980     9.4949      .0370    42.2929    14.7711     2.3957
 3708.5504     9.3410      .0722    41.4700    12.1113     2.4682
 3708.7028     8.8536      .0486    43.6409     9.3975     2.4372
 3708.8552     8.5747      .0668    46.4798     7.4604     2.4424
 3709.0076     8.5404      .0782    52.1692     7.6412     2.4710
 3709.1600     8.5059      .0758    60.4182     9.4911     2.4850
 3709.3124     8.6791      .0613    73.2563    14.2695     2.4480
 3709.4648     8.8155      .0460    82.5104    20.1700     2.3820
 3709.6172     8.7901      .0806    87.6517    24.6233     2.3159
 3709.7696     8.8710      .1097    92.0084    29.6032     2.3329
 3709.9220     8.9748      .1254    92.4779    32.4681     2.3709
 3710.0744     9.1671      .1065    89.9621    32.3581     2.4089
 3710.2268     8.8807      .1014    88.4927    29.0876     2.4449
 3710.3792     8.8678      .0572    86.6064    23.6284     2.4726
 3710.5316     8.8741      .0380    84.2154    21.9068     2.5145
 3710.6840     8.8756      .0746    81.1883    23.2737     2.5772
 3710.8364     9.0358      .0895    81.4757    21.8979     2.5930
 3710.9888     8.8316      .0681    82.4573    21.5312     2.5643
 3711.1412     8.8515      .1199    82.8242    21.5643     2.5932
 3711.2936     8.8683      .1582    82.1718    21.9633     2.6213
 3711.4460     8.8687      .1625    81.2195    23.9708     2.6251
 3711.5984     8.8490      .1532    79.6245    26.9287     2.6251
 3711.7508     8.8201      .1316    78.2867    29.3701     2.6202
 3711.9032     8.7688      .0999    77.3580    29.2115     2.5971
 3712.0556     8.7176      .0602    76.7282    28.3687     2.5926
 3712.2080     8.7510      .0486    77.8818    27.4020     2.5684
 3712.3604     8.7516      .0649    80.9996    27.1577     2.5803
 3712.5128     8.7950      .0796    83.4816    28.6274     2.5821
 3712.6652     8.8709      .0563    84.5446    33.0394     2.5059
 3712.8176     9.0184      .0338    84.6544    37.7134     2.3561
 3712.9700     8.9439      .0564    84.7225    42.3922     2.1119
 3713.1224     9.1561      .0456    84.5864    45.0665     1.8181
 3713.2748     9.2612      .0120    84.4503    45.0673     1.6502
 3713.4272     8.9438      .0073    84.3969    45.0681     1.5669
 3713.5796     9.1643      .0118    84.4961    45.0689     1.5536
 3713.7320     9.5346      .0189    84.5958    45.0697     1.5717
 3713.8844     8.9626      .0171    84.6953    45.0705     1.6204
 3714.0368     8.7739      .0044    84.7941    45.0713     1.6545
 3714.1892     8.7610      .0077    84.8869    45.0721     1.6786
 3714.3416     8.8785      .0009    84.9799    45.0729     1.7059
 3714.4940     9.2931      .0105    85.0079    45.0737     1.7513
 3714.6464     9.7592      .0228    85.0141    45.0745     1.7554
 3714.7988     9.4678      .0555    85.0204    45.0800     1.7587
 3714.9512     9.0558      .0514    85.0266    45.0874     1.7766
 3715.1036     9.4255      .0416    84.9932    45.0949     1.9916
 3715.2560     9.5913      .0708    84.9490    45.1023     2.0936
 3715.4084    10.5910      .1026    84.9048    45.1097     2.1088
 3715.5608    11.9534      .0800    84.8605    45.1171     2.0939
