~VERSION INFORMATION
VERS.                                                 2.0:   CWLS Log ASCII Standard-VERSION 2.0
WRAP.                                                  NO:   One line per depth step
~Well Information Block
STRT.M                                          2748.8876:   Top Depth
STOP.M                                          3723.6380:   Bottom Depth
STEP.M                                             .15240:   Depth Increment
NULL.                                            -999.250:   Null Value
FLD .                                             WILDCAT:   Field Name
WELL.                                              15/6-5:   NAME
WBN .                                              15/6-5:   WELLBORE
NATI.                                                 NOR:   COUNTRY
BHT1.DEGF                                           104.0:   BH TEMP 1
BS1 .IN                                             17.50:   BIT SIZE 1
CTRY.                                                 NOR:   COUNTRY
CBD1.M                                       166.79998779:   CSG 1 DRILL DEP
CBL1.M                                              166.0:   CSG 1 LOG DEP
CS1 .IN                                              30.0:   CSG 1 SIZE
COMP.                                      ESSO NORGE A/S:   OPERATOR
PDAT.                                                 MSL:   PERM DATUM
PROV.                                           NORTH SEA:   PROVINCE
COUN.                                         DRILLMASTER:   RIG NAME
SPUD.                                          1977/10/10:   SPUD DATE
LATI.                                       58 30 29.90 N:   SURF. LATITUDE
LONG.                                        1 45 50.70 E:   SURF. LONGITUDE
BTD1.                                      383.20001221 M:   TOTAL DEPTH 1
PBWE.                                              15/6-5:   PB WELL ID
APIN.                                              15/6-5:   PB WELLBORE ID
PBWS.                                                 all:   PB WELL NAME SET
~PARAMETER INFORMATION (log)
LNAM.                              FDC/CNL/GR  COMPOSITED:   NAME
LTYP.                                         DEPTH MATCH:   LOG TYPE
LSRV.                                            DEN/NEUT:   LOG SERVICE
LSOU.                                             SPT/NPD:   LOG SOURCE
LVSN.                                                   1:   LOG VERSION
BHIS.                                                   R:   BRIEF HISTORY
FHIS.                                             RAW-LIS:   FULL HISTORY
LCNM.                                                 SCH:   LOGGING CONTRACTOR
TOOL.                             FDC/CNL/GR (COMPOSITED):   TOOL STRING
~Curve Information Block
#MNEM.UNIT                                        API CODE    No Description
#=========                                        ========    == ===========
DEPT.M                                       00 001 00 00:     1  DEPTH
CALI.IN                                                  :     2  Caliper
DRHO.G/CC                                                :     3  Bulk density correction
GR.GAPI                                                  :     4  Gamma Ray
NPHI.%                                                   :     5  Neutron porosity
RHOB.G/CC                                                :     6  Bulk density
~ASCII
# ...
 2804.6660     8.0198      .0011     8.3646     -.0324     2.5026
 2804.8184     8.0272      .0011     8.0373     -.0326     2.5026
 2804.9708     8.0230      .0011     8.3351     -.0328     2.5026
 2805.1232     8.0124      .0011     8.8997     -.0330     2.5026
 2805.2756     8.0207      .0011     9.1697     -.0333     2.5026
 2805.4280     8.0268      .0011     8.4966     -.0335     2.5026
 2805.5804     8.0175      .0011     8.9623     -.0337     2.5026
 2805.7328     8.0165      .0011     9.4013     -.0339     2.5026
 2805.8852     8.0441      .0011     9.8037     -.0341     2.5026
 2806.0376     8.0637      .0011    10.6031     -.0343     2.5026
 2806.1900     8.0568      .0011    11.4948     -.0346     2.5026
 2806.3424     8.0383      .0011    10.7945     -.0348     2.5026
 2806.4948     8.0245      .0010     9.6859     -.0350     2.5026
 2806.6472     8.0152      .0010     8.5740     -.0352     2.5026
 2806.7996     8.0093      .0010     8.3398     -.0354     2.5026
 2806.9520     8.0147      .0010     8.9740     -.0356     2.5026
 2807.1044     8.0379      .0010     9.7421     -.0359     2.5026
 2807.2568     8.0397      .0010     9.9034     -.0361     2.5026
 2807.4092     8.0365      .0010     9.9089     -.0363     2.5026
 2807.5616     8.0422      .0010     9.6284     -.0365     2.5026
 2807.7140     8.0250      .0010     9.4115     -.0367     2.5026
 2807.8664     8.0067      .0010     9.9811     -.0369     2.5026
 2808.0188     7.9833      .0010    10.4187     -.0372     2.5026
 2808.1712     7.9628      .0010    10.5803     -.0374     2.5026
 2808.3236     7.9502      .0010     9.4973     -.0376     2.5026
 2808.4760     8.1430      .0010     8.6348     -.0378     2.5026
 2808.6284     8.0678      .0010     8.4152     -.0380     2.5026
 2808.7808     8.0150      .0010     9.0880     -.0383     2.5026
 2808.9332     8.0084      .0010     9.2265     -.0385     2.5026
 2809.0856     8.0112      .0010     8.8282     -.0387     2.5026
 2809.2380     8.0160      .0010     8.8911     -.0389     2.5026
 2809.3904     8.0207      .0010     9.1583     -.0391     2.5026
 2809.5428     8.0255      .0010     9.5384     -.0393     2.5026
 2809.6952     8.0270      .0010     9.4271     -.0396     2.5026
 2809.8476     8.0245      .0010     8.9758     -.0398     2.5026
 2810.0000     8.0220      .0010     8.7757     -.0400     2.5026
 2810.1524     8.0196      .0010     8.8956     -.0402     2.5026
 2810.3048     8.0171      .0010     8.9426     -.0404     2.5026
 2810.4572     8.0147      .0010     9.3090     -.0406     2.5026
 2810.6096     8.0122      .0010     9.6707     -.0409     2.5026
 2810.7620     8.0097      .0010     9.4822     -.0411     2.5026
 2810.9144     8.0092      .0010     9.0118     -.0413     2.5026
 2811.0668     8.0169      .0010     8.4966     -.0415     2.5026
 2811.2192     8.0248      .0010     8.7635     -.0417     2.5026
 2811.3716     8.0354      .0010     9.1680     -.0419     2.5027
 2811.5240     8.0426      .0010     8.5179     -.0422     2.5029
 2811.6764     8.0202      .0010     8.8818     -.0424     2.5030
 2811.8288     7.9995      .0010     9.3419     -.0426     2.5032
 2811.9812     7.9902      .0010     8.4473     -.0428     2.5033
 2812.1336     8.0064      .0010     8.2939     -.0430     2.5035
 2812.2860     8.0365      .0010     9.4902     -.0432     2.5031
 2812.4384     8.0469      .0010    10.0469     -.0435     2.5026
 2812.5908     8.0387      .0010     9.7613     -.0437     2.5025
 2812.7432     8.0268      .0010     9.5649     -.0439     2.5025
 2812.8956     8.0264      .0010    10.1376     -.0441     2.5025
 2813.0480     8.0126      .0010     9.7761     -.0443     2.5025
 2813.2004     8.0528      .0010     9.1750     -.0445     2.5025
 2813.3528     8.1021      .0010     8.5275     -.0448     2.5025
 2813.5052     8.0435      .0010     7.7057     -.0450     2.5025
 2813.6576     8.0269      .0010     8.3943     -.0452     2.5026
 2813.8100     8.0376      .0010     9.2152     -.0454     2.5026
 2813.9624     8.0669      .0010    10.0281     -.0456     2.5026
 2814.1148     8.0210      .0010    10.7660     -.0459     2.5026
 2814.2672     7.9864      .0010    11.5262     -.0461     2.5026
 2814.4196     8.0039      .0010    12.3988     -.0463     2.5026
 2814.5720     8.0295      .0010    13.4139     -.0465     2.5026
 2814.7244     8.0994      .0010    13.4534     -.0467     2.5026
 2814.8768     8.0076      .0010    10.5083     -.0469     2.5027
 2815.0292     8.0130      .0010     8.5058     -.0472     2.5027
 2815.1816     8.0184      .0010     8.1887     -.0474     2.5027
 2815.3340     8.0238      .0010     8.2714     -.0476     2.5027
 2815.4864     8.0257      .0010     8.6383     -.0478     2.5027
 2815.6388     8.0257      .0010     9.1153     -.0480     2.5027
 2815.7912     8.0272      .0009    10.0525     -.0482     2.5027
 2815.9436     8.0381      .0009     9.5638     -.0485     2.5027
 2816.0960     8.0454      .0009     8.7427     -.0487     2.5027
 2816.2484     8.0452      .0009     8.7839     -.0489     2.5028
 2816.4008     8.0320      .0009    10.2192     -.0491     2.5028
 2816.5532     8.0122      .0009    10.0042     -.0493     2.5028
 2816.7056     8.0053      .0009     9.4514     -.0495     2.5028
 2816.8580     8.0053      .0009     9.3966     -.0498     2.5028
 2817.0104     8.0108      .0009     9.5634     -.0500     2.5028
 2817.1628     8.0376      .0009     9.9452     -.0502     2.5028
 2817.3152     8.0221      .0009     9.6660     -.0504     2.5028
 2817.4676     7.9995      .0009     8.7225     -.0506     2.5028
 2817.6200     7.9878      .0009     8.3796     -.0508     2.5029
 2817.7724     8.0095      .0009     8.5060     -.0511     2.5029
 2817.9248     8.0401      .0009     8.8926     -.0513     2.5029
 2818.0772     8.0284      .0009     9.4189     -.0515     2.5029
 2818.2296     8.0247      .0009     9.8076     -.0514     2.5029
 2818.3820     8.0246      .0009     9.7218     -.0462     2.5029
 2818.5344     8.0245      .0009     9.7304     -.0392     2.5029
 2818.6868     8.0243      .0008     9.9457     -.0321     2.5029
 2818.8392     8.0189      .0008     9.3451     -.0251     2.5030
 2818.9916     8.0113      .0008     8.9563     -.0181     2.5030
 2819.1440     8.0067      .0008     9.6629     -.0111     2.5030
 2819.2964     8.0332      .0008    10.4687     -.0041     2.5030
 2819.4488     8.0441      .0008     9.9437      .0029     2.5030
 2819.6012     8.0438      .0008     9.2978      .0096     2.5030
 2819.7536     8.0388      .0008     8.8621      .0112     2.5030
 2819.9060     8.0321      .0008     8.5832      .0115     2.5030
 2820.0584     8.0252      .0008     8.7504      .0119     2.5030
 2820.2108     8.0145      .0008     9.3500      .0050     2.5031
 2820.3632     8.0039      .0008     9.8601     -.0290     2.5031
 2820.5156     8.0038      .0008    10.1936     -.0631     2.5031
 2820.6680     8.0078      .0008     9.4722     -.0965     2.5031
 2820.8204     8.0206      .0008     8.7226     -.1063     2.5031
 2820.9728     8.0240      .0008     8.2181     -.1059     2.5031
 2821.1252     8.0271      .0008     8.4343     -.1048     2.5031
 2821.2776     8.0302      .0008     8.8828     -.1037     2.5031
 2821.4300     8.0333      .0008     9.5043     -.1025     2.5031
 2821.5824     8.0364      .0007     8.9384     -.1013     2.5032
 2821.7348     8.0395      .0007     8.2271     -.1001     2.5032
 2821.8872     8.0424      .0007     7.7331     -.0989     2.5032
 2822.0396     8.0399      .0005     7.3594     -.0977     2.5032
 2822.1920     8.0361      .0004     8.6082     -.0966     2.5032
 2822.3444     8.0323      .0002     9.5769     -.0954     2.5032
 2822.4968     8.0285      .0001     9.8571     -.0942     2.5032
 2822.6492     8.0246     -.0001     9.6874     -.0930     2.5031
 2822.8016     8.0228     -.0002    10.0049     -.0918     2.5031
 2822.9540     8.0173     -.0001     9.7727     -.0906     2.5031
 2823.1064     7.9910      .0003     9.4290     -.0895     2.5031
