~VERSION INFORMATION
VERS.                                                 2.0:   CWLS Log ASCII Standard-VERSION 2.0
WRAP.                                                  NO:   One line per depth step
~Well Information Block
STRT.M                                          2748.8876:   Top Depth
STOP.M                                          3723.6380:   Bottom Depth
STEP.M                                             .15240:   Depth Increment
NULL.                                            -999.250:   Null Value
FLD .                                             WILDCAT:   Field Name
WELL.                                              15/6-5:   NAME
WBN .                                              15/6-5:   WELLBORE
NATI.                                                 NOR:   COUNTRY
BHT1.DEGF                                           104.0:   BH TEMP 1
BS1 .IN                                             17.50:   BIT SIZE 1
CTRY.                                                 NOR:   COUNTRY
CBD1.M                                       166.79998779:   CSG 1 DRILL DEP
CBL1.M                                              166.0:   CSG 1 LOG DEP
CS1 .IN                                              30.0:   CSG 1 SIZE
COMP.                                      ESSO NORGE A/S:   OPERATOR
PDAT.                                                 MSL:   PERM DATUM
PROV.                                           NORTH SEA:   PROVINCE
COUN.                                         DRILLMASTER:   RIG NAME
SPUD.                                          1977/10/10:   SPUD DATE
LATI.                                       58 30 29.90 N:   SURF. LATITUDE
LONG.                                        1 45 50.70 E:   SURF. LONGITUDE
BTD1.                                      383.20001221 M:   TOTAL DEPTH 1
PBWE.                                              15/6-5:   PB WELL ID
APIN.                                              15/6-5:   PB WELLBORE ID
PBWS.                                                 all:   PB WELL NAME SET
~PARAMETER INFORMATION (log)
LNAM.                              FDC/CNL/GR  COMPOSITED:   NAME
LTYP.                                         DEPTH MATCH:   LOG TYPE
LSRV.                                            DEN/NEUT:   LOG SERVICE
LSOU.                                             SPT/NPD:   LOG SOURCE
LVSN.                                                   1:   LOG VERSION
BHIS.                                                   R:   BRIEF HISTORY
FHIS.                                             RAW-LIS:   FULL HISTORY
LCNM.                                                 SCH:   LOGGING CONTRACTOR
TOOL.                             FDC/CNL/GR (COMPOSITED):   TOOL STRING
~Curve Information Block
#MNEM.UNIT                                        API CODE    No Description
#=========                                        ========    == ===========
DEPT.M                                       00 001 00 00:     1  DEPTH
CALI.IN                                                  :     2  Caliper
DRHO.G/CC                                                :     3  Bulk density correction
GR.GAPI                                                  :     4  Gamma Ray
NPHI.%                                                   :     5  Neutron porosity
RHOB.G/CC                                                :     6  Bulk density
~ASCII
# ...
 3436.8212    12.9252      .0957    96.8983    38.3616     2.1954
 3436.9736    12.9204      .0852    98.2324    36.5491     2.1741
 3437.1260    12.7338      .0751    98.8273    35.2655     2.1863
 3437.2784    12.9917      .0811    98.2747    35.9579     2.2030
 3437.4308    12.7097      .0894    98.4230    36.6142     2.2153
 3437.5832    12.5390      .0863   100.1348    37.2173     2.2017
 3437.7356    12.4992      .0805   101.0083    37.8194     2.1934
 3437.8880    12.5835      .0860   102.3735    37.3684     2.2009
 3438.0404    12.7979      .0646   103.4858    35.8035     2.1987
 3438.1928    12.7950      .0654   104.6362    36.6115     2.1939
 3438.3452    12.5690      .0783   105.0049    37.5771     2.1841
 3438.4976    12.6324      .0940   105.0767    37.6668     2.1456
 3438.6500    12.8176      .0876   107.5020    38.2548     2.1274
 3438.8024    12.4570      .0811   109.0662    37.1184     2.1172
 3438.9548    12.1409      .0840   107.5096    38.0651     2.1230
 3439.1072    12.4332      .1046   109.2379    39.0720     2.1466
 3439.2596    12.6079      .1100   109.5202    39.1558     2.1440
 3439.4120    12.6025      .1168   110.9958    38.7572     2.1524
 3439.5644    12.5714      .1144   109.1606    38.0340     2.1411
 3439.7168    12.3122      .0848   106.8526    36.9016     2.1099
 3439.8692    12.0087      .0778   104.8700    35.0702     2.1176
 3440.0216    12.4617      .0969   103.2250    36.0638     2.1546
 3440.1740    12.4618      .0906   105.8715    36.5955     2.1780
 3440.3264    12.3176      .1000   105.1776    36.1558     2.2198
 3440.4788    12.5020      .1077   106.1245    35.8832     2.2333
 3440.6312    12.8014      .1198   105.3484    36.4196     2.2247
 3440.7836    12.7741      .0927   106.6533    37.7017     2.1909
 3440.9360    12.6819      .1081   109.6170    38.7668     2.2095
 3441.0884    12.6821      .1218   110.2388    38.9846     2.2255
 3441.2408    12.6556      .1063   112.4318    39.1706     2.2113
 3441.3932    12.4744      .0909   110.8013    37.6541     2.1971
 3441.5456    12.4436      .1010   110.9654    39.3080     2.2113
 3441.6980    12.0355      .1054   111.6843    40.7697     2.2343
 3441.8504    11.8764      .0962   110.0163    39.9953     2.2301
 3442.0028    11.6881      .1046   110.0295    37.0303     2.2533
 3442.1552    11.9295      .0859   108.7612    35.9445     2.2698
 3442.3076    11.6971      .0770   104.7162    36.7029     2.2760
 3442.4600    11.7623      .1287   101.9899    37.3488     2.2993
 3442.6124    12.0445      .1238   104.1303    37.0789     2.2561
 3442.7648    11.9931      .0936   106.2237    36.6408     2.2208
 3442.9172    11.8501      .1035   106.6021    36.6733     2.2277
 3443.0696    11.8205      .1224   106.0326    37.7382     2.2187
 3443.2220    11.8507      .1276   106.0974    38.9842     2.2129
 3443.3744    11.8647      .1189   103.2673    38.9083     2.2104
 3443.5268    12.1074      .1069   104.1664    39.9035     2.2056
 3443.6792    12.3985      .0993   106.0630    38.4656     2.1831
 3443.8316    12.5961      .0893   107.2521    36.5685     2.1635
 3443.9840    12.4406      .1038   106.7336    37.0335     2.1735
 3444.1364    12.4198      .0968   105.2585    37.7973     2.1668
 3444.2888    12.4348      .0896   102.5368    38.2253     2.1578
 3444.4412    12.3800      .0875   100.1772    39.6641     2.1622
 3444.5936    12.5205      .1057   100.7267    39.6240     2.1823
 3444.7460    12.2735      .1148   101.0708    37.8698     2.1990
 3444.8984    12.5874      .1292   103.2783    36.5206     2.2219
 3445.0508    12.5877      .1316   102.1977    35.7079     2.2206
 3445.2032    12.6505      .1071   100.3071    35.6190     2.2111
 3445.3556    12.7166      .0944   102.7361    35.3398     2.2146
 3445.5080    13.0299      .1090   105.5208    35.5811     2.2099
 3445.6604    12.6237      .1223   107.1859    36.7373     2.2110
 3445.8128    12.5335      .1298   108.0539    37.6405     2.2216
 3445.9652    12.5086      .1079   108.6526    37.2536     2.1954
 3446.1176    12.5218      .0964   104.3845    36.1690     2.2093
 3446.2700    12.2374      .1026   103.4477    35.8042     2.2169
 3446.4224    12.0622      .1064   104.4742    36.2771     2.2227
 3446.5748    12.3858      .1252   105.0586    35.6925     2.2344
 3446.7272    12.6247      .1099   107.0793    34.9468     2.2373
 3446.8796    12.7167      .1019   108.2165    35.7490     2.2471
 3447.0320    12.6807      .1089   104.2127    36.8029     2.2461
 3447.1844    13.0663      .0980   102.5626    37.4295     2.2560
 3447.3368    13.5373      .1142   102.5299    37.9772     2.2867
 3447.4892    13.1651      .1028   104.9572    36.7280     2.2748
 3447.6416    12.9089      .1058   104.0377    35.7604     2.2743
 3447.7940    13.2042      .1219   103.3496    36.7735     2.2564
 3447.9464    13.0672      .1133   102.8316    36.4994     2.2232
 3448.0988    12.7966      .1201   102.0783    36.8535     2.2140
 3448.2512    12.3981      .1280   101.2336    36.5301     2.2331
 3448.4036    12.5270      .1423   100.6268    36.4952     2.2781
 3448.5560    12.5117      .1278   100.7489    37.5340     2.2526
 3448.7084    12.5127      .1102   100.4589    37.2463     2.2230
 3448.8608    12.6194      .1016    98.7100    36.9754     2.1968
 3449.0132    12.4467      .1114    98.5682    35.9301     2.1954
 3449.1656    12.3269      .0982   100.6700    36.2816     2.1865
 3449.3180    12.2835      .0856   102.7718    37.4206     2.1710
 3449.4704    12.3844      .0983   101.0533    37.9541     2.1891
 3449.6228    12.2886      .1077   102.4282    37.5945     2.1982
 3449.7752    12.6258      .1111   106.6675    36.4202     2.2207
 3449.9276    12.3207      .1158   103.6376    34.2767     2.2328
 3450.0800    12.1163      .1205   101.0752    34.6556     2.2373
 3450.2324    12.4824      .1273   100.2491    34.9534     2.2462
 3450.3848    12.5173      .1406    98.0244    34.3574     2.2580
 3450.5372    12.1724      .1208    93.9519    33.7650     2.2568
 3450.6896    12.5200      .1010    90.4185    32.8279     2.2497
 3450.8420    12.0729      .1048    94.0925    33.0634     2.2615
 3450.9944    12.2467      .1149    94.2385    34.4861     2.2780
 3451.1468    12.3433      .1142    93.3475    36.3313     2.2778
 3451.2992    12.3208      .1028    92.7805    37.8894     2.2721
 3451.4516    12.5355      .0968    92.4832    38.1356     2.2672
 3451.6040    12.5765      .1016    93.4324    37.4288     2.2556
 3451.7564    12.6583      .1086    95.0921    36.9035     2.2476
 3451.9088    12.9223      .0923    93.0016    36.9264     2.2358
 3452.0612    12.7159      .0742    92.9779    36.4552     2.2117
 3452.2136    12.7313      .0800    91.8855    35.5828     2.2359
 3452.3660    12.9236      .0932    89.1003    34.6762     2.2583
 3452.5184    12.6281      .1098    88.8737    35.1090     2.2706
 3452.6708    12.2925      .1299    89.2333    34.6279     2.2824
 3452.8232    12.4869      .1476    88.7549    34.1315     2.2888
 3452.9756    12.5657      .1393    89.6682    34.7639     2.2874
 3453.1280    12.6175      .1273    92.1032    35.5413     2.2809
 3453.2804    12.4602      .1062    92.9877    36.5765     2.2565
 3453.4328    12.5424      .1126    94.5148    37.6210     2.2608
 3453.5852    12.9715      .1088    97.6461    37.0819     2.2570
 3453.7376    12.5539      .0971    99.1565    34.2511     2.2501
 3453.8900    12.4233      .1109    98.0907    33.5605     2.2410
 3454.0424    12.4517      .1022    98.0332    34.1163     2.2295
 3454.1948    12.2951      .1187    97.6845    34.6195     2.2329
 3454.3472    12.0972      .1175    95.1649    33.7200     2.2271
 3454.4996    12.1880      .1240    97.7118    34.8736     2.2335
 3454.6520    12.3803      .1395    94.7638    35.4970     2.2494
 3454.8044    12.4859      .1286    91.1302    34.9623     2.2372
 3454.9568    12.2292      .0991    87.4273    33.6036     2.2251
 3455.1092    12.5685      .1132    88.4470    33.6701     2.2347
 3455.2616    12.4267      .1020    84.4758    34.0565     2.2209
