~VERSION INFORMATION
VERS.                                                 2.0:   CWLS Log ASCII Standard-VERSION 2.0
WRAP.                                                  NO:   One line per depth step
~Well Information Block
STRT.M                                          2748.8876:   Top Depth
STOP.M                                          3723.6380:   Bottom Depth
STEP.M                                             .15240:   Depth Increment
NULL.                                            -999.250:   Null Value
FLD .                                             WILDCAT:   Field Name
WELL.                                              15/6-5:   NAME
WBN .                                              15/6-5:   WELLBORE
NATI.                                                 NOR:   COUNTRY
BHT1.DEGF                                           104.0:   BH TEMP 1
BS1 .IN                                             17.50:   BIT SIZE 1
CTRY.                                                 NOR:   COUNTRY
CBD1.M                                       166.79998779:   CSG 1 DRILL DEP
CBL1.M                                              166.0:   CSG 1 LOG DEP
CS1 .IN                                              30.0:   CSG 1 SIZE
COMP.                                      ESSO NORGE A/S:   OPERATOR
PDAT.                                                 MSL:   PERM DATUM
PROV.                                           NORTH SEA:   PROVINCE
COUN.                                         DRILLMASTER:   RIG NAME
SPUD.                                          1977/10/10:   SPUD DATE
LATI.                                       58 30 29.90 N:   SURF. LATITUDE
LONG.                                        1 45 50.70 E:   SURF. LONGITUDE
BTD1.                                      383.20001221 M:   TOTAL DEPTH 1
PBWE.                                              15/6-5:   PB WELL ID
APIN.                                              15/6-5:   PB WELLBORE ID
PBWS.                                                 all:   PB WELL NAME SET
~PARAMETER INFORMATION (log)
LNAM.                              FDC/CNL/GR  COMPOSITED:   NAME
LTYP.                                         DEPTH MATCH:   LOG TYPE
LSRV.                                            DEN/NEUT:   LOG SERVICE
LSOU.                                             SPT/NPD:   LOG SOURCE
LVSN.                                                   1:   LOG VERSION
BHIS.                                                   R:   BRIEF HISTORY
FHIS.                                             RAW-LIS:   FULL HISTORY
LCNM.                                                 SCH:   LOGGING CONTRACTOR
TOOL.                             FDC/CNL/GR (COMPOSITED):   TOOL STRING
~Curve Information Block
#MNEM.UNIT                                        API CODE    No Description
#=========                                        ========    == ===========
DEPT.M                                       00 001 00 00:     1  DEPTH
CALI.IN                                                  :     2  Caliper
DRHO.G/CC                                                :     3  Bulk density correction
GR.GAPI                                                  :     4  Gamma Ray
NPHI.%                                                   :     5  Neutron porosity
RHOB.G/CC                                                :     6  Bulk density
~ASCII
# ...
 3250.8932     8.7762      .0131    17.9002     7.5504     2.5744
 3251.0456     8.8120      .0137    17.9973     7.6851     2.5834
 3251.1980     8.8372      .0266    20.2131     8.2541     2.5734
 3251.3504     8.8197      .0400    24.8029     9.6876     2.5682
 3251.5028     8.8279      .0475    28.0455    11.5637     2.5581
 3251.6552     8.8390      .0369    28.3849    12.0163     2.5372
 3251.8076     8.8396      .0315    27.0125    11.2913     2.5464
 3251.9600     8.8389      .0479    26.3376    10.5233     2.5633
 3252.1124     8.8156      .0424    26.2986    10.5159     2.5557
 3252.2648     8.7830      .0441    26.7059    11.1958     2.5491
 3252.4172     8.7859      .0463    26.3253    11.5764     2.5564
 3252.5696     8.8160      .0345    25.3510    11.4471     2.5385
 3252.7220     8.8208      .0424    24.4906    11.0267     2.5479
 3252.8744     8.8322      .0315    23.6346    10.6070     2.5366
 3253.0268     8.8194      .0265    22.7583    10.6023     2.5372
 3253.1792     8.8258      .0089    21.6271    10.5629     2.5419
 3253.3316     8.8350      .0102    20.3131    10.1663     2.5465
 3253.4840     8.8184      .0114    19.5394    10.1131     2.5474
 3253.6364     8.7850      .0204    19.9908    10.1483     2.5469
 3253.7888     8.7792      .0355    20.5321    10.0753     2.5549
 3253.9412     8.8071      .0360    18.4268     9.4228     2.5586
 3254.0936     8.8541      .0370    15.2569     8.1489     2.5579
 3254.2460     8.9003      .0324    16.1504     7.9294     2.5622
 3254.3984     8.9190      .0291    16.3322     8.5233     2.5641
 3254.5508     8.8869      .0347    16.5406     8.6517     2.5758
 3254.7032     8.8390      .0522    16.9882     8.1883     2.5910
 3254.8556     8.8487      .0483    18.1077     8.1811     2.5782
 3255.0080     8.8512      .0239    19.6129     8.7358     2.5525
 3255.1604     8.8260      .0122    20.2622     9.2420     2.5385
 3255.3128     8.8346      .0073    20.7024    10.0159     2.5280
 3255.4652     8.8388      .0177    20.6040    11.0592     2.5219
 3255.6176     8.8503      .0329    20.0952    11.2612     2.5201
 3255.7700     8.8412      .0333    19.0762    11.1579     2.5215
 3255.9224     8.8187      .0331    18.1337    11.0901     2.5221
 3256.0748     8.8187      .0347    18.1845    10.9424     2.5260
 3256.2272     8.8186      .0332    17.9192    10.5132     2.5322
 3256.3796     8.8219      .0493    17.9999     9.9506     2.5460
 3256.5320     8.8312      .0605    17.6638    10.1875     2.5600
 3256.6844     8.8372      .0250    16.0627     8.5859     2.5519
 3256.8368     8.8308      .0140    14.4393     6.6140     2.5436
 3256.9892     8.8245      .0315    14.7484     6.4889     2.5667
 3257.1416     8.8197      .0345    15.5730     7.1782     2.5784
 3257.2940     8.8242      .0211    16.4486     8.3060     2.5591
 3257.4464     8.8296      .0126    16.9813     8.9132     2.5153
 3257.5988     8.8350      .0273    17.0587     9.0218     2.5253
 3257.7512     8.8339      .0528    16.6349     9.2526     2.5497
 3257.9036     8.8229      .0572    16.8523     9.1469     2.5652
 3258.0560     8.8282      .0517    16.1507     9.0127     2.5597
 3258.2084     8.8319      .0587    16.0862     8.9379     2.5777
 3258.3608     8.8188      .0508    17.4712     9.0231     2.5691
 3258.5132     8.8169      .0410    19.1196     9.6163     2.5416
 3258.6656     8.8041      .0316    19.7935    10.0650     2.5209
 3258.8180     8.8061      .0240    19.1806    10.1322     2.5059
 3258.9704     8.8197      .0346    18.2106    10.2161     2.5051
 3259.1228     8.8339      .0466    18.3912    10.3546     2.5154
 3259.2752     8.8332      .0546    17.2937    10.4507     2.5214
 3259.4276     8.8272      .0566    16.6628     9.9944     2.5125
 3259.5800     8.8211      .0528    15.6625     9.3860     2.5342
 3259.7324     8.8067      .0209    13.7650     7.8826     2.5451
 3259.8848     8.7875      .0118    12.7315     6.9335     2.5667
 3260.0372     8.8556      .0160    13.7188     7.0013     2.5603
 3260.1896     8.9287      .0078    14.4156     7.3489     2.5414
 3260.3420     8.8684      .0067    14.5969     7.9072     2.5282
 3260.4944     8.8337      .0129    14.7790     8.1127     2.5262
 3260.6468     8.8257      .0155    14.9164     7.9254     2.5325
 3260.7992     8.8184      .0135    14.0720     7.8153     2.5389
 3260.9516     8.8236      .0098    13.4913     7.7874     2.5447
 3261.1040     8.8296      .0131    13.6820     7.9684     2.5503
 3261.2564     8.8356      .0269    13.8884     8.1426     2.5568
 3261.4088     8.8433      .0413    13.6667     7.6281     2.5658
 3261.5612     8.8519      .0243    13.3795     7.1121     2.5639
 3261.7136     8.8547      .0346    13.1924     6.6323     2.5821
 3261.8660     8.8471      .0460    14.1882     6.3756     2.5931
 3262.0184     8.8394      .0488    14.1692     6.4212     2.5999
 3262.1708     8.8252      .0474    13.0192     5.9687     2.6059
 3262.3232     8.8219      .0342    12.2377     5.4433     2.6133
 3262.4756     8.8305      .0566    14.1094     5.2133     2.6264
 3262.6280     8.8421      .0517    14.6203     5.4011     2.6211
 3262.7804     8.8639      .0271    14.1857     5.6707     2.6072
 3262.9328     8.8590      .0299    14.3698     5.6198     2.6138
 3263.0852     8.8179      .0373    15.2503     5.5634     2.6170
 3263.2376     8.8242      .0339    16.0204     5.5631     2.6226
 3263.3900     8.8309      .0342    15.5215     5.5741     2.6238
 3263.5424     8.8382      .0202    14.8937     5.6453     2.6015
 3263.6948     8.8515      .0299    14.2417     5.8268     2.5971
 3263.8472     8.8569      .0102    14.5932     6.2963     2.5706
 3263.9996     8.8963      .0185    15.2287     7.1892     2.5720
 3264.1520     8.9459      .0185    14.8161     7.5137     2.5484
 3264.3044     8.8517      .0191    14.9290     7.2235     2.5454
 3264.4568     8.8394      .0242    14.5429     6.7258     2.5592
 3264.6092     8.8242      .0141    13.8014     6.1230     2.5592
 3264.7616     8.8081      .0306    13.1214     5.9205     2.5885
 3264.9140     8.8024      .0287    12.5377     5.8220     2.5847
 3265.0664     8.8189      .0174    12.1961     5.8439     2.5734
 3265.2188     8.8359      .0174    12.3867     5.8133     2.5733
 3265.3712     8.8483      .0237    12.5901     5.5273     2.5895
 3265.5236     8.8392      .0447    12.1935     5.5043     2.6130
 3265.6760     8.8711      .0495    12.4246     5.6598     2.6150
 3265.8284     8.9149      .0249    12.5843     5.8539     2.5804
 3265.9808     8.8283      .0279    12.2535     6.0363     2.5760
 3266.1332     8.7486      .0326    12.0451     6.0369     2.5796
 3266.2856     9.0231      .0220    13.1184     6.0223     2.5658
 3266.4380     8.8818      .0289    14.0783     6.3382     2.5663
 3266.5904     8.8563      .0245    14.1694     6.4701     2.5700
 3266.7428     8.8542      .0128    13.9663     6.3703     2.5629
 3266.8952     8.8373      .0145    14.7046     6.5448     2.5786
 3267.0476     8.8188      .0221    16.1613     7.0971     2.5791
 3267.2000     8.7701      .0329    17.4017     7.5357     2.5819
 3267.3524     8.7097      .0505    17.9302     7.5986     2.6050
 3267.5048     8.9765      .0315    16.4084     7.3537     2.5828
 3267.6572     9.0161      .0138    13.8596     6.7103     2.5584
 3267.8096     8.8823      .0228    14.3575     6.2485     2.5611
 3267.9620     8.8378      .0302    15.4679     6.4965     2.5899
 3268.1144     8.8359      .0124    15.2297     6.5630     2.5799
 3268.2668     8.8327      .0212    14.2780     5.9866     2.5927
 3268.4192     8.8269      .0312    15.2713     5.8285     2.6080
 3268.5716     8.8211      .0325    15.0889     5.9689     2.6033
 3268.7240     8.8177      .0301    14.2997     6.4296     2.6069
 3268.8764     8.8245      .0169    13.3567     6.6758     2.5966
 3269.0288     8.8325      .0120    13.8647     7.1638     2.5899
 3269.1812     8.8643      .0253    15.1383     7.8209     2.5820
 3269.3336     8.9012      .0320    16.5879     8.5188     2.5689
