~VERSION INFORMATION
VERS.                                                 2.0:   CWLS Log ASCII Standard-VERSION 2.0
WRAP.                                                  NO:   One line per depth step
~Well Information Block
STRT.M                                           473.2508:   Top Depth
STOP.M                                          3120.1340:   Bottom Depth
STEP.M                                             .15240:   Depth Increment
NULL.                                            -999.250:   Null Value
FLD .                                 SLEIPNER GAMMA WEST:   Field Name
WELL.                                             15/9-16:   NAME
WBN .                                             15/9-16:   WELLBORE
NATI.                                                 NOR:   COUNTRY
BHT1.DEGF                                            85.0:   BH TEMP 1
BHT2.DEGF                                            88.0:   BH TEMP 2
BHT3.DEGF                                            90.0:   BH TEMP 3
BS1 .IN                                            12.250:   BIT SIZE 1
CTRY.                                                 NOR:   COUNTRY
CBD1.M                                              169.0:   CSG 1 DRILL DEP
CBL1.M                                              169.0:   CSG 1 LOG DEP
CS1 .IN                                              30.0:   CSG 1 SIZE
COMP.                                             STATOIL:   OPERATOR
PDAT.                                                 MSL:   PERM DATUM
PROV.                                           NORTH SEA:   PROVINCE
COUN.                                        DEEPSEA SAGA:   RIG NAME
SPUD.                                          1982/06/28:   SPUD DATE
LATI.                                        58 22 9.97 N:   SURF. LATITUDE
LONG.                                        1 52 43.16 E:   SURF. LONGITUDE
BTD1.                                      514.79992676 M:   TOTAL DEPTH 1
BTD2.                                      514.79992676 M:   TOTAL DEPTH 2
BTD3.                                      514.79992676 M:   TOTAL DEPTH 3
PBWE.                                             15/9-16:   PB WELL ID
APIN.                                             15/9-16:   PB WELLBORE ID
PBWS.                                                 all:   PB WELL NAME SET
~PARAMETER INFORMATION (log)
LNAM.                              LDT/CNL/GR  COMPOSITED:   NAME
LTYP.                                         DEPTH MATCH:   LOG TYPE
LSRV.                                            DEN/NEUT:   LOG SERVICE
LSOU.                                             SPT/NPD:   LOG SOURCE
LVSN.                                                   1:   LOG VERSION
BHIS.                                                   R:   BRIEF HISTORY
FHIS.                                             RAW-LIS:   FULL HISTORY
LCNM.                                        SCHLUMBERGER:   LOGGING CONTRACTOR
TOOL.                             LDT/CNL/GR (COMPOSITED):   TOOL STRING
~Curve Information Block
#MNEM.UNIT                                        API CODE    No Description
#=========                                        ========    == ===========
DEPT.M                                       00 001 00 00:     1  DEPTH
CALI.IN                                                  :     2  Caliper
CS.                                                      :     3  Cable Speed
DRHO.G/CC                                                :     4  Bulk density correction
GR.GAPI                                                  :     5  Gamma Ray
NPHI.%                                                   :     6  Neutron porosity
PEF.B/E                                                  :     7  Photo-electric factor
RHOB.G/CC                                                :     8  Bulk density
TENS.LB                                                  :     9  Cable Tension
~ASCII
# ...
 2398.9772    11.8750  2002.0000     -.0044    28.2344    25.3906     3.4453     2.1934  2724.0000
 2399.1296    11.8984  2001.0000     -.0044    25.9375    27.3438     3.3730     2.1934  2684.0000
 2399.2820    11.8984  2003.0000     -.0020    27.8438    27.1973     3.4121     2.2012  2704.0000
 2399.4344    11.8984  2004.0000      .0029    30.6875    29.2969     3.3379     2.2051  2720.0000
 2399.5868    11.8984  2006.0000      .0044    33.2813    28.4180     4.2148     2.2051  2704.0000
 2399.7392    11.9141  2006.0000     -.0024    35.6563    29.5898     5.6953     2.1602  2694.0000
 2399.8916    11.9453  2005.0000      .0015    38.5625    33.7402     8.9219     2.1348  2684.0000
 2400.0440    12.7500  2004.0000      .0005    43.1250    38.9648     9.7344     2.1113  2684.0000
 2400.1964    13.2656  2003.0000      .0337    53.0313    47.3145     9.7578     2.1328  2704.0000
 2400.3488    14.1406  2003.0000      .0488    59.5625    51.4160     8.8828     2.1309  2710.0000
 2400.5012    12.8984  2002.0000      .0625    65.1875    53.0762     6.8672     2.1621  2724.0000
 2400.6536    12.9375  2002.0000      .0166    63.7500    51.2695     5.2617     2.1914  2700.0000
 2400.8060    11.8516  2004.0000      .0098    58.5937    45.8008     4.4492     2.2773  2660.0000
 2400.9584    11.7500  2004.0000      .0098    53.1875    40.3320     3.7734     2.2988  2640.0000
 2401.1108    11.7500  2003.0000      .0073    45.7500    33.5449     3.4512     2.2441  2644.0000
 2401.2632    11.7422  2004.0000     -.0020    38.6250    26.4648     3.2734     2.1816  2690.0000
 2401.4156    11.7422  2005.0000     -.0117    33.0625    20.5078     3.3906     2.1406  2744.0000
 2401.5680    11.7422  2007.0000     -.0122    30.4375    17.6270     3.2812     2.1367  2754.0000
 2401.7204    11.7500  2008.0000     -.0156    31.6719    17.5781     3.1777     2.1387  2700.0000
 2401.8728    11.7422  2009.0000     -.0122    32.6563    19.5313     3.1250     2.1465  2690.0000
 2402.0252    11.7422  2009.0000     -.0112    33.7187    20.4590     3.0137     2.1562  2674.0000
 2402.1776    11.7500  2009.0000     -.0078    34.8438    21.8262     3.0488     2.1699  2714.0000
 2402.3300    11.7500  2010.0000     -.0103    34.6250    21.5820     2.9883     2.1816  2700.0000
 2402.4824    11.7500  2012.0000     -.0063    33.7500    20.1660     3.0332     2.1914  2680.0000
 2402.6348    11.7500  2012.0000     -.0083    32.1250    20.1172     3.0645     2.1973  2674.0000
 2402.7872    11.7500  2012.0000     -.0029    32.4063    21.2891     3.0645     2.2090  2670.0000
 2402.9396    11.7500  2010.0000     -.0063    31.6563    21.5332     3.2031     2.2109  2684.0000
 2403.0920    11.7422  2010.0000     -.0054    32.4375    21.8262     3.3047     2.2168  2700.0000
 2403.2444    11.7500  2010.0000     -.0068    32.1562    22.3633     3.3770     2.2207  2704.0000
 2403.3968    11.7500  2010.0000     -.0068    36.2500    23.3887     3.3320     2.2246  2694.0000
 2403.5492    11.7422  2009.0000      .0005    37.0938    22.9492     3.1953     2.2344  2694.0000
 2403.7016    11.7500  2010.0000      .0015    39.5625    23.4863     3.1836     2.2422  2670.0000
 2403.8540    11.7500  2010.0000      .0088    38.1250    24.4629     3.1465     2.2441  2680.0000
 2404.0064    11.7812  2009.0000      .0049    37.8438    25.3906     3.0937     2.2090  2684.0000
 2404.1588    11.7812  2008.0000      .0015    36.2187    26.1719     3.0371     2.1797  2694.0000
 2404.3112    11.7812  2007.0000     -.0088    35.6875    25.3906     3.0684     2.1523  2700.0000
 2404.4636    11.7812  2007.0000     -.0127    34.2813    26.6602     3.0859     2.1484  2700.0000
 2404.6160    11.7812  2007.0000     -.0161    32.9375    24.3652     3.0742     2.1406  2680.0000
 2404.7684    11.7812  2009.0000     -.0117    33.1563    24.5605     3.0371     2.1406  2674.0000
 2404.9208    11.7812  2009.0000     -.0132    33.7813    23.4375     3.1582     2.1387  2684.0000
 2405.0732    11.7812  2011.0000     -.0078    32.2500    23.2422     3.2109     2.1406  2694.0000
 2405.2256    11.7812  2012.0000     -.0059    31.2031    24.4141     3.2246     2.1367  2690.0000
 2405.3780    11.7656  2010.0000     -.0059    32.1562    24.7070     3.1445     2.1289  2680.0000
 2405.5304    11.7656  2011.0000     -.0073    31.5938    25.2441     3.0527     2.1230  2674.0000
 2405.6828    11.7812  2011.0000     -.0098    30.2812    24.5117     2.9609     2.1211  2694.0000
 2405.8352    11.7812  2010.0000     -.0063    28.9844    24.6582     2.9746     2.1250  2704.0000
 2405.9876    11.7656  2008.0000     -.0034    32.1250    24.5117     3.0371     2.1230  2724.0000
 2406.1400    11.7812  2008.0000     -.0015    33.3750    24.1211     3.0566     2.1211  2704.0000
 2406.2924    11.7812  2007.0000      .0005    33.1563    23.8281     2.9551     2.1211  2680.0000
 2406.4448    11.7812  2007.0000     -.0024    31.1250    25.2441     2.9453     2.1191  2660.0000
 2406.5972    11.7812  2008.0000     -.0015    30.6563    25.8301     2.9531     2.1172  2670.0000
 2406.7496    11.7812  2007.0000     -.0034    32.2188    25.8301     2.9707     2.1133  2690.0000
 2406.9020    11.7812  2007.0000     -.0010    33.2813    24.6582     2.9336     2.1094  2710.0000
 2407.0544    11.7812  2007.0000     -.0020    33.3125    25.2441     2.9785     2.1055  2724.0000
 2407.2068    11.7812  2007.0000      .0010    31.5156    25.1953     3.0742     2.1094  2720.0000
 2407.3592    11.7812  2008.0000     -.0024    31.7969    25.1953     3.1406     2.1133  2664.0000
 2407.5116    11.7812  2008.0000     -.0049    30.7031    23.8281     3.1797     2.1152  2660.0000
 2407.6640    11.7812  2008.0000     -.0103    32.6875    24.2676     3.1094     2.1113  2674.0000
 2407.8164    11.7812  2009.0000     -.0093    32.1562    25.2930     3.0527     2.1133  2694.0000
 2407.9688    11.7812  2009.0000     -.0083    33.5000    25.9277     3.0215     2.1172  2704.0000
 2408.1212    11.8047  2009.0000     -.0059    30.8906    26.7578     2.9609     2.1289  2740.0000
 2408.2736    11.8047  2007.0000     -.0068    29.2500    27.9785     3.0664     2.1348  2700.0000
 2408.4260    11.7969  2007.0000     -.0068    30.7500    28.4180     3.0566     2.1406  2680.0000
 2408.5784    11.7969  2007.0000     -.0088    32.0625    26.8066     3.1348     2.1406  2684.0000
 2408.7308    11.8047  2007.0000     -.0078    32.3438    24.2676     2.9844     2.1445  2674.0000
 2408.8832    11.8047  2006.0000     -.0098    32.1250    23.5840     2.8906     2.1465  2680.0000
 2409.0356    11.7969  2006.0000     -.0093    29.4688    25.6836     2.9687     2.1426  2684.0000
 2409.1880    11.7969  2006.0000     -.0151    29.7813    28.4180     2.9844     2.1348  2684.0000
 2409.3404    11.7969  2007.0000     -.0146    27.4219    28.4180     3.0625     2.1328  2684.0000
 2409.4928    11.7969  2008.0000     -.0049    30.0625    26.5625     2.9316     2.1426  2674.0000
 2409.6452    11.7969  2007.0000     -.0020    32.1250    24.9512     3.0195     2.1465  2674.0000
 2409.7976    11.8047  2007.0000      .0010    32.6250    25.4883     3.0371     2.1504  2684.0000
 2409.9500    11.7969  2006.0000     -.0093    31.8125    26.8555     3.0996     2.1426  2664.0000
 2410.1024    11.8047  2006.0000     -.0073    32.5000    28.4668     3.0645     2.1406  2670.0000
 2410.2548    11.7969  2006.0000     -.0117    31.9375    29.0527     3.0859     2.1348  2674.0000
 2410.4072    11.8047  2006.0000     -.0068    30.6094    28.5645     3.1348     2.1426  2680.0000
 2410.5596    11.7969  2006.0000     -.0054    26.2031    26.7090     3.1855     2.1523  2684.0000
 2410.7120    11.8047  2005.0000     -.0078    26.2344    27.0020     3.2676     2.1523  2694.0000
 2410.8644    11.8047  2007.0000     -.0122    26.2344    27.1484     3.1699     2.1465  2694.0000
 2411.0168    11.8047  2008.0000     -.0132    26.7656    28.1250     3.2598     2.1406  2690.0000
 2411.1692    11.8047  2007.0000     -.0093    29.0938    26.9531     3.0645     2.1445  2684.0000
