~VERSION INFORMATION
VERS.                                                 2.0:   CWLS Log ASCII Standard-VERSION 2.0
WRAP.                                                  NO:   One line per depth step
~Well Information Block
STRT.M                                           473.2508:   Top Depth
STOP.M                                          3120.1340:   Bottom Depth
STEP.M                                             .15240:   Depth Increment
NULL.                                            -999.250:   Null Value
FLD .                                 SLEIPNER GAMMA WEST:   Field Name
WELL.                                             15/9-16:   NAME
WBN .                                             15/9-16:   WELLBORE
NATI.                                                 NOR:   COUNTRY
BHT1.DEGF                                            85.0:   BH TEMP 1
BHT2.DEGF                                            88.0:   BH TEMP 2
BHT3.DEGF                                            90.0:   BH TEMP 3
BS1 .IN                                            12.250:   BIT SIZE 1
CTRY.                                                 NOR:   COUNTRY
CBD1.M                                              169.0:   CSG 1 DRILL DEP
CBL1.M                                              169.0:   CSG 1 LOG DEP
CS1 .IN                                              30.0:   CSG 1 SIZE
COMP.                                             STATOIL:   OPERATOR
PDAT.                                                 MSL:   PERM DATUM
PROV.                                           NORTH SEA:   PROVINCE
COUN.                                        DEEPSEA SAGA:   RIG NAME
SPUD.                                          1982/06/28:   SPUD DATE
LATI.                                        58 22 9.97 N:   SURF. LATITUDE
LONG.                                        1 52 43.16 E:   SURF. LONGITUDE
BTD1.                                      514.79992676 M:   TOTAL DEPTH 1
BTD2.                                      514.79992676 M:   TOTAL DEPTH 2
BTD3.                                      514.79992676 M:   TOTAL DEPTH 3
PBWE.                                             15/9-16:   PB WELL ID
APIN.                                             15/9-16:   PB WELLBORE ID
PBWS.                                                 all:   PB WELL NAME SET
~PARAMETER INFORMATION (log)
LNAM.                              LDT/CNL/GR  COMPOSITED:   NAME
LTYP.                                         DEPTH MATCH:   LOG TYPE
LSRV.                                            DEN/NEUT:   LOG SERVICE
LSOU.                                             SPT/NPD:   LOG SOURCE
LVSN.                                                   1:   LOG VERSION
BHIS.                                                   R:   BRIEF HISTORY
FHIS.                                             RAW-LIS:   FULL HISTORY
LCNM.                                        SCHLUMBERGER:   LOGGING CONTRACTOR
TOOL.                             LDT/CNL/GR (COMPOSITED):   TOOL STRING
~Curve Information Block
#MNEM.UNIT                                        API CODE    No Description
#=========                                        ========    == ===========
DEPT.M                                       00 001 00 00:     1  DEPTH
CALI.IN                                                  :     2  Caliper
CS.                                                      :     3  Cable Speed
DRHO.G/CC                                                :     4  Bulk density correction
GR.GAPI                                                  :     5  Gamma Ray
NPHI.%                                                   :     6  Neutron porosity
PEF.B/E                                                  :     7  Photo-electric factor
RHOB.G/CC                                                :     8  Bulk density
TENS.LB                                                  :     9  Cable Tension
~ASCII
# ...
 2053.3340    13.9609  1782.0000      .0088    42.9063    50.1465     2.9473     2.0645  2374.0000
 2053.4864    13.4375  1783.0000      .0083    43.2500    50.0488     3.0703     2.0508  2390.0000
 2053.6388    14.3828  1784.0000      .0103    43.4062    45.7031     3.1934     2.0508  2370.0000
 2053.7912    13.8828  1783.0000      .0093    44.2813    49.8047     3.2051     2.0469  2384.0000
 2053.9436    12.9141  1783.0000      .0054    44.6250    49.2676     3.7617     2.0371  2414.0000
 2054.0960    13.1406  1783.0000      .0049    44.2187    54.2480     5.1875     2.0176  2380.0000
 2054.2484    13.6094  1784.0000      .0103    43.6250    53.3691     6.6875     2.0039  2410.0000
 2054.4008    13.1797  1783.0000      .0122    45.0625    56.6895     6.3867     2.0078  2404.0000
 2054.5532    13.2109  1784.0000      .0112    42.0312    53.0762     4.7305     2.0195  2394.0000
 2054.7056    13.2500  1784.0000      .0054    41.3750    54.2480     4.9414     2.0293  2390.0000
 2054.8580    13.1563  1783.0000      .0127    39.7188    48.7305     6.1758     2.0156  2404.0000
 2055.0104    13.2734  1784.0000      .0229    40.5625    46.9727     9.1172     1.9746  2384.0000
 2055.1628    13.1016  1784.0000      .0166    41.0000    49.8047     8.2031     1.9316  2380.0000
 2055.3152    13.0859  1784.0000      .0107    39.6250    50.9766     6.3906     1.9385  2394.0000
 2055.4676    14.2031  1784.0000      .0015    39.0312    52.5879     4.9180     1.9766  2374.0000
 2055.6200    15.1484  1784.0000      .0112    38.7813    50.7324     5.1289     2.0312  2354.0000
 2055.7724    16.0625  1784.0000      .0186    41.7187    52.3437     5.0273     2.0430  2380.0000
 2055.9248    14.7734  1784.0000      .0303    41.4688    55.4687     5.7266     2.0391  2384.0000
 2056.0772    14.4609  1784.0000      .0205    42.9375    56.5918     6.7109     2.0020  2384.0000
 2056.2296    13.8672  1785.0000      .0142    42.5313    55.1270     7.7852     1.9902  2390.0000
 2056.3820    14.4063  1785.0000      .0137    44.1250    55.5664     8.4687     2.0508  2354.0000
 2056.5344    14.5391  1786.0000      .0127    40.4687    52.3926     9.1641     2.1875  2364.0000
 2056.6868    14.5156  1786.0000      .0127    37.3438    53.3203     8.2187     2.3105  2404.0000
 2056.8392    14.0938  1785.0000      .0132    35.7500    49.1211     7.1445     2.2500  2410.0000
 2056.9916    13.9609  1784.0000      .0103    36.5625    51.7090     5.5820     2.1113  2420.0000
 2057.1440    15.0391  1785.0000      .0103    37.0625    53.0762     5.1680     2.0293  2370.0000
 2057.2964    14.5156  1784.0000      .0024    38.6563    55.9082     5.4531     2.0000  2410.0000
 2057.4488    14.5781  1783.0000      .0088    39.7188    54.4922     7.2344     2.0020  2410.0000
 2057.6012    14.3516  1783.0000      .0117    41.7813    53.3203     7.4805     2.0078  2400.0000
 2057.7536    13.8125  1783.0000      .0068    44.1875    53.2227     6.1680     2.0078  2400.0000
 2057.9060    14.9062  1783.0000      .0029    45.4063    54.1504     5.3047     2.0176  2424.0000
 2058.0584    15.1875  1784.0000      .0000    43.5937    55.6152     5.8672     2.0059  2400.0000
 2058.2108    14.5000  1785.0000      .0112    38.8438    52.0020     7.7578     2.0020  2434.0000
 2058.3632    14.2187  1785.0000      .0166    37.0625    51.1719     9.5000     1.9824  2394.0000
 2058.5156    14.2187  1784.0000      .0293    36.4375    52.8809    11.4531     1.9844  2370.0000
 2058.6680    13.7734  1783.0000      .0234    37.1562    56.0059    11.6641     2.0937  2370.0000
 2058.8204    13.8047  1783.0000      .0024    33.8438    57.7148    10.5937     2.2852  2374.0000
 2058.9728    14.9219  1783.0000      .0024    31.2656    46.9727    10.8203     2.5898  2364.0000
 2059.1252    15.4609  1782.0000      .0024    29.6094    43.8477     8.3984     2.4922  2404.0000
 2059.2776    15.1719  1782.0000      .0073    32.1562    39.1602     6.4180     2.2422  2380.0000
 2059.4300    14.8359  1782.0000      .0093    34.7188    41.8945     4.6250     2.0898  2374.0000
 2059.5824    14.9453  1783.0000      .0010    38.9063    44.2871     4.0820     2.0195  2394.0000
 2059.7348    14.7422  1783.0000      .0010    38.8438    44.0918     3.9590     2.0352  2394.0000
 2059.8872    14.3359  1782.0000      .0015    39.8438    47.9004     4.1133     2.0430  2390.0000
 2060.0396    14.3828  1782.0000     -.0044    38.5313    49.6582     4.1719     2.0391  2390.0000
 2060.1920    14.3672  1783.0000     -.0034    39.3437    51.6113     4.4453     2.0273  2474.0000
 2060.3444    14.6641  1784.0000      .0088    40.2188    53.8086     4.8945     2.0293  2474.0000
 2060.4968    14.5312  1784.0000      .0190    42.0625    52.3437     4.9062     2.0391  2404.0000
 2060.6492    14.0469  1784.0000      .0176    43.6563    53.6133     4.9414     2.0430  2420.0000
 2060.8016    13.9453  1784.0000      .0093    41.3438    49.0234     5.1680     2.0391  2384.0000
 2060.9540    14.7266  1783.0000      .0063    40.0938    47.1191     5.1289     2.0410  2360.0000
 2061.1064    15.0234  1783.0000      .0034    40.7812    50.6836     4.5000     2.0371  2364.0000
 2061.2588    14.5703  1784.0000      .0015    44.3125    53.0762     4.4883     2.0469  2364.0000
 2061.4112    14.7266  1783.0000     -.0039    44.4375    55.7617     4.1367     2.0488  2404.0000
 2061.5636    14.2734  1782.0000     -.0039    41.3750    49.2676     3.9238     2.0547  2400.0000
 2061.7160    14.9687  1782.0000      .0015    41.0625    51.1230     3.1621     2.0566  2400.0000
 2061.8684    14.5937  1782.0000      .0010    40.2812    47.3633     3.0664     2.0527  2384.0000
 2062.0208    15.3906  1782.0000      .0073    40.8125    52.7344     3.1094     2.0566  2384.0000
 2062.1732    14.9844  1782.0000      .0063    38.5625    51.6602     3.4746     2.0469  2394.0000
 2062.3256    14.5156  1782.0000      .0093    38.1563    53.5645     4.8672     2.0684  2394.0000
 2062.4780    14.9219  1782.0000      .0103    36.6875    49.6094     6.4414     2.1191  2384.0000
 2062.6304    14.5547  1783.0000      .0239    34.4688    48.3887     8.2656     2.1992  2400.0000
 2062.7828    15.9688  1782.0000      .0469    32.3438    48.9258     5.5625     2.2695  2404.0000
 2062.9352    16.8906  1781.0000      .0425    34.5313    49.7559     4.8437     2.2656  2404.0000
 2063.0876    15.8984  1781.0000      .0205    39.0625    50.4395     3.6641     2.2012  2400.0000
 2063.2400    14.8750  1781.0000      .0054    39.9063    48.2422     3.4863     2.1387  2400.0000
 2063.3924    14.2187  1781.0000      .0044    42.0938    45.4102     3.4629     2.0918  2374.0000
 2063.5448    15.6484  1780.0000      .0088    42.2500    47.7539     3.8320     2.0859  2410.0000
 2063.6972    16.5781  1780.0000      .0166    43.4688    48.2422     4.1055     2.0879  2370.0000
 2063.8496    15.3359  1780.0000      .0151    40.6875    49.6582     4.7148     2.0840  2364.0000
 2064.0020    15.2578  1780.0000      .0107    39.7813    45.4590     5.4766     2.0586  2440.0000
 2064.1544    15.5781  1782.0000      .0117    41.1250    47.5098     6.4141     2.0371  2430.0000
 2064.3068    14.9844  1783.0000      .0161    44.4688    51.2207     6.4844     2.0332  2380.0000
 2064.4592    16.2969  1781.0000      .0225    42.9375    53.0762     4.9023     2.0566  2400.0000
 2064.6116    15.6094  1781.0000      .0190    41.4062    53.0762     3.8125     2.0742  2400.0000
 2064.7640    16.2969  1781.0000      .0112    39.4688    52.7832     3.1250     2.0762  2430.0000
 2064.9164    15.2422  1782.0000      .0098    41.5000    51.2695     3.7891     2.0859  2414.0000
 2065.0688    14.8906  1781.0000      .0112    43.3750    50.9277     3.6914     2.1152  2400.0000
 2065.2212    15.8594  1780.0000      .0132    43.8125    49.9023     3.8828     2.1367  2400.0000
 2065.3736    17.0000  1780.0000      .0132    41.7187    51.9043     4.0898     2.1309  2364.0000
 2065.5260    15.8906  1780.0000      .0264    37.6875    51.8066     5.6445     2.1348  2394.0000
