~VERSION INFORMATION
VERS.                                                 2.0:   CWLS Log ASCII Standard-VERSION 2.0
WRAP.                                                  NO:   One line per depth step
~Well Information Block
STRT.M                                           473.2508:   Top Depth
STOP.M                                          3120.1340:   Bottom Depth
STEP.M                                             .15240:   Depth Increment
NULL.                                            -999.250:   Null Value
FLD .                                 SLEIPNER GAMMA WEST:   Field Name
WELL.                                             15/9-16:   NAME
WBN .                                             15/9-16:   WELLBORE
NATI.                                                 NOR:   COUNTRY
BHT1.DEGF                                            85.0:   BH TEMP 1
BHT2.DEGF                                            88.0:   BH TEMP 2
BHT3.DEGF                                            90.0:   BH TEMP 3
BS1 .IN                                            12.250:   BIT SIZE 1
CTRY.                                                 NOR:   COUNTRY
CBD1.M                                              169.0:   CSG 1 DRILL DEP
CBL1.M                                              169.0:   CSG 1 LOG DEP
CS1 .IN                                              30.0:   CSG 1 SIZE
COMP.                                             STATOIL:   OPERATOR
PDAT.                                                 MSL:   PERM DATUM
PROV.                                           NORTH SEA:   PROVINCE
COUN.                                        DEEPSEA SAGA:   RIG NAME
SPUD.                                          1982/06/28:   SPUD DATE
LATI.                                        58 22 9.97 N:   SURF. LATITUDE
LONG.                                        1 52 43.16 E:   SURF. LONGITUDE
BTD1.                                      514.79992676 M:   TOTAL DEPTH 1
BTD2.                                      514.79992676 M:   TOTAL DEPTH 2
BTD3.                                      514.79992676 M:   TOTAL DEPTH 3
PBWE.                                             15/9-16:   PB WELL ID
APIN.                                             15/9-16:   PB WELLBORE ID
PBWS.                                                 all:   PB WELL NAME SET
~PARAMETER INFORMATION (log)
LNAM.                              LDT/CNL/GR  COMPOSITED:   NAME
LTYP.                                         DEPTH MATCH:   LOG TYPE
LSRV.                                            DEN/NEUT:   LOG SERVICE
LSOU.                                             SPT/NPD:   LOG SOURCE
LVSN.                                                   1:   LOG VERSION
BHIS.                                                   R:   BRIEF HISTORY
FHIS.                                             RAW-LIS:   FULL HISTORY
LCNM.                                        SCHLUMBERGER:   LOGGING CONTRACTOR
TOOL.                             LDT/CNL/GR (COMPOSITED):   TOOL STRING
~Curve Information Block
#MNEM.UNIT                                        API CODE    No Description
#=========                                        ========    == ===========
DEPT.M                                       00 001 00 00:     1  DEPTH
CALI.IN                                                  :     2  Caliper
CS.                                                      :     3  Cable Speed
DRHO.G/CC                                                :     4  Bulk density correction
GR.GAPI                                                  :     5  Gamma Ray
NPHI.%                                                   :     6  Neutron porosity
PEF.B/E                                                  :     7  Photo-electric factor
RHOB.G/CC                                                :     8  Bulk density
TENS.LB                                                  :     9  Cable Tension
~ASCII
# ...
 3102.6080     8.4538  -999.2500      .0260    53.5673    16.6140     3.3933     2.4340  3224.9521
 3102.7604     8.4881  -999.2500      .0157    52.6847    16.7039     3.4812     2.4306  3208.0259
 3102.9128     8.5070  -999.2500      .0098    53.7891    16.7934     3.5511     2.4269  3210.9077
 3103.0652     8.4774  -999.2500      .0105    55.6291    16.8828     3.6132     2.4232  3223.0962
 3103.2176     8.4499  -999.2500      .0113    56.4863    16.8717     3.7009     2.4195  3237.4971
 3103.3700     8.4296  -999.2500      .0191    58.4128    16.3092     3.7932     2.4184  3251.8755
 3103.5224     8.4092  -999.2500      .0296    64.2280    15.4995     3.8855     2.4320  3241.1489
 3103.6748     8.3888  -999.2500      .0402    71.7783    15.0337     3.9328     2.4555  3221.9775
 3103.8272     8.3685  -999.2500      .0488    79.4377    15.2596     3.8733     2.4701  3209.2642
 3103.9796     8.3686  -999.2500      .0412    84.9518    16.4505     3.6674     2.4708  3217.5210
 3104.1320     8.3987  -999.2500      .0263    88.2767    17.6433     3.4056     2.4550  3225.7651
 3104.2844     8.4288  -999.2500      .0132    89.6833    18.0774     3.0274     2.4252  3231.9097
 3104.4368     8.4589  -999.2500      .0073    87.9647    17.6707     2.7790     2.4133  3237.9556
 3104.5892     8.4890  -999.2500      .0013    84.4508    16.3212     2.7520     2.4091  3244.0107
 3104.7416     8.4971  -999.2500      .0034    81.6241    14.9696     3.1180     2.4099  3250.0566
 3104.8940     8.4973  -999.2500      .0068    80.0916    14.3011     3.5612     2.4225  3256.1025
 3105.0464     8.4954  -999.2500      .0099    78.4605    13.9780     3.8334     2.4456  3257.4961
 3105.1988     8.4864  -999.2500      .0104    74.8113    15.0434     3.8700     2.4677  3257.7246
 3105.3512     8.4805  -999.2500      .0052    70.7821    16.1154     3.8239     2.4760  3257.9531
 3105.5036     8.5165  -999.2500     -.0001    68.3116    16.3963     3.7543     2.4624  3258.1821
 3105.6560     8.5306  -999.2500     -.0021    68.2878    15.6908     3.5989     2.4427  3240.4878
 3105.8084     8.5117  -999.2500      .0017    69.8398    14.8596     3.4561     2.4333  3214.3604
 3105.9608     8.4928  -999.2500      .0050    71.7135    14.1498     3.3827     2.4351  3236.7466
 3106.1132     8.4740  -999.2500      .0052    74.1908    14.1089     3.4028     2.4418  3271.3555
 3106.2656     8.4620  -999.2500      .0027    76.7795    14.2740     3.4286     2.4441  3283.5063
 3106.4180     8.4731  -999.2500      .0033    79.0437    14.5492     3.4106     2.4409  3269.7700
 3106.5704     8.4842  -999.2500      .0069    81.8836    14.8831     3.4906     2.4387  3242.8359
 3106.7228     8.4952  -999.2500      .0105    85.1061    15.2810     3.7460     2.4406  3213.7930
 3106.8752     8.4946  -999.2500      .0140    85.4451    16.2573     4.4384     2.4425  3193.6743
 3107.0276     8.4849  -999.2500      .0175    82.8831    17.2471     4.9902     2.4434  3210.2363
 3107.1800     8.4752  -999.2500      .0215    79.7531    18.0176     5.1092     2.4437  3240.6006
 3107.3324     8.4654  -999.2500      .0255    77.6317    18.0203     4.9210     2.4441  3240.9253
 3107.4848     8.4334  -999.2500      .0285    77.2868    17.6247     4.6279     2.4446  3235.6030
 3107.6372     8.3838  -999.2500      .0258    77.6537    17.2130     4.3325     2.4451  3226.3740
 3107.7896     8.3577  -999.2500      .0205    78.8601    16.9395     4.1034     2.4406  3211.5786
 3107.9420     8.3500  -999.2500      .0151    80.6607    16.6659     4.0794     2.4287  3197.7744
 3108.0944     8.3440  -999.2500      .0129    81.1185    16.4432     4.2993     2.4315  3196.0381
 3108.2468     8.3641  -999.2500      .0138    80.4422    16.5717     4.8390     2.4417  3204.1060
 3108.3992     8.3837  -999.2500      .0134    79.9869    16.7004     4.9368     2.4492  3212.1738
 3108.5516     8.3959  -999.2500      .0102    80.6482    16.8292     4.8520     2.4420  3220.2544
 3108.7040     8.4081  -999.2500      .0070    81.8826    16.9581     4.8825     2.4313  3218.1670
 3108.8564     8.4202  -999.2500      .0093    81.5724    17.1006     5.0569     2.4283  3211.3247
 3109.0088     8.3661  -999.2500      .0126    81.3111    17.1447     4.8475     2.4324  3204.4824
 3109.1612     8.3247  -999.2500      .0151    81.4460    16.9370     4.6239     2.4395  3198.6025
 3109.3136     8.4142  -999.2500      .0129    80.7851    16.7292     4.4695     2.4437  3225.1440
 3109.4660     8.3979  -999.2500      .0107    79.1043    16.5355     4.4191     2.4377  3251.6860
 3109.6184     8.3564  -999.2500      .0085    78.5871    16.4557     4.3967     2.4295  3253.6880
 3109.7708     8.3370  -999.2500      .0114    79.8477    16.6090     4.2465     2.4410  3230.8228
 3109.9232     8.3699  -999.2500      .0156    81.5100    16.9118     3.9448     2.4840  3207.9204
 3110.0756     8.4494  -999.2500      .0205    82.4057    17.1720     3.5749     2.5187  3205.5918
 3110.2280     8.5274  -999.2500      .0253    82.1010    17.2827     3.2655     2.5567  3222.2124
 3110.3804     8.5723  -999.2500      .0238    82.2279    17.1391     3.2307     2.5656  3232.0034
 3110.5328     8.5853  -999.2500      .0230    82.3038    17.3186     3.4075     2.5696  3215.0381
 3110.6852     8.5786  -999.2500      .0272    82.2322    17.0383     3.5932     2.5771  3198.1006
 3110.8376     8.5604  -999.2500      .0268    82.2815    16.7571     3.6617     2.5760  3188.6729
 3110.9900     8.5462  -999.2500      .0214    82.2830    16.4763     3.6960     2.5552  3186.4116
 3111.1424     8.5464  -999.2500      .0203    82.3115    16.4986     3.7026     2.5302  3223.6992
 3111.2948     8.5467  -999.2500      .0241    82.3137    16.7266     3.5997     2.5085  3266.0493
 3111.4472     8.5096  -999.2500      .0280    82.2160    16.8151     3.3943     2.5020  3308.3994
 3111.5996     8.4415  -999.2500      .0294    82.2894    16.6722     3.2614     2.5031  3332.1025
 3111.7520     8.3935  -999.2500      .0286    82.2485    16.2736     3.2719     2.5109  3340.9199
 3111.9044     8.4193  -999.2500      .0260    82.1936    16.3402     3.3045     2.5098  3344.3457
 3112.0568     8.4451  -999.2500      .0233    82.3230    16.6910     3.3058     2.5009  3338.0122
 3112.2092     8.4709  -999.2500      .0206    82.2960    16.8810     3.5310     2.4901  3335.6260
 3112.3616     8.4967  -999.2500      .0176    82.3271    16.8006     3.9244     2.4849  3331.2324
 3112.5140     8.5290  -999.2500      .0146    82.3291    16.3656     4.0926     2.4816  3315.7666
 3112.6664     8.5664  -999.2500      .0124    82.3310    16.4125     3.6874     2.4784  3283.9746
 3112.8188     8.6039  -999.2500      .0106    82.3329    16.4600     3.1213     2.4807  3252.1826
 3112.9712     8.6372  -999.2500      .0088    82.3349    16.5076     2.9943     2.4904  3259.2783
 3113.1236     8.6688  -999.2500      .0071    82.3368    16.5551     3.0605     2.4978  3270.0327
 3113.2760     8.6314  -999.2500      .0060    82.4064    16.6061     3.1660     2.4936  3275.7251
 3113.4284     8.5612  -999.2500      .0112    82.3406    16.7002     3.2519     2.4874  3272.6655
 3113.5808     8.4911  -999.2500      .0485    82.3426    16.7943     3.3687     2.4948  3254.6626
 3113.7332     8.4073  -999.2500      .0812    82.3445    16.8883     3.4959     2.5188  3272.5786
 3113.8856     8.3883  -999.2500      .0994    82.3464    16.8079     3.4033     2.5345  3290.5225
 3114.0380     8.4857  -999.2500      .0751    82.3483    16.7080     3.2614     2.5267  3306.0513
 3114.1904     8.5595  -999.2500      .0430    82.3503    16.6082     3.2102     2.4826  3311.2124
 3114.3428     8.6099  -999.2500      .0186    82.3522    16.6235     3.3505     2.4528  3311.4409
 3114.4952     8.5803  -999.2500      .0155    82.3541    16.6520     3.4962     2.4453  3311.6699
 3114.6476     8.5507  -999.2500      .0124    82.3560    16.6804     3.4522     2.4459  3277.5298
 3114.8000     8.5402  -999.2500      .0093    82.3580    16.7089     3.1896     2.4563  3260.7485
