~VERSION INFORMATION
VERS.                                                 2.0:   CWLS Log ASCII Standard-VERSION 2.0
WRAP.                                                  NO:   One line per depth step
~Well Information Block
STRT.M                                           473.2508:   Top Depth
STOP.M                                          3120.1340:   Bottom Depth
STEP.M                                             .15240:   Depth Increment
NULL.                                            -999.250:   Null Value
FLD .                                 SLEIPNER GAMMA WEST:   Field Name
WELL.                                             15/9-16:   NAME
WBN .                                             15/9-16:   WELLBORE
NATI.                                                 NOR:   COUNTRY
BHT1.DEGF                                            85.0:   BH TEMP 1
BHT2.DEGF                                            88.0:   BH TEMP 2
BHT3.DEGF                                            90.0:   BH TEMP 3
BS1 .IN                                            12.250:   BIT SIZE 1
CTRY.                                                 NOR:   COUNTRY
CBD1.M                                              169.0:   CSG 1 DRILL DEP
CBL1.M                                              169.0:   CSG 1 LOG DEP
CS1 .IN                                              30.0:   CSG 1 SIZE
COMP.                                             STATOIL:   OPERATOR
PDAT.                                                 MSL:   PERM DATUM
PROV.                                           NORTH SEA:   PROVINCE
COUN.                                        DEEPSEA SAGA:   RIG NAME
SPUD.                                          1982/06/28:   SPUD DATE
LATI.                                        58 22 9.97 N:   SURF. LATITUDE
LONG.                                        1 52 43.16 E:   SURF. LONGITUDE
BTD1.                                      514.79992676 M:   TOTAL DEPTH 1
BTD2.                                      514.79992676 M:   TOTAL DEPTH 2
BTD3.                                      514.79992676 M:   TOTAL DEPTH 3
PBWE.                                             15/9-16:   PB WELL ID
APIN.                                             15/9-16:   PB WELLBORE ID
PBWS.                                                 all:   PB WELL NAME SET
~PARAMETER INFORMATION (log)
LNAM.                              LDT/CNL/GR  COMPOSITED:   NAME
LTYP.                                         DEPTH MATCH:   LOG TYPE
LSRV.                                            DEN/NEUT:   LOG SERVICE
LSOU.                                             SPT/NPD:   LOG SOURCE
LVSN.                                                   1:   LOG VERSION
BHIS.                                                   R:   BRIEF HISTORY
FHIS.                                             RAW-LIS:   FULL HISTORY
LCNM.                                        SCHLUMBERGER:   LOGGING CONTRACTOR
TOOL.                             LDT/CNL/GR (COMPOSITED):   TOOL STRING
~Curve Information Block
#MNEM.UNIT                                        API CODE    No Description
#=========                                        ========    == ===========
DEPT.M                                       00 001 00 00:     1  DEPTH
CALI.IN                                                  :     2  Caliper
CS.                                                      :     3  Cable Speed
DRHO.G/CC                                                :     4  Bulk density correction
GR.GAPI                                                  :     5  Gamma Ray
NPHI.%                                                   :     6  Neutron porosity
PEF.B/E                                                  :     7  Photo-electric factor
RHOB.G/CC                                                :     8  Bulk density
TENS.LB                                                  :     9  Cable Tension
~ASCII
# ...
 2226.1556    13.4766  2048.0000      .1426    51.0000    41.9922     4.6953     2.1621  2574.0000
 2226.3080    13.3984  2050.0000      .1172    52.0312    42.5781     4.8281     2.1523  2570.0000
 2226.4604    13.1172  2050.0000      .1235    50.0313    45.1660     4.8281     2.1719  2510.0000
 2226.6128    13.5703  2048.0000      .1162    51.0937    46.9238     4.9414     2.1680  2524.0000
 2226.7652    13.0625  2048.0000      .1157    50.0625    48.3398     4.6133     2.1699  2564.0000
 2226.9176    13.2656  2048.0000      .1167    51.6875    45.1660     4.1133     2.1973  2520.0000
 2227.0700    13.0703  2048.0000      .1030    52.6875    41.3086     4.4062     2.1914  2560.0000
 2227.2224    13.3125  2050.0000      .1289    53.8750    40.0391     4.5469     2.2012  2580.0000
 2227.3748    13.6953  2050.0000      .1235    53.0313    39.5996     4.7227     2.1602  2580.0000
 2227.5272    13.6641  2050.0000      .1401    54.8437    46.5332     4.7461     2.1465  2560.0000
 2227.6796    13.1172  2050.0000      .1382    57.2188    46.6797     4.9570     2.1309  2544.0000
 2227.8320    13.0859  2052.0000      .1519    63.5313    49.7070     5.1836     2.1484  2544.0000
 2227.9844    12.9375  2054.0000      .1689    68.3750    46.7285     4.6484     2.1914  2560.0000
 2228.1368    13.1797  2054.0000      .1431    71.2500    50.0488     4.7227     2.1777  2544.0000
 2228.2892    12.8281  2054.0000      .1255    70.3750    49.7070     5.0469     2.1328  2550.0000
 2228.4416    13.3672  2054.0000      .0933    67.3750    49.1211     5.7812     2.0605  2580.0000
 2228.5940    13.3984  2052.0000      .1172    61.9063    46.3379     5.9023     2.0645  2584.0000
 2228.7464    13.0469  2052.0000      .1294    56.5938    46.1426     5.4492     2.1016  2560.0000
 2228.8988    12.9922  2052.0000      .1499    53.7500    45.9961     5.4961     2.1543  2564.0000
 2229.0512    13.4609  2052.0000      .1479    55.1250    45.8496     5.5820     2.1621  2550.0000
 2229.2036    13.3125  2052.0000      .1382    60.0000    45.8984     5.4336     2.1406  2540.0000
 2229.3560    13.6562  2050.0000      .1274    59.4688    44.4824     4.8203     2.1270  2540.0000
 2229.5084    13.2109  2052.0000      .1177    64.9375    43.4082     4.3672     2.1387  2550.0000
 2229.6608    13.1406  2050.0000      .1309    62.8125    42.0898     4.2656     2.1895  2554.0000
 2229.8132    13.7891  2050.0000      .1313    67.5000    44.6289     4.6094     2.1934  2544.0000
 2229.9656    13.8672  2050.0000      .1479    64.3125    48.0469     5.0937     2.1875  2564.0000
 2230.1180    13.6797  2050.0000      .1523    64.0625    52.2949     5.5820     2.1836  2550.0000
 2230.2704    13.0312  2050.0000      .1504    56.0937    49.1211     5.1523     2.2109  2554.0000
 2230.4228    13.4531  2050.0000      .1313    53.7187    49.8535     4.7461     2.2305  2570.0000
 2230.5752    12.9375  2050.0000      .1191    51.6563    44.7266     5.0312     2.1855  2550.0000
 2230.7276    13.3125  2050.0000      .1206    54.4375    47.3633     5.0234     2.1230  2544.0000
 2230.8800    13.2500  2048.0000      .1182    52.0000    47.3633     5.4297     2.0762  2574.0000
 2231.0324    13.1953  2050.0000      .1338    54.5625    51.1230     5.0234     2.0879  2590.0000
 2231.1848    13.5156  2050.0000      .1367    55.5313    50.1953     5.0469     2.1113  2570.0000
 2231.3372    12.8438  2050.0000      .1533    56.9063    49.6094     5.0859     2.1445  2554.0000
 2231.4896    13.4609  2050.0000      .1338    54.2813    47.0703     4.9805     2.1387  2544.0000
 2231.6420    13.2891  2050.0000      .1289    54.0938    45.5566     5.0430     2.1387  2564.0000
 2231.7944    13.1172  2052.0000      .1216    57.5313    42.7734     5.1094     2.1055  2554.0000
 2231.9468    13.5312  2054.0000      .1250    58.0313    42.2852     5.4102     2.0742  2570.0000
 2232.0992    13.1797  2054.0000      .1426    55.8750    46.4844     5.4258     2.0859  2554.0000
 2232.2516    13.0625  2054.0000      .1372    49.7188    44.2383     5.4883     2.1055  2564.0000
 2232.4040    12.8047  2052.0000      .1587    48.8438    48.5352     5.0898     2.1621  2554.0000
 2232.5564    13.1953  2052.0000      .1431    50.4375    44.5312     5.2930     2.1406  2550.0000
 2232.7088    12.8438  2052.0000      .1479    52.0000    46.9727     4.9570     2.1426  2550.0000
 2232.8612    13.3984  2052.0000      .1382    53.1250    43.8965     4.6992     2.1445  2540.0000
 2233.0136    13.0625  2052.0000      .1401    51.5000    44.2871     4.6562     2.1699  2540.0000
 2233.1660    13.2891  2052.0000      .1367    53.6563    42.8223     4.4687     2.1738  2564.0000
 2233.3184    13.5547  2052.0000      .1206    54.9687    39.9902     4.8086     2.1309  2564.0000
 2233.4708    12.9531  2052.0000      .1069    54.7813    44.5312     4.3984     2.1016  2560.0000
 2233.6232    13.3437  2052.0000      .0869    54.6562    45.1660     4.3828     2.0723  2560.0000
 2233.7756    12.8984  2052.0000      .0771    52.7812    46.1426     4.2969     2.0684  2544.0000
 2233.9280    12.7734  2052.0000      .1006    54.4375    39.3066     4.4961     2.1035  2544.0000
 2234.0804    13.2187  2052.0000      .0859    51.3750    39.6484     4.3906     2.1133  2564.0000
 2234.2328    12.8438  2052.0000      .0874    48.2188    38.2813     4.5742     2.1328  2564.0000
 2234.3852    12.9375  2050.0000      .0791    44.6562    39.2578     4.2109     2.1406  2580.0000
 2234.5376    13.3984  2050.0000      .0889    45.9688    40.7227     3.6836     2.1719  2594.0000
 2234.6900    12.8594  2050.0000      .0669    47.6875    44.0430     3.1426     2.2070  2570.0000
 2234.8424    12.4922  2052.0000      .0229    49.0625    45.5078     3.1738     2.2031  2564.0000
 2234.9948    12.5078  2052.0000      .0205    50.2188    43.0664     3.3164     2.2246  2544.0000
 2235.1472    12.5234  2052.0000      .0352    49.2187    41.4551     3.2852     2.2305  2570.0000
 2235.2996    12.7266  2050.0000      .0557    46.2500    41.1133     3.1895     2.2480  2564.0000
 2235.4520    12.6797  2052.0000      .0679    45.1875    40.5762     3.1523     2.2539  2560.0000
 2235.6044    12.7656  2052.0000      .0640    45.1875    37.8906     3.3281     2.2344  2570.0000
 2235.7568    12.7266  2052.0000      .0801    51.0937    38.8672     3.6523     2.2148  2574.0000
 2235.9092    13.1016  2052.0000      .0854    50.5937    40.2832     4.0937     2.1777  2534.0000
 2236.0616    13.1250  2052.0000      .0942    52.4375    43.2129     4.1953     2.1738  2550.0000
 2236.2140    13.1016  2052.0000      .0879    48.0937    40.4785     4.4922     2.1562  2564.0000
 2236.3664    12.8984  2052.0000      .0991    47.7812    41.7969     4.5391     2.1660  2550.0000
 2236.5188    13.1250  2052.0000      .1025    45.7188    41.9922     4.7266     2.1543  2580.0000
 2236.6712    13.0234  2052.0000      .1138    50.9062    48.3398     4.4766     2.1660  2564.0000
 2236.8236    13.1406  2050.0000      .0972    52.0000    45.1660     4.7266     2.1133  2544.0000
 2236.9760    12.8281  2050.0000      .0967    51.6250    45.3125     4.2812     2.1074  2550.0000
 2237.1284    13.1406  2050.0000      .0684    49.0625    40.4297     4.3789     2.0918  2564.0000
 2237.2808    12.9219  2050.0000      .0957    46.3750    45.0195     4.3203     2.1543  2594.0000
 2237.4332    13.3672  2048.0000      .1133    49.1563    44.8242     5.0742     2.1445  2570.0000
 2237.5856    13.1641  2048.0000      .1689    50.0625    44.0918     5.1914     2.1758  2560.0000
 2237.7380    13.7031  2048.0000      .1328    55.1250    46.4844     4.6562     2.1445  2540.0000
 2237.8904    12.8750  2050.0000      .1128    58.3750    47.0703     3.9629     2.1836  2534.0000
 2238.0428    12.7891  2050.0000      .0728    60.3125    46.5820     3.7090     2.1973  2544.0000
 2238.1952    12.8750  2048.0000      .0820    60.7188    41.9922     4.1875     2.2148  2540.0000
 2238.3476    12.8438  2047.0000      .0991    57.0000    39.0137     4.6914     2.1953  2560.0000
