~VERSION INFORMATION
VERS.                                                 2.0:   CWLS Log ASCII Standard-VERSION 2.0
WRAP.                                                  NO:   One line per depth step
~Well Information Block
STRT.M                                           473.2508:   Top Depth
STOP.M                                          3120.1340:   Bottom Depth
STEP.M                                             .15240:   Depth Increment
NULL.                                            -999.250:   Null Value
FLD .                                 SLEIPNER GAMMA WEST:   Field Name
WELL.                                             15/9-16:   NAME
WBN .                                             15/9-16:   WELLBORE
NATI.                                                 NOR:   COUNTRY
BHT1.DEGF                                            85.0:   BH TEMP 1
BHT2.DEGF                                            88.0:   BH TEMP 2
BHT3.DEGF                                            90.0:   BH TEMP 3
BS1 .IN                                            12.250:   BIT SIZE 1
CTRY.                                                 NOR:   COUNTRY
CBD1.M                                              169.0:   CSG 1 DRILL DEP
CBL1.M                                              169.0:   CSG 1 LOG DEP
CS1 .IN                                              30.0:   CSG 1 SIZE
COMP.                                             STATOIL:   OPERATOR
PDAT.                                                 MSL:   PERM DATUM
PROV.                                           NORTH SEA:   PROVINCE
COUN.                                        DEEPSEA SAGA:   RIG NAME
SPUD.                                          1982/06/28:   SPUD DATE
LATI.                                        58 22 9.97 N:   SURF. LATITUDE
LONG.                                        1 52 43.16 E:   SURF. LONGITUDE
BTD1.                                      514.79992676 M:   TOTAL DEPTH 1
BTD2.                                      514.79992676 M:   TOTAL DEPTH 2
BTD3.                                      514.79992676 M:   TOTAL DEPTH 3
PBWE.                                             15/9-16:   PB WELL ID
APIN.                                             15/9-16:   PB WELLBORE ID
PBWS.                                                 all:   PB WELL NAME SET
~PARAMETER INFORMATION (log)
LNAM.                              LDT/CNL/GR  COMPOSITED:   NAME
LTYP.                                         DEPTH MATCH:   LOG TYPE
LSRV.                                            DEN/NEUT:   LOG SERVICE
LSOU.                                             SPT/NPD:   LOG SOURCE
LVSN.                                                   1:   LOG VERSION
BHIS.                                                   R:   BRIEF HISTORY
FHIS.                                             RAW-LIS:   FULL HISTORY
LCNM.                                        SCHLUMBERGER:   LOGGING CONTRACTOR
TOOL.                             LDT/CNL/GR (COMPOSITED):   TOOL STRING
~Curve Information Block
#MNEM.UNIT                                        API CODE    No Description
#=========                                        ========    == ===========
DEPT.M                                       00 001 00 00:     1  DEPTH
CALI.IN                                                  :     2  Caliper
CS.                                                      :     3  Cable Speed
DRHO.G/CC                                                :     4  Bulk density correction
GR.GAPI                                                  :     5  Gamma Ray
NPHI.%                                                   :     6  Neutron porosity
PEF.B/E                                                  :     7  Photo-electric factor
RHOB.G/CC                                                :     8  Bulk density
TENS.LB                                                  :     9  Cable Tension
~ASCII
# ...
 2929.7864    11.4065  -999.2500      .1299    75.9845    32.4246     6.0361     2.2377  3156.8506
 2929.9388    11.2170  -999.2500      .1316    79.9389    31.9907     4.9334     2.2927  3151.8052
 2930.0912    11.0690  -999.2500      .1031    83.3104    32.5436     5.2320     2.3377  3112.4878
 2930.2436    11.0146  -999.2500      .0727    84.2850    33.3446     5.9737     2.3251  3076.0093
 2930.3960    11.1243  -999.2500      .0604    84.3009    33.6477     6.9332     2.3004  3092.4565
 2930.5484    11.3044  -999.2500      .0898    84.6881    32.9083     7.7595     2.2826  3088.2124
 2930.7008    11.4208  -999.2500      .1193    84.5080    31.9706     7.9846     2.2695  3062.8584
 2930.8532    11.4507  -999.2500      .1505    82.8357    32.4757     7.0622     2.2760  3067.9922
 2931.0056    11.5790  -999.2500      .1659    80.7814    33.6062     5.9727     2.3078  3128.8936
 2931.1580    11.7476  -999.2500      .1416    81.0776    34.5942     4.4920     2.3448  3182.2144
 2931.3104    11.7026  -999.2500      .1136    82.9544    33.9136     4.0987     2.3742  3155.4707
 2931.4628    11.6105  -999.2500      .0855    84.2701    31.9024     4.6049     2.3657  3130.2354
 2931.6152    11.6463  -999.2500      .0588    83.7017    30.8523     5.6226     2.3374  3136.7690
 2931.7676    11.6838  -999.2500      .0602    83.2919    30.5256     6.8291     2.3014  3155.2612
 2931.9200    11.4770  -999.2500      .0665    83.2906    31.3556     8.0364     2.2330  3109.2104
 2932.0724    11.3949  -999.2500      .0750    83.2892    32.2925     9.0278     2.1503  3042.2222
 2932.2248    11.4147  -999.2500      .0836    82.5946    33.7770     9.2687     2.1022  3037.4390
 2932.3772    11.5048  -999.2500      .0922    83.0698    34.2776     7.9881     2.1511  3131.4312
 2932.5296    11.7523  -999.2500      .0990    84.1677    34.1346     6.3372     2.2243  3198.1543
 2932.6820    12.0867  -999.2500      .0994    83.8854    33.4300     5.5912     2.3223  3179.1372
 2932.8344    12.0765  -999.2500      .0971    82.4237    32.6199     6.2121     2.3679  3132.8374
 2932.9868    11.8171  -999.2500      .1047    81.3010    32.2525     6.8378     2.3640  3103.5215
 2933.1392    11.3925  -999.2500      .1299    81.4718    32.8248     7.0454     2.3594  3126.5469
 2933.2916    11.1791  -999.2500      .1480    82.7574    33.7429     6.6583     2.3814  3130.5581
 2933.4440    11.1662  -999.2500      .1460    83.8657    34.4109     5.7962     2.4103  3123.5527
 2933.5964    11.1660  -999.2500      .1133    83.6808    33.6638     4.8308     2.4321  3088.4688
 2933.7488    11.1659  -999.2500      .0807    82.7894    31.2889     4.6288     2.4365  3072.5093
 2933.9012    11.0937  -999.2500      .0790    83.4681    29.9933     5.6419     2.4346  3053.0991
 2934.0536    11.0342  -999.2500      .0995    85.4581    30.3498     7.7079     2.4002  3037.7173
 2934.2060    11.0639  -999.2500      .1163    88.1579    31.8571     8.8771     2.3389  3060.7432
 2934.3584    11.2116  -999.2500      .1205    87.6594    33.7300     9.5267     2.2526  3082.5850
 2934.5108    11.3668  -999.2500      .1117    84.3965    35.8014     8.9286     2.1763  3104.3047
 2934.6632    11.5165  -999.2500      .1029    82.0902    35.8234     7.1155     2.1531  3123.5366
 2934.8156    11.6245  -999.2500      .0981    80.1903    34.9632     5.4342     2.1909  3111.9404
 2934.9680    11.5441  -999.2500      .0970    78.7988    34.1538     4.3977     2.2754  3098.5317
 2935.1204    11.2324  -999.2500      .1340    77.8846    33.8376     3.6976     2.4141  3082.5859
 2935.2728    10.9478  -999.2500      .1895    78.2713    33.9771     3.9818     2.5030  3098.3853
 2935.4252    10.9690  -999.2500      .2462    79.5583    34.2245     4.7414     2.5419  3120.7334
 2935.5776    10.9906  -999.2500      .2527    80.4637    34.4714     5.6322     2.5400  3130.2031
 2935.7300    11.0123  -999.2500      .2523    81.0614    34.5988     6.1434     2.5080  3093.1704
 2935.8824    11.0114  -999.2500      .2495    81.2579    34.0064     6.2582     2.4746  3039.6211
 2936.0348    10.9831  -999.2500      .1930    82.1511    33.0483     6.2132     2.4344  3048.3638
 2936.1872    10.9547  -999.2500      .1509    83.7524    32.3185     6.8253     2.3917  3125.8589
 2936.3396    11.0599  -999.2500      .1229    84.4493    32.5129     6.9786     2.3651  3175.0913
 2936.4920    11.2473  -999.2500      .1175    84.8489    32.8016     6.2977     2.3754  3147.4482
 2936.6444    11.4345  -999.2500      .1009    86.2546    32.8329     5.4930     2.3954  3103.1685
 2936.7968    11.3572  -999.2500      .0789    87.7467    32.3159     5.1625     2.4066  3060.7896
 2936.9492    11.1365  -999.2500      .0794    88.2345    31.7992     5.4773     2.4065  3107.4370
 2937.1016    10.9376  -999.2500      .1033    88.0289    32.2777     5.9005     2.4072  3204.8789
 2937.2540    10.8925  -999.2500      .1323    87.2309    33.3635     5.5947     2.4319  3231.6489
 2937.4064    10.9566  -999.2500      .1485    86.5304    34.6798     4.9174     2.4528  3195.1616
 2937.5588    11.0036  -999.2500      .1360    85.8315    34.7775     4.5482     2.4642  3155.0952
 2937.7112    10.9396  -999.2500      .1333    85.6345    34.2395     4.3411     2.4785  3108.9395
 2937.8636    10.8756  -999.2500      .1579    85.6313    33.3202     4.9570     2.4934  3100.3726
 2938.0160    10.8815  -999.2500      .1585    85.0207    32.5965     5.6781     2.4716  3097.2603
 2938.1684    10.9126  -999.2500      .1321    83.5224    32.2804     6.1867     2.3873  3093.6455
 2938.3208    10.9963  -999.2500      .1013    81.5317    32.3996     5.9653     2.3431  3082.0601
 2938.4732    11.1051  -999.2500      .0766    80.3401    32.7595     5.4650     2.3608  3091.4033
 2938.6256    11.1930  -999.2500      .0531    80.4501    32.0086     5.3231     2.3785  3132.1206
 2938.7780    11.1570  -999.2500      .0319    83.4669    30.9762     5.5073     2.3836  3175.4624
 2938.9304    11.1024  -999.2500      .0287    86.3392    30.9253     5.8292     2.3893  3135.7275
 2939.0828    11.0479  -999.2500      .0509    86.7168    32.7718     6.1444     2.4044  3088.2051
 2939.2352    11.0078  -999.2500      .0762    85.5003    34.6051     6.1618     2.4145  3085.1069
 2939.3876    11.0731  -999.2500      .0790    84.3132    35.3447     6.1130     2.4018  3120.5234
 2939.5400    11.1788  -999.2500      .0767    83.8175    32.8234     6.0383     2.3804  3157.9438
 2939.6924    11.2844  -999.2500      .0941    83.2147    31.9124     5.8878     2.4079  3120.8115
 2939.8448    11.3458  -999.2500      .1276    82.1032    32.0630     5.1216     2.4450  3067.1992
 2939.9972    11.3589  -999.2500      .1407    80.6594    32.4604     4.5569     2.4943  3049.0771
 2940.1496    11.2354  -999.2500      .1232    81.3699    31.6154     4.1227     2.5282  3112.2500
 2940.3020    11.1093  -999.2500      .1267    84.1313    30.7108     4.1962     2.5322  3186.3330
 2940.4544    10.9833  -999.2500      .1401    84.6058    30.1003     4.3669     2.5369  3220.2544
 2940.6068    11.0379  -999.2500      .1520    83.5025    30.0489     4.4958     2.5199  3200.0703
 2940.7592    11.1503  -999.2500      .1401    83.0232    29.9936     4.5438     2.4688  3127.3770
 2940.9116    11.3582  -999.2500      .1229    84.2365    29.6687     4.9593     2.4198  3092.0479
 2941.0640    11.5661  -999.2500      .1246    86.0097    29.5114     5.6512     2.3919  3100.6309
 2941.2164    11.6570  -999.2500      .1367    86.3083    29.6995     6.7854     2.3862  3145.0107
 2941.3688    11.5601  -999.2500      .1367    85.7833    30.0343     7.7511     2.3475  3173.0039
 2941.5212    11.5060  -999.2500      .1280    82.5373    30.3698     8.0672     2.2992  3156.4365
 2941.6736    11.8607  -999.2500      .1354    79.0661    31.2351     8.3820     2.2438  3127.9146
 2941.8260    12.3946  -999.2500      .1522    76.6232    32.1957     8.6637     2.2158  3122.3022
 2941.9784    12.4908  -999.2500      .1437    76.8184    33.6353     8.8124     2.1889  3142.7974
