~VERSION INFORMATION
VERS.                                                 2.0:   CWLS Log ASCII Standard-VERSION 2.0
WRAP.                                                  NO:   One line per depth step
~Well Information Block
STRT.M                                           473.2508:   Top Depth
STOP.M                                          3120.1340:   Bottom Depth
STEP.M                                             .15240:   Depth Increment
NULL.                                            -999.250:   Null Value
FLD .                                 SLEIPNER GAMMA WEST:   Field Name
WELL.                                             15/9-16:   NAME
WBN .                                             15/9-16:   WELLBORE
NATI.                                                 NOR:   COUNTRY
BHT1.DEGF                                            85.0:   BH TEMP 1
BHT2.DEGF                                            88.0:   BH TEMP 2
BHT3.DEGF                                            90.0:   BH TEMP 3
BS1 .IN                                            12.250:   BIT SIZE 1
CTRY.                                                 NOR:   COUNTRY
CBD1.M                                              169.0:   CSG 1 DRILL DEP
CBL1.M                                              169.0:   CSG 1 LOG DEP
CS1 .IN                                              30.0:   CSG 1 SIZE
COMP.                                             STATOIL:   OPERATOR
PDAT.                                                 MSL:   PERM DATUM
PROV.                                           NORTH SEA:   PROVINCE
COUN.                                        DEEPSEA SAGA:   RIG NAME
SPUD.                                          1982/06/28:   SPUD DATE
LATI.                                        58 22 9.97 N:   SURF. LATITUDE
LONG.                                        1 52 43.16 E:   SURF. LONGITUDE
BTD1.                                      514.79992676 M:   TOTAL DEPTH 1
BTD2.                                      514.79992676 M:   TOTAL DEPTH 2
BTD3.                                      514.79992676 M:   TOTAL DEPTH 3
PBWE.                                             15/9-16:   PB WELL ID
APIN.                                             15/9-16:   PB WELLBORE ID
PBWS.                                                 all:   PB WELL NAME SET
~PARAMETER INFORMATION (log)
LNAM.                              LDT/CNL/GR  COMPOSITED:   NAME
LTYP.                                         DEPTH MATCH:   LOG TYPE
LSRV.                                            DEN/NEUT:   LOG SERVICE
LSOU.                                             SPT/NPD:   LOG SOURCE
LVSN.                                                   1:   LOG VERSION
BHIS.                                                   R:   BRIEF HISTORY
FHIS.                                             RAW-LIS:   FULL HISTORY
LCNM.                                        SCHLUMBERGER:   LOGGING CONTRACTOR
TOOL.                             LDT/CNL/GR (COMPOSITED):   TOOL STRING
~Curve Information Block
#MNEM.UNIT                                        API CODE    No Description
#=========                                        ========    == ===========
DEPT.M                                       00 001 00 00:     1  DEPTH
CALI.IN                                                  :     2  Caliper
CS.                                                      :     3  Cable Speed
DRHO.G/CC                                                :     4  Bulk density correction
GR.GAPI                                                  :     5  Gamma Ray
NPHI.%                                                   :     6  Neutron porosity
PEF.B/E                                                  :     7  Photo-electric factor
RHOB.G/CC                                                :     8  Bulk density
TENS.LB                                                  :     9  Cable Tension
~ASCII
# ...
 2571.7988    12.4141  2002.0000     -.0112    13.1484     9.2285     5.2695     2.6016  2920.0000
 2571.9512    12.4141  2002.0000     -.0054    11.8437     9.3262     5.4297     2.6270  2884.0000
 2572.1036    12.4141  2002.0000     -.0034    11.0703     8.7891     5.5781     2.6289  2864.0000
 2572.2560    12.4141  2003.0000     -.0083    12.9141     8.6914     5.4219     2.6172  2874.0000
 2572.4084    12.4141  2005.0000     -.0078    13.6719     8.8867     5.3750     2.6035  2880.0000
 2572.5608    12.4141  2004.0000     -.0054    13.6562     9.5703     5.4531     2.6074  2880.0000
 2572.7132    12.4141  2003.0000     -.0029    12.8594    10.8887     5.8281     2.6152  2880.0000
 2572.8656    12.4141  2002.0000     -.0034    12.6172    10.6934     6.2734     2.6113  2900.0000
 2573.0180    12.4141  2001.0000     -.0005    12.3281    10.2539     6.2031     2.6211  2904.0000
 2573.1704    12.3984  2001.0000      .0059    11.7656     9.1309     5.7539     2.6250  2884.0000
 2573.3228    12.3047  2001.0000      .0029    11.2266     8.9844     5.2461     2.6230  2884.0000
 2573.4752    12.2656  2000.0000     -.0010    10.2031     9.1309     5.3359     2.6035  2880.0000
 2573.6276    12.2656  2001.0000     -.0054     9.7266     9.3750     5.4297     2.5996  2880.0000
 2573.7800    12.2266  2002.0000     -.0063    10.5234     9.8145     5.4375     2.6035  2890.0000
 2573.9324    12.2109  2001.0000     -.0059    11.8281     9.5215     5.9609     2.6152  2904.0000
 2574.0848    12.2266  2003.0000     -.0088    13.6484     9.6191     5.9414     2.6230  2900.0000
 2574.2372    12.2109  2003.0000     -.0122    13.1250     8.9355     6.1992     2.6172  2904.0000
 2574.3896    12.1953  2002.0000     -.0083    12.8672     9.1309     5.5508     2.6230  2914.0000
 2574.5420    12.1953  2001.0000     -.0063    11.8125     9.7168     5.4102     2.6094  2890.0000
 2574.6944    12.1953  2001.0000     -.0015    11.5156    10.5469     5.2930     2.6035  2880.0000
 2574.8468    12.2266  2002.0000     -.0059    10.9844    10.9863     5.6172     2.5898  2864.0000
 2574.9992    12.2500  2003.0000     -.0059    11.5156    11.1816     5.8242     2.5937  2870.0000
 2575.1516    12.2422  2002.0000     -.0073    12.0625    11.3281     5.4062     2.5957  2900.0000
 2575.3040    12.2500  2003.0000     -.0015    12.3281    12.0117     5.3516     2.5820  2904.0000
 2575.4564    12.2656  2002.0000      .0024    12.5703    13.2324     5.3125     2.5703  2880.0000
 2575.6088    12.2656  2004.0000      .0024    13.3516    15.2832     5.8398     2.5469  2864.0000
 2575.7612    12.2656  2004.0000     -.0044    13.3437    18.1641     5.5469     2.5469  2874.0000
 2575.9136    12.2656  2005.0000     -.0083    11.7812    18.1641     5.5234     2.5430  2884.0000
 2576.0660    12.2656  2005.0000     -.0073    10.4688    18.9453     5.1719     2.5508  2920.0000
 2576.2184    12.2656  2004.0000     -.0083    11.2187    17.9688     5.3086     2.5508  2904.0000
 2576.3708    12.2500  2004.0000     -.0117    13.0391    19.8730     5.5508     2.5449  2914.0000
 2576.5232    12.2656  2004.0000     -.0122    14.3828    19.5801     5.4062     2.5332  2914.0000
 2576.6756    12.2656  2004.0000     -.0112    13.6172    21.3379     5.2305     2.5234  2920.0000
 2576.8280    12.2656  2003.0000     -.0083    13.8906    20.8496     5.0273     2.5293  2900.0000
 2576.9804    12.2656  2002.0000     -.0093    13.3281    21.1426     5.3984     2.5488  2900.0000
 2577.1328    12.2656  2001.0000     -.0132    12.5313    20.6543     5.5039     2.5508  2884.0000
 2577.2852    12.2500  2001.0000     -.0112    12.7812    20.7031     5.5820     2.5488  2914.0000
 2577.4376    12.2656  2000.0000     -.0049    13.0625    21.0449     5.2812     2.5312  2910.0000
 2577.5900    12.2812  2000.0000     -.0020    13.5859    21.2402     5.1211     2.5312  2900.0000
 2577.7424    12.2266  2000.0000     -.0034    12.2891    22.0215     5.2187     2.5293  2884.0000
 2577.8948    12.2109  2001.0000     -.0078    12.5625    21.5332     5.1758     2.5410  2884.0000
 2578.0472    12.2266  2002.0000     -.0083    12.5703    20.9961     4.7539     2.5488  2884.0000
 2578.1996    12.2266  2002.0000     -.0103    12.8438    20.3613     4.5898     2.5605  2874.0000
 2578.3520    12.2266  2001.0000     -.0063    11.0078    19.8730     5.1328     2.5723  2860.0000
 2578.5044    12.2266  2000.0000      .0049    11.7734    19.9707     5.5273     2.5742  2900.0000
 2578.6568    12.2266  2000.0000      .0073    11.5078    19.6289     5.4453     2.5566  2914.0000
 2578.8092    12.2266  2000.0000      .0044    12.0156    19.7754     4.9570     2.5488  2890.0000
 2578.9616    12.2109  1999.0000     -.0073    11.2109    19.5801     4.9648     2.5508  2890.0000
 2579.1140    12.2266  1999.0000     -.0103    10.9375    18.3594     5.1328     2.5625  2900.0000
 2579.2664    12.2266  1999.0000     -.0073    11.4531    17.9199     4.8164     2.5684  2910.0000
 2579.4188    12.2109  2000.0000     -.0103    12.0156    16.0645     5.1328     2.5625  2900.0000
 2579.5712    12.2109  2000.0000     -.0098    12.0313    15.9180     4.7891     2.5664  2930.0000
 2579.7236    12.2109  2000.0000     -.0093    13.5938    16.5039     5.1875     2.5586  2914.0000
 2579.8760    12.2109  2001.0000     -.0054    12.7891    18.0664     4.6641     2.5664  2870.0000
 2580.0284    12.2109  2002.0000     -.0015    12.7734    17.8711     5.0039     2.5781  2880.0000
 2580.1808    12.2109  2001.0000     -.0024    12.5156    15.9668     4.9180     2.5859  2880.0000
 2580.3332    12.2109  2001.0000      .0020    13.8203    14.1113     5.0195     2.5820  2894.0000
 2580.4856    12.2109  2000.0000      .0049    14.6016    15.1367     4.4023     2.5742  2900.0000
 2580.6380    12.2109  2000.0000      .0039    15.3750    16.2598     4.3789     2.5664  2874.0000
 2580.7904    12.2109  2000.0000      .0000    13.5547    15.7715     4.4297     2.5742  2900.0000
 2580.9428    12.2109  2000.0000     -.0039    13.3125    14.2578     4.4883     2.5762  2880.0000
 2581.0952    12.2109  1999.0000     -.0063    12.8203    13.0859     4.3867     2.5723  2874.0000
 2581.2476    12.2109  1998.0000     -.0049    14.1328    12.7441     4.3164     2.5664  2880.0000
 2581.4000    12.2109  1998.0000     -.0039    12.8203    12.8906     4.7461     2.5645  2874.0000
 2581.5524    12.2500  1997.0000     -.0029    12.5625    13.6230     5.2109     2.5742  2884.0000
 2581.7048    12.2500  1996.0000     -.0010    11.2500    14.1602     5.2344     2.5762  2900.0000
 2581.8572    12.2500  1996.0000     -.0029    12.3125    14.8926     5.2852     2.5547  2910.0000
 2582.0096    12.2656  1995.0000     -.0034    11.5000    16.4551     5.1992     2.5176  2924.0000
 2582.1620    12.2656  1995.0000     -.0054    13.5859    18.2617     5.2734     2.4922  2910.0000
 2582.3144    12.2656  1995.0000     -.0044    12.0234    17.9688     5.3633     2.4922  2880.0000
 2582.4668    12.2109  1994.0000     -.0039    10.4688    16.3574     5.0312     2.5098  2884.0000
 2582.6192    12.2422  1993.0000     -.0039    10.2266    15.2344     5.4219     2.5254  2884.0000
 2582.7716    12.2422  1991.0000     -.0088    10.2109    15.1855     4.9609     2.5273  2884.0000
 2582.9240    12.2422  1991.0000     -.0112    10.1953    14.1113     5.2227     2.5293  2900.0000
 2583.0764    12.2422  1991.0000     -.0166     9.3906    13.4277     4.9922     2.5312  2910.0000
 2583.2288    12.2422  1991.0000     -.0151    10.9609    13.4766     5.4570     2.5391  2914.0000
 2583.3812    12.2422  1990.0000     -.0151    13.0781    14.3066     5.4531     2.5449  2884.0000
 2583.5336    12.2422  1989.0000     -.0122    12.8203    15.1367     4.9297     2.5527  2884.0000
 2583.6860    12.2422  1990.0000     -.0117    11.7891    15.1855     4.9062     2.5586  2904.0000
 2583.8384    12.2422  1991.0000     -.0161    10.7109    14.2578     4.8203     2.5684  2890.0000
 2583.9908    12.2422  1992.0000     -.0166    11.7734    12.9395     5.0703     2.5762  2910.0000
