~VERSION INFORMATION
VERS.                                                 2.0:   CWLS Log ASCII Standard-VERSION 2.0
WRAP.                                                  NO:   One line per depth step
~Well Information Block
STRT.M                                           473.2508:   Top Depth
STOP.M                                          3120.1340:   Bottom Depth
STEP.M                                             .15240:   Depth Increment
NULL.                                            -999.250:   Null Value
FLD .                                 SLEIPNER GAMMA WEST:   Field Name
WELL.                                             15/9-16:   NAME
WBN .                                             15/9-16:   WELLBORE
NATI.                                                 NOR:   COUNTRY
BHT1.DEGF                                            85.0:   BH TEMP 1
BHT2.DEGF                                            88.0:   BH TEMP 2
BHT3.DEGF                                            90.0:   BH TEMP 3
BS1 .IN                                            12.250:   BIT SIZE 1
CTRY.                                                 NOR:   COUNTRY
CBD1.M                                              169.0:   CSG 1 DRILL DEP
CBL1.M                                              169.0:   CSG 1 LOG DEP
CS1 .IN                                              30.0:   CSG 1 SIZE
COMP.                                             STATOIL:   OPERATOR
PDAT.                                                 MSL:   PERM DATUM
PROV.                                           NORTH SEA:   PROVINCE
COUN.                                        DEEPSEA SAGA:   RIG NAME
SPUD.                                          1982/06/28:   SPUD DATE
LATI.                                        58 22 9.97 N:   SURF. LATITUDE
LONG.                                        1 52 43.16 E:   SURF. LONGITUDE
BTD1.                                      514.79992676 M:   TOTAL DEPTH 1
BTD2.                                      514.79992676 M:   TOTAL DEPTH 2
BTD3.                                      514.79992676 M:   TOTAL DEPTH 3
PBWE.                                             15/9-16:   PB WELL ID
APIN.                                             15/9-16:   PB WELLBORE ID
PBWS.                                                 all:   PB WELL NAME SET
~PARAMETER INFORMATION (log)
LNAM.                              LDT/CNL/GR  COMPOSITED:   NAME
LTYP.                                         DEPTH MATCH:   LOG TYPE
LSRV.                                            DEN/NEUT:   LOG SERVICE
LSOU.                                             SPT/NPD:   LOG SOURCE
LVSN.                                                   1:   LOG VERSION
BHIS.                                                   R:   BRIEF HISTORY
FHIS.                                             RAW-LIS:   FULL HISTORY
LCNM.                                        SCHLUMBERGER:   LOGGING CONTRACTOR
TOOL.                             LDT/CNL/GR (COMPOSITED):   TOOL STRING
~Curve Information Block
#MNEM.UNIT                                        API CODE    No Description
#=========                                        ========    == ===========
DEPT.M                                       00 001 00 00:     1  DEPTH
CALI.IN                                                  :     2  Caliper
CS.                                                      :     3  Cable Speed
DRHO.G/CC                                                :     4  Bulk density correction
GR.GAPI                                                  :     5  Gamma Ray
NPHI.%                                                   :     6  Neutron porosity
PEF.B/E                                                  :     7  Photo-electric factor
RHOB.G/CC                                                :     8  Bulk density
TENS.LB                                                  :     9  Cable Tension
~ASCII
# ...
 1176.8816    15.1641  1867.0000      .0664    77.6875    54.2480     2.3770     1.9443  1545.0000
 1177.0340    15.1172  1866.0000      .0518    77.1875    54.1016     2.4316     1.9199  1590.0000
 1177.1864    15.0781  1865.0000      .0488    76.0625    53.3691     2.4395     1.8906  1585.0000
 1177.3388    15.0391  1865.0000      .0415    75.1875    50.6348     2.3867     1.8535  1580.0000
 1177.4912    14.9844  1865.0000      .0449    72.0625    55.3711     2.2031     1.8496  1575.0000
 1177.6436    15.1172  1864.0000      .0269    69.5000    57.2754     2.2012     1.8379  1575.0000
 1177.7960    15.4453  1864.0000      .0381    67.5000    59.1797     2.2383     1.8740  1570.0000
 1177.9484    15.6328  1863.0000      .0371    67.8750    56.1035     2.6191     1.8818  1575.0000
 1178.1008    15.6563  1862.0000      .0547    63.6563    52.7344     2.5020     1.8857  1565.0000
 1178.2532    15.6563  1861.0000      .0498    60.4687    51.3672     2.8828     1.8389  1580.0000
 1178.4056    15.6563  1859.0000      .0474    56.1563    52.0508     3.1738     1.8105  1595.0000
 1178.5580    15.6484  1857.0000      .0229    56.5312    50.3906     3.9512     1.7822  1565.0000
 1178.7104    15.6328  1855.0000      .0186    52.6562    51.3672     4.0508     1.7920  1545.0000
 1178.8628    15.6328  1854.0000      .0151    51.6875    55.5664     3.7266     1.7979  1565.0000
 1179.0152    15.6328  1855.0000      .0200    50.2812    57.5195     3.1465     1.8164  1575.0000
 1179.1676    15.6328  1856.0000      .0176    50.2812    57.5684     2.6074     1.8281  1630.0000
 1179.3200    15.6172  1856.0000      .0239    53.5000    52.3437     2.3516     1.8506  1590.0000
 1179.4724    15.6172  1857.0000      .0376    52.2500    50.7324     2.6172     1.8662  1585.0000
 1179.6248    15.5547  1858.0000      .0508    53.9375    48.5840     2.6992     1.8760  1570.0000
 1179.7772    15.4687  1859.0000      .0488    52.7188    45.2148     2.6172     1.8662  1565.0000
 1179.9296    15.3359  1860.0000      .0464    54.0625    45.9961     2.3965     1.8682  1580.0000
 1180.0820    15.2422  1861.0000      .0400    50.3750    46.6797     2.3711     1.8730  1575.0000
 1180.2344    15.1484  1862.0000      .0425    51.5938    49.9023     2.5195     1.8809  1580.0000
 1180.3868    15.0391  1862.0000      .0405    55.1875    50.6348     2.3574     1.8770  1570.0000
 1180.5392    14.8750  1861.0000      .0322    58.2812    49.2187     2.3398     1.8623  1580.0000
 1180.6916    14.7422  1861.0000      .0288    60.6875    50.1953     2.3652     1.8594  1575.0000
 1180.8440    14.5937  1862.0000      .0356    62.4687    47.3145     2.4434     1.8760  1575.0000
 1180.9964    14.5312  1862.0000      .0410    66.3125    48.0469     2.3926     1.8896  1565.0000
 1181.1488    14.3906  1861.0000      .0400    64.0000    48.4375     2.2637     1.8887  1575.0000
 1181.3012    14.3125  1861.0000      .0342    58.2812    47.2656     2.1934     1.8701  1575.0000
 1181.4536    14.2891  1860.0000      .0356    58.1250    50.2441     2.1602     1.8604  1560.0000
 1181.6060    14.2422  1859.0000      .0410    59.1563    45.5566     2.0801     1.8643  1565.0000
 1181.7584    14.2422  1859.0000      .0366    63.4688    49.3164     2.1387     1.8633  1565.0000
 1181.9108    14.1875  1858.0000      .0332    64.3125    47.1191     2.0879     1.8711  1570.0000
 1182.0632    14.1406  1858.0000      .0332    66.0000    50.2930     2.0312     1.8809  1570.0000
 1182.2156    14.1250  1858.0000      .0386    62.7188    49.7070     2.0762     1.8838  1565.0000
 1182.3680    14.1250  1858.0000      .0474    64.0000    47.1191     2.1172     1.8789  1585.0000
 1182.5204    14.0938  1858.0000      .0439    64.3750    47.0703     2.2051     1.8643  1560.0000
 1182.6728    14.0469  1857.0000      .0464    67.7500    45.4102     2.1074     1.8662  1570.0000
 1182.8252    14.0312  1857.0000      .0420    64.5625    46.5820     2.2539     1.8682  1585.0000
 1182.9776    13.9453  1857.0000      .0552    65.0625    46.4355     2.2988     1.8906  1570.0000
 1183.1300    13.8984  1857.0000      .0513    64.8125    50.0000     2.2910     1.8906  1615.0000
 1183.2824    13.8672  1856.0000      .0454    69.7500    52.5391     2.2324     1.8809  1585.0000
 1183.4348    13.8516  1855.0000      .0439    72.5000    54.4922     2.1855     1.8643  1580.0000
 1183.5872    13.8516  1855.0000      .0381    75.1875    56.6406     2.1543     1.8477  1585.0000
 1183.7396    13.8672  1854.0000      .0386    73.8125    55.2734     2.0547     1.8506  1575.0000
 1183.8920    13.8984  1855.0000      .0347    68.8125    50.8301     2.0352     1.8643  1580.0000
 1184.0444    13.9375  1855.0000      .0435    71.3750    50.5859     2.0957     1.8916  1585.0000
 1184.1968    14.0156  1855.0000      .0596    72.0000    50.6836     2.1211     1.9160  1575.0000
 1184.3492    14.0703  1857.0000      .0576    76.1875    55.4687     2.2363     1.9023  1585.0000
 1184.5016    14.1484  1858.0000      .0649    70.8750    52.7832     2.2500     1.8936  1565.0000
 1184.6540    14.1641  1858.0000      .0513    69.0625    54.9805     2.4199     1.8643  1560.0000
 1184.8064    14.3281  1858.0000      .0439    67.1250    52.5391     2.5137     1.8545  1580.0000
 1184.9588    14.3672  1858.0000      .0322    67.9375    52.8809     2.8125     1.8506  1580.0000
 1185.1112    14.4375  1857.0000      .0239    68.3750    49.8535     3.0645     1.8535  1580.0000
 1185.2636    14.5312  1856.0000      .0269    69.3750    49.1211     2.7559     1.8604  1570.0000
 1185.4160    14.5703  1855.0000      .0327    66.8750    48.7793     2.3613     1.8594  1580.0000
 1185.5684    14.6328  1856.0000      .0361    67.6875    52.1484     1.9521     1.8496  1585.0000
 1185.7208    14.7031  1857.0000      .0444    63.2188    57.5195     1.9541     1.8525  1575.0000
 1185.8732    14.8125  1856.0000      .0386    68.5000    57.1777     1.9473     1.8555  1580.0000
 1186.0256    14.8672  1856.0000      .0454    66.5625    58.3496     1.9473     1.8711  1595.0000
 1186.1780    14.9219  1857.0000      .0361    69.8750    54.1504     1.9404     1.8613  1600.0000
 1186.3304    14.9687  1858.0000      .0474    66.0000    55.5664     2.0898     1.8594  1570.0000
 1186.4828    14.9609  1859.0000      .0522    65.5625    51.6113     2.3828     1.8525  1585.0000
 1186.6352    14.9609  1858.0000      .0615    66.1875    53.4668     2.3555     1.8662  1580.0000
 1186.7876    14.9844  1858.0000      .0488    69.8750    49.3652     2.3809     1.8643  1590.0000
 1186.9400    15.2266  1857.0000      .0513    69.1875    53.7598     2.6309     1.8760  1565.0000
 1187.0924    15.3125  1857.0000      .0664    64.5000    52.2461     3.1133     1.8848  1575.0000
 1187.2448    15.2031  1857.0000      .0742    57.2188    53.3203     3.0879     1.8818  1580.0000
 1187.3972    15.2031  1857.0000      .0649    56.9375    51.5625     2.6309     1.8672  1580.0000
 1187.5496    15.0781  1858.0000      .0425    57.4375    52.2949     2.2461     1.8408  1585.0000
 1187.7020    14.9609  1858.0000      .0308    62.5313    53.6133     2.0312     1.8262  1565.0000
 1187.8544    14.9609  1858.0000      .0225    60.2500    51.2207     1.9863     1.8145  1585.0000
 1188.0068    14.9609  1857.0000      .0181    58.9062    51.5625     2.0176     1.8145  1580.0000
 1188.1592    14.8359  1857.0000      .0205    60.1875    52.7344     2.2168     1.8271  1585.0000
 1188.3116    14.7969  1858.0000      .0420    61.3438    55.5176     2.6875     1.8555  1595.0000
 1188.4640    14.7812  1858.0000      .0669    65.0625    56.2012     2.7969     1.8896  1590.0000
 1188.6164    14.7266  1859.0000      .0723    61.3125    54.0527     2.7285     1.8926  1600.0000
 1188.7688    14.6484  1861.0000      .0601    62.3750    54.0527     2.1895     1.8809  1580.0000
 1188.9212    14.5547  1861.0000      .0347    61.9063    51.4648     2.1133     1.8428  1570.0000
 1189.0736    14.4609  1862.0000      .0229    64.6250    53.3691     2.0449     1.8203  1585.0000
