~VERSION INFORMATION
VERS.                                                 2.0:   CWLS Log ASCII Standard-VERSION 2.0
WRAP.                                                  NO:   One line per depth step
~Well Information Block
STRT.M                                           473.2508:   Top Depth
STOP.M                                          3120.1340:   Bottom Depth
STEP.M                                             .15240:   Depth Increment
NULL.                                            -999.250:   Null Value
FLD .                                 SLEIPNER GAMMA WEST:   Field Name
WELL.                                             15/9-16:   NAME
WBN .                                             15/9-16:   WELLBORE
NATI.                                                 NOR:   COUNTRY
BHT1.DEGF                                            85.0:   BH TEMP 1
BHT2.DEGF                                            88.0:   BH TEMP 2
BHT3.DEGF                                            90.0:   BH TEMP 3
BS1 .IN                                            12.250:   BIT SIZE 1
CTRY.                                                 NOR:   COUNTRY
CBD1.M                                              169.0:   CSG 1 DRILL DEP
CBL1.M                                              169.0:   CSG 1 LOG DEP
CS1 .IN                                              30.0:   CSG 1 SIZE
COMP.                                             STATOIL:   OPERATOR
PDAT.                                                 MSL:   PERM DATUM
PROV.                                           NORTH SEA:   PROVINCE
COUN.                                        DEEPSEA SAGA:   RIG NAME
SPUD.                                          1982/06/28:   SPUD DATE
LATI.                                        58 22 9.97 N:   SURF. LATITUDE
LONG.                                        1 52 43.16 E:   SURF. LONGITUDE
BTD1.                                      514.79992676 M:   TOTAL DEPTH 1
BTD2.                                      514.79992676 M:   TOTAL DEPTH 2
BTD3.                                      514.79992676 M:   TOTAL DEPTH 3
PBWE.                                             15/9-16:   PB WELL ID
APIN.                                             15/9-16:   PB WELLBORE ID
PBWS.                                                 all:   PB WELL NAME SET
~PARAMETER INFORMATION (log)
LNAM.                              LDT/CNL/GR  COMPOSITED:   NAME
LTYP.                                         DEPTH MATCH:   LOG TYPE
LSRV.                                            DEN/NEUT:   LOG SERVICE
LSOU.                                             SPT/NPD:   LOG SOURCE
LVSN.                                                   1:   LOG VERSION
BHIS.                                                   R:   BRIEF HISTORY
FHIS.                                             RAW-LIS:   FULL HISTORY
LCNM.                                        SCHLUMBERGER:   LOGGING CONTRACTOR
TOOL.                             LDT/CNL/GR (COMPOSITED):   TOOL STRING
~Curve Information Block
#MNEM.UNIT                                        API CODE    No Description
#=========                                        ========    == ===========
DEPT.M                                       00 001 00 00:     1  DEPTH
CALI.IN                                                  :     2  Caliper
CS.                                                      :     3  Cable Speed
DRHO.G/CC                                                :     4  Bulk density correction
GR.GAPI                                                  :     5  Gamma Ray
NPHI.%                                                   :     6  Neutron porosity
PEF.B/E                                                  :     7  Photo-electric factor
RHOB.G/CC                                                :     8  Bulk density
TENS.LB                                                  :     9  Cable Tension
~ASCII
# ...
 1004.0600    18.2500  2040.0000      .0137    33.1250  -999.2500     4.2930     1.9668  1395.0000
 1004.2124    18.3125  2041.0000      .0215    34.2188  -999.2500     4.0977     1.9590  1375.0000
 1004.3648    18.3125  2040.0000      .0288    32.1562  -999.2500     3.6074     1.9814  1385.0000
 1004.5172    18.0781  2041.0000      .0112    29.7656  -999.2500     3.2383     1.9990  1390.0000
 1004.6696    18.0000  2041.0000     -.0049    26.7656  -999.2500     3.1328     2.0215  1380.0000
 1004.8220    17.6875  2041.0000     -.0181    26.9063  -999.2500     3.2695     2.0156  1375.0000
 1004.9744    17.6875  2042.0000     -.0146    25.8125  -999.2500     3.3242     2.0156  1405.0000
 1005.1268    17.6875  2043.0000     -.0122    26.8750  -999.2500     3.3867     2.0137  1385.0000
 1005.2792    17.6875  2043.0000     -.0063    28.2344  -999.2500     3.3359     2.0215  1405.0000
 1005.4316    17.6875  2043.0000     -.0039    27.3750  -999.2500     3.3379     2.0156  1420.0000
 1005.5840    17.6875  2044.0000     -.0024    27.6875  -999.2500     3.3711     2.0137  1405.0000
 1005.7364    17.6875  2044.0000     -.0039    24.4844  -999.2500     3.3398     2.0176  1370.0000
 1005.8888    17.6875  2043.0000     -.0073    26.1719  -999.2500     3.2539     2.0215  1405.0000
 1006.0412    17.6875  2042.0000     -.0073    24.3125  -999.2500     3.1309     2.0312  1380.0000
 1006.1936    17.6875  2040.0000     -.0117    25.1719  -999.2500     2.9766     2.0312  1375.0000
 1006.3460    17.6875  2039.0000     -.0181    23.7969  -999.2500     2.8770     2.0254  1390.0000
 1006.4984    17.6719  2039.0000     -.0244    25.0938  -999.2500     2.9004     2.0117  1385.0000
 1006.6508    17.6719  2039.0000     -.0205    24.5000  -999.2500     2.8809     2.0117  1380.0000
 1006.8032    17.6719  2039.0000     -.0137    23.4688  -999.2500     2.8418     2.0156  1375.0000
 1006.9556    17.6719  2039.0000     -.0127    21.5625  -999.2500     2.7148     2.0234  1380.0000
 1007.1080    17.6563  2038.0000     -.0181    24.2656  -999.2500     2.7734     2.0195  1375.0000
 1007.2604    17.6406  2040.0000     -.0186    23.9688  -999.2500     2.8789     2.0215  1385.0000
 1007.4128    17.6406  2041.0000     -.0151    25.3906  -999.2500     2.9687     2.0215  1370.0000
 1007.5652    17.6406  2041.0000     -.0127    23.2813  -999.2500     3.0176     2.0137  1385.0000
 1007.7176    17.6563  2039.0000     -.0088    23.6094  -999.2500     2.9160     2.0137  1380.0000
 1007.8700    17.6563  2039.0000     -.0068    22.7812  -999.2500     2.9160     2.0156  1390.0000
 1008.0224    17.6563  2039.0000     -.0049    21.6875  -999.2500     2.8359     2.0215  1380.0000
 1008.1748    17.5781  2041.0000     -.0112    22.4219  -999.2500     2.9082     2.0195  1380.0000
 1008.3272    17.5625  2040.0000     -.0127    22.1406  -999.2500     2.9004     2.0195  1380.0000
 1008.4796    17.5313  2040.0000     -.0107    24.2656  -999.2500     2.9160     2.0234  1390.0000
 1008.6320    17.5625  2041.0000     -.0127    23.9688  -999.2500     2.9355     2.0234  1380.0000
 1008.7844    17.5625  2042.0000     -.0083    25.2500  -999.2500     2.9531     2.0312  1390.0000
 1008.9368    17.5625  2044.0000     -.0088    24.7188  -999.2500     3.0566     2.0332  1370.0000
 1009.0892    17.5625  2045.0000     -.0044    25.2656  -999.2500     3.1133     2.0391  1395.0000
 1009.2416    17.5625  2044.0000     -.0107    24.4688  -999.2500     3.0762     2.0293  1370.0000
 1009.3940    17.5625  2043.0000     -.0098    23.1406  -999.2500     3.0078     2.0254  1385.0000
 1009.5464    17.5625  2043.0000     -.0078    22.0938  -999.2500     2.8535     2.0254  1375.0000
 1009.6988    17.5625  2041.0000     -.0083    23.2188  -999.2500     2.8652     2.0254  1385.0000
 1009.8512    17.5625  2041.0000     -.0098    25.6094  -999.2500     2.7285     2.0234  1360.0000
 1010.0036    17.5625  2040.0000     -.0073    25.3438  -999.2500     2.7266     2.0234  1400.0000
 1010.1560    17.5625  2038.0000     -.0039    23.7344  -999.2500     2.6426     2.0234  1365.0000
 1010.3084    17.5938  2038.0000     -.0020    22.3750  -999.2500     2.6230     2.0293  1385.0000
 1010.4608    17.5625  2039.0000     -.0093    23.4531  -999.2500     2.7500     2.0254  1365.0000
 1010.6132    17.5625  2041.0000     -.0063    25.1406  -999.2500     2.8574     2.0293  1385.0000
 1010.7656    17.5625  2041.0000     -.0029    24.1406  -999.2500     2.9219     2.0332  1380.0000
 1010.9180    17.5625  2040.0000     -.0020    23.0937  -999.2500     2.8926     2.0352  1380.0000
 1011.0704    17.5625  2041.0000     -.0029    24.0938  -999.2500     2.7539     2.0371  1390.0000
 1011.2228    17.5625  2042.0000     -.0098    25.9375  -999.2500     2.8379     2.0273  1370.0000
 1011.3752    17.5938  2042.0000     -.0078    25.9219  -999.2500     2.7754     2.0273  1380.0000
 1011.5276    17.5625  2041.0000     -.0078    22.4375  -999.2500     2.9297     2.0234  1385.0000
 1011.6800    17.5625  2040.0000     -.0054    24.4844  -999.2500     2.9551     2.0254  1390.0000
 1011.8324    17.5625  2040.0000     -.0044    26.0313  -999.2500     2.9102     2.0254  1385.0000
 1011.9848    17.5625  2040.0000     -.0088    27.6406  -999.2500     2.8184     2.0176  1385.0000
 1012.1372    17.5313  2042.0000     -.0146    24.7969  -999.2500     2.7051     2.0176  1380.0000
 1012.2896    17.5625  2042.0000     -.0146    22.7188  -999.2500     2.7539     2.0273  1390.0000
 1012.4420    17.5938  2041.0000     -.0181    24.3125  -999.2500     2.7598     2.0312  1370.0000
 1012.5944    17.6719  2041.0000     -.0127    26.1250  -999.2500     2.7227     2.0410  1385.0000
 1012.7468    17.7969  2040.0000     -.0166    27.9688  -999.2500     2.6973     2.0332  1365.0000
 1012.8992    17.8281  2038.0000     -.0117    25.2969  -999.2500     2.6660     2.0391  1385.0000
 1013.0516    17.7969  2037.0000     -.0156    22.6719  -999.2500     2.7187     2.0332  1365.0000
 1013.2040    17.7188  2037.0000     -.0112    21.8906  -999.2500     2.6855     2.0371  1385.0000
 1013.3564    17.7188  2039.0000     -.0151    23.4688  -999.2500     2.7617     2.0352  1395.0000
 1013.5088    17.7188  2038.0000     -.0137    24.2344  -999.2500     2.7480     2.0410  1375.0000
 1013.6612    17.7344  2039.0000     -.0161    25.5156  -999.2500     2.7637     2.0449  1410.0000
 1013.8136    17.7969  2040.0000     -.0093    26.3594  -999.2500     2.7441     2.0508  1380.0000
 1013.9660    17.7969  2041.0000     -.0093    26.3906  -999.2500     2.6816     2.0488  1435.0000
 1014.1184    17.7969  2041.0000     -.0088    25.9688  -999.2500     2.7637     2.0391  1375.0000
 1014.2708    17.8281  2043.0000     -.0122    23.0781  -999.2500     2.7227     2.0332  1400.0000
 1014.4232    17.8906  2042.0000     -.0186    24.6875  -999.2500     2.7969     2.0176  1390.0000
 1014.5756    18.0469  2041.0000     -.0156    24.6094  -999.2500     2.8555     2.0156  1400.0000
 1014.7280    17.8906  2040.0000     -.0132    24.8594  -999.2500     2.8437     2.0117  1400.0000
 1014.8804    17.7969  2040.0000      .0010    23.2500  -999.2500     2.7402     2.0332  1405.0000
 1015.0328    17.7500  2040.0000     -.0029    21.4219  -999.2500     2.6953     2.0391  1380.0000
 1015.1852    17.7031  2041.0000     -.0044    22.4687  -999.2500     2.8184     2.0391  1405.0000
 1015.3376    17.6406  2040.0000     -.0093    20.0156  -999.2500     2.9844     2.0234  1400.0000
 1015.4900    17.6406  2042.0000     -.0015    21.2813  -999.2500     3.0527     2.0234  1405.0000
 1015.6424    17.6875  2043.0000     -.0005    21.5312  -999.2500     3.0625     2.0234  1375.0000
 1015.7948    17.7188  2043.0000      .0000    23.9375  -999.2500     2.9961     2.0254  1405.0000
 1015.9472    17.6719  2042.0000     -.0029    25.3125  -999.2500     2.9805     2.0254  1400.0000
 1016.0996    17.7188  2041.0000     -.0049    24.7969  -999.2500     2.8164     2.0312  1400.0000
 1016.2520    17.7188  2039.0000     -.0146    27.2188  -999.2500     2.8398     2.0293  1390.0000
