~VERSION INFORMATION
VERS.                                                 2.0:   CWLS Log ASCII Standard-VERSION 2.0
WRAP.                                                  NO:   One line per depth step
~Well Information Block
STRT.M                                           473.2508:   Top Depth
STOP.M                                          3120.1340:   Bottom Depth
STEP.M                                             .15240:   Depth Increment
NULL.                                            -999.250:   Null Value
FLD .                                 SLEIPNER GAMMA WEST:   Field Name
WELL.                                             15/9-16:   NAME
WBN .                                             15/9-16:   WELLBORE
NATI.                                                 NOR:   COUNTRY
BHT1.DEGF                                            85.0:   BH TEMP 1
BHT2.DEGF                                            88.0:   BH TEMP 2
BHT3.DEGF                                            90.0:   BH TEMP 3
BS1 .IN                                            12.250:   BIT SIZE 1
CTRY.                                                 NOR:   COUNTRY
CBD1.M                                              169.0:   CSG 1 DRILL DEP
CBL1.M                                              169.0:   CSG 1 LOG DEP
CS1 .IN                                              30.0:   CSG 1 SIZE
COMP.                                             STATOIL:   OPERATOR
PDAT.                                                 MSL:   PERM DATUM
PROV.                                           NORTH SEA:   PROVINCE
COUN.                                        DEEPSEA SAGA:   RIG NAME
SPUD.                                          1982/06/28:   SPUD DATE
LATI.                                        58 22 9.97 N:   SURF. LATITUDE
LONG.                                        1 52 43.16 E:   SURF. LONGITUDE
BTD1.                                      514.79992676 M:   TOTAL DEPTH 1
BTD2.                                      514.79992676 M:   TOTAL DEPTH 2
BTD3.                                      514.79992676 M:   TOTAL DEPTH 3
PBWE.                                             15/9-16:   PB WELL ID
APIN.                                             15/9-16:   PB WELLBORE ID
PBWS.                                                 all:   PB WELL NAME SET
~PARAMETER INFORMATION (log)
LNAM.                              LDT/CNL/GR  COMPOSITED:   NAME
LTYP.                                         DEPTH MATCH:   LOG TYPE
LSRV.                                            DEN/NEUT:   LOG SERVICE
LSOU.                                             SPT/NPD:   LOG SOURCE
LVSN.                                                   1:   LOG VERSION
BHIS.                                                   R:   BRIEF HISTORY
FHIS.                                             RAW-LIS:   FULL HISTORY
LCNM.                                        SCHLUMBERGER:   LOGGING CONTRACTOR
TOOL.                             LDT/CNL/GR (COMPOSITED):   TOOL STRING
~Curve Information Block
#MNEM.UNIT                                        API CODE    No Description
#=========                                        ========    == ===========
DEPT.M                                       00 001 00 00:     1  DEPTH
CALI.IN                                                  :     2  Caliper
CS.                                                      :     3  Cable Speed
DRHO.G/CC                                                :     4  Bulk density correction
GR.GAPI                                                  :     5  Gamma Ray
NPHI.%                                                   :     6  Neutron porosity
PEF.B/E                                                  :     7  Photo-electric factor
RHOB.G/CC                                                :     8  Bulk density
TENS.LB                                                  :     9  Cable Tension
~ASCII
# ...
  646.0724    18.4844  2078.0000      .0259    75.2500  -999.2500     2.7871     2.1230  1075.0000
  646.2248    18.3750  2080.0000      .0215    72.6250  -999.2500     2.7500     2.1250  1115.0000
  646.3772    18.3594  2080.0000      .0117    71.1875  -999.2500     2.7910     2.1270  1090.0000
  646.5296    18.3906  2080.0000      .0093    67.6250  -999.2500     2.8027     2.1211  1075.0000
  646.6820    18.3438  2082.0000      .0166    65.5000  -999.2500     2.7422     2.1211  1090.0000
  646.8344    18.3281  2082.0000      .0195    66.4375  -999.2500     2.7578     2.1250  1075.0000
  646.9868    18.4063  2080.0000      .0298    69.1875  -999.2500     2.7891     2.1484  1090.0000
  647.1392    18.3594  2080.0000      .0210    66.9375  -999.2500     2.8984     2.1445  1080.0000
  647.2916    18.3281  2078.0000      .0146    65.5625  -999.2500     2.8398     2.1289  1090.0000
  647.4440    18.2813  2078.0000      .0137    62.5938  -999.2500     2.8535     2.1133  1100.0000
  647.5964    18.2500  2078.0000      .0088    66.2500  -999.2500     2.8633     2.1035  1085.0000
  647.7488    18.2031  2076.0000      .0112    70.6250  -999.2500     2.9746     2.1152  1085.0000
  647.9012    18.5469  2078.0000      .0039    70.9375  -999.2500     3.0703     2.1016  1100.0000
  648.0536    18.5313  2076.0000      .0078    71.8750  -999.2500     3.0020     2.1055  1060.0000
  648.2060    18.3750  2076.0000      .0093    69.6875  -999.2500     2.9219     2.1016  1180.0000
  648.3584    19.2969  2078.0000      .0098    70.0000  -999.2500     2.7930     2.1074  1095.0000
  648.5108    19.4688  2078.0000      .0093    70.3125  -999.2500     2.7441     2.1074  1105.0000
  648.6632    18.5625  2078.0000      .0107    71.8125  -999.2500     2.8184     2.1133  1100.0000
  648.8156    18.6875  2078.0000      .0132    77.2500  -999.2500     2.8633     2.1270  1080.0000
  648.9680    18.7344  2076.0000      .0107    79.0625  -999.2500     2.9648     2.1250  1115.0000
  649.1204    18.9531  2078.0000      .0103    75.3750  -999.2500     2.8594     2.1230  1125.0000
  649.2728    19.1406  2080.0000      .0078    71.1250  -999.2500     2.9355     2.1133  1085.0000
  649.4252    19.1406  2080.0000      .0127    70.0000  -999.2500     2.8574     2.1211  1120.0000
  649.5776    18.6406  2082.0000      .0078    72.8750  -999.2500     2.9902     2.1094  1115.0000
  649.7300    18.4063  2082.0000      .0083    75.3125  -999.2500     3.0918     2.1094  1140.0000
  649.8824    18.4844  2082.0000      .0063    71.8125  -999.2500     3.0703     2.1094  1095.0000
  650.0348    18.8594  2082.0000      .0068    71.8125  -999.2500     3.0215     2.1191  1095.0000
  650.1872    18.6875  2082.0000      .0098    70.5000  -999.2500     2.8945     2.1328  1120.0000
  650.3396    18.5625  2082.0000      .0083    70.3750  -999.2500     2.9395     2.1328  1100.0000
  650.4920    19.1250  2080.0000      .0112    67.1875  -999.2500     2.8594     2.1426  1085.0000
  650.6444    18.7344  2078.0000      .0039    70.6250  -999.2500     2.8164     2.1328  1100.0000
  650.7968    18.7813  2078.0000      .0034    74.3750  -999.2500     2.8047     2.1309  1080.0000
  650.9492    18.6094  2076.0000      .0029    77.8750  -999.2500     2.9004     2.1309  1070.0000
  651.1016    18.6875  2078.0000      .0059    72.3125  -999.2500     2.9219     2.1348  1120.0000
  651.2540    18.6563  2078.0000      .0063    71.1875  -999.2500     2.9141     2.1348  1090.0000
  651.4064    18.6250  2078.0000      .0088    71.9375  -999.2500     2.8496     2.1250  1090.0000
  651.5588    18.7344  2080.0000      .0137    76.3750  -999.2500     2.8828     2.1133  1110.0000
  651.7112    18.8906  2080.0000      .0181    75.6250  -999.2500     2.9316     2.1016  1105.0000
  651.8636    18.5938  2080.0000      .0132    74.3750  -999.2500     2.8984     2.0879  1105.0000
  652.0160    18.8281  2080.0000      .0103    73.5625  -999.2500     2.8867     2.0918  1105.0000
  652.1684    18.7031  2080.0000      .0093    75.7500  -999.2500     2.8437     2.1074  1095.0000
  652.3208    18.5313  2080.0000      .0088    77.6875  -999.2500     2.8945     2.1211  1095.0000
  652.4732    18.5625  2080.0000      .0073    76.7500  -999.2500     2.8359     2.1250  1085.0000
  652.6256    18.5625  2080.0000      .0083    77.4375  -999.2500     2.8730     2.1230  1110.0000
  652.7780    18.6875  2080.0000      .0083    77.3750  -999.2500     2.7969     2.1211  1070.0000
  652.9304    18.7813  2080.0000      .0107    79.2500  -999.2500     2.7129     2.1191  1125.0000
  653.0828    18.8906  2082.0000      .0078    77.5000  -999.2500     2.6523     2.1074  1110.0000
  653.2352    18.6563  2082.0000      .0059    78.1875  -999.2500     2.6621     2.0977  1090.0000
  653.3876    18.9844  2082.0000      .0054    79.8750  -999.2500     2.7871     2.0898  1095.0000
  653.5400    18.7344  2080.0000      .0063    80.9375  -999.2500     2.8262     2.1074  1075.0000
  653.6924    18.7344  2080.0000      .0083    77.9375  -999.2500     2.8789     2.1211  1105.0000
  653.8448    18.7188  2080.0000      .0093    72.1250  -999.2500     2.8496     2.1387  1085.0000
  653.9972    18.7969  2080.0000      .0088    71.4375  -999.2500     2.9258     2.1367  1090.0000
  654.1496    18.7500  2080.0000      .0088    69.9375  -999.2500     2.8906     2.1348  1100.0000
  654.3020    19.0156  2080.0000      .0073    73.7500  -999.2500     2.9004     2.1211  1100.0000
  654.4544    18.8906  2080.0000      .0151    71.3125  -999.2500     2.8223     2.1309  1105.0000
  654.6068    18.6250  2080.0000      .0132    72.9375  -999.2500     2.7695     2.1289  1095.0000
  654.7592    18.7813  2080.0000      .0146    67.7500  -999.2500     2.7969     2.1367  1110.0000
  654.9116    18.5781  2080.0000      .0107    69.7500  -999.2500     2.8633     2.1328  1080.0000
  655.0640    18.5625  2080.0000      .0088    70.8125  -999.2500     2.9531     2.1387  1100.0000
  655.2164    18.7813  2080.0000      .0059    75.6250  -999.2500     2.9707     2.1387  1095.0000
  655.3688    19.0156  2080.0000      .0034    78.1875  -999.2500     2.9473     2.1328  1065.0000
  655.5212    18.9375  2080.0000      .0068    81.0625  -999.2500     2.9199     2.1309  1125.0000
  655.6736    18.4844  2080.0000      .0054    76.5625  -999.2500     2.8477     2.1270  1070.0000
  655.8260    19.0313  2078.0000      .0078    71.0000  -999.2500     2.7969     2.1328  1100.0000
  655.9784    18.9688  2080.0000      .0039    69.4375  -999.2500     2.8066     2.1270  1120.0000
  656.1308    18.9844  2080.0000      .0054    72.6875  -999.2500     2.9160     2.1348  1065.0000
  656.2832    18.9531  2080.0000      .0010    74.0000  -999.2500     2.9473     2.1289  1125.0000
  656.4356    19.1875  2080.0000      .0039    74.1250  -999.2500     2.9434     2.1309  1080.0000
  656.5880    19.0781  2080.0000      .0034    71.9375  -999.2500     2.8184     2.1230  1130.0000
  656.7404    18.8125  2080.0000      .0063    72.3750  -999.2500     2.8906     2.1211  1095.0000
  656.8928    18.6875  2080.0000      .0024    67.6250  -999.2500     2.8691     2.1172  1075.0000
  657.0452    19.0000  2080.0000      .0029    66.6250  -999.2500     2.8008     2.1211  1145.0000
  657.1976    18.9531  2078.0000      .0029    67.5000  -999.2500     2.7812     2.1172  1045.0000
  657.3500    18.9688  2076.0000      .0073    72.3125  -999.2500     2.8008     2.1250  1125.0000
  657.5024    18.5469  2076.0000      .0098    74.6875  -999.2500     2.9414     2.1250  1095.0000
  657.6548    18.3750  2076.0000      .0122    75.0625  -999.2500     2.9375     2.1328  1095.0000
  657.8072    18.8594  2076.0000      .0181    72.6250  -999.2500     2.8281     2.1387  1100.0000
  657.9596    18.3594  2078.0000      .0142    77.0625  -999.2500     2.7637     2.1367  1075.0000
  658.1120    18.3594  2078.0000      .0117    78.1875  -999.2500     2.6953     2.1406  1125.0000
  658.2644    18.3594  2078.0000      .0127    78.5000  -999.2500     2.7109     2.1387  1100.0000
