~VERSION INFORMATION
VERS.                                                 2.0:   CWLS Log ASCII Standard-VERSION 2.0
WRAP.                                                  NO:   One line per depth step
~Well Information Block
STRT.M                                           473.2508:   Top Depth
STOP.M                                          3120.1340:   Bottom Depth
STEP.M                                             .15240:   Depth Increment
NULL.                                            -999.250:   Null Value
FLD .                                 SLEIPNER GAMMA WEST:   Field Name
WELL.                                             15/9-16:   NAME
WBN .                                             15/9-16:   WELLBORE
NATI.                                                 NOR:   COUNTRY
BHT1.DEGF                                            85.0:   BH TEMP 1
BHT2.DEGF                                            88.0:   BH TEMP 2
BHT3.DEGF                                            90.0:   BH TEMP 3
BS1 .IN                                            12.250:   BIT SIZE 1
CTRY.                                                 NOR:   COUNTRY
CBD1.M                                              169.0:   CSG 1 DRILL DEP
CBL1.M                                              169.0:   CSG 1 LOG DEP
CS1 .IN                                              30.0:   CSG 1 SIZE
COMP.                                             STATOIL:   OPERATOR
PDAT.                                                 MSL:   PERM DATUM
PROV.                                           NORTH SEA:   PROVINCE
COUN.                                        DEEPSEA SAGA:   RIG NAME
SPUD.                                          1982/06/28:   SPUD DATE
LATI.                                        58 22 9.97 N:   SURF. LATITUDE
LONG.                                        1 52 43.16 E:   SURF. LONGITUDE
BTD1.                                      514.79992676 M:   TOTAL DEPTH 1
BTD2.                                      514.79992676 M:   TOTAL DEPTH 2
BTD3.                                      514.79992676 M:   TOTAL DEPTH 3
PBWE.                                             15/9-16:   PB WELL ID
APIN.                                             15/9-16:   PB WELLBORE ID
PBWS.                                                 all:   PB WELL NAME SET
~PARAMETER INFORMATION (log)
LNAM.                              LDT/CNL/GR  COMPOSITED:   NAME
LTYP.                                         DEPTH MATCH:   LOG TYPE
LSRV.                                            DEN/NEUT:   LOG SERVICE
LSOU.                                             SPT/NPD:   LOG SOURCE
LVSN.                                                   1:   LOG VERSION
BHIS.                                                   R:   BRIEF HISTORY
FHIS.                                             RAW-LIS:   FULL HISTORY
LCNM.                                        SCHLUMBERGER:   LOGGING CONTRACTOR
TOOL.                             LDT/CNL/GR (COMPOSITED):   TOOL STRING
~Curve Information Block
#MNEM.UNIT                                        API CODE    No Description
#=========                                        ========    == ===========
DEPT.M                                       00 001 00 00:     1  DEPTH
CALI.IN                                                  :     2  Caliper
CS.                                                      :     3  Cable Speed
DRHO.G/CC                                                :     4  Bulk density correction
GR.GAPI                                                  :     5  Gamma Ray
NPHI.%                                                   :     6  Neutron porosity
PEF.B/E                                                  :     7  Photo-electric factor
RHOB.G/CC                                                :     8  Bulk density
TENS.LB                                                  :     9  Cable Tension
~ASCII
# ...
 1522.5248    15.9297  1847.0000      .0674    54.5312    53.3691     7.3828     1.9365  1915.0000
 1522.6772    16.0156  1847.0000      .0688    57.8125    54.3945     7.4023     1.9395  1905.0000
 1522.8296    16.0156  1847.0000      .0781    62.1875    54.0527     7.6406     1.9053  1920.0000
 1522.9820    15.9297  1847.0000      .0796    62.2500    54.3457     6.4453     1.8701  1910.0000
 1523.1344    14.7188  1847.0000      .0718    61.9688    54.7852     5.2578     1.8613  1900.0000
 1523.2868    14.6250  1847.0000      .0679    64.3125    54.1016     4.6953     1.9219  1910.0000
 1523.4392    14.5391  1847.0000      .0815    65.5625    51.9531     5.0859     1.9873  1920.0000
 1523.5916    14.3281  1847.0000      .1040    63.4375    47.1191     5.9844     2.0215  1915.0000
 1523.7440    14.1875  1846.0000      .1079    61.2813    46.5820     4.7578     2.0254  1895.0000
 1523.8964    14.3125  1846.0000      .0830    62.3125    48.8281     4.9883     1.9766  1920.0000
 1524.0488    14.4375  1846.0000      .0820    60.3438    52.0508     5.3477     1.9111  1905.0000
 1524.2012    14.8750  1846.0000      .0591    56.4375    53.8086     6.5703     1.8125  1880.0000
 1524.3536    15.2812  1845.0000      .0693    50.4687    51.4648     7.0547     1.7881  1890.0000
 1524.5060    15.5547  1844.0000      .0645    48.7187    52.0508     7.2969     1.7871  1915.0000
 1524.6584    15.7812  1844.0000      .0801    49.3437    55.9570     8.4766     1.7969  1885.0000
 1524.8108    16.0313  1844.0000      .0952    50.6875    56.2500     8.1953     1.8057  1900.0000
 1524.9632    15.6172  1844.0000      .0835    53.0313    54.7363     6.9102     1.8037  1905.0000
 1525.1156    15.6094  1845.0000      .0913    52.2500    56.2988     6.3672     1.8545  1905.0000
 1525.2680    15.4062  1844.0000      .1079    56.4688    57.4219     6.5859     1.8818  1925.0000
 1525.4204    15.5078  1844.0000      .1338    58.0313    57.2266     6.8125     1.9092  1895.0000
 1525.5728    15.7812  1843.0000      .1260    63.2500    53.2227     6.6133     1.8818  1940.0000
 1525.7252    15.6094  1844.0000      .1069    61.3438    51.3184     5.3867     1.8721  1925.0000
 1525.8776    15.0703  1844.0000      .0669    60.0000    51.5625     4.5781     1.8477  1940.0000
 1526.0300    14.8750  1845.0000      .0576    57.8750    49.9023     4.1211     1.8730  1925.0000
 1526.1824    14.5703  1845.0000      .0439    61.0625    49.8535     4.3516     1.8936  1930.0000
 1526.3348    14.3281  1844.0000      .0576    64.6250    48.5840     3.7246     1.9258  1935.0000
 1526.4872    13.6797  1844.0000      .0503    65.6250    49.5117     3.4629     1.9287  1905.0000
 1526.6396    13.5312  1845.0000      .0620    61.4688    48.4863     3.2266     1.9551  1910.0000
 1526.7920    13.6016  1845.0000      .0596    62.2500    47.5586     3.3164     1.9570  1915.0000
 1526.9444    13.6094  1846.0000      .0757    66.2500    46.5332     3.3340     1.9766  1895.0000
 1527.0968    13.5703  1847.0000      .0688    70.3750    48.1445     3.5332     1.9658  1900.0000
 1527.2492    13.4609  1847.0000      .0864    69.1875    49.5117     3.4062     1.9814  1900.0000
 1527.4016    13.6406  1848.0000      .0645    64.5625    49.4141     3.2695     1.9590  1910.0000
 1527.5540    14.0469  1848.0000      .0688    61.4062    52.5391     2.9648     1.9736  1920.0000
 1527.7064    13.2187  1848.0000      .0527    60.9062    57.6660     2.7949     1.9736  1895.0000
 1527.8588    13.1797  1847.0000      .0635    62.8125    55.2734     2.9023     1.9893  1910.0000
 1528.0112    13.1797  1846.0000      .0771    66.3750    51.6602     3.0879     1.9961  1940.0000
 1528.1636    13.1797  1845.0000      .0991    66.1250    52.0508     3.6016     2.0078  1900.0000
 1528.3160    13.4766  1846.0000      .1191    64.3125    55.1758     3.1914     2.0332  1930.0000
 1528.4684    13.3047  1846.0000      .0967    62.4687    57.8125     3.2070     2.0098  1910.0000
 1528.6208    13.2891  1846.0000      .0791    63.5625    54.1504     3.9062     1.9590  1920.0000
 1528.7732    13.4766  1846.0000      .0728    61.9063    54.6875     5.3555     1.9316  1940.0000
 1528.9256    13.3594  1845.0000      .0742    59.7500    51.5137     6.1055     1.9238  1900.0000
 1529.0780    13.3828  1846.0000      .0776    59.6875    52.0996     5.2969     1.9502  1895.0000
 1529.2304    13.5859  1847.0000      .0776    62.0000    49.7070     4.6719     1.9668  1910.0000
 1529.3828    13.6953  1847.0000      .0903    65.0000    48.0957     4.1523     1.9912  1910.0000
 1529.5352    13.7734  1846.0000      .0830    65.8750    50.5371     3.8418     1.9961  1940.0000
 1529.6876    13.6641  1845.0000      .0674    65.6875    53.9551     3.7168     1.9805  1920.0000
 1529.8400    13.6641  1845.0000      .0439    64.9375    58.1055     3.8047     1.9580  1885.0000
 1529.9924    13.6250  1845.0000      .0278    63.6875    57.0312     3.5664     1.9424  1910.0000
 1530.1448    13.6562  1845.0000      .0288    65.8750    54.1016     3.6543     1.9521  1910.0000
 1530.2972    13.6641  1846.0000      .0522    62.1250    51.2207     3.3945     1.9844  1910.0000
 1530.4496    13.8281  1846.0000      .0601    63.4062    45.1172     3.4219     1.9932  1920.0000
 1530.6020    14.0859  1847.0000      .0718    59.0938    46.1914     3.4355     1.9893  1935.0000
 1530.7544    14.5937  1846.0000      .0820    57.9375    51.2207     3.5195     1.9824  1920.0000
 1530.9068    14.7812  1846.0000      .0942    55.4375    52.9297     4.0508     1.9697  1905.0000
 1531.0592    15.0391  1846.0000      .0864    54.6250    55.3223     4.7148     1.9053  1905.0000
 1531.2116    14.9609  1847.0000      .0547    54.4375    48.8770     5.3750     1.8213  1900.0000
 1531.3640    14.5547  1847.0000      .0479    50.3750    50.5371     4.7734     1.8008  1905.0000
 1531.5164    14.3906  1847.0000      .0493    51.1875    45.6543     3.6152     1.8369  1935.0000
 1531.6688    14.1484  1846.0000      .0566    58.2500    50.6348     3.2988     1.8916  1890.0000
 1531.8212    14.0469  1846.0000      .0620    60.4063    51.1230     3.4551     1.9072  1910.0000
 1531.9736    13.9375  1846.0000      .0752    64.3125    54.9316     3.4160     1.9229  1945.0000
 1532.1260    13.7500  1846.0000      .0791    61.3750    54.6387     3.0508     1.9297  1925.0000
 1532.2784    13.6641  1846.0000      .0698    63.4375    50.8789     2.7148     1.9414  1935.0000
 1532.4308    14.2187  1845.0000      .0425    61.6875    52.4902     3.1387     1.9082  1920.0000
 1532.5832    13.8047  1844.0000      .0649    62.6250    51.6113     3.6758     1.9141  1910.0000
 1532.7356    13.9766  1843.0000      .0781    63.9062    57.2266     4.1445     1.9023  1905.0000
 1532.8880    13.9922  1844.0000      .0981    62.7500    53.2227     3.3320     1.9307  1905.0000
 1533.0404    14.0469  1845.0000      .0723    61.9688    53.8574     2.9297     1.9258  1905.0000
 1533.1928    14.1484  1845.0000      .0513    59.8125    52.4414     2.9316     1.9268  1910.0000
 1533.3452    14.3906  1845.0000      .0591    60.0000    52.3926     3.0508     1.9395  1890.0000
 1533.4976    14.5312  1845.0000      .0444    60.0313    50.6348     2.8984     1.9160  1905.0000
 1533.6500    14.5937  1845.0000      .0459    62.3437    51.6113     2.5723     1.9199  1940.0000
 1533.8024    14.6641  1845.0000      .0254    63.8125    49.6094     2.5469     1.9033  1910.0000
 1533.9548    14.6641  1843.0000      .0396    62.2188    50.0000     2.5547     1.9307  1920.0000
 1534.1072    14.6641  1841.0000      .0449    60.9375    49.6582     2.5195     1.9424  1935.0000
 1534.2596    14.7188  1841.0000      .0454    62.4375    53.7598     2.8301     1.9434  1905.0000
 1534.4120    14.9062  1841.0000      .0518    59.9687    55.0781     3.6582     1.9111  1910.0000
 1534.5644    15.1641  1841.0000      .0762    59.9375    54.9805     4.9844     1.9023  1925.0000
 1534.7168    15.3359  1841.0000      .0962    59.2187    54.8828     5.7500     1.8984  1945.0000
