~VERSION INFORMATION
VERS.                                                 2.0:   CWLS Log ASCII Standard-VERSION 2.0
WRAP.                                                  NO:   One line per depth step
~Well Information Block
STRT.M                                           473.2508:   Top Depth
STOP.M                                          3120.1340:   Bottom Depth
STEP.M                                             .15240:   Depth Increment
NULL.                                            -999.250:   Null Value
FLD .                                 SLEIPNER GAMMA WEST:   Field Name
WELL.                                             15/9-16:   NAME
WBN .                                             15/9-16:   WELLBORE
NATI.                                                 NOR:   COUNTRY
BHT1.DEGF                                            85.0:   BH TEMP 1
BHT2.DEGF                                            88.0:   BH TEMP 2
BHT3.DEGF                                            90.0:   BH TEMP 3
BS1 .IN                                            12.250:   BIT SIZE 1
CTRY.                                                 NOR:   COUNTRY
CBD1.M                                              169.0:   CSG 1 DRILL DEP
CBL1.M                                              169.0:   CSG 1 LOG DEP
CS1 .IN                                              30.0:   CSG 1 SIZE
COMP.                                             STATOIL:   OPERATOR
PDAT.                                                 MSL:   PERM DATUM
PROV.                                           NORTH SEA:   PROVINCE
COUN.                                        DEEPSEA SAGA:   RIG NAME
SPUD.                                          1982/06/28:   SPUD DATE
LATI.                                        58 22 9.97 N:   SURF. LATITUDE
LONG.                                        1 52 43.16 E:   SURF. LONGITUDE
BTD1.                                      514.79992676 M:   TOTAL DEPTH 1
BTD2.                                      514.79992676 M:   TOTAL DEPTH 2
BTD3.                                      514.79992676 M:   TOTAL DEPTH 3
PBWE.                                             15/9-16:   PB WELL ID
APIN.                                             15/9-16:   PB WELLBORE ID
PBWS.                                                 all:   PB WELL NAME SET
~PARAMETER INFORMATION (log)
LNAM.                              LDT/CNL/GR  COMPOSITED:   NAME
LTYP.                                         DEPTH MATCH:   LOG TYPE
LSRV.                                            DEN/NEUT:   LOG SERVICE
LSOU.                                             SPT/NPD:   LOG SOURCE
LVSN.                                                   1:   LOG VERSION
BHIS.                                                   R:   BRIEF HISTORY
FHIS.                                             RAW-LIS:   FULL HISTORY
LCNM.                                        SCHLUMBERGER:   LOGGING CONTRACTOR
TOOL.                             LDT/CNL/GR (COMPOSITED):   TOOL STRING
~Curve Information Block
#MNEM.UNIT                                        API CODE    No Description
#=========                                        ========    == ===========
DEPT.M                                       00 001 00 00:     1  DEPTH
CALI.IN                                                  :     2  Caliper
CS.                                                      :     3  Cable Speed
DRHO.G/CC                                                :     4  Bulk density correction
GR.GAPI                                                  :     5  Gamma Ray
NPHI.%                                                   :     6  Neutron porosity
PEF.B/E                                                  :     7  Photo-electric factor
RHOB.G/CC                                                :     8  Bulk density
TENS.LB                                                  :     9  Cable Tension
~ASCII
  473.2508    19.6406  2096.0000     -.5884    35.5937  -999.2500   123.1250     2.0723   900.0000
  473.4032    19.6094  2092.0000     -.5732    37.2500  -999.2500   124.8750     2.1191   920.0000
  473.5556    19.5469  2092.0000     -.5547    38.3125  -999.2500    37.2188     2.2461   935.0000
  473.7080    19.4688  2088.0000     -.5723    38.2813  -999.2500    25.2969     2.3262   935.0000
  473.8604    19.4688  2090.0000     -.5562    39.3125  -999.2500    28.3281     2.4727   895.0000
  474.0128    19.2969  2090.0000     -.5249    38.1563  -999.2500    29.8906     2.3613   905.0000
  474.1652    19.0625  2090.0000     -.4805    38.1875  -999.2500    31.9219     2.3164   950.0000
  474.3176    19.3438  2090.0000     -.4775    39.0312  -999.2500    33.1875     2.1992   930.0000
  474.4700    19.3438  2090.0000     -.4961    41.6563  -999.2500    38.2188     2.1621   910.0000
  474.6224    19.4219  2088.0000     -.5122    41.0625  -999.2500    41.1563     2.1289   930.0000
  474.7748    19.4219  2088.0000     -.5112    40.2500  -999.2500    28.4844     2.1387   925.0000
  474.9272    19.2969  2088.0000     -.5293    38.7813  -999.2500    34.4063     2.1211   915.0000
  475.0796    19.3281  2086.0000     -.5264    41.4688  -999.2500    26.5156     2.1504   920.0000
  475.2320    19.3906  2086.0000     -.5239    39.9375  -999.2500    30.3594     2.1484   930.0000
  475.3844    19.3594  2086.0000     -.5044    37.8750  -999.2500    20.2656     2.1836   930.0000
  475.5368    19.3750  2086.0000     -.5093    37.3750  -999.2500    21.5938     2.1562   960.0000
  475.6892    19.3906  2086.0000     -.5063    38.8750  -999.2500    24.5469     2.1602   930.0000
  475.8416    19.2969  2086.0000     -.5215    41.8750  -999.2500    31.3281     2.1152   925.0000
  475.9940    19.3281  2088.0000     -.5132    40.2500  -999.2500    29.6562     2.1211   915.0000
  476.1464    19.3125  2086.0000     -.5034    42.6562  -999.2500    30.0938     2.1172   960.0000
  476.2988    19.2969  2086.0000     -.5000    42.9375  -999.2500    29.4844     2.1250   930.0000
  476.4512    19.3750  2086.0000     -.4990    44.0000  -999.2500    31.8750     2.1309   915.0000
  476.6036    19.3906  2086.0000     -.5132    40.0000  -999.2500    22.6094     2.1191   930.0000
  476.7560    19.4219  2086.0000     -.5063    38.8125  -999.2500    21.0469     2.1387   945.0000
  476.9084    19.4219  2086.0000     -.5024    38.5625  -999.2500    21.4375     2.1484   955.0000
  477.0608    19.4688  2088.0000     -.5024    39.3125  -999.2500    24.1719     2.1758   925.0000
  477.2132    19.3906  2090.0000     -.5073    41.3125  -999.2500    34.7500     2.1777   905.0000
  477.3656    19.4219  2088.0000     -.5317    40.1875  -999.2500    62.2188     2.1504   935.0000
  477.5180    19.4688  2090.0000     -.5239    38.8438  -999.2500    98.5625     2.1484   935.0000
  477.6704    19.3906  2090.0000     -.5317    35.7813  -999.2500    46.0937     2.1230   935.0000
  477.8228    19.4219  2090.0000     -.5220    34.2188  -999.2500    30.3125     2.1387   935.0000
  477.9752    19.3906  2090.0000     -.5254    35.5000  -999.2500    26.5781     2.1348   925.0000
  478.1276    19.4219  2090.0000     -.5093    36.9375  -999.2500    28.0625     2.1621   950.0000
  478.2800    19.3906  2090.0000     -.4854    37.9375  -999.2500    31.6094     2.1680   945.0000
  478.4324    19.4688  2088.0000     -.4771    35.1875  -999.2500    34.5938     2.1816   945.0000
  478.5848    19.5000  2088.0000     -.4673    34.5000  -999.2500    31.9219     2.1855   935.0000
  478.7372    19.4688  2088.0000     -.4497    37.8750  -999.2500    22.7031     2.2051   930.0000
  478.8896    19.4688  2088.0000     -.4048    39.4063  -999.2500    21.5625     2.2578   930.0000
  479.0420    19.4375  2088.0000     -.3887    40.3750  -999.2500    21.8594     2.2812   925.0000
  479.1944    19.4688  2088.0000     -.3765    38.7187  -999.2500    27.6719     2.3086   920.0000
  479.3468    19.3438  2088.0000     -.3892    40.1250  -999.2500    25.5469     2.2891   925.0000
  479.4992    19.4219  2088.0000     -.3794    39.4375  -999.2500    31.6875     2.3066   920.0000
  479.6516    19.4219  2088.0000     -.3574    39.5000  -999.2500    34.7188     2.3320   930.0000
  479.8040    19.3438  2088.0000     -.3306    38.8750  -999.2500    29.0312     2.3555   950.0000
  479.9564    19.3906  2088.0000     -.3076    36.1875  -999.2500    25.3594     2.3809   925.0000
  480.1088    19.3750  2090.0000     -.3252    36.0938  -999.2500    17.5938     2.3613   955.0000
  480.2612    19.4219  2092.0000     -.3481    37.7500  -999.2500    19.4219     2.3574   945.0000
  480.4136    19.3906  2094.0000     -.3662    41.2187  -999.2500    22.8438     2.3477   920.0000
  480.5660    19.4219  2094.0000     -.3774    40.6250  -999.2500    33.9063     2.3457   925.0000
  480.7184    19.4375  2094.0000     -.3906    39.4688  -999.2500    38.7813     2.3281   960.0000
  480.8708    19.4688  2094.0000     -.4238    38.7187  -999.2500    29.9375     2.2871   940.0000
  481.0232    19.5156  2094.0000     -.4302    40.9688  -999.2500    33.9688     2.2891   905.0000
  481.1756    19.4844  2094.0000     -.4478    41.2813  -999.2500    26.1875     2.2676   940.0000
  481.3280    19.5469  2092.0000     -.4507    41.0000  -999.2500    26.5938     2.2617   935.0000
  481.4804    19.5938  2092.0000     -.4795    37.1250  -999.2500    20.4844     2.2266   925.0000
  481.6328    19.6250  2090.0000     -.4971    37.4375  -999.2500    28.1719     2.2285   950.0000
  481.7852    19.7031  2090.0000     -.5312    37.9375  -999.2500    26.3438     2.2109   940.0000
  481.9376    19.7031  2088.0000     -.5361    39.9063  -999.2500    27.6094     2.2187   900.0000
  482.0900    19.6719  2088.0000     -.5352    40.1562  -999.2500    23.8906     2.2031   945.0000
  482.2424    19.5938  2088.0000     -.5259    40.2500  -999.2500    26.5469     2.2090   930.0000
  482.3948    19.4688  2088.0000     -.5103    41.0000  -999.2500    20.8438     2.2051   915.0000
  482.5472    19.4688  2090.0000     -.5078    38.1250  -999.2500    16.7188     2.1758   930.0000
  482.6996    19.5781  2090.0000     -.4224    38.5938  -999.2500    13.3437     2.1309   930.0000
  482.8520    19.1406  2090.0000     -.1465    37.9063  -999.2500    11.4531     2.3145   920.0000
  483.0044    18.4844  2088.0000      .0298    39.6562  -999.2500     9.6328     2.4512   940.0000
  483.1568    18.3906  2088.0000      .2925    41.0625  -999.2500     8.0859     2.7461   950.0000
  483.3092    18.3594  2088.0000      .3081    41.0000  -999.2500     7.4141     2.8027   915.0000
  483.4616    18.3750  2088.0000      .2866    40.5313  -999.2500     7.6602     2.7949   925.0000
  483.6140    18.4688  2090.0000      .2866    39.9375  -999.2500     8.7266     2.7930   955.0000
  483.7664    18.6094  2092.0000      .2173    40.7500  -999.2500    10.0469     2.7266   935.0000
  483.9188    18.7344  2092.0000      .1138    42.3437  -999.2500     9.5859     2.6270   940.0000
  484.0712    18.8125  2092.0000      .0425    42.3750  -999.2500     9.2500     2.5742   955.0000
  484.2236    18.7813  2092.0000      .0640    40.6875  -999.2500     9.3125     2.6152   905.0000
  484.3760    18.6875  2090.0000      .1133    40.1562  -999.2500    11.0703     2.6895   930.0000
  484.5284    18.6563  2090.0000      .1211    40.9688  -999.2500    12.5391     2.7344   935.0000
  484.6808    18.6563  2092.0000      .0034    40.4375  -999.2500    15.7031     2.6543   945.0000
  484.8332    18.9375  2090.0000     -.1113    37.6563  -999.2500    21.4063     2.5859   940.0000
  484.9856    19.2031  2090.0000     -.2852    34.8750  -999.2500    38.8125     2.4434   945.0000
  485.1380    19.3281  2090.0000     -.4468    33.9688  -999.2500    50.2812     2.2910   940.0000
  485.2904    19.6406  2090.0000     -.5093    34.8125  -999.2500    69.0625     2.2363   955.0000
  485.4428    19.6563  2090.0000     -.5654    32.4063  -999.2500    82.3125     2.1660   930.0000
