~VERSION INFORMATION
VERS.                                                 2.0:   CWLS Log ASCII Standard-VERSION 2.0
WRAP.                                                  NO:   One line per depth step
~Well Information Block
STRT.M                                           473.2508:   Top Depth
STOP.M                                          3120.1340:   Bottom Depth
STEP.M                                             .15240:   Depth Increment
NULL.                                            -999.250:   Null Value
FLD .                                 SLEIPNER GAMMA WEST:   Field Name
WELL.                                             15/9-16:   NAME
WBN .                                             15/9-16:   WELLBORE
NATI.                                                 NOR:   COUNTRY
BHT1.DEGF                                            85.0:   BH TEMP 1
BHT2.DEGF                                            88.0:   BH TEMP 2
BHT3.DEGF                                            90.0:   BH TEMP 3
BS1 .IN                                            12.250:   BIT SIZE 1
CTRY.                                                 NOR:   COUNTRY
CBD1.M                                              169.0:   CSG 1 DRILL DEP
CBL1.M                                              169.0:   CSG 1 LOG DEP
CS1 .IN                                              30.0:   CSG 1 SIZE
COMP.                                             STATOIL:   OPERATOR
PDAT.                                                 MSL:   PERM DATUM
PROV.                                           NORTH SEA:   PROVINCE
COUN.                                        DEEPSEA SAGA:   RIG NAME
SPUD.                                          1982/06/28:   SPUD DATE
LATI.                                        58 22 9.97 N:   SURF. LATITUDE
LONG.                                        1 52 43.16 E:   SURF. LONGITUDE
BTD1.                                      514.79992676 M:   TOTAL DEPTH 1
BTD2.                                      514.79992676 M:   TOTAL DEPTH 2
BTD3.                                      514.79992676 M:   TOTAL DEPTH 3
PBWE.                                             15/9-16:   PB WELL ID
APIN.                                             15/9-16:   PB WELLBORE ID
PBWS.                                                 all:   PB WELL NAME SET
~PARAMETER INFORMATION (log)
LNAM.                              LDT/CNL/GR  COMPOSITED:   NAME
LTYP.                                         DEPTH MATCH:   LOG TYPE
LSRV.                                            DEN/NEUT:   LOG SERVICE
LSOU.                                             SPT/NPD:   LOG SOURCE
LVSN.                                                   1:   LOG VERSION
BHIS.                                                   R:   BRIEF HISTORY
FHIS.                                             RAW-LIS:   FULL HISTORY
LCNM.                                        SCHLUMBERGER:   LOGGING CONTRACTOR
TOOL.                             LDT/CNL/GR (COMPOSITED):   TOOL STRING
~Curve Information Block
#MNEM.UNIT                                        API CODE    No Description
#=========                                        ========    == ===========
DEPT.M                                       00 001 00 00:     1  DEPTH
CALI.IN                                                  :     2  Caliper
CS.                                                      :     3  Cable Speed
DRHO.G/CC                                                :     4  Bulk density correction
GR.GAPI                                                  :     5  Gamma Ray
NPHI.%                                                   :     6  Neutron porosity
PEF.B/E                                                  :     7  Photo-electric factor
RHOB.G/CC                                                :     8  Bulk density
TENS.LB                                                  :     9  Cable Tension
~ASCII
# ...
 1695.3464    15.3594  1810.0000      .0303    45.9375    49.9023     2.6738     1.9365  2050.0000
 1695.4988    15.4141  1811.0000      .0312    48.1250    51.1230     3.0312     1.9521  2060.0000
 1695.6512    15.9453  1811.0000      .0391    50.8125    51.4160     3.1934     1.9717  2060.0000
 1695.8036    15.4844  1811.0000      .0464    50.9062    49.2187     3.2187     1.9844  2054.0000
 1695.9560    15.4687  1811.0000      .0547    50.4063    49.8047     3.0195     1.9961  2070.0000
 1696.1084    15.4297  1811.0000      .0542    47.7188    50.0488     2.7773     1.9834  2070.0000
 1696.2608    15.5625  1810.0000      .0381    49.5938    48.0957     2.6914     1.9502  2070.0000
 1696.4132    15.3516  1810.0000      .0288    50.9062    48.6816     2.6777     1.9277  2064.0000
 1696.5656    15.4141  1810.0000      .0322    51.7813    47.8516     2.6016     1.9219  2054.0000
 1696.7180    15.3906  1809.0000      .0469    50.5937    52.5391     2.7383     1.9424  2070.0000
 1696.8704    15.4609  1808.0000      .0449    51.0937    49.5605     2.7344     1.9658  2080.0000
 1697.0228    15.5391  1806.0000      .0337    55.7500    51.2695     2.9609     1.9678  2050.0000
 1697.1752    15.5000  1805.0000      .0322    55.0000    45.7520     2.8125     1.9561  2054.0000
 1697.3276    15.2266  1806.0000      .0366    56.0313    50.0977     2.6660     1.9551  2064.0000
 1697.4800    15.8359  1807.0000      .0361    54.4375    48.3887     2.3691     1.9609  2045.0000
 1697.6324    16.3438  1809.0000      .0249    54.3750    52.7344     2.2949     1.9590  2074.0000
 1697.7848    15.8516  1809.0000      .0288    53.1250    48.7305     2.2461     1.9473  2064.0000
 1697.9372    15.3359  1808.0000      .0342    50.2812    50.0977     2.4102     1.9355  2050.0000
 1698.0896    15.7109  1808.0000      .0518    49.6875    47.6074     2.4883     1.9531  2050.0000
 1698.2420    15.5000  1809.0000      .0508    51.5938    47.9980     2.9336     1.9453  2064.0000
 1698.3944    15.6172  1809.0000      .0596    52.4687    47.5586     2.9258     1.9551  2060.0000
 1698.5468    15.9531  1808.0000      .0522    53.0937    48.4375     3.4277     1.9424  2050.0000
 1698.6992    16.9531  1806.0000      .0498    51.9063    50.2930     3.5977     1.9268  2080.0000
 1698.8516    17.5938  1806.0000      .0503    50.0000    46.0449     4.4648     1.9131  2064.0000
 1699.0040    15.9688  1807.0000      .0498    49.0312    51.0742     4.3398     1.9180  2050.0000
 1699.1564    16.5938  1808.0000      .0518    48.5000    52.4414     4.3320     1.9375  2070.0000
 1699.3088    17.3438  1807.0000      .0605    48.0000    56.1523     4.3516     1.9551  2080.0000
 1699.4612    16.1875  1807.0000      .0654    47.0625    51.8555     4.8594     1.9102  2094.0000
 1699.6136    16.5781  1806.0000      .0684    45.2188    52.7832     4.9375     1.8779  2054.0000
 1699.7660    16.8906  1807.0000      .0498    45.2812    57.8613     5.5820     1.8379  2040.0000
 1699.9184    17.1094  1807.0000      .0522    46.6875    60.5469     5.8906     1.8545  2080.0000
 1700.0708    17.1094  1807.0000      .0454    47.4063    61.8164     5.9570     1.8555  2074.0000
 1700.2232    17.7500  1806.0000      .0449    48.2812    55.6641     6.0508     1.8486  2045.0000
 1700.3756    17.1719  1805.0000      .0371    49.4063    54.4434     5.5664     1.8418  2084.0000
 1700.5280    16.7656  1805.0000      .0376    49.7500    51.5625     4.9727     1.8555  2104.0000
 1700.6804    17.0156  1806.0000      .0356    49.9375    55.1270     4.8477     1.8682  2060.0000
 1700.8328    16.7031  1807.0000      .0420    45.6875    57.5195     5.2383     1.8779  2050.0000
 1700.9852    16.7031  1806.0000      .0518    45.3125    59.2773     5.9023     1.8887  2045.0000
 1701.1376    16.6406  1807.0000      .0718    44.6562    56.3477     4.7109     1.9385  2050.0000
 1701.2900    16.5781  1807.0000      .0664    46.9688    55.1758     4.0937     1.9688  2054.0000
 1701.4424    17.3281  1807.0000      .0654    46.3750    52.7832     4.3477     1.9932  2100.0000
 1701.5948    17.2500  1808.0000      .0674    47.7812    56.1523     5.0000     1.9785  2064.0000
 1701.7472    16.7031  1809.0000      .0576    47.6562    55.6641     5.3242     1.9434  2035.0000
 1701.8996    16.6719  1810.0000      .0659    46.5312    57.3730     4.7578     1.9385  2080.0000
 1702.0520    17.0469  1811.0000      .0464    48.6563    51.9043     4.0312     1.9219  2054.0000
 1702.2044    16.6719  1812.0000      .0562    49.6875    50.4883     4.0703     1.9316  2064.0000
 1702.3568    16.1719  1811.0000      .0498    50.7500    44.9707     4.1367     1.9238  2074.0000
 1702.5092    16.0625  1810.0000      .0518    51.2500    45.7520     4.3555     1.9336  2054.0000
 1702.6616    16.2344  1810.0000      .0479    51.1563    42.2363     4.2656     1.9404  2084.0000
 1702.8140    16.1094  1810.0000      .0532    52.2500    44.4824     4.5312     1.9404  2064.0000
 1702.9664    16.0938  1810.0000      .0449    50.6875    44.7754     5.0391     1.9209  2045.0000
 1703.1188    16.1563  1810.0000      .0312    50.0938    50.1465     4.5586     1.9063  2060.0000
 1703.2712    16.5625  1810.0000      .0122    49.3125    54.9805     4.0937     1.8965  2074.0000
 1703.4236    16.2969  1811.0000      .0200    50.3438    53.7109     3.8379     1.9238  2074.0000
 1703.5760    16.9688  1811.0000      .0459    52.2500    51.0742     3.9453     1.9707  2074.0000
 1703.7284    17.1563  1812.0000      .0527    55.1250    45.4590     3.8926     1.9971  2035.0000
 1703.8808    15.6875  1812.0000      .0591    52.9687    48.0469     3.5410     2.0156  2050.0000
 1704.0332    15.6328  1811.0000      .0366    49.7188    47.6074     4.0156     1.9834  2060.0000
 1704.1856    15.6172  1810.0000      .0356    47.2188    51.6602     4.6523     1.9473  2084.0000
 1704.3380    15.8906  1810.0000      .0425    47.3125    49.5117     5.5273     1.9209  2070.0000
 1704.4904    15.8984  1811.0000      .0518    48.4375    53.1250     5.3086     1.9248  2060.0000
 1704.6428    16.4219  1811.0000      .0454    46.4688    49.7070     4.9766     1.9316  2045.0000
 1704.7952    16.0313  1810.0000      .0396    45.2500    50.6348     5.8359     1.9160  2060.0000
 1704.9476    16.3750  1811.0000      .0410    45.5313    51.3672     6.5312     1.8623  2094.0000
 1705.1000    17.1719  1811.0000      .0459    45.5313    54.2969     6.9023     1.8125  2070.0000
 1705.2524    17.5469  1812.0000      .0293    47.6562    54.2969     5.8359     1.7930  2070.0000
 1705.4048    17.6563  1812.0000      .0381    47.3125    53.4180     4.5703     1.8496  2050.0000
 1705.5572    16.7031  1811.0000      .0493    50.5625    52.7344     4.9375     1.9141  2054.0000
 1705.7096    16.4688  1811.0000      .0806    50.3125    58.2520     5.3477     1.9502  2064.0000
 1705.8620    15.9688  1812.0000      .0815    50.2500    56.0547     5.9102     1.9277  2104.0000
 1706.0144    15.9688  1813.0000      .0781    50.7812    53.7109     5.5820     1.9277  2090.0000
 1706.1668    15.8984  1812.0000      .0698    50.7812    49.9512     5.5508     1.9238  2080.0000
 1706.3192    15.8984  1812.0000      .0596    53.1250    49.9512     5.9375     1.9082  2094.0000
 1706.4716    16.5625  1811.0000      .0674    50.4375    51.7090     4.8633     1.9189  2074.0000
 1706.6240    16.5000  1811.0000      .0562    48.5000    57.0312     4.5898     1.9209  2064.0000
 1706.7764    15.7031  1812.0000      .0659    46.0625    60.8398     4.2734     1.9600  2045.0000
 1706.9288    15.6875  1812.0000      .0508    46.8437    62.9395     4.6016     1.9336  2084.0000
 1707.0812    15.6484  1811.0000      .0508    47.8125    56.1035     4.6211     1.9238  2084.0000
 1707.2336    15.6094  1809.0000      .0498    48.3750    54.0039     4.6562     1.9141  2084.0000
 1707.3860    15.6563  1808.0000      .0586    50.9688    52.2461     4.9570     1.9160  2064.0000
 1707.5384    15.5391  1809.0000      .0679    49.0312    51.9531     4.4414     1.9336  2045.0000
