~VERSION INFORMATION
VERS.                                                 2.0:   CWLS Log ASCII Standard-VERSION 2.0
WRAP.                                                  NO:   One line per depth step
~Well Information Block
STRT.M                                           473.2508:   Top Depth
STOP.M                                          3120.1340:   Bottom Depth
STEP.M                                             .15240:   Depth Increment
NULL.                                            -999.250:   Null Value
FLD .                                 SLEIPNER GAMMA WEST:   Field Name
WELL.                                             15/9-16:   NAME
WBN .                                             15/9-16:   WELLBORE
NATI.                                                 NOR:   COUNTRY
BHT1.DEGF                                            85.0:   BH TEMP 1
BHT2.DEGF                                            88.0:   BH TEMP 2
BHT3.DEGF                                            90.0:   BH TEMP 3
BS1 .IN                                            12.250:   BIT SIZE 1
CTRY.                                                 NOR:   COUNTRY
CBD1.M                                              169.0:   CSG 1 DRILL DEP
CBL1.M                                              169.0:   CSG 1 LOG DEP
CS1 .IN                                              30.0:   CSG 1 SIZE
COMP.                                             STATOIL:   OPERATOR
PDAT.                                                 MSL:   PERM DATUM
PROV.                                           NORTH SEA:   PROVINCE
COUN.                                        DEEPSEA SAGA:   RIG NAME
SPUD.                                          1982/06/28:   SPUD DATE
LATI.                                        58 22 9.97 N:   SURF. LATITUDE
LONG.                                        1 52 43.16 E:   SURF. LONGITUDE
BTD1.                                      514.79992676 M:   TOTAL DEPTH 1
BTD2.                                      514.79992676 M:   TOTAL DEPTH 2
BTD3.                                      514.79992676 M:   TOTAL DEPTH 3
PBWE.                                             15/9-16:   PB WELL ID
APIN.                                             15/9-16:   PB WELLBORE ID
PBWS.                                                 all:   PB WELL NAME SET
~PARAMETER INFORMATION (log)
LNAM.                              LDT/CNL/GR  COMPOSITED:   NAME
LTYP.                                         DEPTH MATCH:   LOG TYPE
LSRV.                                            DEN/NEUT:   LOG SERVICE
LSOU.                                             SPT/NPD:   LOG SOURCE
LVSN.                                                   1:   LOG VERSION
BHIS.                                                   R:   BRIEF HISTORY
FHIS.                                             RAW-LIS:   FULL HISTORY
LCNM.                                        SCHLUMBERGER:   LOGGING CONTRACTOR
TOOL.                             LDT/CNL/GR (COMPOSITED):   TOOL STRING
~Curve Information Block
#MNEM.UNIT                                        API CODE    No Description
#=========                                        ========    == ===========
DEPT.M                                       00 001 00 00:     1  DEPTH
CALI.IN                                                  :     2  Caliper
CS.                                                      :     3  Cable Speed
DRHO.G/CC                                                :     4  Bulk density correction
GR.GAPI                                                  :     5  Gamma Ray
NPHI.%                                                   :     6  Neutron porosity
PEF.B/E                                                  :     7  Photo-electric factor
RHOB.G/CC                                                :     8  Bulk density
TENS.LB                                                  :     9  Cable Tension
~ASCII
# ...
 2756.9648    11.1412  -999.2500      .1177    80.7678    28.9937     8.2325     2.2878  2933.8135
 2757.1172    11.5844  -999.2500      .0989    78.2975    30.1055     9.3450     2.2593  2901.1548
 2757.2696    11.7194  -999.2500      .0569    75.4865    32.4406     8.4510     2.2534  2891.9448
 2757.4220    12.0172  -999.2500      .0313    72.9077    34.4248     6.8080     2.3087  2915.5039
 2757.5744    12.5563  -999.2500      .0270    72.2580    35.9664     5.2211     2.3647  2957.8760
 2757.7268    12.5813  -999.2500      .0306    73.6078    36.2376     4.7071     2.3770  2979.3794
 2757.8792    11.9444  -999.2500      .0426    75.4523    36.1798     4.5970     2.3207  2944.3101
 2758.0316    11.3490  -999.2500      .0473    76.6694    34.8785     5.3051     2.2625  2896.4976
 2758.1840    11.2165  -999.2500      .0425    76.5585    33.3545     6.6120     2.2196  2929.2427
 2758.3364    11.3187  -999.2500      .0257    74.8841    32.7021     7.8578     2.1846  2999.7358
 2758.4888    11.1735  -999.2500      .0257    72.7167    32.7080     7.9982     2.1793  3006.0239
 2758.6412    10.9571  -999.2500      .0334    72.1412    32.1702     7.0163     2.1846  2946.2612
 2758.7936    11.1101  -999.2500      .0469    73.4083    31.3091     6.6520     2.1923  2862.7656
 2758.9460    11.5132  -999.2500      .0614    74.7747    31.6016     8.0373     2.1691  2907.2710
 2759.0984    11.9157  -999.2500      .0889    73.9178    32.3239     9.3688     2.1532  3031.6221
 2759.2508    12.2851  -999.2500      .1163    70.4982    36.2906     9.1672     2.1674  3011.8813
 2759.4032    12.6167  -999.2500      .1437    69.2395    36.5471     7.8436     2.2208  2972.6230
 2759.5556    12.8387  -999.2500      .1711    70.0835    35.6413     6.8705     2.2877  2979.3037
 2759.7080    12.8473  -999.2500      .1856    71.2255    35.2607     6.3268     2.3398  3016.5591
 2759.8604    12.6005  -999.2500      .1736    70.6233    35.6652     6.0380     2.3719  3033.6577
 2760.0128    12.3236  -999.2500      .1515    70.5710    35.9332     6.0422     2.3989  2990.5059
 2760.1652    12.0521  -999.2500      .1316    73.3655    35.4992     6.1063     2.4190  2957.2939
 2760.3176    12.2524  -999.2500      .1135    75.9497    35.0357     6.0471     2.4207  2964.2939
 2760.4700    12.4908  -999.2500      .0962    75.8509    35.1570     5.5302     2.4162  2976.4302
 2760.6224    12.5383  -999.2500      .0907    74.0442    35.2777     4.7115     2.4290  2975.3936
 2760.7748    12.0276  -999.2500      .0869    73.0498    34.3552     4.0229     2.4466  2932.8091
 2760.9272    11.9452  -999.2500      .0891    73.3550    32.7075     4.3917     2.4671  2889.4106
 2761.0796    12.4936  -999.2500      .1018    73.6955    30.9168     5.5211     2.4365  2912.7695
 2761.2320    13.0323  -999.2500      .1123    73.0381    30.4513     6.5993     2.3905  2968.9624
 2761.3844    13.2850  -999.2500      .1125    72.1896    31.2711     7.1461     2.3252  3018.0039
 2761.5368    13.2824  -999.2500      .1049    72.1388    33.2939     6.9607     2.2877  2975.8857
 2761.6892    12.5771  -999.2500      .0974    74.3085    35.3760     6.5187     2.2982  2922.8149
 2761.8416    11.7113  -999.2500      .0823    77.0901    36.6853     6.1918     2.3183  2951.1655
 2761.9940    11.3930  -999.2500      .0679    79.2743    36.2730     6.6230     2.3200  2991.6196
 2762.1464    11.9725  -999.2500      .0693    81.1183    34.3099     7.0704     2.3158  2984.5210
 2762.2988    12.3654  -999.2500      .1050    82.9024    31.6438     7.4136     2.3494  2948.7935
 2762.4512    13.0772  -999.2500      .1354    82.9915    28.9776     7.7308     2.3890  2930.3975
 2762.6036    13.4954  -999.2500      .1558    80.0607    30.2525     8.0480     2.4222  2933.2163
 2762.7560    13.4317  -999.2500      .1475    74.6895    32.6350     8.3652     2.4003  2949.9351
 2762.9084    12.9344  -999.2500      .1325    73.5094    34.8177     8.5612     2.3482  2952.9438
 2763.0608    12.3970  -999.2500      .1167    74.2644    35.9537     8.6108     2.2887  2928.4438
 2763.2132    12.0857  -999.2500      .0865    76.3289    36.0655     8.8221     2.2103  2968.6221
 2763.3656    12.0551  -999.2500      .0584    77.1323    36.1773     9.2302     2.1535  3039.0098
 2763.5180    12.0681  -999.2500      .0407    76.3515    34.9730     9.9607     2.1128  3052.3936
 2763.6704    11.7602  -999.2500      .0687    74.4477    33.5082     9.9880     2.1147  3012.0649
 2763.8228    11.7019  -999.2500      .0966    72.2446    31.8382    10.0152     2.1306  2923.5361
 2763.9752    12.1615  -999.2500      .1204    70.7443    31.9382     9.9827     2.1478  2944.2930
 2764.1276    12.8906  -999.2500      .1319    70.0152    34.3815     9.5285     2.1729  2987.5288
 2764.2800    13.2397  -999.2500      .1283    69.1132    36.6818     8.2662     2.2036  2968.5557
 2764.4324    12.6498  -999.2500      .0989    69.0391    36.8628     7.7428     2.2261  2932.4204
 2764.5848    12.0075  -999.2500      .0611    71.8136    36.1802     6.8803     2.2146  2930.7930
 2764.7372    11.5975  -999.2500      .0337    76.8089    36.6985     5.6953     2.2110  2961.1890
 2764.8896    11.8574  -999.2500      .0202    81.1521    37.9811     4.6234     2.2883  2975.9307
 2765.0420    12.1014  -999.2500      .0287    83.4462    38.1803     4.1623     2.3617  2982.2842
 2765.1944    12.0870  -999.2500      .0380    82.6651    36.0061     4.1135     2.4034  2965.1172
 2765.3468    11.9369  -999.2500      .0443    79.7456    33.8318     4.4744     2.4305  2943.3257
 2765.4992    11.8200  -999.2500      .0456    77.6133    32.7418     5.0001     2.4226  2928.6147
 2765.6516    11.8358  -999.2500      .0469    76.9778    31.6659     6.1431     2.3711  2931.5977
 2765.8040    12.1142  -999.2500      .0489    78.0091    30.7199     7.2994     2.2286  2936.9248
 2765.9564    12.3713  -999.2500      .0519    79.7594    30.0658     7.9302     2.1318  2961.3970
 2766.1088    12.6158  -999.2500      .0523    81.3143    31.2129     7.7078     2.0674  2970.9648
 2766.2612    12.8513  -999.2500      .0485    83.1219    32.8580     7.3122     2.0853  2970.6929
 2766.4136    12.5010  -999.2500      .0500    84.1350    34.1629     7.9654     2.1523  2937.6196
 2766.5660    12.0388  -999.2500      .0700    84.2897    32.6505     8.9819     2.2050  2909.1387
 2766.7184    12.2879  -999.2500      .0901    83.3224    30.9941     9.4952     2.2058  2943.0415
 2766.8708    12.9309  -999.2500      .1101    80.3138    31.8098     9.8634     2.1974  2991.4390
 2767.0232    13.2291  -999.2500      .1219    77.5280    34.9231    10.0148     2.2007  3013.7505
 2767.1756    13.3696  -999.2500      .1103    76.0276    37.5615    10.0237     2.1733  2965.2358
 2767.3280    12.9331  -999.2500      .0874    74.7236    39.6467     9.5519     2.1345  2905.4790
 2767.4804    12.5884  -999.2500      .0683    72.5587    39.0954     8.4646     2.1019  2921.7646
 2767.6328    12.2777  -999.2500      .0629    70.5804    38.0851     8.6590     2.1245  3000.4746
 2767.7852    11.9172  -999.2500      .0620    69.6911    36.6979     9.6499     2.1402  3074.1929
 2767.9376    11.7557  -999.2500      .0647    69.5250    35.8461    10.0415     2.1427  3047.5996
 2768.0900    11.8640  -999.2500      .0731    70.5875    35.9627    10.0320     2.1322  2992.1260
 2768.2424    11.9619  -999.2500      .0839    70.4476    36.2842     9.2837     2.1524  2939.4175
 2768.3948    11.9915  -999.2500      .0946    70.2452    36.0736     7.5685     2.2084  2909.6948
 2768.5472    11.7373  -999.2500      .1023    70.5542    35.9287     6.1632     2.2593  2879.9243
 2768.6996    11.1664  -999.2500      .0997    72.1235    36.3005     5.0075     2.3100  2889.7173
 2768.8520    10.7503  -999.2500      .0891    73.4739    37.0516     4.2382     2.3531  2940.8955
 2769.0044    10.7122  -999.2500      .0642    74.8058    37.0768     3.9978     2.3915  2992.0742
 2769.1568    11.3505  -999.2500      .0393    76.5347    36.2159     4.1779     2.4033  2975.3096
