~VERSION INFORMATION
VERS.                                                 2.0:   CWLS Log ASCII Standard-VERSION 2.0
WRAP.                                                  NO:   One line per depth step
~Well Information Block
STRT.M                                           473.2508:   Top Depth
STOP.M                                          3120.1340:   Bottom Depth
STEP.M                                             .15240:   Depth Increment
NULL.                                            -999.250:   Null Value
FLD .                                 SLEIPNER GAMMA WEST:   Field Name
WELL.                                             15/9-16:   NAME
WBN .                                             15/9-16:   WELLBORE
NATI.                                                 NOR:   COUNTRY
BHT1.DEGF                                            85.0:   BH TEMP 1
BHT2.DEGF                                            88.0:   BH TEMP 2
BHT3.DEGF                                            90.0:   BH TEMP 3
BS1 .IN                                            12.250:   BIT SIZE 1
CTRY.                                                 NOR:   COUNTRY
CBD1.M                                              169.0:   CSG 1 DRILL DEP
CBL1.M                                              169.0:   CSG 1 LOG DEP
CS1 .IN                                              30.0:   CSG 1 SIZE
COMP.                                             STATOIL:   OPERATOR
PDAT.                                                 MSL:   PERM DATUM
PROV.                                           NORTH SEA:   PROVINCE
COUN.                                        DEEPSEA SAGA:   RIG NAME
SPUD.                                          1982/06/28:   SPUD DATE
LATI.                                        58 22 9.97 N:   SURF. LATITUDE
LONG.                                        1 52 43.16 E:   SURF. LONGITUDE
BTD1.                                      514.79992676 M:   TOTAL DEPTH 1
BTD2.                                      514.79992676 M:   TOTAL DEPTH 2
BTD3.                                      514.79992676 M:   TOTAL DEPTH 3
PBWE.                                             15/9-16:   PB WELL ID
APIN.                                             15/9-16:   PB WELLBORE ID
PBWS.                                                 all:   PB WELL NAME SET
~PARAMETER INFORMATION (log)
LNAM.                              LDT/CNL/GR  COMPOSITED:   NAME
LTYP.                                         DEPTH MATCH:   LOG TYPE
LSRV.                                            DEN/NEUT:   LOG SERVICE
LSOU.                                             SPT/NPD:   LOG SOURCE
LVSN.                                                   1:   LOG VERSION
BHIS.                                                   R:   BRIEF HISTORY
FHIS.                                             RAW-LIS:   FULL HISTORY
LCNM.                                        SCHLUMBERGER:   LOGGING CONTRACTOR
TOOL.                             LDT/CNL/GR (COMPOSITED):   TOOL STRING
~Curve Information Block
#MNEM.UNIT                                        API CODE    No Description
#=========                                        ========    == ===========
DEPT.M                                       00 001 00 00:     1  DEPTH
CALI.IN                                                  :     2  Caliper
CS.                                                      :     3  Cable Speed
DRHO.G/CC                                                :     4  Bulk density correction
GR.GAPI                                                  :     5  Gamma Ray
NPHI.%                                                   :     6  Neutron porosity
PEF.B/E                                                  :     7  Photo-electric factor
RHOB.G/CC                                                :     8  Bulk density
TENS.LB                                                  :     9  Cable Tension
~ASCII
# ...
 1880.5124    15.5000  1756.0000      .0371    59.2187    57.8613     3.2676     1.9951  2224.0000
 1880.6648    13.6797  1756.0000      .0176    58.7500    61.8652     3.5801     1.9531  2220.0000
 1880.8172    13.2344  1755.0000      .0293    57.0625    56.5918     4.1484     1.9355  2214.0000
 1880.9696    13.1172  1757.0000      .0283    57.2188    57.3242     4.3711     1.9209  2260.0000
 1881.1220    12.7891  1757.0000      .0308    59.6875    52.0508     3.7012     1.9688  2224.0000
 1881.2744    12.5859  1756.0000      .0103    63.7813    53.2715     3.4453     2.0000  2210.0000
 1881.4268    12.6016  1756.0000      .0059    64.0000    54.1992     3.4590     2.0234  2234.0000
 1881.5792    12.8438  1756.0000      .0020    62.9063    52.3926     3.2910     2.0137  2220.0000
 1881.7316    12.9141  1756.0000      .0098    62.0000    52.0996     3.1367     2.0137  2220.0000
 1881.8840    13.2891  1755.0000      .0098    62.6562    52.2461     2.9590     2.0039  2224.0000
 1882.0364    13.7578  1755.0000      .0225    62.8750    53.0273     2.9297     2.0176  2210.0000
 1882.1888    14.4844  1754.0000      .0195    62.9063    53.3203     3.1348     2.0098  2230.0000
 1882.3412    15.6172  1755.0000      .0200    62.9063    49.2676     3.2461     2.0137  2230.0000
 1882.4936    15.8984  1756.0000      .0181    61.9688    49.1699     3.6172     1.9941  2234.0000
 1882.6460    13.6797  1757.0000      .0327    59.9375    47.4121     3.9844     1.9746  2224.0000
 1882.7984    13.5859  1755.0000      .0522    57.6250    52.9297     5.1016     1.9238  2234.0000
 1882.9508    13.5859  1756.0000      .0645    56.7500    55.8105     5.4453     1.8926  2244.0000
 1883.1032    13.5469  1756.0000      .0693    56.8750    61.7676     6.0742     1.8828  2260.0000
 1883.2556    13.2500  1756.0000      .0757    58.3125    55.4687     5.9570     1.8975  2244.0000
 1883.4080    12.8047  1756.0000      .0913    61.5625    52.7832     5.9766     1.9160  2250.0000
 1883.5604    12.6406  1756.0000      .0889    63.5313    45.7031     4.8203     1.9385  2264.0000
 1883.7128    12.8828  1756.0000      .0786    65.6250    50.8301     3.9453     1.9834  2240.0000
 1883.8652    13.0469  1757.0000      .0542    63.2500    52.3437     3.6016     2.0156  2214.0000
 1884.0176    13.1016  1759.0000      .0376    63.2812    59.4727     3.2676     2.0137  2230.0000
 1884.1700    13.4766  1759.0000      .0186    61.7187    55.2734     3.0195     1.9971  2240.0000
 1884.3224    14.5391  1758.0000      .0137    68.3750    55.1758     2.8887     2.0000  2260.0000
 1884.4748    15.8516  1758.0000      .0122    69.6875    50.1953     3.1836     2.0098  2240.0000
 1884.6272    13.9063  1758.0000      .0078    69.5000    54.7363     3.8203     1.9912  2224.0000
 1884.7796    12.9219  1758.0000      .0127    66.2500    50.4395     4.8945     1.9678  2220.0000
 1884.9320    13.4531  1757.0000      .0254    65.0625    51.7578     5.5703     1.9502  2240.0000
 1885.0844    15.4609  1756.0000      .0361    63.1250    49.8047     4.4844     1.9639  2244.0000
 1885.2368    16.1875  1755.0000      .0205    61.3750    52.8320     3.4570     1.9775  2240.0000
 1885.3892    15.6719  1755.0000      .0098    62.0625    54.0527     3.2500     1.9902  2250.0000
 1885.5416    15.1328  1756.0000      .0151    63.2188    53.6133     4.1055     1.9990  2270.0000
 1885.6940    13.1406  1756.0000      .0254    59.8750    58.9844     5.1836     1.9551  2250.0000
 1885.8464    12.7891  1754.0000      .0493    57.9063    56.5430     5.4961     1.9463  2220.0000
 1885.9988    13.4375  1753.0000      .0449    59.1250    57.5195     4.1094     1.9365  2224.0000
 1886.1512    14.6484  1753.0000      .0327    60.1875    51.1719     3.5703     1.9639  2210.0000
 1886.3036    15.5000  1753.0000      .0127    61.1250    49.7070     3.7090     1.9668  2344.0000
 1886.4560    14.6328  1754.0000      .0347    60.1875    48.5352     5.0898     2.0273  2314.0000
 1886.6084    14.8516  1755.0000      .0405    57.6562    49.1211     5.4062     2.1152  2220.0000
 1886.7608    12.8828  1755.0000      .0786    53.8750    49.2187     4.3008     2.2461  2220.0000
 1886.9132    12.7500  1755.0000      .0425    53.7500    49.5605     4.5000     2.1367  2224.0000
 1887.0656    12.7656  1756.0000      .0459    56.0625    49.2676     4.9844     1.9727  2220.0000
 1887.2180    12.7500  1757.0000      .0225    58.9375    49.8047     5.3711     1.8613  2240.0000
 1887.3704    13.1406  1755.0000      .0103    57.2500    51.6113     3.8184     1.8623  2294.0000
 1887.5228    14.1484  1755.0000      .0073    59.8437    52.9297     3.7461     1.9170  2280.0000
 1887.6752    14.7188  1755.0000      .0098    59.8750    56.5430     4.2266     1.9170  2230.0000
 1887.8276    12.9766  1754.0000      .0293    58.5937    55.2734     4.7656     1.9209  2220.0000
 1887.9800    13.2500  1754.0000      .0220    56.4688    57.4219     3.9160     1.9229  2234.0000
 1888.1324    13.6250  1754.0000      .0112    57.6875    51.4160     3.6562     1.9512  2280.0000
 1888.2848    14.6797  1754.0000      .0044    59.7813    49.2676     4.0430     1.9688  2280.0000
 1888.4372    15.5391  1756.0000     -.0010    58.7813    46.6309     4.5469     1.9619  2240.0000
 1888.5896    15.8203  1757.0000      .0020    56.9688    50.0977     4.3555     1.9727  2234.0000
 1888.7420    15.4687  1757.0000      .0010    57.0000    51.0254     3.8750     1.9756  2274.0000
 1888.8944    13.0859  1757.0000      .0063    61.5000    50.5859     3.4062     1.9893  2260.0000
 1889.0468    12.5078  1757.0000      .0068    65.9375    49.3652     3.2109     1.9863  2250.0000
 1889.1992    12.2812  1757.0000      .0107    71.5625    49.8047     3.5469     1.9541  2300.0000
 1889.3516    12.3359  1758.0000      .0156    67.3750    52.0996     3.8984     1.9277  2270.0000
 1889.5040    12.3359  1758.0000      .0151    67.5625    53.8574     3.9785     1.9209  2310.0000
 1889.6564    12.1875  1760.0000      .0103    62.1875    51.3184     3.9316     1.9473  2270.0000
 1889.8088    12.3359  1762.0000      .0083    63.5625    50.9766     4.2227     1.9502  2214.0000
 1889.9612    12.4922  1764.0000      .0132    58.1250    51.2207     4.2930     1.9424  2240.0000
 1890.1136    12.7266  1766.0000      .0137    61.5000    53.4668     3.8301     1.9473  2244.0000
 1890.2660    12.9375  1765.0000      .0098    63.3125    54.9805     3.5371     1.9863  2244.0000
 1890.4184    13.0859  1766.0000      .0068    69.4375    53.1738     3.5977     2.0176  2240.0000
 1890.5708    14.2344  1768.0000      .0088    69.2500    53.5645     3.3730     2.0195  2244.0000
 1890.7232    14.6641  1768.0000      .0098    68.8750    50.2441     3.5723     1.9951  2234.0000
 1890.8756    13.2187  1768.0000      .0059    64.6250    52.5391     4.3906     1.8711  2230.0000
 1891.0280    13.0703  1768.0000      .0063    60.4375    54.6875     5.6914     1.7480  2244.0000
 1891.1804    12.9688  1767.0000      .0234    59.7188    56.2988     6.6523     1.7207  2244.0000
 1891.3328    12.3047  1767.0000      .0498    62.4063    58.5937     4.9102     1.8213  2240.0000
 1891.4852    12.2500  1767.0000      .0605    63.5000    53.8574     3.9434     1.9727  2260.0000
 1891.6376    12.1719  1768.0000      .0405    64.1250    54.1992     3.2812     2.0527  2214.0000
 1891.7900    12.1875  1766.0000      .0122    66.1250    51.3184     2.9551     2.0527  2260.0000
 1891.9424    12.4141  1764.0000      .0073    65.1250    50.0488     2.9199     2.0605  2304.0000
 1892.0948    13.1797  1765.0000      .0112    65.8125    49.1211     3.0273     2.0625  2250.0000
 1892.2472    13.4531  1765.0000      .0132    61.4062    48.4375     3.1758     2.0547  2240.0000
 1892.3996    14.0938  1765.0000      .0186    62.8438    50.2930     3.2812     2.0547  2240.0000
 1892.5520    14.2734  1766.0000      .0186    60.1250    49.4141     3.3730     2.0547  2234.0000
 1892.7044    13.6641  1766.0000      .0103    62.5000    54.6875     3.6328     2.0410  2240.0000
