~VERSION INFORMATION
VERS.                                                 2.0:   CWLS Log ASCII Standard-VERSION 2.0
WRAP.                                                  NO:   One line per depth step
~Well Information Block
STRT.M                                           473.2508:   Top Depth
STOP.M                                          3120.1340:   Bottom Depth
STEP.M                                             .15240:   Depth Increment
NULL.                                            -999.250:   Null Value
FLD .                                 SLEIPNER GAMMA WEST:   Field Name
WELL.                                             15/9-16:   NAME
WBN .                                             15/9-16:   WELLBORE
NATI.                                                 NOR:   COUNTRY
BHT1.DEGF                                            85.0:   BH TEMP 1
BHT2.DEGF                                            88.0:   BH TEMP 2
BHT3.DEGF                                            90.0:   BH TEMP 3
BS1 .IN                                            12.250:   BIT SIZE 1
CTRY.                                                 NOR:   COUNTRY
CBD1.M                                              169.0:   CSG 1 DRILL DEP
CBL1.M                                              169.0:   CSG 1 LOG DEP
CS1 .IN                                              30.0:   CSG 1 SIZE
COMP.                                             STATOIL:   OPERATOR
PDAT.                                                 MSL:   PERM DATUM
PROV.                                           NORTH SEA:   PROVINCE
COUN.                                        DEEPSEA SAGA:   RIG NAME
SPUD.                                          1982/06/28:   SPUD DATE
LATI.                                        58 22 9.97 N:   SURF. LATITUDE
LONG.                                        1 52 43.16 E:   SURF. LONGITUDE
BTD1.                                      514.79992676 M:   TOTAL DEPTH 1
BTD2.                                      514.79992676 M:   TOTAL DEPTH 2
BTD3.                                      514.79992676 M:   TOTAL DEPTH 3
PBWE.                                             15/9-16:   PB WELL ID
APIN.                                             15/9-16:   PB WELLBORE ID
PBWS.                                                 all:   PB WELL NAME SET
~PARAMETER INFORMATION (log)
LNAM.                              LDT/CNL/GR  COMPOSITED:   NAME
LTYP.                                         DEPTH MATCH:   LOG TYPE
LSRV.                                            DEN/NEUT:   LOG SERVICE
LSOU.                                             SPT/NPD:   LOG SOURCE
LVSN.                                                   1:   LOG VERSION
BHIS.                                                   R:   BRIEF HISTORY
FHIS.                                             RAW-LIS:   FULL HISTORY
LCNM.                                        SCHLUMBERGER:   LOGGING CONTRACTOR
TOOL.                             LDT/CNL/GR (COMPOSITED):   TOOL STRING
~Curve Information Block
#MNEM.UNIT                                        API CODE    No Description
#=========                                        ========    == ===========
DEPT.M                                       00 001 00 00:     1  DEPTH
CALI.IN                                                  :     2  Caliper
CS.                                                      :     3  Cable Speed
DRHO.G/CC                                                :     4  Bulk density correction
GR.GAPI                                                  :     5  Gamma Ray
NPHI.%                                                   :     6  Neutron porosity
PEF.B/E                                                  :     7  Photo-electric factor
RHOB.G/CC                                                :     8  Bulk density
TENS.LB                                                  :     9  Cable Tension
~ASCII
# ...
  818.8940    17.6719  2024.0000      .0039    73.3750  -999.2500     2.6035     2.0566  1215.0000
  819.0464    17.7656  2026.0000      .0117    73.3750  -999.2500     2.5742     2.0703  1260.0000
  819.1988    17.8281  2027.0000      .0122    73.6875  -999.2500     2.5820     2.0684  1250.0000
  819.3512    17.7813  2026.0000      .0112    69.6250  -999.2500     2.6582     2.0684  1245.0000
  819.5036    17.6719  2026.0000      .0088    67.7500  -999.2500     2.7949     2.0645  1225.0000
  819.6560    17.6406  2025.0000      .0098    65.3125  -999.2500     2.8105     2.0703  1245.0000
  819.8084    17.5938  2025.0000      .0122    66.1875  -999.2500     2.7129     2.0801  1230.0000
  819.9608    17.5938  2026.0000      .0083    69.0625  -999.2500     2.6680     2.0801  1245.0000
  820.1132    17.5625  2027.0000      .0137    71.5000  -999.2500     2.5937     2.0840  1225.0000
  820.2656    17.5938  2028.0000      .0117    75.2500  -999.2500     2.6680     2.0703  1240.0000
  820.4180    17.5781  2028.0000      .0117    74.1875  -999.2500     2.6523     2.0547  1235.0000
  820.5704    18.1250  2027.0000      .0073    71.8125  -999.2500     2.6562     2.0391  1240.0000
  820.7228    17.5625  2027.0000      .0068    67.1875  -999.2500     2.5918     2.0352  1240.0000
  820.8752    19.1406  2025.0000     -.0005    68.5000  -999.2500     2.6602     2.0312  1225.0000
  821.0276    17.8750  2025.0000     -.0059    70.6250  -999.2500     2.6934     2.0293  1230.0000
  821.1800    17.4688  2025.0000     -.0034    70.8750  -999.2500     2.6934     2.0293  1245.0000
  821.3324    17.5469  2025.0000      .0117    70.3125  -999.2500     2.5879     2.0488  1230.0000
  821.4848    17.5156  2026.0000      .0186    68.8750  -999.2500     2.7656     2.0586  1235.0000
  821.6372    17.9219  2026.0000      .0259    69.3125  -999.2500     2.8164     2.0781  1220.0000
  821.7896    17.6719  2027.0000      .0078    71.1250  -999.2500     3.0918     2.0527  1265.0000
  821.9420    17.3906  2027.0000      .0112    70.0000  -999.2500     2.8867     2.0586  1220.0000
  822.0944    17.3750  2027.0000      .0078    72.0625  -999.2500     2.9746     2.0508  1260.0000
  822.2468    17.5469  2026.0000      .0146    69.6250  -999.2500     2.8437     2.0645  1265.0000
  822.3992    17.6406  2025.0000      .0288    67.6250  -999.2500     2.8574     2.0723  1225.0000
  822.5516    18.0469  2024.0000      .0376    62.7188  -999.2500     2.6445     2.0801  1200.0000
  822.7040    17.5938  2024.0000      .0283    60.5625  -999.2500     2.6250     2.0762  1225.0000
  822.8564    17.7344  2023.0000      .0098    65.6875  -999.2500     2.6855     2.0586  1270.0000
  823.0088    17.7031  2024.0000      .0088    68.0625  -999.2500     2.8594     2.0645  1270.0000
  823.1612    18.0000  2025.0000      .0078    72.0000  -999.2500     2.9316     2.0645  1245.0000
  823.3136    17.9688  2025.0000      .0122    70.9375  -999.2500     2.7598     2.0625  1240.0000
  823.4660    17.6250  2025.0000      .0107    70.6875  -999.2500     2.6973     2.0430  1265.0000
  823.6184    18.9375  2027.0000      .0122    70.9375  -999.2500     2.4668     2.0391  1220.0000
  823.7708    19.0313  2027.0000      .0044    70.5625  -999.2500     2.5762     2.0312  1245.0000
  823.9232    17.6719  2027.0000      .0015    72.3750  -999.2500     2.6602     2.0332  1255.0000
  824.0756    18.1250  2026.0000      .0049    70.8125  -999.2500     2.8184     2.0293  1215.0000
  824.2280    17.3594  2025.0000      .0142    71.8750  -999.2500     2.8086     2.0293  1180.0000
  824.3804    17.3125  2024.0000      .0132    73.4375  -999.2500     2.7422     2.0215  1260.0000
  824.5328    17.2969  2024.0000      .0112    74.8750  -999.2500     2.8086     2.0137  1225.0000
  824.6852    17.3438  2025.0000      .0132    76.9375  -999.2500     2.9434     2.0137  1275.0000
  824.8376    17.4375  2026.0000      .0493    77.8750  -999.2500     3.0937     2.0469  1225.0000
  824.9900    17.4844  2025.0000      .0649    75.8125  -999.2500     3.0137     2.0625  1325.0000
  825.1424    17.6406  2025.0000      .0469    72.9375  -999.2500     2.8789     2.0449  1200.0000
  825.2948    17.4844  2026.0000      .0249    69.1250  -999.2500     2.7461     2.0273  1280.0000
  825.4472    17.5156  2027.0000      .0132    70.2500  -999.2500     2.7051     2.0078  1230.0000
  825.5996    17.6719  2028.0000      .0347    70.2500  -999.2500     2.5645     2.0312  1245.0000
  825.7520    17.7188  2027.0000      .0283    71.0625  -999.2500     2.4687     2.0273  1230.0000
  825.9044    17.7813  2028.0000      .0239    71.4375  -999.2500     2.4336     2.0391  1250.0000
  826.0568    18.1094  2027.0000      .0098    71.0625  -999.2500     2.4668     2.0352  1235.0000
  826.2092    18.2031  2025.0000      .0117    70.7500  -999.2500     2.5254     2.0449  1260.0000
  826.3616    17.8438  2025.0000      .0107    70.5625  -999.2500     2.5645     2.0586  1240.0000
  826.5140    18.1875  2026.0000      .0088    70.5625  -999.2500     2.6035     2.0664  1255.0000
  826.6664    18.3438  2027.0000      .0059    73.3750  -999.2500     2.5723     2.0723  1235.0000
  826.8188    18.7969  2027.0000      .0083    71.4375  -999.2500     2.5918     2.0820  1250.0000
  826.9712    17.7656  2026.0000      .0093    72.3125  -999.2500     2.7500     2.0879  1235.0000
  827.1236    17.7813  2025.0000      .0107    70.1875  -999.2500     2.7012     2.0879  1255.0000
  827.2760    17.7656  2025.0000      .0107    69.2500  -999.2500     2.5879     2.0840  1230.0000
  827.4284    18.3125  2025.0000      .0112    67.0625  -999.2500     2.4590     2.0879  1255.0000
  827.5808    18.2813  2025.0000      .0020    67.6250  -999.2500     2.5176     2.0840  1220.0000
  827.7332    17.7656  2024.0000     -.0005    66.5625  -999.2500     2.6016     2.0781  1265.0000
  827.8856    17.6875  2025.0000     -.0015    68.2500  -999.2500     2.6484     2.0703  1250.0000
  828.0380    17.6875  2025.0000      .0024    69.6250  -999.2500     2.6445     2.0684  1225.0000
  828.1904    17.6875  2025.0000      .0005    74.4375  -999.2500     2.7539     2.0625  1265.0000
  828.3428    17.6875  2025.0000      .0073    75.9375  -999.2500     2.8750     2.0723  1245.0000
  828.4952    17.7656  2025.0000      .0122    73.8125  -999.2500     3.0449     2.0742  1245.0000
  828.6476    17.7188  2025.0000      .0137    74.1875  -999.2500     2.9707     2.0781  1185.0000
  828.8000    17.4375  2024.0000      .0078    73.8750  -999.2500     2.8652     2.0605  1285.0000
  828.9524    18.0938  2024.0000      .0068    75.0625  -999.2500     2.7500     2.0605  1275.0000
  829.1048    18.7813  2024.0000     -.0039    75.0625  -999.2500     2.6133     2.0488  1200.0000
  829.2572    19.0469  2024.0000     -.0073    74.2500  -999.2500     2.5059     2.0508  1245.0000
  829.4096    18.7031  2025.0000     -.0103    74.0625  -999.2500     2.4141     2.0527  1230.0000
  829.5620    17.7188  2025.0000      .0015    76.3125  -999.2500     2.5449     2.0723  1290.0000
  829.7144    17.7656  2025.0000      .0020    80.2500  -999.2500     2.5352     2.0820  1210.0000
  829.8668    17.7656  2026.0000      .0093    84.0625  -999.2500     2.5937     2.0918  1210.0000
  830.0192    17.7656  2028.0000      .0024    82.8125  -999.2500     2.5566     2.0840  1245.0000
  830.1716    17.8281  2030.0000      .0044    79.6875  -999.2500     2.5703     2.0781  1215.0000
  830.3240    17.6875  2029.0000     -.0039    75.3125  -999.2500     2.5898     2.0625  1285.0000
  830.4764    17.7344  2029.0000      .0024    76.4375  -999.2500     2.5293     2.0703  1255.0000
  830.6288    17.6875  2028.0000      .0000    73.3125  -999.2500     2.5957     2.0664  1205.0000
  830.7812    17.6563  2028.0000      .0010    74.5000  -999.2500     2.5820     2.0742  1200.0000
  830.9336    17.8281  2026.0000      .0044    72.0625  -999.2500     2.6641     2.0723  1245.0000
  831.0860    17.7188  2026.0000      .0054    74.5000  -999.2500     2.6719     2.0762  1240.0000
