~VERSION INFORMATION
VERS.                                                 2.0:   CWLS Log ASCII Standard-VERSION 2.0
WRAP.                                                  NO:   One line per depth step
~Well Information Block
STRT.M                                           473.2508:   Top Depth
STOP.M                                          3120.1340:   Bottom Depth
STEP.M                                             .15240:   Depth Increment
NULL.                                            -999.250:   Null Value
FLD .                                 SLEIPNER GAMMA WEST:   Field Name
WELL.                                             15/9-16:   NAME
WBN .                                             15/9-16:   WELLBORE
NATI.                                                 NOR:   COUNTRY
BHT1.DEGF                                            85.0:   BH TEMP 1
BHT2.DEGF                                            88.0:   BH TEMP 2
BHT3.DEGF                                            90.0:   BH TEMP 3
BS1 .IN                                            12.250:   BIT SIZE 1
CTRY.                                                 NOR:   COUNTRY
CBD1.M                                              169.0:   CSG 1 DRILL DEP
CBL1.M                                              169.0:   CSG 1 LOG DEP
CS1 .IN                                              30.0:   CSG 1 SIZE
COMP.                                             STATOIL:   OPERATOR
PDAT.                                                 MSL:   PERM DATUM
PROV.                                           NORTH SEA:   PROVINCE
COUN.                                        DEEPSEA SAGA:   RIG NAME
SPUD.                                          1982/06/28:   SPUD DATE
LATI.                                        58 22 9.97 N:   SURF. LATITUDE
LONG.                                        1 52 43.16 E:   SURF. LONGITUDE
BTD1.                                      514.79992676 M:   TOTAL DEPTH 1
BTD2.                                      514.79992676 M:   TOTAL DEPTH 2
BTD3.                                      514.79992676 M:   TOTAL DEPTH 3
PBWE.                                             15/9-16:   PB WELL ID
APIN.                                             15/9-16:   PB WELLBORE ID
PBWS.                                                 all:   PB WELL NAME SET
~PARAMETER INFORMATION (log)
LNAM.                              LDT/CNL/GR  COMPOSITED:   NAME
LTYP.                                         DEPTH MATCH:   LOG TYPE
LSRV.                                            DEN/NEUT:   LOG SERVICE
LSOU.                                             SPT/NPD:   LOG SOURCE
LVSN.                                                   1:   LOG VERSION
BHIS.                                                   R:   BRIEF HISTORY
FHIS.                                             RAW-LIS:   FULL HISTORY
LCNM.                                        SCHLUMBERGER:   LOGGING CONTRACTOR
TOOL.                             LDT/CNL/GR (COMPOSITED):   TOOL STRING
~Curve Information Block
#MNEM.UNIT                                        API CODE    No Description
#=========                                        ========    == ===========
DEPT.M                                       00 001 00 00:     1  DEPTH
CALI.IN                                                  :     2  Caliper
CS.                                                      :     3  Cable Speed
DRHO.G/CC                                                :     4  Bulk density correction
GR.GAPI                                                  :     5  Gamma Ray
NPHI.%                                                   :     6  Neutron porosity
PEF.B/E                                                  :     7  Photo-electric factor
RHOB.G/CC                                                :     8  Bulk density
TENS.LB                                                  :     9  Cable Tension
~ASCII
# ...
 1349.7032    12.9688  1831.0000      .0161    76.6875    50.1953     2.2344     1.9414  1735.0000
 1349.8556    12.7344  1830.0000      .0298    74.9375    50.3906     2.3203     1.9434  1810.0000
 1350.0080    13.5859  1830.0000      .0400    78.0625    54.9805     2.3770     1.9375  1790.0000
 1350.1604    13.7891  1829.0000      .0415    84.3750    54.2969     2.3223     1.9307  1735.0000
 1350.3128    12.7656  1829.0000      .0200    82.1875    55.4687     2.3125     1.9053  1730.0000
 1350.4652    12.7656  1830.0000      .0142    80.0625    50.8789     2.3418     1.8984  1740.0000
 1350.6176    12.6328  1831.0000      .0229    72.6875    50.1465     2.8457     1.8867  1745.0000
 1350.7700    12.6953  1833.0000      .0605    68.7500    49.8047     3.4199     1.8936  1735.0000
 1350.9224    13.0469  1834.0000      .0830    63.5313    48.6328     4.0391     1.8740  1760.0000
 1351.0748    12.8828  1837.0000      .0835    63.6250    53.7109     4.3945     1.8467  1720.0000
 1351.2272    12.9688  1835.0000      .0801    67.6875    52.3437     4.7734     1.8311  1770.0000
 1351.3796    12.0234  1835.0000      .0879    72.0000    54.7363     4.4805     1.8516  1765.0000
 1351.5320    12.1328  1835.0000      .0903    76.0625    52.7344     3.4883     1.8906  1745.0000
 1351.6844    12.2812  1834.0000      .0786    76.9375    53.9551     3.3594     1.9053  1730.0000
 1351.8368    12.5781  1834.0000      .0845    77.5000    51.3184     3.7871     1.9082  1725.0000
 1351.9892    12.8438  1834.0000      .1011    78.6875    46.8262     4.4531     1.9033  1750.0000
 1352.1416    13.1250  1832.0000      .1177    74.6875    49.2187     3.6875     1.9170  1750.0000
 1352.2940    12.8438  1833.0000      .0835    74.8750    51.4648     3.5020     1.8867  1755.0000
 1352.4464    12.6172  1833.0000      .0767    68.5625    53.1738     3.8691     1.8682  1795.0000
 1352.5988    12.6016  1834.0000      .0503    69.4375    48.6816     4.7500     1.7715  1735.0000
 1352.7512    12.3438  1835.0000      .0522    68.5625    49.1211     4.7617     1.7373  1745.0000
 1352.9036    12.2422  1834.0000      .0493    64.9375    53.0762     3.9687     1.7363  1755.0000
 1353.0560    12.2500  1832.0000      .0562    66.1875    55.5176     3.5078     1.7998  1750.0000
 1353.2084    12.2266  1831.0000      .0845    64.1875    56.5918     3.5371     1.8760  1755.0000
 1353.3608    12.3203  1831.0000      .0757    67.6875    53.2715     3.4102     1.8779  1770.0000
 1353.5132    12.4531  1831.0000      .0762    66.1875    51.8555     3.1719     1.8848  1750.0000
 1353.6656    12.6797  1830.0000      .0479    69.5625    48.7305     3.1289     1.8516  1740.0000
 1353.8180    12.7109  1830.0000      .0693    72.0625    51.9531     3.0020     1.8721  1745.0000
 1353.9704    12.5234  1831.0000      .0654    72.4375    54.0527     2.8008     1.8623  1760.0000
 1354.1228    12.5469  1833.0000      .0811    72.4375    52.9297     2.3945     1.8799  1760.0000
 1354.2752    13.6016  1834.0000      .0654    75.1250    53.7109     2.2109     1.8809  1765.0000
 1354.4276    14.3828  1832.0000      .0649    75.5625    55.2734     2.3496     1.8887  1765.0000
 1354.5800    14.0469  1831.0000      .0640    73.9375    55.7617     2.7617     1.8789  1740.0000
 1354.7324    13.8672  1831.0000      .0684    70.6250    52.5391     3.3223     1.8545  1750.0000
 1354.8848    12.8438  1831.0000      .0835    69.9375    48.5352     3.3125     1.8623  1755.0000
 1355.0372    13.8437  1832.0000      .0752    65.6875    52.0020     2.9414     1.8711  1760.0000
 1355.1896    12.8203  1833.0000      .0737    67.3750    54.8340     2.6230     1.9072  1780.0000
 1355.3420    12.8047  1833.0000      .0581    66.9375    57.3242     3.0156     1.9014  1740.0000
 1355.4944    13.1563  1833.0000      .0811    72.1250    52.3437     3.7383     1.9053  1780.0000
 1355.6468    14.2344  1832.0000      .0796    67.6875    51.9531     3.8945     1.8936  1780.0000
 1355.7992    15.2422  1834.0000      .0732    69.9375    53.7109     3.1914     1.8994  1755.0000
 1355.9516    14.9609  1833.0000      .0493    68.4375    55.5664     2.6367     1.9092  1755.0000
 1356.1040    12.6563  1833.0000      .0415    70.8750    58.4961     2.8027     1.9102  1755.0000
 1356.2564    13.1016  1832.0000      .0503    71.3125    58.4473     2.9512     1.9238  1785.0000
 1356.4088    13.7578  1831.0000      .0493    71.5625    61.3281     2.7559     1.9170  1750.0000
 1356.5612    14.1484  1831.0000      .0430    74.3750    61.5234     2.3770     1.9209  1765.0000
 1356.7136    13.2656  1831.0000      .0415    75.8125    60.3027     2.1348     1.9238  1745.0000
 1356.8660    13.2500  1832.0000      .0444    77.5625    59.2285     2.0664     1.9307  1760.0000
 1357.0184    13.3125  1833.0000      .0400    77.6250    55.6641     2.1250     1.9170  1820.0000
 1357.1708    13.6250  1836.0000      .0356    73.3750    54.8340     2.5820     1.8936  1790.0000
 1357.3232    13.8828  1837.0000      .0498    72.5625    55.8105     2.9766     1.8975  1760.0000
 1357.4756    13.5156  1837.0000      .0571    68.8125    54.9316     3.1934     1.9092  1745.0000
 1357.6280    13.2344  1835.0000      .0571    67.9375    56.4941     3.0664     1.9277  1745.0000
 1357.7804    13.3984  1835.0000      .0381    67.8750    56.4941     3.3477     1.9170  1800.0000
 1357.9328    13.7500  1835.0000      .0410    68.4375    57.3242     3.5352     1.9092  1765.0000
 1358.0852    12.5859  1834.0000      .0342    76.1250    60.5957     3.1172     1.8926  1775.0000
 1358.2376    13.9609  1833.0000      .0410    79.0000    58.6426     2.7461     1.8867  1750.0000
 1358.3900    14.2734  1832.0000      .0303    79.8125    54.3945     2.4629     1.8721  1760.0000
 1358.5424    13.4375  1833.0000      .0278    76.6250    52.6855     2.3691     1.8604  1750.0000
 1358.6948    14.2969  1833.0000      .0210    73.9375    51.6113     2.2598     1.8555  1755.0000
 1358.8472    14.8750  1834.0000      .0210    77.0000    56.9824     2.2910     1.8623  1765.0000
 1358.9996    13.6094  1836.0000      .0225    75.1875    53.7598     2.4238     1.8760  1740.0000
 1359.1520    13.9375  1834.0000      .0298    70.9375    51.8555     2.5488     1.8975  1795.0000
 1359.3044    14.7266  1834.0000      .0225    67.4375    47.5586     2.8691     1.8975  1720.0000
 1359.4568    15.1328  1833.0000      .0303    70.2500    49.6582     2.8516     1.9131  1790.0000
 1359.6092    15.5547  1831.0000      .0210    72.6875    54.2969     2.9082     1.9199  1845.0000
 1359.7616    15.4297  1831.0000      .0376    75.2500    55.1758     2.7500     1.9541  1730.0000
 1359.9140    13.4531  1830.0000      .0425    75.6875    57.0801     2.6836     1.9707  1800.0000
 1360.0664    13.2891  1830.0000      .0518    79.5000    58.5937     2.7812     1.9746  1790.0000
 1360.2188    13.3984  1830.0000      .0459    82.6875    59.9121     3.1191     1.9541  1775.0000
 1360.3712    13.7031  1830.0000      .0420    80.1250    58.3008     3.0332     1.9443  1775.0000
 1360.5236    14.3281  1830.0000      .0298    78.6250    52.4414     2.7207     1.9443  1755.0000
 1360.6760    13.8047  1828.0000      .0293    74.7500    55.3223     2.3164     1.9668  1820.0000
 1360.8284    14.1094  1827.0000      .0269    78.2500    54.8828     2.2578     1.9746  1765.0000
 1360.9808    13.8125  1826.0000      .0391    78.9375    54.8828     2.3691     1.9814  1775.0000
 1361.1332    14.4609  1826.0000      .0420    78.3125    51.5625     2.3613     1.9814  1775.0000
 1361.2856    14.3125  1827.0000      .0400    74.0000    50.6836     2.3535     1.9795  1770.0000
 1361.4380    14.6875  1827.0000      .0352    74.4375    54.1992     2.1738     1.9834  1780.0000
 1361.5904    13.7578  1826.0000      .0332    75.3750    52.2949     2.1250     1.9824  1755.0000
 1361.7428    14.0156  1825.0000      .0381    78.9375    54.4434     2.3008     1.9854  1770.0000
 1361.8952    14.1406  1826.0000      .0386    77.6875    51.8066     2.9180     1.9941  1790.0000
