~VERSION INFORMATION
VERS.                                                 2.0:   CWLS Log ASCII Standard-VERSION 2.0
WRAP.                                                  NO:   One line per depth step
~Well Information Block
STRT.M                                           394.3076:   Top Depth
STOP.M                                          3769.9676:   Bottom Depth
STEP.M                                             .15240:   Depth Increment
NULL.                                            -999.250:   Null Value
FLD .                                             WILDCAT:   Field Name
WELL.                                              15/9-2:   NAME
WBN .                                              15/9-2:   WELLBORE
NATI.                                                 NOR:   COUNTRY
CTRY.                                                 NOR:   COUNTRY
COMP.                                             STATOIL:   OPERATOR
PROV.                                           NORTH SEA:   PROVINCE
COUN.                                            ROSS RIG:   RIG NAME
SPUD.                                          1978/04/12:   SPUD DATE
LATI.                                       58 25 34.06 N:   SURF. LATITUDE
LONG.                                        1 42 28.20 E:   SURF. LONGITUDE
PBWE.                                              15/9-2:   PB WELL ID
APIN.                                              15/9-2:   PB WELLBORE ID
PBWS.                                                 all:   PB WELL NAME SET
~PARAMETER INFORMATION (log)
LNAM.                              FDC/CNL/GR  COMPOSITED:   NAME
LTYP.                                         DEPTH MATCH:   LOG TYPE
LSRV.                                            DEN/NEUT:   LOG SERVICE
LSOU.                                             SPT/NPD:   LOG SOURCE
LVSN.                                                   1:   LOG VERSION
BHIS.                                                   R:   BRIEF HISTORY
FHIS.                                             RAW-LIS:   FULL HISTORY
LCNM.                                        SCHLUMBERGER:   LOGGING CONTRACTOR
TOOL.                             FDC/CNL/GR (COMPOSITED):   TOOL STRING
~Curve Information Block
#MNEM.UNIT                                        API CODE    No Description
#=========                                        ========    == ===========
DEPT.M                                       00 001 00 00:     1  DEPTH
CALI.IN                                                  :     2  Caliper
DRHO.G/CC                                                :     3  Bulk density correction
GR.GAPI                                                  :     4  Gamma Ray
NPHI.%                                                   :     5  Neutron porosity
RHOB.G/CC                                                :     6  Bulk density
TENS.LB                                                  :     7  Cable Tension
~ASCII
# ...
 3532.5284     8.1349      .0057    19.0849    12.8348     2.3251   -95.5808
 3532.6808     8.1349      .0041    18.9562    12.9287     2.3154   -94.5944
 3532.8332     8.1349      .0092    18.3688    12.7131     2.3158   -93.6106
 3532.9856     8.1349      .0151    18.1952    12.6022     2.3217   -94.1371
 3533.1380     8.1349      .0201    18.6657    12.8841     2.3318   -95.0462
 3533.2904     8.1350      .0178    19.3450    13.2422     2.3389   -95.9743
 3533.4428     8.1511      .0145    19.1359    13.4018     2.3408   -96.9011
 3533.5952     8.1549      .0114    18.3694    13.3949     2.3453   -97.8268
 3533.7476     8.1549      .0083    17.7742    13.4831     2.3531   -98.7545
 3533.9000     8.1550      .0053    17.4258    13.6295     2.3589   -99.6832
 3534.0524     8.1394      .0026    16.7359    13.6855     2.3638  -100.6100
 3534.2048     8.1351      .0002    17.1659    13.0680     2.3645  -101.5346
 3534.3572     8.1275     -.0016    18.0183    12.9555     2.3597  -102.4608
 3534.5096     8.1176     -.0008    17.3728    13.3988     2.3572  -103.3891
 3534.6620     8.1152      .0018    16.4103    13.6947     2.3611  -104.0133
 3534.8144     8.1152      .0010    16.5532    13.6992     2.3708  -104.1906
 3534.9668     8.1153      .0061    17.0479    13.3819     2.3863  -104.2512
 3535.1192     8.1153      .0036    17.5415    12.9781     2.4013  -104.3116
 3535.2716     8.1124      .0040    18.0049    12.5593     2.4023  -104.3722
 3535.4240     8.0999      .0062    18.4029    12.1802     2.3905  -104.4328
 3535.5764     8.0954      .0057    18.8276    11.8649     2.3679  -104.4931
 3535.7288     8.0955      .0072    19.2719    11.6720     2.3523   -37.0051
 3535.8812     8.0955      .0064    19.3061    11.5710     2.3483   -41.1077
 3536.0336     8.0955      .0027    19.1079    11.6389     2.3463   -83.9106
 3536.1860     8.0955      .0037    18.9774    11.7898     2.3501  -102.2066
 3536.3384     8.0955      .0118    19.2187    11.9492     2.3485  -104.7975
 3536.4908     8.0688      .0222    19.5570    12.1758     2.3395  -104.8582
 3536.6432     8.0558      .0229    19.6602    12.4480     2.3298  -104.9188
 3536.7956     8.0558      .0153    19.6605    12.5423     2.3214  -104.9794
 3536.9480     8.0558      .0110    19.6607    12.5422     2.3222  -105.0400
 3537.1004     8.0558      .0193    19.5005    12.4684     2.3399  -105.1006
 3537.2528     8.0559      .0239    18.9953    12.4551     2.3500  -105.1613
 3537.4052     8.0559      .0114    18.4908    12.5673     2.3359   -56.3541
 3537.5576     8.0559      .0113    18.1849    12.8215     2.3229   -39.0543
 3537.7100     8.0559      .0197    18.1884    13.2381     2.3273   -86.9529
 3537.8624     8.0559      .0177    18.6197    13.7158     2.3323  -113.8112
 3538.0148     8.0560      .0187    19.1390    14.1233     2.3312  -114.0429
 3538.1672     8.0560      .0164    19.3898    14.3451     2.3182  -113.0925
 3538.3196     8.0560      .0114    19.1435    14.0711     2.2968  -112.1414
 3538.4720     8.0560      .0147    18.6429    13.5724     2.2906  -111.1876
 3538.6244     8.0561      .0155    18.0592    13.2519     2.2986  -110.2363
 3538.7768     8.0561      .0107    17.4184    13.0383     2.3044  -109.2846
 3538.9292     8.0561      .0123    17.3320    12.8799     2.3107  -108.3315
 3539.0816     8.0561      .0157    17.5570    12.7768     2.3208  -107.3794
 3539.2340     8.0561      .0106    17.8950    12.7767     2.3158  -106.4263
 3539.3864     8.0562      .0102    18.5073    12.9750     2.3216  -104.7608
 3539.5388     8.0562      .0142    18.5110    13.2379     2.3487  -102.4899
 3539.6912     8.0562      .0196    17.8704    13.2068     2.3700  -100.2108
 3539.8436     8.0562      .0264    17.1997    12.8823     2.3723   -97.9263
 3539.9960     8.0563      .0279    16.8790    12.2656     2.3562   -95.6436
 3540.1484     8.0563      .0259    16.8793    11.7787     2.3381   -93.3628
 3540.3008     8.0563      .0250    16.8796    11.6382     2.3365   -91.0802
 3540.4532     8.0563      .0261    16.8799    11.5010     2.3478   -88.7920
 3540.6056     8.0564      .0295    16.6929    11.3576     2.3558   -67.9497
 3540.7580     8.0564      .0248    16.2040    11.2143     2.3482   -72.8477
 3540.9104     8.0564      .0163    15.8857    11.0577     2.3393  -107.9091
 3541.0628     8.0564      .0131    15.9172    11.0228     2.3395  -114.6328
 3541.2152     8.0564      .0154    16.3604    11.3743     2.3406  -112.0931
 3541.3676     8.0565      .0203    17.2817    12.0042     2.3441  -109.5552
 3541.5200     8.0565      .0145    17.7302    12.4819     2.3418  -107.0174
 3541.6724     8.0565      .0093    17.5098    12.5842     2.3397  -104.4796
 3541.8248     8.0565      .0068    17.2360    12.4173     2.3350  -101.9377
 3541.9772     8.0566      .0048    16.9102    12.1692     2.3305   -99.3998
 3542.1296     8.0566      .0075    16.6696    12.0425     2.3349   -76.7607
 3542.2820     8.0566      .0132    16.7574    12.1666     2.3425   -51.1984
 3542.4344     8.0566      .0215    17.0399    12.3369     2.3494   -74.6286
 3542.5868     8.0566      .0286    17.1183    12.4189     2.3511  -104.8575
 3542.7392     8.0567      .0299    16.8781    12.4135     2.3453  -113.6944
 3542.8916     8.0567      .0308    16.6095    12.3935     2.3407  -117.4258
 3543.0440     8.0567      .0268    16.6803    12.3980     2.3361  -117.4865
 3543.1964     8.0567      .0200    17.1918    12.4991     2.3303  -117.5472
 3543.3488     8.0568      .0167    17.8281    12.6674     2.3296  -117.6078
 3543.5012     8.0568      .0103    18.1821    12.7781     2.3284  -117.6684
 3543.6536     8.0568      .0033    18.1605    12.7711     2.3260  -117.7289
 3543.8060     8.0568     -.0016    17.5826    12.7840     2.3240  -117.7896
 3543.9584     8.0568     -.0065    17.4321    12.8863     2.3225  -117.8503
 3544.1108     8.0424     -.0062    19.1619    13.0127     2.3246  -117.9109
 3544.2632     8.0140     -.0030    20.9111    13.2669     2.3255  -111.6111
 3544.4156     8.0171      .0037    22.7644    13.5999     2.3277  -102.8991
 3544.5680     8.0171      .0080    24.7491    13.5284     2.3272  -114.3747
 3544.7204     8.0172      .0047    26.5964    12.9984     2.3169  -116.4224
 3544.8728     8.0172      .0010    28.5313    12.7402     2.3091  -114.7269
 3545.0252     8.0172      .0045    31.4774    13.2146     2.3125  -113.0295
 3545.1776     8.0172      .0132    34.5969    14.1338     2.3208  -111.3301
 3545.3300     8.0173      .0168    38.1424    14.8849     2.3293  -109.6308
 3545.4824     8.0173      .0215    42.9236    15.4935     2.3331  -107.6826
 3545.6348     8.0173      .0194    47.9363    16.4379     2.3242  -105.0878
 3545.7872     8.0173      .0255    52.7010    17.4887     2.3211  -102.4887
 3545.9396     8.0174      .0354    55.8417    17.8356     2.3359   -99.8939
 3546.0920     8.0174      .0350    56.0420    18.3959     2.3483   -97.3010
 3546.2444     8.0174      .0257    55.4439    18.4416     2.3452   -94.7124
 3546.3968     8.0174      .0248    54.2146    18.0760     2.3306   -92.1134
 3546.5492     8.0174      .0293    52.1347    18.1049     2.3129   -84.7076
 3546.7016     8.0175      .0308    49.9368    18.8276     2.2999   -60.4170
 3546.8540     8.0175      .0350    48.5682    19.5826     2.2952   -44.1638
 3547.0064     8.0175      .0251    47.6546    20.1616     2.2898   -63.1313
 3547.1588     8.0175      .0102    47.1603    19.9599     2.2912  -103.2026
 3547.3112     8.0176      .0079    46.9308    19.4379     2.3051  -108.2943
 3547.4636     8.0176      .0080    47.0264    18.8025     2.3159  -107.1357
 3547.6160     8.0176      .0167    47.3910    18.1067     2.3270  -105.9784
 3547.7684     8.0176      .0239    47.9570    17.7602     2.3442  -104.8191
 3547.9208     8.0177      .0312    48.8678    17.9380     2.3603  -103.6601
 3548.0732     8.0177      .0318    49.5443    18.2022     2.3685  -102.5013
 3548.2256     8.0177      .0294    49.2902    18.2773     2.3716  -101.3436
