~VERSION INFORMATION
VERS.                                                 2.0:   CWLS Log ASCII Standard-VERSION 2.0
WRAP.                                                  NO:   One line per depth step
~Well Information Block
STRT.M                                           394.3076:   Top Depth
STOP.M                                          3769.9676:   Bottom Depth
STEP.M                                             .15240:   Depth Increment
NULL.                                            -999.250:   Null Value
FLD .                                             WILDCAT:   Field Name
WELL.                                              15/9-2:   NAME
WBN .                                              15/9-2:   WELLBORE
NATI.                                                 NOR:   COUNTRY
CTRY.                                                 NOR:   COUNTRY
COMP.                                             STATOIL:   OPERATOR
PROV.                                           NORTH SEA:   PROVINCE
COUN.                                            ROSS RIG:   RIG NAME
SPUD.                                          1978/04/12:   SPUD DATE
LATI.                                       58 25 34.06 N:   SURF. LATITUDE
LONG.                                        1 42 28.20 E:   SURF. LONGITUDE
PBWE.                                              15/9-2:   PB WELL ID
APIN.                                              15/9-2:   PB WELLBORE ID
PBWS.                                                 all:   PB WELL NAME SET
~PARAMETER INFORMATION (log)
LNAM.                              FDC/CNL/GR  COMPOSITED:   NAME
LTYP.                                         DEPTH MATCH:   LOG TYPE
LSRV.                                            DEN/NEUT:   LOG SERVICE
LSOU.                                             SPT/NPD:   LOG SOURCE
LVSN.                                                   1:   LOG VERSION
BHIS.                                                   R:   BRIEF HISTORY
FHIS.                                             RAW-LIS:   FULL HISTORY
LCNM.                                        SCHLUMBERGER:   LOGGING CONTRACTOR
TOOL.                             FDC/CNL/GR (COMPOSITED):   TOOL STRING
~Curve Information Block
#MNEM.UNIT                                        API CODE    No Description
#=========                                        ========    == ===========
DEPT.M                                       00 001 00 00:     1  DEPTH
CALI.IN                                                  :     2  Caliper
DRHO.G/CC                                                :     3  Bulk density correction
GR.GAPI                                                  :     4  Gamma Ray
NPHI.%                                                   :     5  Neutron porosity
RHOB.G/CC                                                :     6  Bulk density
TENS.LB                                                  :     7  Cable Tension
~ASCII
# ...
 3754.4228     9.7257      .0584   108.9098    23.5369     2.6004    55.1664
 3754.5752     9.6868      .0879   107.8086    23.2654     2.6010    87.2417
 3754.7276     9.7093      .0890   106.4611    22.8781     2.5801   238.9070
 3754.8800    10.0420      .1149   105.2143    23.5340     2.5508   366.5067
 3755.0324    10.2373      .1685   104.8527    24.8833     2.5437   189.2200
 3755.1848     9.9914      .1565   104.5764    26.0561     2.5417   494.0037
 3755.3372     9.6934      .1148   104.3342    26.5096     2.5280  1250.0928
 3755.4896     9.7051      .0560   104.3723    26.0308     2.5410  1435.9236
 3755.6420     9.7485      .0378   104.4271    25.0627     2.5939   131.7281
 3755.7944     9.6143      .0527   104.4817    24.0756     2.6304    43.2874
 3755.9468     9.5708      .0457   104.5364    23.4923     2.6354    62.6402
 3756.0992     9.5652      .0651   104.5911    23.7488     2.6373   -39.1437
 3756.2516     9.5352      .0580   104.6455    24.0532     2.6382   263.5904
 3756.4040     9.5453      .0563   104.6590    23.4873     2.6332  -116.1378
 3756.5564     9.6025      .0405   104.6596    23.2011     2.6203    35.5254
 3756.7088     9.5337      .0426   104.6601    23.6718     2.6109  -130.3482
 3756.8612     9.4087      .0585   104.6607    24.1109     2.6156  -134.7455
 3757.0136     9.3765      .0801   104.6613    23.1932     2.6265   456.8995
 3757.1660     9.3324      .0892   104.6618    22.8669     2.6295   226.2248
 3757.3184     9.2450      .0811   104.6624    23.3641     2.6287   247.5197
 3757.4708     9.2921      .0894   104.6629    23.4422     2.6185   351.6416
 3757.6232     9.2237      .0713   104.6635    23.0327     2.5808    28.5876
 3757.7756     9.2176      .0631   104.6641    23.2622     2.5336   108.8203
 3757.9280     9.2907      .0491   104.6646    23.5656     2.5051   -32.2945
 3758.0804     9.2862      .0365   104.6652    23.7893     2.5098  -139.0793
 3758.2328     9.3342      .0508   104.6657    23.9291     2.5445  -135.6721
 3758.3852     9.3055      .0739   104.6663    23.9054     2.5852  -132.2544
 3758.5376     9.2367      .0730   104.6669    23.8863     2.6030  -115.8044
 3758.6900     9.2017      .0471   104.6674    24.3757     2.6053   -62.3317
 3758.8424     9.0441      .0652   104.6680    24.9777     2.6185  -117.9308
 3758.9948     9.0732      .0814   104.6685    24.9825     2.6363  -116.6678
 3759.1472     9.0530      .0833   104.6691    24.8629     2.6345  -102.1197
 3759.2996     9.0205      .0691   104.6697    25.1892     2.6165  -138.2484
 3759.4520     8.9106      .0712   104.6702    25.1858     2.6068  -138.0398
 3759.6044     8.8213      .0803   104.6579    25.1284     2.6097  2332.4629
 3759.7568     8.8408      .0742   104.6008    25.0712     2.6107  8089.9258
 3759.9092     8.8576      .0731   104.5269    25.0297     2.6046  7555.7988
 3760.0616     8.9869      .0597   104.4531    25.0397     2.6037  7009.3545
 3760.2140     8.9975      .0526   104.3791    25.0597     2.6013  7126.4316
 3760.3664     9.0173      .0453   104.3052    25.0462     2.5938  7031.8125
 3760.5188     8.9211      .0512   104.2312    25.0233     2.5835  7087.0830
 3760.6712     8.8982      .0520   104.1573    25.0190     2.5845  6987.1006
 3760.8236     9.0158      .0599   104.0833    25.0595     2.6116  6977.8887
 3760.9760     8.9521      .0684   104.0327    25.1511     2.6448  7038.1084
 3761.1284     8.9145      .0680   104.0489    25.2428     2.6683  7098.5020
 3761.2808     8.8790      .0603   104.1069    25.2942     2.6789  7076.5381
 3761.4332     8.6909      .0593   104.1649    25.2658     2.6780  7043.6182
 3761.5856     8.6361      .0618   104.2231    25.2236     2.6693  6896.5439
 3761.7380     8.6711      .0771   104.2811    25.2007     2.6647  6692.2969
 3761.8904     8.7202      .1000   104.3316    25.2015     2.6672  6333.0439
 3762.0428     8.7520      .1144   104.3629    25.2023     2.6754  5808.8848
 3762.1952     8.8026      .1223   104.3829    25.2031     2.6828  5253.1309
 3762.3476     8.8861      .1190   104.4029    25.2040     2.6640  4699.9531
 3762.5000     8.8769      .1144   104.4229    25.2048     2.6508  4147.9277
 3762.6524     8.8202      .1287   104.4429    25.2056     2.6648  3600.1812
 3762.8048     8.8200      .1306   104.4630    25.2064     2.6744  3118.7681
 3762.9572     8.8198      .1171   104.3848    25.1865     2.6733  2622.5127
 3763.1096     8.8195      .1103   104.0905    25.0964     2.6626  2103.5166
 3763.2620     8.8193      .1102   103.2454    24.8308     2.6556  1535.0425
 3763.4144     8.8087      .1137   101.1392    24.0647     2.6558   923.4633
 3763.5668     8.7990      .0977    83.4460    19.8455     2.6361   303.3051
 3763.7192     8.7881      .0711    33.8634    11.4110     2.6053   -83.8744
 3763.8716     8.7788      .0691     1.5124    11.3129     2.6057  -149.4626
 3764.0240     8.7786      .0770     -.5933    17.3810     2.6203  -147.2223
 3764.1764     8.7784      .0765     -.5933    19.3817     2.6194  -144.9779
 3764.3288     8.7782      .0768     -.5932    19.3826     2.6143  -142.7377
 3764.4812     8.7898      .0756     -.5932    19.3834     2.6031   614.2401
 3764.6336     8.7975      .0778     -.5931    19.3728     2.6030  1409.4727
 3764.7860     8.7972      .0887     -.5931    19.3532     2.6207  1507.9912
 3764.9384     8.7852      .1038     -.5930    19.3315     2.6415  1563.3777
 3765.0908     8.7774      .1043     -.5930    19.2854     2.6476  1610.7949
 3765.2432     8.7768      .1020     -.5929    19.2257     2.6359  1592.6467
 3765.3956     8.7765      .1040     -.5929    19.1653     2.6248  1522.9697
 3765.5480     8.7763      .0955     -.5928    19.0850     2.6052  1445.5815
 3765.7004     8.3695      .0754     -.5928    18.9943     2.5727  1394.3721
 3765.8528     8.0179      .0223     -.5927    18.8831     2.5490  1370.9685
 3766.0052     7.9458      .0004     -.5927    18.8075     2.5234  1349.5010
 3766.1576     7.9457     -.0004     -.5926    19.1879     2.5030  1288.0049
 3766.3100     7.9455     -.0003     -.5926    19.8124     2.5030  1226.5071
 3766.4624     7.9527     -.0001     -.5926  -999.2500     2.5030  1166.3652
 3766.6148     7.9713      .0000     -.5925  -999.2500     2.5030  1124.5803
 3766.7672     7.9600      .0002     -.5925  -999.2500     2.5030  1137.8672
 3766.9196     7.9562      .0003     -.5924  -999.2500     2.5029  1174.6211
 3767.0720     7.9627      .0005     -.5913  -999.2500     2.5029  1216.6592
 3767.2244     7.9643      .0006     -.5808  -999.2500     2.5029  1231.6611
 3767.3768     7.9641      .0008     -.5677  -999.2500     2.5029  1228.1860
 3767.5292     7.9478      .0009     -.5547  -999.2500     2.5029  1186.3525
 3767.6816     7.9441      .0011     -.5417  -999.2500     2.5029  1099.3977
 3767.8340     7.9439      .0012     -.5286  -999.2500     2.5029  1019.5277
 3767.9864     7.9606      .0013     -.5156  -999.2500     2.5028   966.5692
 3768.1388     7.9633      .0014     -.5025  -999.2500     2.5028   911.6598
 3768.2912     7.9633      .0015     -.4895  -999.2500     2.5028   868.5466
 3768.4436     7.9465      .0015     -.4765  -999.2500     2.5028   916.8580
 3768.5960     7.9786      .0016     -.4634  -999.2500     2.5028   989.2959
 3768.7484     7.9824      .0017     -.4504  -999.2500     2.5028  1005.3999
 3768.9008     7.9822      .0018     -.4374  -999.2500     2.5027   983.2953
 3769.0532     7.9997      .0018     -.4243  -999.2500     2.5027  -999.2500
 3769.2056     7.9831      .0019     -.4113  -999.2500  -999.2500  -999.2500
 3769.3580     7.9818      .0020  -999.2500  -999.2500  -999.2500  -999.2500
 3769.5104     7.9816  -999.2500  -999.2500  -999.2500  -999.2500  -999.2500
 3769.6628     7.9814  -999.2500  -999.2500  -999.2500  -999.2500  -999.2500
 3769.8152     7.9813  -999.2500  -999.2500  -999.2500  -999.2500  -999.2500
 3769.9676     7.9811  -999.2500  -999.2500  -999.2500  -999.2500  -999.2500
