~VERSION INFORMATION
VERS.                                                 2.0:   CWLS Log ASCII Standard-VERSION 2.0
WRAP.                                                  NO:   One line per depth step
~Well Information Block
STRT.M                                           394.3076:   Top Depth
STOP.M                                          3769.9676:   Bottom Depth
STEP.M                                             .15240:   Depth Increment
NULL.                                            -999.250:   Null Value
FLD .                                             WILDCAT:   Field Name
WELL.                                              15/9-2:   NAME
WBN .                                              15/9-2:   WELLBORE
NATI.                                                 NOR:   COUNTRY
CTRY.                                                 NOR:   COUNTRY
COMP.                                             STATOIL:   OPERATOR
PROV.                                           NORTH SEA:   PROVINCE
COUN.                                            ROSS RIG:   RIG NAME
SPUD.                                          1978/04/12:   SPUD DATE
LATI.                                       58 25 34.06 N:   SURF. LATITUDE
LONG.                                        1 42 28.20 E:   SURF. LONGITUDE
PBWE.                                              15/9-2:   PB WELL ID
APIN.                                              15/9-2:   PB WELLBORE ID
PBWS.                                                 all:   PB WELL NAME SET
~PARAMETER INFORMATION (log)
LNAM.                              FDC/CNL/GR  COMPOSITED:   NAME
LTYP.                                         DEPTH MATCH:   LOG TYPE
LSRV.                                            DEN/NEUT:   LOG SERVICE
LSOU.                                             SPT/NPD:   LOG SOURCE
LVSN.                                                   1:   LOG VERSION
BHIS.                                                   R:   BRIEF HISTORY
FHIS.                                             RAW-LIS:   FULL HISTORY
LCNM.                                        SCHLUMBERGER:   LOGGING CONTRACTOR
TOOL.                             FDC/CNL/GR (COMPOSITED):   TOOL STRING
~Curve Information Block
#MNEM.UNIT                                        API CODE    No Description
#=========                                        ========    == ===========
DEPT.M                                       00 001 00 00:     1  DEPTH
CALI.IN                                                  :     2  Caliper
DRHO.G/CC                                                :     3  Bulk density correction
GR.GAPI                                                  :     4  Gamma Ray
NPHI.%                                                   :     5  Neutron porosity
RHOB.G/CC                                                :     6  Bulk density
TENS.LB                                                  :     7  Cable Tension
~ASCII
# ...
 3310.6340     9.3548      .0351    47.0202    17.8015     2.5404   700.9846
 3310.7864     9.4147      .0492    46.2153    18.4438     2.5387   690.9457
 3310.9388     9.6146      .0184    45.0893    18.3633     2.5373   661.6851
 3311.0912     9.4142      .0205    45.8292    17.9664     2.5461   665.9120
 3311.2436     9.4145      .0512    47.5062    18.0301     2.5696   757.5010
 3311.3960     9.4541      .0819    47.2186    18.4817     2.5925   870.5422
 3311.5484     9.6828      .0906    46.9954    18.9341     2.5931   867.9397
 3311.7008    10.1122      .0544    47.7270    19.0622     2.5737   844.9796
 3311.8532     9.4940      .0227    48.4586    18.6218     2.5614   817.3130
 3312.0056     9.5808      .0097    48.9234    18.2250     2.5533   766.9172
 3312.1580     9.4940      .0151    49.0542    18.0392     2.5451   784.1290
 3312.3104     9.4939      .0469    49.0536    18.1970     2.5499   848.0703
 3312.4628     9.4939      .0584    49.6013    18.3549     2.5528   918.4697
 3312.6152     9.6431      .0276    50.5685    18.4517     2.5417   940.6705
 3312.7676     9.4337      .0059    50.9678    18.6935     2.5360   981.3069
 3312.9200     9.4139      .0270    51.2104    18.9589     2.5437   944.3872
 3313.0724     9.5529      .0477    51.9245    19.2607     2.5464   856.8344
 3313.2248     9.5737      .0683    53.4771    19.7911     2.5378   793.6326
 3313.3772     9.6433      .0822    53.8642    20.5945     2.5219   837.0225
 3313.5296     9.8498      .0687    52.4566    20.5501     2.5047   891.4851
 3313.6820    10.2976      .0875    51.4503    20.3800     2.4965   916.2112
 3313.8344    10.6767      .0264    51.8262    19.7901     2.5001   954.6777
 3313.9868    10.0218      .0431    52.4499    18.8179     2.5185   923.7119
 3314.1392     9.7508      .0835    52.4493    18.8986     2.5292   957.7268
 3314.2916    10.1432      .0613    52.4487    19.2605     2.5209  1012.9515
 3314.4440     9.7421      .0560    52.6277    19.6136     2.5237  1079.0972
 3314.5964     9.7541      .0770    52.0771    19.8106     2.5354  1047.6702
 3314.7488    10.0429      .0497    51.7534    19.9964     2.5273   869.9440
 3314.9012     9.6342      .0245    51.6454    19.9697     2.5132   733.8975
 3315.0536     9.5468      .0599    51.6448    19.8996     2.5232   699.5227
 3315.2060     9.8380      .0716    51.6442    20.0853     2.5360   602.7916
 3315.3584     9.7715      .0310    52.1823    19.6960     2.5236   534.4592
 3315.5108     9.7609      .0093    53.3798    19.3739     2.5126   608.7467
 3315.6632     9.6133      .0238    53.6304    19.2450     2.5246   708.0873
 3315.8156     9.6226      .0415    52.8642    19.1189     2.5335   819.8773
 3315.9680     9.6330      .0655    52.9787    19.1397     2.5280   928.7859
 3316.1204     9.7209      .0821    53.1036    20.0123     2.5228   962.2683
 3316.2728     9.7547      .0488    51.8992    20.6574     2.5194  1033.9973
 3316.4252     9.6729      .0318    50.8759    20.2453     2.5251  1268.8022
 3316.5776     9.6919      .0595    50.6205    19.8332     2.5437  1497.2964
 3316.7300     9.9291      .0812    52.1415    19.6125     2.5575  1320.4824
 3316.8824     9.7329      .0735    53.1540    19.7933     2.5615   846.6395
 3317.0348     9.8799      .0664    51.7383    19.8586     2.5568   692.7168
 3317.1872    10.0695      .0368    50.3251    18.9541     2.5507   488.7345
 3317.3396     9.6936      .0256    48.9460    17.9440     2.5588    65.1276
 3317.4920     9.6926      .0397    48.7551    17.3852     2.5701  -100.2308
 3317.6444     9.6925      .0251    49.2680    17.6064     2.5670  -100.2302
 3317.7968     9.7325      .0097    49.8928    18.6145     2.5574  -100.2295
 3317.9492     9.6419      .0064    50.7905    19.3374     2.5561  -100.2289
 3318.1016     9.6533      .0158    51.2319    19.5436     2.5557  -100.2282
 3318.2540     9.6423      .0100    51.1373    19.5178     2.5500  -100.2276
 3318.4064     9.6323      .0203    50.8092    19.0968     2.5453  -100.2269
 3318.5588     9.6322      .0260    50.5039    18.8070     2.5439  -100.2263
 3318.7112     9.6514      .0392    50.2256    19.4735     2.5416  -100.2256
 3318.8636     9.8929      .0103    49.9507    21.4383     2.5274  -100.2249
 3319.0160     9.6821      .0195    49.6833    21.2980     2.5151  -100.2243
 3319.1684     9.6915      .0594    49.0512    21.3548     2.5145  -100.2236
 3319.3208     9.8661      .0503    48.4496    22.6400     2.5017  -100.2230
 3319.4732     9.8575      .0174    44.7620    22.8767     2.4977  -102.8974
 3319.6256    10.0750      .0083    40.8675    20.1703     2.5355  -107.9887
 3319.7780     9.5318      .0223    40.3313    16.2966     2.5820  -110.8771
 3319.9304     9.5510      .0477    42.4492    15.9857     2.6040  -111.8484
 3320.0828     9.5803      .0479    44.9421    17.1077     2.5980  -112.8190
 3320.2352     9.7453      .0091    45.3695    17.3855     2.5760  -113.7911
 3320.3876     9.6517      .0111    45.9809    16.9592     2.5603  -114.7624
 3320.5400     9.6917      .0096    47.0580    16.9902     2.5515  -115.7337
 3320.6924     9.7410      .0171    47.3834    17.6684     2.5480  -116.7050
 3320.8448     9.7764      .0231    46.5796    17.9095     2.5542  -117.6787
 3320.9972     9.7115      .0283    46.6100    18.0111     2.5622  -118.6508
 3321.1496     9.7115      .0225    46.2315    18.0543     2.5642  -119.6221
 3321.3020     9.7314      .0217    45.8300    18.0941     2.5597  -120.1822
 3321.4544     9.7314      .0146    45.5260    17.8478     2.5527  -120.2579
 3321.6068     9.7300      .0231    46.7409    17.7218     2.5486  -120.2572
 3321.7592     9.7500      .0459    48.8283    18.6977     2.5478  -120.2566
 3321.9116     9.9758      .0382    50.9157    19.5772     2.5439  -120.2559
 3322.0640     9.9836      .0279    51.3963    18.9768     2.5376  -120.2552
 3322.2164     9.7767      .0313    49.8613    17.3511     2.5345  -120.2546
 3322.3688     9.7311      .0246    48.2312    17.0460     2.5298  -120.2539
 3322.5212     9.7311      .0058    46.7295    16.7088     2.5227  -120.2478
 3322.6736     9.7418      .0078    46.0870    16.2754     2.5215  -120.0820
 3322.8260     9.7323      .0106    45.4455    15.9328     2.5296  -119.7618
 3322.9784     9.7309      .0274    46.5373    15.9328     2.5383  -119.4420
 3323.1308     9.7494      .0172    46.5542    15.7335     2.5345  -119.1221
 3323.2832     9.7509      .0040    44.5793    15.2716     2.5304  -118.8022
 3323.4356     9.7508      .0241    43.7821    15.3758     2.5455  -118.4824
 3323.5880     9.7508      .0535    45.6472    16.4604     2.5671  -118.1617
 3323.7404     9.7507      .0360    47.5118    17.1401     2.5691  -117.8416
 3323.8928     9.7707      .0228    48.6580    16.9811     2.5514  -117.5218
 3324.0452     9.7889      .0179    49.3770    17.1016     2.5382  -117.2021
 3324.1976     9.7798      .0233    49.9166    17.3054     2.5473  -116.8820
 3324.3500     9.7705      .0351    50.5331    17.5942     2.5665  -116.5622
 3324.5024     9.7905      .0252    50.8054    17.8917     2.5689  -116.2423
 3324.6548     9.8096      .0233    52.1202    18.4151     2.5549  -115.9224
 3324.8072     9.8004      .0381    53.5013    19.0216     2.5483  -115.6018
 3324.9596     9.8103      .0441    53.9532    19.4401     2.5551  -115.2817
 3325.1120     9.7421      .0321    51.7208    17.7480     2.5610  -114.9618
 3325.2644     9.7811      .0140    49.4848    17.4610     2.5568  -114.6422
 3325.4168     9.7702      .0103    47.2554    17.9887     2.5498  -114.3226
 3325.5692     9.7884      .0250    47.6629    18.5165     2.5476  -114.0022
 3325.7216     9.7901      .0336    49.6783    18.4750     2.5459  -113.6823
 3325.8740     9.7992      .0384    51.6938    18.3699     2.5457  -113.3625
 3326.0264     9.8091      .0404    53.7092    18.2118     2.5505  -113.0426
 3326.1788     9.8091      .0316    55.7279    18.1595     2.5524  -112.7220
 3326.3312     9.7991      .0474    57.4567    18.4034     2.5499  -112.4019
