~VERSION INFORMATION
VERS.                                                 2.0:   CWLS Log ASCII Standard-VERSION 2.0
WRAP.                                                  NO:   One line per depth step
~Well Information Block
STRT.M                                           394.3076:   Top Depth
STOP.M                                          3769.9676:   Bottom Depth
STEP.M                                             .15240:   Depth Increment
NULL.                                            -999.250:   Null Value
FLD .                                             WILDCAT:   Field Name
WELL.                                              15/9-2:   NAME
WBN .                                              15/9-2:   WELLBORE
NATI.                                                 NOR:   COUNTRY
CTRY.                                                 NOR:   COUNTRY
COMP.                                             STATOIL:   OPERATOR
PROV.                                           NORTH SEA:   PROVINCE
COUN.                                            ROSS RIG:   RIG NAME
SPUD.                                          1978/04/12:   SPUD DATE
LATI.                                       58 25 34.06 N:   SURF. LATITUDE
LONG.                                        1 42 28.20 E:   SURF. LONGITUDE
PBWE.                                              15/9-2:   PB WELL ID
APIN.                                              15/9-2:   PB WELLBORE ID
PBWS.                                                 all:   PB WELL NAME SET
~PARAMETER INFORMATION (log)
LNAM.                              FDC/CNL/GR  COMPOSITED:   NAME
LTYP.                                         DEPTH MATCH:   LOG TYPE
LSRV.                                            DEN/NEUT:   LOG SERVICE
LSOU.                                             SPT/NPD:   LOG SOURCE
LVSN.                                                   1:   LOG VERSION
BHIS.                                                   R:   BRIEF HISTORY
FHIS.                                             RAW-LIS:   FULL HISTORY
LCNM.                                        SCHLUMBERGER:   LOGGING CONTRACTOR
TOOL.                             FDC/CNL/GR (COMPOSITED):   TOOL STRING
~Curve Information Block
#MNEM.UNIT                                        API CODE    No Description
#=========                                        ========    == ===========
DEPT.M                                       00 001 00 00:     1  DEPTH
CALI.IN                                                  :     2  Caliper
DRHO.G/CC                                                :     3  Bulk density correction
GR.GAPI                                                  :     4  Gamma Ray
NPHI.%                                                   :     5  Neutron porosity
RHOB.G/CC                                                :     6  Bulk density
TENS.LB                                                  :     7  Cable Tension
~ASCII
# ...
 2629.1012    12.2253      .0798    51.1493  -999.2500     2.2707    -3.2345
 2629.2536    12.3525      .0509    54.7571  -999.2500     2.2799    -3.3561
 2629.4060    11.9203      .0524    51.6269  -999.2500     2.2932    -3.4776
 2629.5584    11.9367      .0677    52.2536  -999.2500     2.3181    -3.5993
 2629.7108    12.1680      .0595    54.1027  -999.2500     2.3349    -3.7208
 2629.8632    12.0088      .0584    48.8715  -999.2500     2.3394    -3.8423
 2630.0156    11.8748      .0768    41.9056  -999.2500     2.3305    -3.9638
 2630.1680    11.9142      .0687    39.6544  -999.2500     2.3086    -4.0853
 2630.3204    11.8407      .0461    39.8530  -999.2500     2.2874    -4.2068
 2630.4728    11.8512      .0359    41.1588  -999.2500     2.2877    -4.3283
 2630.6252    11.8872      .0677    40.8279  -999.2500     2.2989    -4.0029
 2630.7776    11.8725      .0676    38.8519  -999.2500     2.2946    -3.2386
 2630.9300    11.8104      .0656    36.4592  -999.2500     2.2795    -2.4731
 2631.0824    11.7274      .0718    33.3240  -999.2500     2.2641    -1.7089
 2631.2348    11.6706      .0713    31.8503  -999.2500     2.2473     -.9446
 2631.3872    11.6976      .0605    32.0570  -999.2500     2.2335     -.1804
 2631.5396    11.6541      .0769    33.6880  -999.2500     2.2244      .5839
 2631.6920    11.5910      .0561    32.6773  -999.2500     2.2101     1.3481
 2631.8444    11.6031      .0338    32.5698  -999.2500     2.1996     2.1124
 2631.9968    11.5795      .0494    34.1070  -999.2500     2.2019     2.8779
 2632.1492    11.5362      .0507    35.7196  -999.2500     2.2056     3.6421
 2632.3016    11.5393      .0547    35.3163  -999.2500     2.2087     4.1876
 2632.4540    11.5471      .0437    34.6189  -999.2500     2.2075     4.0660
 2632.6064    11.5652      .0442    34.6207  -999.2500     2.2010     3.9445
 2632.7588    11.6118      .0458    36.6864  -999.2500     2.2026     3.8230
 2632.9112    11.6512      .0640    38.8632  -999.2500     2.2119     3.7014
 2633.0636    11.6364      .0509    37.7812  -999.2500     2.2115     3.5799
 2633.2160    11.6217      .0220    37.9751  -999.2500     2.2102     3.4582
 2633.3684    11.6188      .0353    38.6810  -999.2500     2.2261     3.3366
 2633.5208    11.6291      .0523    38.7038  -999.2500     2.2463     3.2149
 2633.6732    11.6394      .0547    38.7888  -999.2500     2.2561     3.0934
 2633.8256    11.6497      .0715    39.7178  -999.2500     2.2480     3.8792
 2633.9780    11.7035      .0342    42.5514  -999.2500     2.2281     4.6843
 2634.1304    11.9827      .0727    48.8436  -999.2500     2.2232     5.4895
 2634.2828    12.1977      .1081    50.0829  -999.2500     2.2275     6.2947
 2634.4352    11.7341      .0652    46.3769  -999.2500     2.2299     7.0998
 2634.5876    11.6900      .0724    45.0781  -999.2500     2.2397     7.9062
 2634.7400    11.7190      .0610    46.2089  -999.2500     2.2498     8.7114
 2634.8924    11.7840      .0944    47.3513  -999.2500     2.2626     9.5178
 2635.0448    11.9185      .1167    52.0681  -999.2500     2.2841    10.3230
 2635.1972    11.9895      .1504    57.9334  -999.2500     2.2922    11.1281
 2635.3496    12.3022      .1050    61.2087  -999.2500     2.2782    11.4687
 2635.5020    12.2237      .0707    62.6919  -999.2500     2.2720    10.1420
 2635.6544    11.9256      .0676    55.3223  -999.2500     2.2749     8.8153
 2635.8068    11.7231      .0600    47.0168  -999.2500     2.2664     7.4886
 2635.9592    11.7471      .0587    42.4944  -999.2500     2.2561     6.1598
 2636.1116    11.8151      .0632    43.0098  -999.2500     2.2559     4.8331
 2636.2640    11.9136      .0552    45.1607  -999.2500     2.2632     3.5043
 2636.4164    11.9949      .0590    47.1458  -999.2500     2.2756     2.1776
 2636.5688    11.9903      .0843    49.5733  -999.2500     2.2849      .8510
 2636.7212    12.0517      .0504    52.9437  -999.2500     2.2861     2.6868
 2636.8736    12.0843      .0506    55.5732  -999.2500     2.2977     4.7162
 2637.0260    12.3512      .0664    53.3955  -999.2500     2.3155     6.7456
 2637.1784    12.0237      .0634    55.6599  -999.2500     2.3251     8.7783
 2637.3308    12.5054      .0891    61.6077  -999.2500     2.3317    11.6858
 2637.4832    13.4197      .0458    65.7540  -999.2500     2.3412    16.5917
 2637.6356    13.3063      .0592    64.3190  -999.2500     2.3580    19.0413
 2637.7880    12.4383      .0824    61.4097  -999.2500     2.3677    16.2998
 2637.9404    12.3770      .1037    57.8080  -999.2500     2.3567    13.5584
 2638.0928    12.1481      .0745    56.4037  -999.2500     2.3394    10.8170
 2638.2452    12.0198      .0891    55.5278  -999.2500     2.3405     9.4191
 2638.3976    11.9472      .0902    52.6283  -999.2500     2.3467     9.2975
 2638.5500    11.8228      .0771    46.7190  -999.2500     2.3321     9.1757
 2638.7024    11.8583      .0809    41.6460  -999.2500     2.3084     9.0541
 2638.8548    11.8473      .0737    39.4493  -999.2500     2.2920     8.9323
 2639.0072    11.8110      .0733    41.1286  -999.2500     2.2908     8.8107
 2639.1596    11.8380      .0535    41.5078  -999.2500     2.3032     8.6891
 2639.3120    11.8173      .0372    41.8871  -999.2500     2.3241     8.5675
 2639.4644    11.7971      .0549    41.6446  -999.2500     2.3386     8.4459
 2639.6168    11.7854      .0604    42.4073  -999.2500     2.3309     8.3244
 2639.7692    11.7775      .0693    43.6193  -999.2500     2.3109     8.2028
 2639.9216    11.7698      .0484    42.6306  -999.2500     2.3006     8.0810
 2640.0740    11.7500      .0695    41.1976  -999.2500     2.3092     7.9594
 2640.2264    11.7174      .0946    40.2502  -999.2500     2.3120     7.8376
 2640.3788    11.7606      .0726    41.6623  -999.2500     2.2967     7.3633
 2640.5312    11.8773      .0590    42.6447  -999.2500     2.2882     6.6625
 2640.6836    11.7954      .0617    40.5575  -999.2500     2.2852     5.9617
 2640.8360    11.7276      .0735    37.5827  -999.2500     2.2684     5.2609
 2640.9884    11.7279      .0528    35.4701  -999.2500     2.2493     4.5601
 2641.1408    11.7936      .0472    36.9905  -999.2500     2.2437     3.8582
 2641.2932    11.8405      .0448    39.4198  -999.2500     2.2458     3.1574
 2641.4456    11.8412      .0328    42.4465  -999.2500     2.2474     2.4566
 2641.5980    12.0204      .0340    46.2534  -999.2500     2.2549     1.7547
 2641.7504    12.3197      .0690    50.4866  -999.2500     2.2656     1.0539
 2641.9028    12.9914      .1000    54.7198  -999.2500     2.2589      .3531
 2642.0552    12.4042      .0621    56.5445  -999.2500     2.2360     -.3477
 2642.2076    12.4863      .0350    57.4075  -999.2500     2.2290    -1.0485
 2642.3600    12.6226      .0727    56.8076  -999.2500     2.2422    -1.7493
 2642.5124    12.3237      .0317    52.8292  -999.2500     2.2554    -2.4512
 2642.6648    12.0192      .0331    48.4803  -999.2500     2.2747    -3.1520
 2642.8172    11.8504      .0448    45.2111  -999.2500     2.2927    -3.8539
 2642.9696    11.8358      .0364    42.9062  -999.2500     2.2918    -4.0606
 2643.1220    11.8418      .0385    40.5219  -999.2500     2.2743    -3.5130
 2643.2744    11.8478      .0282    38.1376  -999.2500     2.2470    -2.9654
 2643.4268    11.8375      .0351    34.7635  -999.2500     2.2330    -2.4178
 2643.5792    11.7940      .0620    33.9181  -999.2500     2.2372    -1.8702
 2643.7316    11.7652      .0436    33.9503  -999.2500     2.2386    -1.3227
 2643.8840    11.7694      .0462    35.9910  -999.2500     2.2435     -.7742
 2644.0364    11.8528      .0628    39.0448  -999.2500     2.2580     -.2266
 2644.1888    11.8430      .0750    42.4829  -999.2500     2.2610      .3218
 2644.3412    11.8367      .0485    45.4403  -999.2500     2.2441      .8694
 2644.4936    11.9043      .0560    48.1087  -999.2500     2.2211     1.4170
 2644.6460    12.5130      .0871    53.2890  -999.2500     2.1936     1.9646
 2644.7984    13.1167      .1233    57.6187  -999.2500     2.1340     2.5122
