~VERSION INFORMATION
VERS.                                                 2.0:   CWLS Log ASCII Standard-VERSION 2.0
WRAP.                                                  NO:   One line per depth step
~Well Information Block
STRT.M                                           394.3076:   Top Depth
STOP.M                                          3769.9676:   Bottom Depth
STEP.M                                             .15240:   Depth Increment
NULL.                                            -999.250:   Null Value
FLD .                                             WILDCAT:   Field Name
WELL.                                              15/9-2:   NAME
WBN .                                              15/9-2:   WELLBORE
NATI.                                                 NOR:   COUNTRY
CTRY.                                                 NOR:   COUNTRY
COMP.                                             STATOIL:   OPERATOR
PROV.                                           NORTH SEA:   PROVINCE
COUN.                                            ROSS RIG:   RIG NAME
SPUD.                                          1978/04/12:   SPUD DATE
LATI.                                       58 25 34.06 N:   SURF. LATITUDE
LONG.                                        1 42 28.20 E:   SURF. LONGITUDE
PBWE.                                              15/9-2:   PB WELL ID
APIN.                                              15/9-2:   PB WELLBORE ID
PBWS.                                                 all:   PB WELL NAME SET
~PARAMETER INFORMATION (log)
LNAM.                              FDC/CNL/GR  COMPOSITED:   NAME
LTYP.                                         DEPTH MATCH:   LOG TYPE
LSRV.                                            DEN/NEUT:   LOG SERVICE
LSOU.                                             SPT/NPD:   LOG SOURCE
LVSN.                                                   1:   LOG VERSION
BHIS.                                                   R:   BRIEF HISTORY
FHIS.                                             RAW-LIS:   FULL HISTORY
LCNM.                                        SCHLUMBERGER:   LOGGING CONTRACTOR
TOOL.                             FDC/CNL/GR (COMPOSITED):   TOOL STRING
~Curve Information Block
#MNEM.UNIT                                        API CODE    No Description
#=========                                        ========    == ===========
DEPT.M                                       00 001 00 00:     1  DEPTH
CALI.IN                                                  :     2  Caliper
DRHO.G/CC                                                :     3  Bulk density correction
GR.GAPI                                                  :     4  Gamma Ray
NPHI.%                                                   :     5  Neutron porosity
RHOB.G/CC                                                :     6  Bulk density
TENS.LB                                                  :     7  Cable Tension
~ASCII
# ...
 2850.9956     8.9961      .0379    19.7400  -999.2500     2.4843    95.4505
 2851.1480     9.1357      .0190    19.0270  -999.2500     2.4550   276.9705
 2851.3004     9.0583      .0085    15.9191  -999.2500     2.4544   394.7618
 2851.4528     9.0179     -.0135    13.3150  -999.2500     2.4929   341.9691
 2851.6052     8.9987     -.0033    11.3587  -999.2500     2.5428   198.9479
 2851.7576     8.9993      .0074    10.6070  -999.2500     2.5781   106.3251
 2851.9100     9.0000      .0000    10.6132  -999.2500     2.5878   122.8110
 2852.0624     9.0006      .0043    11.5705  -999.2500     2.5831   153.9612
 2852.2148     9.0013     -.0074    13.1907  -999.2500     2.5729   132.2033
 2852.3672     9.0019     -.0031    14.6706  -999.2500     2.5583   103.6800
 2852.5196     9.0025      .0119    15.8427  -999.2500     2.5416   128.9764
 2852.6720     9.0032      .0308    15.9974  -999.2500     2.5241   191.5450
 2852.8244     9.1745      .0357    15.6648  -999.2500     2.5095   158.9903
 2852.9768     9.0045      .0038    13.3874  -999.2500     2.5170     9.9800
 2853.1292     9.0051      .0168    11.0166  -999.2500     2.5539   -99.9789
 2853.2816     9.0058      .0276    10.4277  -999.2500     2.5885  -114.6516
 2853.4340     9.0064      .0374    10.4232  -999.2500     2.5949  -102.7012
 2853.5864     9.0070      .0195    10.6272  -999.2500     2.5726   -86.2175
 2853.7388     9.0077     -.0006    10.6875  -999.2500     2.5419   -80.4447
 2853.8912     9.0083     -.0044    10.8470  -999.2500     2.5239   -96.1364
 2854.0436     9.0090     -.0032    11.0977  -999.2500     2.5139  -109.9004
 2854.1960     9.0096      .0018    11.6102  -999.2500     2.5048  -106.0610
 2854.3484     9.0103      .0023    12.5457  -999.2500     2.4989   -46.4894
 2854.5008     9.0109      .0023    13.3799  -999.2500     2.4986    82.6472
 2854.6532     9.0116      .0036    12.6858  -999.2500     2.5025   178.7217
 2854.8056     9.0122      .0159    11.9242  -999.2500     2.5060   202.0179
 2854.9580     9.0128      .0291    11.9191  -999.2500     2.5107   165.4886
 2855.1104     9.0135      .0424    11.2827  -999.2500     2.5181    66.7192
 2855.2628     9.0141      .0482    10.6473  -999.2500     2.5178   -48.8569
 2855.4152     9.0148      .0177    10.5568  -999.2500     2.5067  -103.1670
 2855.5676     9.0154      .0154    10.8644  -999.2500     2.5009  -103.5336
 2855.7200     9.0161      .0214    11.3159  -999.2500     2.5018  -103.8992
 2855.8724     9.0167      .0093    11.7667  -999.2500     2.5002  -104.2654
 2856.0248     9.0173      .0069    11.7055  -999.2500     2.5035  -104.6313
 2856.1772     9.0180      .0208    11.6418  -999.2500     2.5149  -104.9972
 2856.3296     9.0186      .0142    11.5268  -999.2500     2.5272   -95.3356
 2856.4820     9.0193      .0156    11.1183  -999.2500     2.5383   -99.8721
 2856.6344     9.0199      .0057    10.7104  -999.2500     2.5451  -116.9436
 2856.7868     9.0206      .0078    10.3025  -999.2500     2.5476  -118.1401
 2856.9392     9.0212      .0148    10.0829  -999.2500     2.5476  -116.8562
 2857.0916     9.0218      .0218    10.2872  -999.2500     2.5472  -117.2216
 2857.2440     9.0225      .0247    10.5837  -999.2500     2.5538  -117.5875
 2857.3964     9.0231      .0443    11.0561  -999.2500     2.5656  -117.9531
 2857.5488     9.0238      .0427    11.2319  -999.2500     2.5678   -74.2683
 2857.7012     9.0244      .0060    10.7751  -999.2500     2.5557   -48.4398
 2857.8536     9.0632     -.0004    10.2843  -999.2500     2.5467   -82.8827
 2858.0060     8.9705      .0226    10.5855  -999.2500     2.5447  -104.3943
 2858.1584     9.0065      .0161    10.9744  -999.2500     2.5411  -109.7572
 2858.3108     9.0071      .0279    11.2714  -999.2500     2.5396  -110.1231
 2858.4632     9.0077      .0150    11.2776  -999.2500     2.5442  -110.4887
 2858.6156     9.0084      .0299    11.0324  -999.2500     2.5535  -110.8549
 2858.7680     9.0090      .0286    10.6134  -999.2500     2.5585  -111.2209
 2858.9204     9.0097      .0206    10.3612  -999.2500     2.5557  -111.5868
 2859.0728     9.0103      .0136    10.6051  -999.2500     2.5513  -111.9530
 2859.2252     9.0110     -.0011    10.8487  -999.2500     2.5502  -112.3198
 2859.3776     9.0116      .0105    11.2676  -999.2500     2.5567  -112.6857
 2859.5300     9.0122      .0066    11.3210  -999.2500     2.5596  -108.6084
 2859.6824     9.0129     -.0055    11.3272  -999.2500     2.5550    -7.0984
 2859.8348     9.0135      .0042    11.5058  -999.2500     2.5590   105.6055
 2859.9872     9.0142      .0112    11.7817  -999.2500     2.5684   124.1885
 2860.1396     9.0148      .0091    12.6761  -999.2500     2.5695   135.7332
 2860.2920     9.0155      .0070    13.5350  -999.2500     2.5656   104.8537
 2860.4444     9.0161      .0142    13.3711  -999.2500     2.5665    95.3031
 2860.5968     9.0168      .0236    12.9256  -999.2500     2.5716   138.9573
 2860.7492     9.0174      .0178    12.4355  -999.2500     2.5706   174.0156
 2860.9016     9.0180      .0089    12.6978  -999.2500     2.5623   243.2557
 2861.0540     9.0187      .0125    13.3827  -999.2500     2.5565   336.1182
 2861.2064     9.0193      .0174    14.0665  -999.2500     2.5521   314.6467
 2861.3588     9.0200      .0108    14.7503  -999.2500     2.5366   246.4075
 2861.5112     9.0206      .0133    14.8253  -999.2500     2.5139   122.5950
 2861.6636     9.0213      .0311    13.1678  -999.2500     2.4993   -49.1354
 2861.8160     9.0219      .0163    11.2140  -999.2500     2.4876   -98.4907
 2861.9684     8.9615     -.0055    10.5389  -999.2500     2.4833   -98.8569
 2862.1208     8.8748      .0002     9.8638  -999.2500     2.4936   -99.2229
 2862.2732     8.8786      .0059     9.8570  -999.2500     2.4954   -99.5888
 2862.4256     8.8825      .0083    10.1874  -999.2500     2.4833   -99.9544
 2862.5780     8.8863      .0090    10.3558  -999.2500     2.4741  -100.3206
 2862.7304     8.8902      .0116    10.4893  -999.2500     2.4703  -100.6866
 2862.8828     8.8941      .0159    10.6227  -999.2500     2.4716  -101.0525
 2863.0352     8.8985      .0142    10.7564  -999.2500     2.4748  -101.4187
 2863.1876     8.9099      .0069    10.8255  -999.2500     2.4711  -101.7855
 2863.3400     8.9213     -.0005    10.4744  -999.2500     2.4630  -102.1514
 2863.4924     8.9328      .0001    10.2461  -999.2500     2.4594  -102.5174
 2863.6448     8.9447      .0061    10.1608  -999.2500     2.4588  -102.8833
 2863.7972     8.9572      .0115    10.1698  -999.2500     2.4583  -103.2495
 2863.9496     8.9613      .0200    10.5731  -999.2500     2.4657  -103.6151
 2864.1020     8.9619      .0318    11.4644  -999.2500     2.4810  -103.9811
 2864.2544     8.9725      .0213    12.7238  -999.2500     2.4928  -104.3470
 2864.4068     8.9930      .0220    13.9851  -999.2500     2.4981  -104.7132
 2864.5592     9.0136      .0110    15.8508  -999.2500     2.4840  -105.0800
 2864.7116     9.0142      .0106    18.1468  -999.2500     2.4469   -72.3714
 2864.8640     9.0784      .0496    20.4428  -999.2500     2.4190    96.0236
 2865.0164     9.2981      .0554    20.6711  -999.2500     2.4242   300.4712
 2865.1688     9.0929      .0051    19.8876  -999.2500     2.4629   390.9609
 2865.3212     9.0743     -.0035    19.0261  -999.2500     2.5059   433.0485
 2865.4736     9.3596      .0235    18.2290  -999.2500     2.5259   370.7452
 2865.6260     9.5953      .0504    17.0645  -999.2500     2.5233   234.5859
 2865.7784     9.0822      .0032    15.2518  -999.2500     2.5127   161.7359
 2865.9308     9.0033     -.0022    12.9800  -999.2500     2.5210   125.6374
 2866.0832     8.9548     -.0081    11.5224  -999.2500     2.5376    84.2779
 2866.2356     8.9692     -.0043    11.3952  -999.2500     2.5375     4.9547
 2866.3880     8.9836      .0004    11.3965  -999.2500     2.5330   -89.0467
 2866.5404     8.9979      .0031    11.2946  -999.2500     2.5357  -126.5050
 2866.6928     9.0123      .0050    11.3182  -999.2500     2.5415  -120.8451
