~VERSION INFORMATION
VERS.                                                 2.0:   CWLS Log ASCII Standard-VERSION 2.0
WRAP.                                                  NO:   One line per depth step
~Well Information Block
STRT.M                                           394.3076:   Top Depth
STOP.M                                          3769.9676:   Bottom Depth
STEP.M                                             .15240:   Depth Increment
NULL.                                            -999.250:   Null Value
FLD .                                             WILDCAT:   Field Name
WELL.                                              15/9-2:   NAME
WBN .                                              15/9-2:   WELLBORE
NATI.                                                 NOR:   COUNTRY
CTRY.                                                 NOR:   COUNTRY
COMP.                                             STATOIL:   OPERATOR
PROV.                                           NORTH SEA:   PROVINCE
COUN.                                            ROSS RIG:   RIG NAME
SPUD.                                          1978/04/12:   SPUD DATE
LATI.                                       58 25 34.06 N:   SURF. LATITUDE
LONG.                                        1 42 28.20 E:   SURF. LONGITUDE
PBWE.                                              15/9-2:   PB WELL ID
APIN.                                              15/9-2:   PB WELLBORE ID
PBWS.                                                 all:   PB WELL NAME SET
~PARAMETER INFORMATION (log)
LNAM.                              FDC/CNL/GR  COMPOSITED:   NAME
LTYP.                                         DEPTH MATCH:   LOG TYPE
LSRV.                                            DEN/NEUT:   LOG SERVICE
LSOU.                                             SPT/NPD:   LOG SOURCE
LVSN.                                                   1:   LOG VERSION
BHIS.                                                   R:   BRIEF HISTORY
FHIS.                                             RAW-LIS:   FULL HISTORY
LCNM.                                        SCHLUMBERGER:   LOGGING CONTRACTOR
TOOL.                             FDC/CNL/GR (COMPOSITED):   TOOL STRING
~Curve Information Block
#MNEM.UNIT                                        API CODE    No Description
#=========                                        ========    == ===========
DEPT.M                                       00 001 00 00:     1  DEPTH
CALI.IN                                                  :     2  Caliper
DRHO.G/CC                                                :     3  Bulk density correction
GR.GAPI                                                  :     4  Gamma Ray
NPHI.%                                                   :     5  Neutron porosity
RHOB.G/CC                                                :     6  Bulk density
TENS.LB                                                  :     7  Cable Tension
~ASCII
# ...
 3088.7396     9.5589      .0557    18.6315  -999.2500     2.5642   -80.9673
 3088.8920     9.5410      .0365    19.2741  -999.2500     2.5551   -81.3501
 3089.0444     9.5295      .0296    20.1630  -999.2500     2.5466   -82.3593
 3089.1968     9.5232      .0487    21.1033  -999.2500     2.5524   -83.5091
 3089.3492     9.6902      .0701    22.0012  -999.2500     2.5584   -84.6617
 3089.5016     9.6468      .0216    20.9435  -999.2500     2.5483   -85.8124
 3089.6540     9.5631      .0211    19.4307  -999.2500     2.5396   -86.9622
 3089.8064     9.5831      .0340    17.9180  -999.2500     2.5450   -88.1120
 3089.9588     9.6093      .0409    17.6223  -999.2500     2.5516   -89.2608
 3090.1112     9.6030      .0276    18.3391  -999.2500     2.5544   -90.4115
 3090.2636     9.6030      .0412    18.9645  -999.2500     2.5646   -91.5613
 3090.4160     9.6585      .0429    18.9645  -999.2500     2.5692   -92.7111
 3090.5684     9.6828      .0132    19.1249  -999.2500     2.5531   -93.8609
 3090.7208     9.5631      .0193    19.6858  -999.2500     2.5441   -95.0135
 3090.8732     9.5631      .0471    20.7491  -999.2500     2.5569   -96.1642
 3091.0256     9.5631      .0601    21.2791  -999.2500     2.5695   -97.3140
 3091.1780     9.7423      .0347    20.6793  -999.2500     2.5689   -98.4629
 3091.3304     9.5432      .0224    20.3251  -999.2500     2.5630   -99.6136
 3091.4828     9.5432      .0191    21.5217  -999.2500     2.5517  -100.7634
 3091.6352     9.5432      .0275    22.7183  -999.2500     2.5323  -101.9132
 3091.7876     9.5787      .0211    23.9149  -999.2500     2.5234  -103.0630
 3091.9400     9.5518      .0073    24.9932  -999.2500     2.5330  -103.6564
 3092.0924     9.5509      .0183    25.7910  -999.2500     2.5440  -103.5884
 3092.2448     9.8759      .0288    26.4930  -999.2500     2.5446  -103.4159
 3092.3972     9.4234      .0329    25.6777  -999.2500     2.5354  -103.2434
 3092.5496     9.4234      .0037    23.3693  -999.2500     2.5279  -103.0710
 3092.7020     9.4234      .0060    21.3656  -999.2500     2.5309  -102.8984
 3092.8544     9.4434     -.0101    20.0603  -999.2500     2.5321  -102.7259
 3093.0068     9.4695     -.0212    19.5731  -999.2500     2.5370  -102.5534
 3093.1592     9.3835     -.0002    20.0420  -999.2500     2.5612  -102.3809
 3093.3116     9.3835      .0209    20.6411  -999.2500     2.5853  -102.2079
 3093.4640     9.4034      .0358    21.5270  -999.2500     2.5862  -102.0353
 3093.6164     9.4034      .0093    21.8895  -999.2500     2.5685  -101.8628
 3093.7688     9.3835      .0068    22.0950  -999.2500     2.5567  -101.6903
 3093.9212     9.3835      .0103    23.8617  -999.2500     2.5562  -101.5179
 3094.0736     9.3835      .0135    26.0186  -999.2500     2.5541  -101.3453
 3094.2260     9.3835      .0141    26.9168  -999.2500     2.5443  -101.1728
 3094.3784     9.3835     -.0069    27.5137  -999.2500     2.5330  -101.0003
 3094.5308     9.3835      .0146    26.0023  -999.2500     2.5286  -100.8278
 3094.6832     9.3835      .0355    26.4021  -999.2500     2.5264  -100.6549
 3094.8356     9.3835      .0529    26.2345  -999.2500     2.5227  -100.4823
 3094.9880     9.4794      .0387    25.7359  -999.2500     2.5288  -100.3136
 3095.1404     9.3535      .0204    25.4001  -999.2500     2.5527  -100.3858
 3095.2928     9.3436      .0173    25.1605  -999.2500     2.5699  -100.6944
 3095.4452     9.3635      .0255    28.2497  -999.2500     2.5686  -101.0029
 3095.5976     9.3789      .0260    27.8333  -999.2500     2.5607  -101.3114
 3095.7500     9.3835      .0159    26.7029  -999.2500     2.5464  -101.6200
 3095.9024     9.3635      .0312    25.5706  -999.2500     2.5359  -101.9288
 3096.0548     9.3635      .0529    24.7211  -999.2500     2.5378  -102.2380
 3096.2072     9.3635      .0747    23.7990  -999.2500     2.5426  -102.5466
 3096.3596     9.5470      .0497    22.3653  -999.2500     2.5364  -102.8551
 3096.5120     9.5192      .0232    20.3703  -999.2500     2.5246  -103.1634
 3096.6644     9.3791      .0040    20.0817  -999.2500     2.5194  -103.4722
 3096.8168     9.3861      .0004    20.1621  -999.2500     2.5158  -103.7807
 3096.9692     9.3932      .0031    21.4804  -999.2500     2.5157  -104.0893
 3097.1216     9.4310      .0091    23.0742  -999.2500     2.5206  -104.1082
 3097.2740     9.4234      .0078    21.6723  -999.2500     2.5279  -103.4997
 3097.4264     9.4234      .0103    20.4798  -999.2500     2.5427  -102.5570
 3097.5788     9.4234      .0249    20.8315  -999.2500     2.5601  -101.6150
 3097.7312     9.4234      .0371    21.0710  -999.2500     2.5701  -100.6731
 3097.8836     9.4234      .0272    21.4426  -999.2500     2.5670   -99.7319
 3098.0360     9.4234      .0036    21.5545  -999.2500     2.5598   -98.7892
 3098.1884     9.4082      .0073    20.8615  -999.2500     2.5639   -97.8472
 3098.3408     9.3436      .0138    20.1685  -999.2500     2.5740   -96.9053
 3098.4932     9.3436      .0249    19.4799  -999.2500     2.5812   -95.9633
 3098.6456     9.3436      .0453    18.8205  -999.2500     2.5852   -95.0191
 3098.7980     9.3436      .0427    18.1621  -999.2500     2.5748   -94.0764
 3098.9504     9.3436      .0278    17.5038  -999.2500     2.5497   -93.1345
 3099.1028     9.3435      .0162    18.1921  -999.2500     2.5298   -92.1933
 3099.2552     9.3436      .0223    19.2294  -999.2500     2.5238   -91.2521
 3099.4076     9.3436      .0128    20.1130  -999.2500     2.5218   -90.3086
 3099.5600     9.4665      .0072    20.5234  -999.2500     2.5233   -89.9769
 3099.7124     9.3583      .0163    20.2242  -999.2500     2.5349   -91.0607
 3099.8648     9.3435      .0191    20.0130  -999.2500     2.5524   -92.9514
 3100.0172     9.3436      .0299    20.4906  -999.2500     2.5688   -94.8451
 3100.1696     9.3436      .0346    21.5093  -999.2500     2.5776   -96.7343
 3100.3220     9.3437      .0269    22.5279  -999.2500     2.5807   -98.6234
 3100.4744     9.3438      .0287    23.5477  -999.2500     2.5859  -100.5111
 3100.6268     9.4341      .0190    24.1378  -999.2500     2.5876  -102.4017
 3100.7792     9.6629      .0093    24.5026  -999.2500     2.5780  -104.2909
 3100.9316     9.3839      .0232    25.5183  -999.2500     2.5654  -106.1801
 3101.0840     9.3840      .0471    27.5871  -999.2500     2.5620  -108.0692
 3101.2364     9.3842      .0473    26.3250  -999.2500     2.5535  -109.9599
 3101.3888     9.4137     -.0028    24.5292  -999.2500     2.5373  -111.8536
 3101.5412     9.3443      .0047    22.7335  -999.2500     2.5405  -113.7428
 3101.6936     9.3444      .0177    22.1757  -999.2500     2.5573  -115.6319
 3101.8460     9.3446      .0250    22.1669  -999.2500     2.5646  -117.5196
 3101.9984     9.3999      .0139    20.7856  -999.2500     2.5637  -119.4102
 3102.1508     9.3147      .0196    19.6040  -999.2500     2.5633  -121.2994
 3102.3032     9.3048      .0169    20.5363  -999.2500     2.5606  -123.1886
 3102.4556     9.3049      .0061    21.4686  -999.2500     2.5515  -125.0777
 3102.6080     9.3050      .0112    21.8918  -999.2500     2.5478  -126.9714
 3102.7604     9.3051      .0179    21.7721  -999.2500     2.5551   -83.3115
 3102.9128     9.3052      .0087    21.7728  -999.2500     2.5591   -76.3097
 3103.0652     9.3052      .0028    22.8866  -999.2500     2.5563  -115.4431
 3103.2176     9.3053      .0072    24.2847  -999.2500     2.5535  -116.6350
 3103.3700     9.3054      .0122    24.3314  -999.2500     2.5507  -114.8991
 3103.5224     9.3055      .0221    23.3392  -999.2500     2.5485  -113.1660
 3103.6748     9.3056      .0418    21.5433  -999.2500     2.5443  -111.4328
 3103.8272     9.3257      .0452    19.7451  -999.2500     2.5308  -109.6983
 3103.9796     9.5691      .0138    18.4265  -999.2500     2.5106   -14.9748
 3104.1320     9.3135      .0071    17.5508  -999.2500     2.4967   -19.4146
 3104.2844     9.3059     -.0018    17.4319  -999.2500     2.4970  -114.0418
 3104.4368     9.3060      .0109    17.3127  -999.2500     2.5077  -109.1726
