~VERSION INFORMATION
VERS.                                                 2.0:   CWLS Log ASCII Standard-VERSION 2.0
WRAP.                                                  NO:   One line per depth step
~Well Information Block
STRT.M                                           394.3076:   Top Depth
STOP.M                                          3769.9676:   Bottom Depth
STEP.M                                             .15240:   Depth Increment
NULL.                                            -999.250:   Null Value
FLD .                                             WILDCAT:   Field Name
WELL.                                              15/9-2:   NAME
WBN .                                              15/9-2:   WELLBORE
NATI.                                                 NOR:   COUNTRY
CTRY.                                                 NOR:   COUNTRY
COMP.                                             STATOIL:   OPERATOR
PROV.                                           NORTH SEA:   PROVINCE
COUN.                                            ROSS RIG:   RIG NAME
SPUD.                                          1978/04/12:   SPUD DATE
LATI.                                       58 25 34.06 N:   SURF. LATITUDE
LONG.                                        1 42 28.20 E:   SURF. LONGITUDE
PBWE.                                              15/9-2:   PB WELL ID
APIN.                                              15/9-2:   PB WELLBORE ID
PBWS.                                                 all:   PB WELL NAME SET
~PARAMETER INFORMATION (log)
LNAM.                              FDC/CNL/GR  COMPOSITED:   NAME
LTYP.                                         DEPTH MATCH:   LOG TYPE
LSRV.                                            DEN/NEUT:   LOG SERVICE
LSOU.                                             SPT/NPD:   LOG SOURCE
LVSN.                                                   1:   LOG VERSION
BHIS.                                                   R:   BRIEF HISTORY
FHIS.                                             RAW-LIS:   FULL HISTORY
LCNM.                                        SCHLUMBERGER:   LOGGING CONTRACTOR
TOOL.                             FDC/CNL/GR (COMPOSITED):   TOOL STRING
~Curve Information Block
#MNEM.UNIT                                        API CODE    No Description
#=========                                        ========    == ===========
DEPT.M                                       00 001 00 00:     1  DEPTH
CALI.IN                                                  :     2  Caliper
DRHO.G/CC                                                :     3  Bulk density correction
GR.GAPI                                                  :     4  Gamma Ray
NPHI.%                                                   :     5  Neutron porosity
RHOB.G/CC                                                :     6  Bulk density
TENS.LB                                                  :     7  Cable Tension
~ASCII
# ...
  838.0964    17.6508      .0942   106.3511  -999.2500     1.9416     -.4326
  838.2488    14.1011      .1076   107.7787  -999.2500     1.9151     -.5231
  838.4012    11.9585      .0921   107.0717  -999.2500     1.9077     -.6136
  838.5536    11.9496      .0898   105.0982  -999.2500     1.9350     -.7041
  838.7060    11.9506      .0855   101.6210  -999.2500     1.9632     -.7392
  838.8584    11.9620      .0847    96.8297  -999.2500     1.9727     -.7165
  839.0108    11.9758      .1083    91.6340  -999.2500     1.9803     -.6800
  839.1632    12.0229      .1412    88.2061  -999.2500     1.9901     -.6436
  839.3156    12.6475      .1627    86.9180  -999.2500     1.9904     -.6071
  839.4680    14.6547      .1727    87.1556  -999.2500     1.9817     -.5707
  839.6204    17.0708      .1685    87.6810  -999.2500     1.9789     -.5342
  839.7728    18.3617      .1718    86.2202  -999.2500     1.9933     -.4978
  839.9252    18.4763      .1759    84.5585  -999.2500     2.0234     -.4613
  840.0776    18.3521      .1605    85.1102  -999.2500     2.0543     -.4249
  840.2300    18.3010      .1272    86.6209  -999.2500     2.0714     -.3885
  840.3824    18.2912      .0958    87.4818  -999.2500     2.0731     -.3520
  840.5348    18.3393      .0808    86.1092  -999.2500     2.0756     -.3156
  840.6872    18.3867      .0799    82.6832  -999.2500     2.0878     -.2791
  840.8396    18.4183      .0788    82.0385  -999.2500     2.0997     -.2427
  840.9920    18.4512      .0737    83.0037  -999.2500     2.1097     -.2063
  841.1444    18.5055      .0779    82.1467  -999.2500     2.1218     -.1698
  841.2968    18.5895      .0783    80.5155  -999.2500     2.1258     -.1334
  841.4492    18.6707      .0670    77.9601  -999.2500     2.1184     -.0969
  841.6016    18.7278      .0636    78.9981  -999.2500     2.1120     -.0605
  841.7540    18.6854      .0544    79.7387  -999.2500     2.1053     -.0240
  841.9064    18.5901      .0417    77.8223  -999.2500     2.0966      .0124
  842.0588    18.5493      .0451    76.7967  -999.2500     2.0998      .0489
  842.2112    18.4937      .0577    77.4634  -999.2500     2.1119      .0853
  842.3636    18.4038      .0622    77.5089  -999.2500     2.1150      .1217
  842.5160    18.3380      .0627    75.8834  -999.2500     2.1130      .1582
  842.6684    18.3038      .0642    73.6340  -999.2500     2.1159      .1946
  842.8208    18.2925      .0734    72.8620  -999.2500     2.1219      .2310
  842.9732    18.2635      .0935    72.1637  -999.2500     2.1281      .2675
  843.1256    18.1948      .1001    71.0636  -999.2500     2.1246      .3039
  843.2780    18.1233      .0922    70.7893  -999.2500     2.1148    12.4948
  843.4304    18.0909      .0893    71.5459  -999.2500     2.1136    82.8003
  843.5828    18.1055      .0881    71.7062  -999.2500     2.1175   108.9427
  843.7352    18.1752      .0959    70.8877  -999.2500     2.1219   124.8627
  843.8876    18.2593      .1154    70.1151  -999.2500     2.1259   113.2884
  844.0400    18.3096      .1054    70.3163  -999.2500     2.1175    74.5839
  844.1924    18.3485      .0805    71.0650  -999.2500     2.1043    26.0296
  844.3448    18.3757      .0893    71.0271  -999.2500     2.1031    -1.3463
  844.4972    18.2764      .0911    70.4523  -999.2500     2.0976    -1.2283
  844.6496    18.1109      .0894    70.9458  -999.2500     2.0855    -1.1104
  844.8020    17.9032      .0955    73.3439  -999.2500     2.0851     -.9924
  844.9544    17.7791      .0835    76.5616  -999.2500     2.0860     -.8744
  845.1068    17.7371      .0706    80.2331  -999.2500     2.0830     -.7565
  845.2592    17.8104      .0609    82.5653  -999.2500     2.0794     -.6385
  845.4116    17.9351      .0480    83.6019  -999.2500     2.0730     -.5206
  845.5640    18.0708      .0603    84.5971  -999.2500     2.0740     -.4026
  845.7164    18.1353      .0786    82.3730  -999.2500     2.0823     -.2847
  845.8688    18.1308      .0907    77.6689  -999.2500     2.0880     -.1667
  846.0212    18.0524      .1016    74.7209  -999.2500     2.0941     -.0488
  846.1736    17.9363      .0977    74.7048  -999.2500     2.0986      .0692
  846.3260    17.9970      .0887    76.1380  -999.2500     2.1054      .1871
  846.4784    18.1059      .0989    77.2708  -999.2500     2.1232      .3050
  846.6308    18.1783      .0982    76.6743  -999.2500     2.1382      .4229
  846.7832    18.3264      .0811    75.8425  -999.2500     2.1354      .5409
  846.9356    18.4999      .0659    76.6214  -999.2500     2.1229      .6589
  847.0880    18.5884      .0715    77.7607  -999.2500     2.1190      .7769
  847.2404    18.6123      .0821    76.5793  -999.2500     2.1197      .8948
  847.3928    18.6010      .0720    75.3106  -999.2500     2.1140     1.0128
  847.5452    18.5749      .0544    75.8650  -999.2500     2.1071     1.1307
  847.6976    18.5527      .0412    78.0177  -999.2500     2.1010     1.2487
  847.8500    18.5044      .0477    79.5492  -999.2500     2.1025     1.3666
  848.0024    18.4173      .0721    78.4646  -999.2500     2.1135     1.4553
  848.1548    18.3281      .0711    77.0779  -999.2500     2.1209     1.5028
  848.3072    18.3961      .0475    78.4752  -999.2500     2.1231     1.5360
  848.4596    18.4902      .0454    80.5310  -999.2500     2.1307     1.5692
  848.6120    18.4572      .0559    81.0538  -999.2500     2.1428     1.6025
  848.7644    18.3332      .0640    82.1183  -999.2500     2.1480     1.6357
  848.9168    18.1528      .0652    82.9195  -999.2500     2.1464     1.6689
  849.0692    17.9739      .0580    83.0836  -999.2500     2.1399     1.7021
  849.2216    17.8033      .0539    82.2666  -999.2500     2.1267     1.7354
  849.3740    17.6506      .0626    79.8353  -999.2500     2.1135     1.7686
  849.5264    17.4923      .0741    77.6230  -999.2500     2.1120     1.8018
  849.6788    17.4189      .0758    76.7619  -999.2500     2.1284     1.8350
  849.8312    17.8295      .0791    76.0064  -999.2500     2.1529     1.8683
  849.9836    18.2504      .0743    73.3854  -999.2500     2.1703     1.9015
  850.1360    18.2832      .0701    70.4829  -999.2500     2.1791     1.9347
  850.2884    18.2593      .0762    72.2015  -999.2500     2.1856     1.9679
  850.4408    18.4024      .0835    75.1064  -999.2500     2.1858     2.0011
  850.5932    18.4906      .0823    74.7813  -999.2500     2.1756     2.0343
  850.7456    18.4283      .0667    72.3289  -999.2500     2.1619     2.0676
  850.8980    18.3938      .0590    69.6238  -999.2500     2.1550     2.1008
  851.0504    18.4245      .0675    68.4406  -999.2500     2.1583     2.1340
  851.2028    18.3423      .0643    70.4820  -999.2500     2.1611     2.1672
  851.3552    18.2253      .0588    74.7240  -999.2500     2.1583     2.2005
  851.5076    18.2108      .0597    77.1929  -999.2500     2.1555     2.2337
  851.6600    18.2629      .0595    76.9025  -999.2500     2.1548     2.2669
  851.8124    18.2961      .0720    77.5608  -999.2500     2.1585     2.3001
  851.9648    18.2957      .0788    78.9200  -999.2500     2.1629     2.3333
  852.1172    18.2844      .0825    78.8313  -999.2500     2.1622     2.3665
  852.2696    18.2415      .0894    77.9118  -999.2500     2.1586     2.3998
  852.4220    18.1215      .0787    76.3965  -999.2500     2.1476     2.4330
  852.5744    18.0408      .0623    74.4545  -999.2500     2.1287     2.4662
  852.7268    18.0360      .0637    74.1422  -999.2500     2.1194     2.4803
  852.8792    18.0357      .0865    76.4205  -999.2500     2.1271     2.4610
  853.0316    18.0172      .0907    79.2095  -999.2500     2.1391     2.4274
  853.1840    18.0459      .0824    80.1230  -999.2500     2.1505     2.3937
  853.3364    18.2435      .0861    79.7133  -999.2500     2.1618     2.3600
  853.4888    18.4214      .0866    79.9328  -999.2500     2.1669     2.3264
  853.6412    18.4225      .0943    80.4529  -999.2500     2.1743     2.2927
  853.7936    18.3808      .1096    80.1330  -999.2500     2.1906     2.2590
