~VERSION INFORMATION
VERS.                                                 2.0:   CWLS Log ASCII Standard-VERSION 2.0
WRAP.                                                  NO:   One line per depth step
~Well Information Block
STRT.M                                           394.3076:   Top Depth
STOP.M                                          3769.9676:   Bottom Depth
STEP.M                                             .15240:   Depth Increment
NULL.                                            -999.250:   Null Value
FLD .                                             WILDCAT:   Field Name
WELL.                                              15/9-2:   NAME
WBN .                                              15/9-2:   WELLBORE
NATI.                                                 NOR:   COUNTRY
CTRY.                                                 NOR:   COUNTRY
COMP.                                             STATOIL:   OPERATOR
PROV.                                           NORTH SEA:   PROVINCE
COUN.                                            ROSS RIG:   RIG NAME
SPUD.                                          1978/04/12:   SPUD DATE
LATI.                                       58 25 34.06 N:   SURF. LATITUDE
LONG.                                        1 42 28.20 E:   SURF. LONGITUDE
PBWE.                                              15/9-2:   PB WELL ID
APIN.                                              15/9-2:   PB WELLBORE ID
PBWS.                                                 all:   PB WELL NAME SET
~PARAMETER INFORMATION (log)
LNAM.                              FDC/CNL/GR  COMPOSITED:   NAME
LTYP.                                         DEPTH MATCH:   LOG TYPE
LSRV.                                            DEN/NEUT:   LOG SERVICE
LSOU.                                             SPT/NPD:   LOG SOURCE
LVSN.                                                   1:   LOG VERSION
BHIS.                                                   R:   BRIEF HISTORY
FHIS.                                             RAW-LIS:   FULL HISTORY
LCNM.                                        SCHLUMBERGER:   LOGGING CONTRACTOR
TOOL.                             FDC/CNL/GR (COMPOSITED):   TOOL STRING
~Curve Information Block
#MNEM.UNIT                                        API CODE    No Description
#=========                                        ========    == ===========
DEPT.M                                       00 001 00 00:     1  DEPTH
CALI.IN                                                  :     2  Caliper
DRHO.G/CC                                                :     3  Bulk density correction
GR.GAPI                                                  :     4  Gamma Ray
NPHI.%                                                   :     5  Neutron porosity
RHOB.G/CC                                                :     6  Bulk density
TENS.LB                                                  :     7  Cable Tension
~ASCII
# ...
 1963.4180    13.1309      .0482    31.9065  -999.2500     2.1204    12.1383
 1963.5704    13.1963      .0426    28.7270  -999.2500     2.1012    11.9356
 1963.7228    13.0982      .0371    29.5915  -999.2500     2.0927    11.7331
 1963.8752    12.8748      .0415    30.4324  -999.2500     2.0930    11.5304
 1964.0276    12.6573      .0288    28.5990  -999.2500     2.0941    11.3278
 1964.1800    12.7934      .0417    29.4544  -999.2500     2.0957    11.1253
 1964.3324    12.6639      .0462    32.1314  -999.2500     2.0914    10.9226
 1964.4848    12.7974      .0363    37.1846  -999.2500     2.0759    10.7199
 1964.6372    12.9177      .0191    40.3996  -999.2500     2.0621    10.5174
 1964.7896    13.1977      .0258    46.5418  -999.2500     2.0631    10.3149
 1964.9420    13.9494      .0324    49.9180  -999.2500     2.0706    10.1122
 1965.0944    14.7713      .0407    51.8197  -999.2500     2.0771    10.1232
 1965.2468    14.0046      .0447    54.2272  -999.2500     2.0855    10.1898
 1965.3992    14.2060      .0254    56.2934  -999.2500     2.0977    10.2564
 1965.5516    14.3887      .0233    57.6274  -999.2500     2.1151    10.3231
 1965.7040    14.5619      .0328    59.2213  -999.2500     2.1306    10.3897
 1965.8564    13.5741      .0459    59.7607  -999.2500     2.1319    10.4563
 1966.0088    13.2305      .0351    57.3812  -999.2500     2.1150    10.5229
 1966.1612    13.2792      .0281    49.8963  -999.2500     2.0906    10.5895
 1966.3136    13.4863      .0132    40.0139  -999.2500     2.0702    10.6562
 1966.4660    14.1658      .0059    32.4779  -999.2500     2.0584    10.7228
 1966.6184    13.9437      .0133    29.3786  -999.2500     2.0559    10.7894
 1966.7708    13.5411      .0133    29.4967  -999.2500     2.0567    10.8560
 1966.9232    13.1123      .0030    29.4699  -999.2500     2.0617    10.9227
 1967.0756    13.1286      .0075    29.6695  -999.2500     2.0786    10.9894
 1967.2280    13.3153      .0184    29.7674  -999.2500     2.0967    11.0560
 1967.3804    13.3294      .0248    29.7874  -999.2500     2.0992    11.1226
 1967.5328    13.3761      .0237    30.2522  -999.2500     2.0873    11.1892
 1967.6852    13.4875      .0246    30.2952  -999.2500     2.0709    11.2558
 1967.8376    13.7411      .0225    30.9905  -999.2500     2.0596    11.3225
 1967.9900    13.5870      .0152    30.5172  -999.2500     2.0571    11.3891
 1968.1424    13.4205      .0148    31.4530  -999.2500     2.0584    11.4557
 1968.2948    13.6205      .0091    33.6755  -999.2500     2.0574    11.5223
 1968.4472    13.6621      .0058    38.8696  -999.2500     2.0544    11.5890
 1968.5996    13.6745      .0127    41.2237  -999.2500     2.0544    11.6556
 1968.7520    13.6207      .0260    39.8694  -999.2500     2.0603    11.7222
 1968.9044    12.8780      .0266    39.8231  -999.2500     2.0723    11.7889
 1969.0568    12.3112      .0304    44.0937  -999.2500     2.0857    11.8555
 1969.2092    12.5740      .0461    50.7637  -999.2500     2.0869    11.9575
 1969.3616    12.5879      .0349    57.3433  -999.2500     2.0612    12.0712
 1969.5140    12.1185      .0114    59.1649  -999.2500     2.0274    12.1850
 1969.6664    12.2895      .0047    57.5482  -999.2500     2.0198    12.2987
 1969.8188    12.0908      .0196    57.5501  -999.2500     2.0286    12.4125
 1969.9712    12.5608      .0290    54.8274  -999.2500     2.0322    12.5262
 1970.1236    12.9604      .0350    52.8904  -999.2500     2.0328    12.6399
 1970.2760    12.4683      .0379    50.7997  -999.2500     2.0333    12.7537
 1970.4284    12.1632      .0307    51.9505  -999.2500     2.0368    12.8675
 1970.5808    12.1885      .0425    54.3339  -999.2500     2.0403    12.9812
 1970.7332    12.3401      .0309    53.6993  -999.2500     2.0416    13.0949
 1970.8856    12.3655      .0381    51.3299  -999.2500     2.0459    13.2087
 1971.0380    12.4294      .0433    50.0111  -999.2500     2.0497    13.3225
 1971.1904    13.0811      .0322    49.4263  -999.2500     2.0510    13.4362
 1971.3428    12.7986      .0132    49.8839  -999.2500     2.0485    13.5499
 1971.4952    12.8691      .0107    51.2936  -999.2500     2.0369    13.6636
 1971.6476    13.2571      .0153    53.6760  -999.2500     2.0217    13.7774
 1971.8000    13.6196      .0183    55.9269  -999.2500     2.0191    13.8912
 1971.9524    13.1958      .0273    56.3107  -999.2500     2.0255    14.0049
 1972.1048    13.5138      .0316    56.9819  -999.2500     2.0289    14.1186
 1972.2572    12.9749      .0190    56.5746  -999.2500     2.0326    14.2324
 1972.4096    12.9602      .0121    56.4088  -999.2500     2.0373    14.3462
 1972.5620    13.2055      .0125    57.3620  -999.2500     2.0402    14.4599
 1972.7144    13.5837      .0303    58.5508  -999.2500     2.0381    14.5736
 1972.8668    13.6727      .0199    60.1004  -999.2500     2.0319    14.3220
 1973.0192    13.6191      .0184    61.3844  -999.2500     2.0307    14.0180
 1973.1716    13.8163      .0331    60.7977  -999.2500     2.0320    13.7141
 1973.3240    14.4702      .0184    61.7642  -999.2500     2.0341    13.4103
 1973.4764    14.9949      .0268    60.9405  -999.2500     2.0464    13.1064
 1973.6288    14.9294      .0369    63.8659  -999.2500     2.0606    12.8024
 1973.7812    14.8251      .0274    61.8019  -999.2500     2.0610    12.4983
 1973.9336    14.0178      .0238    59.8324  -999.2500     2.0533    12.1944
 1974.0860    14.2155      .0207    58.4601  -999.2500     2.0533    11.8906
 1974.2384    15.0120      .0395    58.6024  -999.2500     2.0598    11.5865
 1974.3908    15.4540      .0305    60.8219  -999.2500     2.0627    11.2824
 1974.5432    15.0964      .0330    59.3997  -999.2500     2.0636    10.9786
 1974.6956    15.1236      .0389    54.4100  -999.2500     2.0640    10.6748
 1974.8480    14.8414      .0234    53.8369  -999.2500     2.0666    10.3707
 1975.0004    15.1768      .0268    56.6462  -999.2500     2.0748    10.1557
 1975.1528    14.9278      .0396    57.8557  -999.2500     2.0804    10.0242
 1975.3052    14.8666      .0320    56.2402  -999.2500     2.0742     9.8928
 1975.4576    14.6848      .0162    53.4118  -999.2500     2.0629     9.7613
 1975.6100    14.6416      .0172    51.7168  -999.2500     2.0548     9.6298
 1975.7624    14.3232      .0108    56.6005  -999.2500     2.0497     9.4982
 1975.9148    13.2972      .0174    56.4862  -999.2500     2.0476     9.3667
 1976.0672    13.7225      .0241    53.9368  -999.2500     2.0480     9.2353
 1976.2196    14.1604      .0261    51.0809  -999.2500     2.0518     9.1037
 1976.3720    14.0274      .0394    48.4826  -999.2500     2.0538     8.9721
 1976.5244    14.3041      .0262    47.4143  -999.2500     2.0459     8.8407
 1976.6768    14.6456      .0076    49.4668  -999.2500     2.0332     8.7092
 1976.8292    14.6632      .0045    52.5552  -999.2500     2.0231     8.5777
 1976.9816    14.6007      .0070    52.4689  -999.2500     2.0177     8.4461
 1977.1340    14.7973      .0161    53.1680  -999.2500     2.0228     8.3146
 1977.2864    14.7892      .0207    52.8215  -999.2500     2.0386     8.1846
 1977.4388    15.1554      .0343    49.4357  -999.2500     2.0517     8.0632
 1977.5912    15.3823      .0208    49.2214  -999.2500     2.0505     7.9416
 1977.7436    15.2698      .0117    47.1464  -999.2500     2.0406     7.8200
 1977.8960    15.1374      .0092    45.9401  -999.2500     2.0361     7.6985
 1978.0484    15.0072      .0129    43.7542  -999.2500     2.0417     7.5770
 1978.2008    14.0345      .0250    47.4438  -999.2500     2.0532     7.4555
 1978.3532    14.2196      .0361    47.1347  -999.2500     2.0685     7.3339
 1978.5056    14.4468      .0400    47.6331  -999.2500     2.0812     7.2124
 1978.6580    14.6035      .0256    49.3367  -999.2500     2.0826     7.0909
 1978.8104    14.5235      .0256    49.7981  -999.2500     2.0812     6.9694
 1978.9628    14.4419      .0360    48.9272  -999.2500     2.0832     6.8478
 1979.1152    14.6731      .0512    48.1410  -999.2500     2.0760     6.7263
