~VERSION INFORMATION
VERS.                                                 2.0:   CWLS Log ASCII Standard-VERSION 2.0
WRAP.                                                  NO:   One line per depth step
~Well Information Block
STRT.M                                           394.3076:   Top Depth
STOP.M                                          3769.9676:   Bottom Depth
STEP.M                                             .15240:   Depth Increment
NULL.                                            -999.250:   Null Value
FLD .                                             WILDCAT:   Field Name
WELL.                                              15/9-2:   NAME
WBN .                                              15/9-2:   WELLBORE
NATI.                                                 NOR:   COUNTRY
CTRY.                                                 NOR:   COUNTRY
COMP.                                             STATOIL:   OPERATOR
PROV.                                           NORTH SEA:   PROVINCE
COUN.                                            ROSS RIG:   RIG NAME
SPUD.                                          1978/04/12:   SPUD DATE
LATI.                                       58 25 34.06 N:   SURF. LATITUDE
LONG.                                        1 42 28.20 E:   SURF. LONGITUDE
PBWE.                                              15/9-2:   PB WELL ID
APIN.                                              15/9-2:   PB WELLBORE ID
PBWS.                                                 all:   PB WELL NAME SET
~PARAMETER INFORMATION (log)
LNAM.                              FDC/CNL/GR  COMPOSITED:   NAME
LTYP.                                         DEPTH MATCH:   LOG TYPE
LSRV.                                            DEN/NEUT:   LOG SERVICE
LSOU.                                             SPT/NPD:   LOG SOURCE
LVSN.                                                   1:   LOG VERSION
BHIS.                                                   R:   BRIEF HISTORY
FHIS.                                             RAW-LIS:   FULL HISTORY
LCNM.                                        SCHLUMBERGER:   LOGGING CONTRACTOR
TOOL.                             FDC/CNL/GR (COMPOSITED):   TOOL STRING
~Curve Information Block
#MNEM.UNIT                                        API CODE    No Description
#=========                                        ========    == ===========
DEPT.M                                       00 001 00 00:     1  DEPTH
CALI.IN                                                  :     2  Caliper
DRHO.G/CC                                                :     3  Bulk density correction
GR.GAPI                                                  :     4  Gamma Ray
NPHI.%                                                   :     5  Neutron porosity
RHOB.G/CC                                                :     6  Bulk density
TENS.LB                                                  :     7  Cable Tension
~ASCII
# ...
 1059.9908    18.3053      .0858    54.5073  -999.2500     1.9610      .3422
 1060.1432    18.2964      .0987    54.0679  -999.2500     1.9817      .3800
 1060.2956    18.2460      .0968    53.6836  -999.2500     1.9844      .4178
 1060.4480    18.3930      .0773    53.5259  -999.2500     1.9685      .4555
 1060.6004    18.4615      .0736    53.5566  -999.2500     1.9491      .4933
 1060.7528    18.4148      .0951    53.7231  -999.2500     1.9373      .5311
 1060.9052    18.1210      .1146    54.2801  -999.2500     1.9372      .5689
 1061.0576    17.8053      .1033    55.7932  -999.2500     1.9485      .6066
 1061.2100    17.8396      .0878    57.2251  -999.2500     1.9713      .6444
 1061.3624    18.0698      .0874    57.7378  -999.2500     1.9961      .6822
 1061.5148    18.2585      .0738    59.1651  -999.2500     2.0039      .7199
 1061.6672    18.3829      .0523    61.3115  -999.2500     1.9980      .7577
 1061.8196    18.4654      .0599    61.6937  -999.2500     1.9975      .7955
 1061.9720    18.5055      .0769    60.3767  -999.2500     2.0018      .8333
 1062.1244    18.6982      .0957    59.6531  -999.2500     1.9987      .8710
 1062.2768    18.5131      .1006    59.0876  -999.2500     1.9822      .9088
 1062.4292    18.4328      .0679    56.9774  -999.2500     1.9604      .9465
 1062.5816    18.4745      .0611    56.6991  -999.2500     1.9465      .9844
 1062.7340    18.4920      .0534    58.3814  -999.2500     1.9356      .9590
 1062.8864    18.4350      .0831    60.4140  -999.2500     1.9258      .9115
 1063.0388    18.1801      .1040    62.3749  -999.2500     1.9267      .8630
 1063.1912    17.7210      .0961    64.1201  -999.2500     1.9395      .8145
 1063.3436    17.3832      .0831    62.1497  -999.2500     1.9542      .7660
 1063.4960    17.4094      .0861    59.7123  -999.2500     1.9555      .7176
 1063.6484    17.3767      .0831    58.3659  -999.2500     1.9521      .6691
 1063.8008    17.1929      .0911    57.3551  -999.2500     1.9684      .6207
 1063.9532    17.0373      .0995    57.8950  -999.2500     1.9957      .5721
 1064.1056    17.1200      .0852    60.2174  -999.2500     2.0113      .5237
 1064.2580    17.3836      .0701    61.2011  -999.2500     2.0170      .4753
 1064.4104    17.6051      .0685    63.6688  -999.2500     2.0145      .4268
 1064.5628    17.6324      .0640    66.9142  -999.2500     1.9993      .3783
 1064.7152    17.5799      .0627    67.9488  -999.2500     1.9809      .3299
 1064.8676    17.6287      .0704    65.0809  -999.2500     1.9714      .2814
 1065.0200    17.6121      .0812    61.6932  -999.2500     1.9810      .2330
 1065.1724    17.5429      .0944    62.1583  -999.2500     2.0032      .1845
 1065.3248    17.5382      .0880    64.2398  -999.2500     2.0121      .1360
 1065.4772    17.6194      .0727    63.1438  -999.2500     2.0053      .0876
 1065.6296    17.6691      .0707    62.1457  -999.2500     1.9952      .0391
 1065.7820    17.7333      .0695    62.5894  -999.2500     1.9806     -.0094
 1065.9344    17.8645      .0606    63.8991  -999.2500     1.9611     -.0579
 1066.0868    17.8237      .0522    65.9500  -999.2500     1.9475     -.1063
 1066.2392    17.7353      .0485    66.7690  -999.2500     1.9483     -.1017
 1066.3916    17.8948      .0646    65.8162  -999.2500     1.9623     -.0670
 1066.5440    17.9863      .0762    64.4968  -999.2500     1.9808     -.0292
 1066.6964    18.3844      .0886    63.5845  -999.2500     1.9948      .0085
 1066.8488    17.5728      .0828    64.8078  -999.2500     1.9974      .0463
 1067.0012    17.6493      .0595    68.6566  -999.2500     1.9917      .0841
 1067.1536    17.7944      .0767    66.2298  -999.2500     1.9866      .1219
 1067.3060    17.9034      .0835    63.3385  -999.2500     1.9772      .1597
 1067.4584    18.7201      .0688    63.4381  -999.2500     1.9617      .1974
 1067.6108    17.8604      .0702    65.1434  -999.2500     1.9584      .2353
 1067.7632    17.7753      .0951    65.5460  -999.2500     1.9721      .2731
 1067.9156    17.7664      .1001    64.9613  -999.2500     1.9832      .3109
 1068.0680    17.4073      .0883    64.3337  -999.2500     1.9871      .3486
 1068.2204    17.4527      .0851    63.4861  -999.2500     1.9929      .3864
 1068.3728    17.4395      .0885    61.8565  -999.2500     1.9982      .4242
 1068.5252    17.2501      .0954    61.0281  -999.2500     1.9991      .4620
 1068.6776    17.4472      .0833    61.9842  -999.2500     1.9992      .4998
 1068.8300    17.5783      .0930    62.8563  -999.2500     1.9975      .5376
 1068.9824    17.3240      .1003    63.3838  -999.2500     1.9894      .5754
 1069.1348    17.1830      .0826    65.4577  -999.2500     1.9824      .6131
 1069.2872    17.3523      .0706    66.6392  -999.2500     1.9841      .6509
 1069.4396    17.4167      .0660    67.2943  -999.2500     1.9876      .6887
 1069.5920    17.6033      .0609    67.1430  -999.2500     1.9925      .7265
 1069.7444    17.7873      .0618    69.3398  -999.2500     2.0001      .7643
 1069.8968    17.9068      .0585    74.0828  -999.2500     2.0030      .8021
 1070.0492    18.0232      .0602    76.2676  -999.2500     2.0028      .8398
 1070.2016    17.8029      .0591    74.8324  -999.2500     2.0027      .8777
 1070.3540    18.0735      .0531    72.4663  -999.2500     1.9989      .9154
 1070.5064    18.2423      .0489    70.6543  -999.2500     1.9934      .9532
 1070.6588    18.2582      .0589    69.2883  -999.2500     1.9967      .9910
 1070.8112    18.4046      .0832    67.6017  -999.2500     2.0059     1.0288
 1070.9636    17.8040      .0765    65.8920  -999.2500     2.0002      .9534
 1071.1160    17.9757      .0556    64.2002  -999.2500     1.9799      .8475
 1071.2684    17.6346      .0763    64.6671  -999.2500     1.9676      .7407
 1071.4208    17.5121      .0749    66.2397  -999.2500     1.9634      .6340
 1071.5732    17.5387      .0656    68.6444  -999.2500     1.9579      .5271
 1071.7256    17.4265      .0665    71.5491  -999.2500     1.9582      .4202
 1071.8780    17.4773      .0761    72.5362  -999.2500     1.9650      .3135
 1072.0304    17.6761      .0868    72.4008  -999.2500     1.9662      .2068
 1072.1828    17.9390      .0950    70.8377  -999.2500     1.9579      .0998
 1072.3352    18.0559      .0805    68.4632  -999.2500     1.9459     -.0069
 1072.4876    18.2141      .0749    67.3270  -999.2500     1.9380     -.1137
 1072.6400    17.9857      .0712    66.7211  -999.2500     1.9364     -.2205
 1072.7924    17.7682      .0594    66.8623  -999.2500     1.9356     -.3273
 1072.9448    17.9841      .0579    68.6981  -999.2500     1.9334     -.4341
 1073.0972    17.9475      .0713    70.1591  -999.2500     1.9326     -.5409
 1073.2496    17.7939      .0720    68.9946  -999.2500     1.9333     -.6476
 1073.4020    17.8638      .0665    68.2879  -999.2500     1.9354     -.7544
 1073.5544    17.8571      .0643    66.4352  -999.2500     1.9380     -.8613
 1073.7068    18.0737      .0632    64.7658  -999.2500     1.9379     -.9680
 1073.8592    17.9882      .0627    64.1074  -999.2500     1.9363    -1.0748
 1074.0116    17.9528      .0688    63.5750  -999.2500     1.9407    -1.1816
 1074.1640    17.9055      .0800    63.9535  -999.2500     1.9519    -1.2885
 1074.3164    17.7297      .0786    64.2079  -999.2500     1.9581    -1.3952
 1074.4688    17.8275      .0616    62.8031  -999.2500     1.9551    -1.5020
 1074.6212    17.8216      .0590    62.2703  -999.2500     1.9528    -1.6088
 1074.7736    17.7234      .0641    63.6537  -999.2500     1.9561    -1.7156
 1074.9260    17.6804      .0655    65.1936  -999.2500     1.9605    -1.8225
 1075.0784    17.9467      .0674    64.3209  -999.2500     1.9610    -1.8673
 1075.2308    17.9476      .0780    62.5197  -999.2500     1.9627    -1.7883
 1075.3832    17.8711      .0959    60.5044  -999.2500     1.9736    -1.6825
 1075.5356    17.7088      .1143    60.4130  -999.2500     1.9889    -1.5767
 1075.6880    17.5458      .1101    61.1977  -999.2500     2.0085    -1.4711
