~VERSION INFORMATION
VERS.                                                 2.0:   CWLS Log ASCII Standard-VERSION 2.0
WRAP.                                                  NO:   One line per depth step
~Well Information Block
STRT.M                                           394.3076:   Top Depth
STOP.M                                          3769.9676:   Bottom Depth
STEP.M                                             .15240:   Depth Increment
NULL.                                            -999.250:   Null Value
FLD .                                             WILDCAT:   Field Name
WELL.                                              15/9-2:   NAME
WBN .                                              15/9-2:   WELLBORE
NATI.                                                 NOR:   COUNTRY
CTRY.                                                 NOR:   COUNTRY
COMP.                                             STATOIL:   OPERATOR
PROV.                                           NORTH SEA:   PROVINCE
COUN.                                            ROSS RIG:   RIG NAME
SPUD.                                          1978/04/12:   SPUD DATE
LATI.                                       58 25 34.06 N:   SURF. LATITUDE
LONG.                                        1 42 28.20 E:   SURF. LONGITUDE
PBWE.                                              15/9-2:   PB WELL ID
APIN.                                              15/9-2:   PB WELLBORE ID
PBWS.                                                 all:   PB WELL NAME SET
~PARAMETER INFORMATION (log)
LNAM.                              FDC/CNL/GR  COMPOSITED:   NAME
LTYP.                                         DEPTH MATCH:   LOG TYPE
LSRV.                                            DEN/NEUT:   LOG SERVICE
LSOU.                                             SPT/NPD:   LOG SOURCE
LVSN.                                                   1:   LOG VERSION
BHIS.                                                   R:   BRIEF HISTORY
FHIS.                                             RAW-LIS:   FULL HISTORY
LCNM.                                        SCHLUMBERGER:   LOGGING CONTRACTOR
TOOL.                             FDC/CNL/GR (COMPOSITED):   TOOL STRING
~Curve Information Block
#MNEM.UNIT                                        API CODE    No Description
#=========                                        ========    == ===========
DEPT.M                                       00 001 00 00:     1  DEPTH
CALI.IN                                                  :     2  Caliper
DRHO.G/CC                                                :     3  Bulk density correction
GR.GAPI                                                  :     4  Gamma Ray
NPHI.%                                                   :     5  Neutron porosity
RHOB.G/CC                                                :     6  Bulk density
TENS.LB                                                  :     7  Cable Tension
~ASCII
# ...
 1519.6292    12.1714      .0328    69.0029  -999.2500     1.9819     7.8087
 1519.7816    12.1673      .0287    70.5968  -999.2500     1.9919     7.8695
 1519.9340    12.1414      .0251    72.3365  -999.2500     2.0107     7.9303
 1520.0864    12.1176      .0483    73.2139  -999.2500     2.0253     7.9910
 1520.2388    12.1481      .0577    73.8388  -999.2500     2.0277     8.0517
 1520.3912    12.2616      .0684    73.0645  -999.2500     2.0272     8.1126
 1520.5436    12.3559      .0687    71.1844  -999.2500     2.0270     8.1733
 1520.6960    12.2339      .0847    73.0464  -999.2500     2.0305     8.2341
 1520.8484    12.0291      .0788    73.3974  -999.2500     2.0396     8.2949
 1521.0008    12.1473      .0812    71.1501  -999.2500     2.0523     8.3556
 1521.1532    12.2483      .0727    73.0062  -999.2500     2.0694     8.4165
 1521.3056    12.0894      .0700    72.8967  -999.2500     2.0837     8.4773
 1521.4580    12.2152      .0557    72.1438  -999.2500     2.0908     8.5380
 1521.6104    12.0698      .0653    72.7224  -999.2500     2.0935     8.5988
 1521.7628    12.0300      .0611    72.7705  -999.2500     2.0898     8.6596
 1521.9152    12.0490      .0731    74.5740  -999.2500     2.0895     8.7204
 1522.0676    12.0781      .0740    77.5269  -999.2500     2.1042     8.7812
 1522.2200    12.0825      .0788    79.0098  -999.2500     2.1221     8.8419
 1522.3724    12.0619      .0597    80.3820  -999.2500     2.1280     8.9027
 1522.5248    12.1670      .0539    80.9307  -999.2500     2.1243     8.9635
 1522.6772    12.1722      .0482    79.0796  -999.2500     2.1091     9.0243
 1522.8296    12.1295      .0368    76.5708  -999.2500     2.0861     9.0851
 1522.9820    12.6676      .0536    74.8121  -999.2500     2.0732     9.1458
 1523.1344    12.4908      .0617    77.2880  -999.2500     2.0589     9.2066
 1523.2868    11.9915      .0605    75.7977  -999.2500     2.0379     9.2674
 1523.4392    12.2026      .0644    74.3355  -999.2500     2.0253     9.3282
 1523.5916    12.1275      .0545    73.1641  -999.2500     2.0184     9.3890
 1523.7440    12.3936      .0494    72.8595  -999.2500     2.0187     9.4498
 1523.8964    12.4467      .0579    72.1929  -999.2500     2.0322     9.5106
 1524.0488    12.0836      .0840    69.0468  -999.2500     2.0513     9.5713
 1524.2012    12.0796      .0726    63.6083  -999.2500     2.0700     9.6321
 1524.3536    12.4891      .0818    58.2623  -999.2500     2.0911     9.4912
 1524.5060    12.5927      .0995    55.3268  -999.2500     2.1047     9.0403
 1524.6584    12.3180      .0775    54.6631  -999.2500     2.0990     8.5890
 1524.8108    12.2967      .0799    60.7084  -999.2500     2.0750     8.1381
 1524.9632    12.3430      .0499    66.7335  -999.2500     2.0401     7.6872
 1525.1156    12.2712      .0269    66.0860  -999.2500     2.0205     7.2359
 1525.2680    12.2561      .0442    63.9111  -999.2500     2.0217     6.7847
 1525.4204    12.7196      .0432    67.2041  -999.2500     2.0211     6.3338
 1525.5728    12.7817      .0389    70.5712  -999.2500     2.0172     5.8829
 1525.7252    12.4930      .0560    70.3234  -999.2500     2.0177     5.4316
 1525.8776    12.4508      .0674    69.8987  -999.2500     2.0168     4.9800
 1526.0300    12.4923      .0822    70.4989  -999.2500     2.0073     4.5294
 1526.1824    12.3666      .0843    70.2531  -999.2500     1.9940     4.0785
 1526.3348    12.2948      .0743    69.1037  -999.2500     1.9862     3.6273
 1526.4872    12.5684      .0525    69.3896  -999.2500     1.9839     3.1764
 1526.6396    12.8828      .0550    69.7502  -999.2500     1.9697     2.7251
 1526.7920    12.9378      .0555    69.3969  -999.2500     1.9313     2.2742
 1526.9444    12.4578      .0633    71.5740  -999.2500     1.9049     1.8233
 1527.0968    12.0546      .0317    74.8099  -999.2500     1.9239     1.3720
 1527.2492    12.0563      .0217    77.7674  -999.2500     1.9605      .9207
 1527.4016    12.0967      .0187    76.7255  -999.2500     1.9855      .4066
 1527.5540    12.1634      .0315    71.2316  -999.2500     2.0028     -.1133
 1527.7064    12.3198      .0594    66.6648  -999.2500     2.0134     -.6336
 1527.8588    12.3715      .0722    63.4380  -999.2500     2.0076    -1.1543
 1528.0112    12.5410      .0570    60.5862  -999.2500     1.9916    -1.6738
 1528.1636    12.3878      .0428    60.3414  -999.2500     1.9840    -2.1937
 1528.3160    12.2347      .0449    61.8385  -999.2500     1.9875    -2.7141
 1528.4684    12.3921      .0751    62.0340  -999.2500     1.9882    -3.2340
 1528.6208    12.5741      .0672    65.7875  -999.2500     1.9833    -3.7543
 1528.7732    12.2515      .0417    67.7636  -999.2500     1.9857    -4.2742
 1528.9256    12.1913      .0317    67.9497  -999.2500     1.9942    -4.7941
 1529.0780    12.2271      .0453    66.8797  -999.2500     1.9948    -5.3144
 1529.2304    12.1541      .0325    66.5213  -999.2500     1.9869    -5.8348
 1529.3828    12.4447      .0444    64.9836  -999.2500     1.9818    -6.3547
 1529.5352    12.0646      .0331    64.4769  -999.2500     1.9810    -6.8746
 1529.6876    12.3026      .0310    63.0258  -999.2500     1.9884    -7.3949
 1529.8400    12.4537      .0620    60.9254  -999.2500     2.0036    -7.9144
 1529.9924    12.4092      .0763    58.9108  -999.2500     1.9988    -7.6566
 1530.1448    12.7077      .0180    56.8327  -999.2500     1.9787    -7.1418
 1530.2972    12.5967      .0392    55.4494  -999.2500     1.9627    -6.6266
 1530.4496    12.4472      .0457    60.4049  -999.2500     1.9361    -6.1118
 1530.6020    12.3753      .0530    61.0138  -999.2500     1.9206    -5.5966
 1530.7544    12.3665      .0697    59.8185  -999.2500     1.9399    -5.0818
 1530.9068    12.8239      .0650    57.4106  -999.2500     1.9691    -4.5670
 1531.0592    12.6535      .0654    59.6779  -999.2500     1.9940    -4.0518
 1531.2116    12.5931      .0763    60.3331  -999.2500     2.0123    -3.5366
 1531.3640    12.2183      .0411    59.6595  -999.2500     2.0234    -3.0218
 1531.5164    12.3063      .0270    59.8785  -999.2500     2.0290    -2.5070
 1531.6688    12.6801      .0452    60.8020  -999.2500     2.0096    -1.9918
 1531.8212    13.0966      .0572    60.0006  -999.2500     1.9557    -1.4761
 1531.9736    13.1323      .0620    58.7318  -999.2500     1.8910     -.9617
 1532.1260    13.0639      .0531    58.0160  -999.2500     1.8569     -.4470
 1532.2784    13.6169      .0445    58.5396  -999.2500     1.8755      .0683
 1532.4308    13.9250      .0701    58.7882  -999.2500     1.9043      .5831
 1532.5832    14.6596      .0832    58.0489  -999.2500     1.9096     1.0983
 1532.7356    13.7517      .0831    58.5351  -999.2500     1.9165     1.6131
 1532.8880    13.9868      .0503    59.5584  -999.2500     1.9389     2.1279
 1533.0404    14.4812      .0496    62.6930  -999.2500     1.9577     2.6431
 1533.1928    13.8007      .0487    63.5606  -999.2500     1.9565     3.1583
 1533.3452    13.5427      .0586    65.2155  -999.2500     1.9475     3.3085
 1533.4976    12.4606      .0399    63.8519  -999.2500     1.9543     3.3693
 1533.6500    12.9191      .0540    63.4725  -999.2500     1.9787     3.4301
 1533.8024    12.8977      .0560    64.4904  -999.2500     2.0029     3.4910
 1533.9548    13.0865      .0347    66.0285  -999.2500     2.0227     3.5517
 1534.1072    13.0357      .0330    67.2859  -999.2500     2.0456     3.6124
 1534.2596    13.1714      .0442    66.6830  -999.2500     2.0656     3.6732
 1534.4120    13.3007      .0510    67.2901  -999.2500     2.0776     3.7340
 1534.5644    13.0285      .0396    67.2867  -999.2500     2.0885     3.7948
 1534.7168    13.5272      .0505    64.6992  -999.2500     2.1020     3.8556
 1534.8692    12.9471      .0607    64.5574  -999.2500     2.1099     3.9163
 1535.0216    13.2803      .0619    66.0728  -999.2500     2.1052     3.9771
 1535.1740    13.0096      .0570    67.7894  -999.2500     2.0950     4.0379
 1535.3264    12.4770      .0610    68.5654  -999.2500     2.0872     4.0987
