~VERSION INFORMATION
VERS.                                                 2.0:   CWLS Log ASCII Standard-VERSION 2.0
WRAP.                                                  NO:   One line per depth step
~Well Information Block
STRT.M                                           394.3076:   Top Depth
STOP.M                                          3769.9676:   Bottom Depth
STEP.M                                             .15240:   Depth Increment
NULL.                                            -999.250:   Null Value
FLD .                                             WILDCAT:   Field Name
WELL.                                              15/9-2:   NAME
WBN .                                              15/9-2:   WELLBORE
NATI.                                                 NOR:   COUNTRY
CTRY.                                                 NOR:   COUNTRY
COMP.                                             STATOIL:   OPERATOR
PROV.                                           NORTH SEA:   PROVINCE
COUN.                                            ROSS RIG:   RIG NAME
SPUD.                                          1978/04/12:   SPUD DATE
LATI.                                       58 25 34.06 N:   SURF. LATITUDE
LONG.                                        1 42 28.20 E:   SURF. LONGITUDE
PBWE.                                              15/9-2:   PB WELL ID
APIN.                                              15/9-2:   PB WELLBORE ID
PBWS.                                                 all:   PB WELL NAME SET
~PARAMETER INFORMATION (log)
LNAM.                              FDC/CNL/GR  COMPOSITED:   NAME
LTYP.                                         DEPTH MATCH:   LOG TYPE
LSRV.                                            DEN/NEUT:   LOG SERVICE
LSOU.                                             SPT/NPD:   LOG SOURCE
LVSN.                                                   1:   LOG VERSION
BHIS.                                                   R:   BRIEF HISTORY
FHIS.                                             RAW-LIS:   FULL HISTORY
LCNM.                                        SCHLUMBERGER:   LOGGING CONTRACTOR
TOOL.                             FDC/CNL/GR (COMPOSITED):   TOOL STRING
~Curve Information Block
#MNEM.UNIT                                        API CODE    No Description
#=========                                        ========    == ===========
DEPT.M                                       00 001 00 00:     1  DEPTH
CALI.IN                                                  :     2  Caliper
DRHO.G/CC                                                :     3  Bulk density correction
GR.GAPI                                                  :     4  Gamma Ray
NPHI.%                                                   :     5  Neutron porosity
RHOB.G/CC                                                :     6  Bulk density
TENS.LB                                                  :     7  Cable Tension
~ASCII
# ...
 1297.7348    17.9695     -.0409    41.1797  -999.2500     1.4727      .0299
 1297.8872    17.9689     -.0352    43.7956  -999.2500     1.4844     -.4100
 1298.0396    17.9683     -.0207    45.5744  -999.2500     1.5128     -.8500
 1298.1920    17.9677     -.0065    46.7007  -999.2500     1.5553    -1.2903
 1298.3444    17.9844     -.0018    46.7014  -999.2500     1.5950    -1.7310
 1298.4968    17.5599     -.0036    46.6267  -999.2500     1.6185    -2.1706
 1298.6492    16.7028     -.0079    46.3803  -999.2500     1.6344    -2.6105
 1298.8016    16.4785     -.0012    42.8917  -999.2500     1.6499    -2.8087
 1298.9540    16.2504      .0047    42.3547  -999.2500     1.6602    -2.9279
 1299.1064    15.5477     -.0021    45.2980  -999.2500     1.6661    -3.0472
 1299.2588    15.0350     -.0124    45.7876  -999.2500     1.6720    -3.1664
 1299.4112    14.9551     -.0163    42.5156  -999.2500     1.6728    -3.2856
 1299.5636    15.3688     -.0144    40.4954  -999.2500     1.6585    -3.4049
 1299.7160    15.8587     -.0193    44.5113  -999.2500     1.6359    -3.5242
 1299.8684    16.2442     -.0293    49.3917  -999.2500     1.6240    -3.6434
 1300.0208    16.7128     -.0248    50.8667  -999.2500     1.6209    -3.7626
 1300.1732    17.1788     -.0281    49.7663  -999.2500     1.6080    -3.8819
 1300.3256    17.7097     -.0245    45.3275  -999.2500     1.5771    -4.0013
 1300.4780    17.9975     -.0345    42.6668  -999.2500     1.5315    -4.1204
 1300.6304    17.9886     -.0474    43.4322  -999.2500     1.4907    -4.2396
 1300.7828    17.9797     -.0442    43.4275  -999.2500     1.4805    -4.3589
 1300.9352    17.6272     -.0301    42.5729  -999.2500     1.5005    -4.4781
 1301.0876    17.1263     -.0226    42.2951  -999.2500     1.5273    -4.5974
 1301.2400    16.5824     -.0145    43.7584  -999.2500     1.5511    -4.7167
 1301.3924    16.1066     -.0043    44.3990  -999.2500     1.5724    -4.8359
 1301.5448    15.4058     -.0018    46.4613  -999.2500     1.5849    -4.9552
 1301.6972    15.0157      .0014    48.9032  -999.2500     1.5983    -5.0745
 1301.8496    14.7170      .0082    50.7888  -999.2500     1.6474    -5.1937
 1302.0020    14.2984      .0124    54.8405  -999.2500     1.7331    -5.3129
 1302.1544    14.5064      .0181    57.4969  -999.2500     1.8123    -5.4322
 1302.3068    15.9109      .0339    57.1763  -999.2500     1.8596    -5.2477
 1302.4592    16.8735      .0469    55.9342  -999.2500     1.8745    -3.7457
 1302.6116    16.9073      .0551    56.6408  -999.2500     1.8838    -2.2417
 1302.7640    15.3034      .0618    56.3376  -999.2500     1.9040     -.7365
 1302.9164    14.2081      .0424    56.2567  -999.2500     1.9191      .7675
 1303.0688    13.8350      .0429    57.1933  -999.2500     1.9270     2.2727
 1303.2212    14.5495      .0463    59.0471  -999.2500     1.9250     3.7767
 1303.3736    13.1523      .0211    59.0738  -999.2500     1.9042     5.2807
 1303.5260    12.9790      .0111    57.5253  -999.2500     1.8818     6.7859
 1303.6784    13.3433      .0291    56.4038  -999.2500     1.8750     6.5962
 1303.8308    13.7410      .0507    56.0251  -999.2500     1.8743     6.1596
 1303.9832    14.7865      .0454    56.0366  -999.2500     1.8655     5.7230
 1304.1356    14.8724      .0271    57.1161  -999.2500     1.8577     5.2861
 1304.2880    15.7231      .0089    59.0025  -999.2500     1.8697     4.8488
 1304.4404    12.9742      .0027    59.9560  -999.2500     1.8955     4.4125
 1304.5928    12.5982      .0214    57.9517  -999.2500     1.9145     3.9759
 1304.7452    12.7142      .0306    58.5002  -999.2500     1.9126     3.5390
 1304.8976    13.3780      .0331    60.4160  -999.2500     1.8911     3.1024
 1305.0500    13.0470      .0426    60.3675  -999.2500     1.8660     2.6654
 1305.2024    12.8210      .0510    58.4704  -999.2500     1.8479     2.2288
 1305.3548    12.6897      .0586    58.2293  -999.2500     1.8327     1.7922
 1305.5072    12.6744      .0303    59.0292  -999.2500     1.8247     1.3553
 1305.6596    13.5344      .0321    59.8896  -999.2500     1.8293     1.2191
 1305.8120    14.0107      .0230    59.2058  -999.2500     1.8360     1.5230
 1305.9644    12.6755      .0421    61.8994  -999.2500     1.8387     1.8269
 1306.1168    13.1376      .0363    66.9013  -999.2500     1.8367     2.1310
 1306.2692    13.0357      .0376    67.6452  -999.2500     1.8354     2.4353
 1306.4216    12.5345      .0415    66.0191  -999.2500     1.8398     2.7389
 1306.5740    12.9188      .0294    62.7398  -999.2500     1.8512     3.0428
 1306.7264    13.2520      .0603    63.5364  -999.2500     1.8671     3.3469
 1306.8788    14.4259      .0444    66.3634  -999.2500     1.8790     3.6507
 1307.0312    15.1614      .0514    71.3037  -999.2500     1.8888     3.9548
 1307.1836    13.4865      .0722    70.0257  -999.2500     1.8888     4.2587
 1307.3360    13.0336      .0376    69.2220  -999.2500     1.8818     4.5625
 1307.4884    13.2664      .0519    70.3110  -999.2500     1.8873     4.8666
 1307.6408    12.7397      .0461    70.7014  -999.2500     1.8922     5.1710
 1307.7932    13.3459      .0188    69.6938  -999.2500     1.8906     5.4746
 1307.9456    13.5602      .0089    67.5506  -999.2500     1.8944     5.7785
 1308.0980    12.1448      .0075    63.0629  -999.2500     1.8925     6.0826
 1308.2504    12.1530      .0075    63.2142  -999.2500     1.8782     6.3864
 1308.4028    12.2492      .0117    66.2393  -999.2500     1.8623     6.6905
 1308.5552    12.3493      .0217    65.2735  -999.2500     1.8515     6.9944
 1308.7076    12.3578      .0268    60.9489  -999.2500     1.8442     7.2985
 1308.8600    12.2220      .0212    56.6231  -999.2500     1.8427     7.6023
 1309.0124    12.1660      .0193    51.9005  -999.2500     1.8570     7.9064
 1309.1648    12.2078      .0292    50.6593  -999.2500     1.8828     8.2102
 1309.3172    12.2290      .0283    52.4054  -999.2500     1.8991     8.5140
 1309.4696    12.3777      .0183    55.7888  -999.2500     1.8971     8.8180
 1309.6220    12.2892      .0037    57.1217  -999.2500     1.8930     9.1223
 1309.7744    12.2802      .0077    56.7814  -999.2500     1.9040     9.4258
 1309.9268    12.2918      .0147    57.8411  -999.2500     1.9264     9.7296
 1310.0792    12.2785      .0440    59.3255  -999.2500     1.9494    10.0337
 1310.2316    12.4202      .0555    62.1463  -999.2500     1.9599    10.3374
 1310.3840    12.3835      .0186    64.1560  -999.2500     1.9595    10.6415
 1310.5364    12.2299      .0227    66.2550  -999.2500     1.9560    10.9453
 1310.6888    12.3008      .0279    66.7811  -999.2500     1.9384    11.2493
 1310.8412    12.4940      .0279    66.2652  -999.2500     1.9019    11.5531
 1310.9936    12.7502      .0048    65.7155  -999.2500     1.8594    11.8571
 1311.1460    12.6986      .0060    63.9184  -999.2500     1.8288    12.1609
 1311.2984    12.7557      .0067    61.4955  -999.2500     1.8123    12.4647
 1311.4508    12.8183      .0054    60.5041  -999.2500     1.8030    12.7687
 1311.6032    12.5280      .0054    60.0217  -999.2500     1.8037    13.0730
 1311.7556    12.4506      .0144    59.9457  -999.2500     1.8181    13.3765
 1311.9080    12.5165      .0312    60.2338  -999.2500     1.8397    13.6803
 1312.0604    12.4453      .0207    62.9109  -999.2500     1.8621    13.9843
 1312.2128    12.6096      .0100    65.3062  -999.2500     1.8855    14.2767
 1312.3652    12.4839      .0172    66.7005  -999.2500     1.8982    14.5583
 1312.5176    13.2129      .0112    67.5764  -999.2500     1.8940    14.8397
 1312.6700    13.4499      .0291    67.2372  -999.2500     1.8870    15.1213
 1312.8224    14.0508      .0310    65.2723  -999.2500     1.8849    15.4027
 1312.9748    13.4738      .0153    65.2438  -999.2500     1.8934    15.6844
 1313.1272    14.0257      .0250    67.4819  -999.2500     1.9104    15.9658
 1313.2796    13.6717      .0180    68.6654  -999.2500     1.9215    16.2472
 1313.4320    13.3532      .0198    68.4118  -999.2500     1.9264    16.5288
