~VERSION INFORMATION
VERS.                                                 2.0:   CWLS Log ASCII Standard-VERSION 2.0
WRAP.                                                  NO:   One line per depth step
~Well Information Block
STRT.M                                           394.3076:   Top Depth
STOP.M                                          3769.9676:   Bottom Depth
STEP.M                                             .15240:   Depth Increment
NULL.                                            -999.250:   Null Value
FLD .                                             WILDCAT:   Field Name
WELL.                                              15/9-2:   NAME
WBN .                                              15/9-2:   WELLBORE
NATI.                                                 NOR:   COUNTRY
CTRY.                                                 NOR:   COUNTRY
COMP.                                             STATOIL:   OPERATOR
PROV.                                           NORTH SEA:   PROVINCE
COUN.                                            ROSS RIG:   RIG NAME
SPUD.                                          1978/04/12:   SPUD DATE
LATI.                                       58 25 34.06 N:   SURF. LATITUDE
LONG.                                        1 42 28.20 E:   SURF. LONGITUDE
PBWE.                                              15/9-2:   PB WELL ID
APIN.                                              15/9-2:   PB WELLBORE ID
PBWS.                                                 all:   PB WELL NAME SET
~PARAMETER INFORMATION (log)
LNAM.                              FDC/CNL/GR  COMPOSITED:   NAME
LTYP.                                         DEPTH MATCH:   LOG TYPE
LSRV.                                            DEN/NEUT:   LOG SERVICE
LSOU.                                             SPT/NPD:   LOG SOURCE
LVSN.                                                   1:   LOG VERSION
BHIS.                                                   R:   BRIEF HISTORY
FHIS.                                             RAW-LIS:   FULL HISTORY
LCNM.                                        SCHLUMBERGER:   LOGGING CONTRACTOR
TOOL.                             FDC/CNL/GR (COMPOSITED):   TOOL STRING
~Curve Information Block
#MNEM.UNIT                                        API CODE    No Description
#=========                                        ========    == ===========
DEPT.M                                       00 001 00 00:     1  DEPTH
CALI.IN                                                  :     2  Caliper
DRHO.G/CC                                                :     3  Bulk density correction
GR.GAPI                                                  :     4  Gamma Ray
NPHI.%                                                   :     5  Neutron porosity
RHOB.G/CC                                                :     6  Bulk density
TENS.LB                                                  :     7  Cable Tension
~ASCII
# ...
 2185.3124    12.5155      .0703    55.3613  -999.2500     2.1520     9.4439
 2185.4648    12.5840      .0410    54.5368  -999.2500     2.1504     9.1402
 2185.6172    12.5600      .0091    48.0190  -999.2500     2.1629     8.8364
 2185.7696    12.3768      .0049    39.0837  -999.2500     2.1834     8.5327
 2185.9220    12.1939      .0075    29.1750  -999.2500     2.1781     8.2289
 2186.0744    12.1770      .0174    24.3685  -999.2500     2.1525     7.9248
 2186.2268    12.4784      .0249    24.7492  -999.2500     2.1433     7.6210
 2186.3792    12.6410      .0315    26.3458  -999.2500     2.1471     7.3173
 2186.5316    12.7120      .0260    29.5597  -999.2500     2.1457     7.0131
 2186.6840    12.5229      .0392    29.8104  -999.2500     2.1363     6.7094
 2186.8364    12.4905      .0332    28.7486  -999.2500     2.1193     6.4057
 2186.9888    12.6394      .0252    28.2233  -999.2500     2.1057     6.1020
 2187.1412    12.5613      .0133    28.0160  -999.2500     2.1047     5.7983
 2187.2936    12.5149      .0311    26.2652  -999.2500     2.1124     5.4946
 2187.4460    12.4842      .0443    23.9865  -999.2500     2.1186     5.1904
 2187.5984    12.4344      .0563    23.5847  -999.2500     2.1159     4.8867
 2187.7508    12.3973      .0417    25.0360  -999.2500     2.1077     4.5825
 2187.9032    12.5591      .0514    26.4030  -999.2500     2.1044     4.2788
 2188.0556    12.6379      .0448    26.0010  -999.2500     2.1113     3.9751
 2188.2080    12.4064      .0343    26.0825  -999.2500     2.1246     3.6714
 2188.3604    12.3384      .0112    24.6534  -999.2500     2.1394     3.3676
 2188.5128    12.4933      .0134    22.7777  -999.2500     2.1594  1271.4348
 2188.6652    12.6356      .0525    23.3038  -999.2500     2.1752  1332.9841
 2188.8176    12.6241      .0382    23.3132  -999.2500     2.1705  1253.6255
 2188.9700    12.6137      .0392    22.1593  -999.2500     2.1579  1131.0076
 2189.1224    12.5082      .0338    21.0980  -999.2500     2.1525  1058.6770
 2189.2748    12.4633      .0414    22.5566  -999.2500     2.1544  1181.6719
 2189.4272    12.3026      .0529    24.1542  -999.2500     2.1580  1431.8469
 2189.5796    12.3346      .0651    25.4944  -999.2500     2.1536  1620.3635
 2189.7320    12.6008      .0557    25.1900  -999.2500     2.1412  1317.7100
 2189.8844    12.5624      .0745    24.4804  -999.2500     2.1291  1194.9001
 2190.0368    12.5609      .0525    23.8375  -999.2500     2.1259  1102.8093
 2190.1892    12.4452      .0354    22.4561  -999.2500     2.1370  1108.4309
 2190.3416    12.4295      .0331    22.1640  -999.2500     2.1512  1157.2600
 2190.4940    12.4501      .0465    19.9812  -999.2500     2.1623  1223.0562
 2190.6464    12.3565      .0559    19.8142  -999.2500     2.1650  1205.9963
 2190.7988    12.3069      .0318    21.3532  -999.2500     2.1522  1144.8191
 2190.9512    12.4433      .0158    21.1753  -999.2500     2.1445  1067.0811
 2191.1036    12.4598      .0133    21.3051  -999.2500     2.1504  1081.9976
 2191.2560    12.4172      .0181    22.2050  -999.2500     2.1614  1133.7000
 2191.4084    12.3666      .0287    23.1408  -999.2500     2.1721  1163.9478
 2191.5608    12.3573      .0194    23.1093  -999.2500     2.1775  1129.9517
 2191.7132    12.3402      .0242    22.1663  -999.2500     2.1804  1215.1021
 2191.8656    12.2877      .0338    21.4078  -999.2500     2.1825  1346.6853
 2192.0180    12.2877      .0357    22.4109  -999.2500     2.1801  1315.8511
 2192.1704    12.3952      .0262    20.5208  -999.2500     2.1764  1247.2627
 2192.3228    12.5508      .0168    18.6449  -999.2500     2.1834  1179.3357
 2192.4752    12.5622      .0113    19.0775  -999.2500     2.2048  1201.3757
 2192.6276    12.3713      .0262    19.0550  -999.2500     2.2287  1255.0803
 2192.7800    12.2675      .0222    19.0835  -999.2500     2.2420  1598.6404
 2192.9324    12.2549      .0421    19.8931  -999.2500     2.2347  1417.2686
 2193.0848    12.2436      .0285    20.4531  -999.2500     2.2091  1149.9009
 2193.2372    12.2323      .0243    21.8623  -999.2500     2.1882  1137.5474
 2193.3896    12.2210      .0204    23.2890  -999.2500     2.1810  1138.5767
 2193.5420    12.2372      .0266    24.6525  -999.2500     2.1785  1183.0205
 2193.6944    12.2586      .0351    24.1045  -999.2500     2.1753  1271.3577
 2193.8468    12.2593      .0340    20.7416  -999.2500     2.1714  1306.8271
 2193.9992    12.2599      .0227    18.7612  -999.2500     2.1736  1239.7891
 2194.1516    12.2606      .0414    18.5162  -999.2500     2.1787  1090.3457
 2194.3040    12.2055      .0319    19.7273  -999.2500     2.1802  1020.5072
 2194.4564    12.1300      .0324    20.6406  -999.2500     2.1880  1119.4592
 2194.6088    12.1653      .0476    22.9632  -999.2500     2.2004  1247.7061
 2194.7612    12.2205      .0594    24.7142  -999.2500     2.1985  1351.1584
 2194.9136    12.2347      .0400    23.4404  -999.2500     2.1880  1330.9973
 2195.0660    12.2193      .0562    22.3550  -999.2500     2.1851  1230.4082
 2195.2184    12.1973      .0374    21.7642  -999.2500     2.1819  1160.9944
 2195.3708    12.1296      .0204    22.2200  -999.2500     2.1775  1166.7139
 2195.5232    12.3184      .0235    23.6292  -999.2500     2.1774  1247.3120
 2195.6756    12.4015      .0268    21.8794  -999.2500     2.1766  1235.4702
 2195.8280    12.6056      .0331    20.1178  -999.2500     2.1745  1197.8054
 2195.9804    12.5432      .0356    22.6589  -999.2500     2.1692  1244.6790
 2196.1328    12.4624      .0289    24.3657  -999.2500     2.1696  1354.3484
 2196.2852    12.4510      .0418    23.5461  -999.2500     2.1762  1348.0156
 2196.4376    12.4397      .0334    22.3606  -999.2500     2.1742  1270.2280
 2196.5900    12.4196      .0347    21.1754  -999.2500     2.1648  1138.2151
 2196.7424    12.3407      .0151    20.2663  -999.2500     2.1539  1069.8892
 2196.8948    12.3057      .0209    21.4545  -999.2500     2.1437  1137.1211
 2197.0472    12.2964      .0110    22.7859  -999.2500     2.1364  1228.5999
 2197.1996    12.3394      .0139    23.9423  -999.2500     2.1344  1314.1580
 2197.3520    12.5364      .0200    23.1269  -999.2500     2.1390  1398.8213
 2197.5044    12.6523      .0100    23.0900  -999.2500     2.1504  1418.2771
 2197.6568    12.5877      .0340    23.7462  -999.2500     2.1636  1330.4380
 2197.8092    12.6583      .0294    22.3902  -999.2500     2.1655  1241.4114
 2197.9616    12.6208      .0188    23.4993  -999.2500     2.1612  1160.5986
 2198.1140    12.4537      .0162    25.6080  -999.2500     2.1682  1281.0598
 2198.2664    12.4394      .0362    29.4760  -999.2500     2.1919  1244.1189
 2198.4188    12.3278      .0575    34.2382  -999.2500     2.2226  1274.4797
 2198.5712    12.2199      .0772    38.2175  -999.2500     2.2441  1326.4792
 2198.7236    12.3057      .0734    46.8338  -999.2500     2.2533  1266.1504
 2198.8760    12.2444      .0256    56.2839  -999.2500     2.2686  1244.2373
 2199.0284    12.0823      .0420    63.2113  -999.2500     2.2753  1242.8223
 2199.1808    11.9795      .0579    66.3265  -999.2500     2.2387  1244.5627
 2199.3332    12.0098      .0182    68.2511  -999.2500     2.1966  1220.6519
 2199.4856    12.0757      .0568    68.2690  -999.2500     2.1729  1198.6614
 2199.6380    12.0455      .0563    64.2072  -999.2500     2.1374  1231.9690
 2199.7904    12.0342      .0530    62.2800  -999.2500     2.1020  1340.8630
 2199.9428    12.0803      .0345    60.1039  -999.2500     2.0808  1402.0117
 2200.0952    12.3133      .0431    58.7311  -999.2500     2.0694  1496.9507
 2200.2476    12.6218      .0734    59.6325  -999.2500     2.0700  1402.3577
 2200.4000    12.4394      .1090    61.9764  -999.2500     2.0807  1277.1714
 2200.5524    12.2438      .1120    64.4597  -999.2500     2.1010  1426.2910
 2200.7048    12.3674      .0967    63.9844  -999.2500     2.1246  1630.7952
 2200.8572    12.4249      .0994    66.0425  -999.2500     2.1387  1540.3792
 2201.0096    12.8060      .0859    64.3654  -999.2500     2.1309  1420.7114
