~VERSION INFORMATION
VERS.                                                 2.0:   CWLS Log ASCII Standard-VERSION 2.0
WRAP.                                                  NO:   One line per depth step
~Well Information Block
STRT.M                                           394.3076:   Top Depth
STOP.M                                          3769.9676:   Bottom Depth
STEP.M                                             .15240:   Depth Increment
NULL.                                            -999.250:   Null Value
FLD .                                             WILDCAT:   Field Name
WELL.                                              15/9-2:   NAME
WBN .                                              15/9-2:   WELLBORE
NATI.                                                 NOR:   COUNTRY
CTRY.                                                 NOR:   COUNTRY
COMP.                                             STATOIL:   OPERATOR
PROV.                                           NORTH SEA:   PROVINCE
COUN.                                            ROSS RIG:   RIG NAME
SPUD.                                          1978/04/12:   SPUD DATE
LATI.                                       58 25 34.06 N:   SURF. LATITUDE
LONG.                                        1 42 28.20 E:   SURF. LONGITUDE
PBWE.                                              15/9-2:   PB WELL ID
APIN.                                              15/9-2:   PB WELLBORE ID
PBWS.                                                 all:   PB WELL NAME SET
~PARAMETER INFORMATION (log)
LNAM.                              FDC/CNL/GR  COMPOSITED:   NAME
LTYP.                                         DEPTH MATCH:   LOG TYPE
LSRV.                                            DEN/NEUT:   LOG SERVICE
LSOU.                                             SPT/NPD:   LOG SOURCE
LVSN.                                                   1:   LOG VERSION
BHIS.                                                   R:   BRIEF HISTORY
FHIS.                                             RAW-LIS:   FULL HISTORY
LCNM.                                        SCHLUMBERGER:   LOGGING CONTRACTOR
TOOL.                             FDC/CNL/GR (COMPOSITED):   TOOL STRING
~Curve Information Block
#MNEM.UNIT                                        API CODE    No Description
#=========                                        ========    == ===========
DEPT.M                                       00 001 00 00:     1  DEPTH
CALI.IN                                                  :     2  Caliper
DRHO.G/CC                                                :     3  Bulk density correction
GR.GAPI                                                  :     4  Gamma Ray
NPHI.%                                                   :     5  Neutron porosity
RHOB.G/CC                                                :     6  Bulk density
TENS.LB                                                  :     7  Cable Tension
~ASCII
# ...
 2407.2068    12.6140      .0205    45.1216  -999.2500     2.3937     5.6651
 2407.3592    12.8884      .0084    43.7696  -999.2500     2.3812     5.3609
 2407.5116    12.9091      .0702    46.3198  -999.2500     2.3207     5.0573
 2407.6640    12.9896      .0859    47.7483  -999.2500     2.2257     4.7537
 2407.8164    13.2338      .1458    49.0181  -999.2500     2.1610     4.4500
 2407.9688    14.8901      .1458    53.8331  -999.2500     2.1318     4.1464
 2408.1212    14.1077      .1219    59.1201  -999.2500     2.1243     3.8428
 2408.2736    14.0249      .1211    59.8546  -999.2500     2.1403     3.5391
 2408.4260    14.0577      .1072    60.1311  -999.2500     2.1590     3.2350
 2408.5784    13.9911      .1181    58.2640  -999.2500     2.1814     2.9314
 2408.7308    14.6255      .0835    55.8439  -999.2500     2.2113     2.6273
 2408.8832    13.0857      .1042    54.5435  -999.2500     2.2361     2.3236
 2409.0356    13.8770      .0958    53.9955  -999.2500     2.2445     2.0200
 2409.1880    13.4936      .0658    51.5087  -999.2500     2.2417     1.7164
 2409.3404    13.6836      .0545    48.6909  -999.2500     2.2424     1.4127
 2409.4928    13.4658      .0817    48.5666  -999.2500     2.2423     1.1091
 2409.6452    13.5039      .0943    49.7741  -999.2500     2.2487      .8050
 2409.7976    13.0352      .1295    51.2155  -999.2500     2.2779      .7109
 2409.9500    13.5955      .1621    52.1806  -999.2500     2.3007      .6611
 2410.1024    13.1864      .1322    51.6846  -999.2500     2.3005      .6113
 2410.2548    12.9307      .1187    50.2094  -999.2500     2.3079      .5616
 2410.4072    13.7012      .1170    48.9509  -999.2500     2.3226      .5118
 2410.5596    13.0116      .0890    48.4215  -999.2500     2.3371      .4621
 2410.7120    12.9084      .0972    45.5464  -999.2500     2.3719      .4123
 2410.8644    13.1356      .0665    41.3825  -999.2500     2.4137      .3626
 2411.0168    12.5834      .0007    37.9461  -999.2500     2.4438      .3128
 2411.1692    12.6307      .0263    37.2659  -999.2500     2.4636      .2630
 2411.3216    13.0223      .2071    42.2638  -999.2500     2.4143      .2132
 2411.4740    14.2937      .1587    47.9350  -999.2500     2.2853      .1634
 2411.6264    13.0880      .1174    47.0255  -999.2500     2.2019      .1137
 2411.7788    13.3669      .1122    47.3437  -999.2500     2.2085      .0639
 2411.9312    13.6172      .1306    50.1949  -999.2500     2.2264      .0142
 2412.0836    13.2898      .1458    55.9149  -999.2500     2.2226      .0000
 2412.2360    13.8154      .1157    54.6189  -999.2500     2.2256      .0000
 2412.3884    13.3024      .0959    52.8665  -999.2500     2.2398      .0000
 2412.5408    12.8097      .0895    51.0519  -999.2500     2.2464      .0000
 2412.6932    12.9709      .1453    48.2669  -999.2500     2.2318      .0000
 2412.8456    13.1914      .1051    47.2749  -999.2500     2.2042      .0000
 2412.9980    14.1372      .0594    49.4674  -999.2500     2.2058      .0000
 2413.1504    12.9906      .0509    51.5484  -999.2500     2.2334      .0000
 2413.3028    13.0347      .1183    51.2767  -999.2500     2.2395      .0000
 2413.4552    14.0197      .0959    50.1193  -999.2500     2.2177      .0000
 2413.6076    12.9526      .0802    49.2795  -999.2500     2.2189      .0000
 2413.7600    13.5455      .1174    47.0070  -999.2500     2.2427      .0000
 2413.9124    13.0463      .0736    44.9406  -999.2500     2.2421      .0000
 2414.0648    13.2936      .0144    45.1107  -999.2500     2.2429      .0000
 2414.2172    12.7098      .0177    43.7573  -999.2500     2.2485      .0000
 2414.3696    12.6847      .0228    41.4892  -999.2500     2.2305      .0000
 2414.5220    12.7026      .1242    41.7819  -999.2500     2.2166      .0000
 2414.6744    13.7529      .1797    45.7366  -999.2500     2.1815      .0000
 2414.8268    14.7576      .1220    51.4978  -999.2500     2.1150      .3700
 2414.9792    14.3167      .0791    51.3183  -999.2500     2.1014      .9951
 2415.1316    13.8123      .0646    52.0659  -999.2500     2.1387     1.6191
 2415.2840    13.4276      .0317    53.6999  -999.2500     2.1716     2.2442
 2415.4364    13.5713      .0557    55.3312  -999.2500     2.1938     2.8682
 2415.5888    12.9804      .0408    56.4389  -999.2500     2.2035     3.4923
 2415.7412    13.0195      .0639    54.5266  -999.2500     2.2075     4.1163
 2415.8936    13.2699      .0534    51.9430  -999.2500     2.2274     4.7404
 2416.0460    13.5392      .0636    49.7160  -999.2500     2.2657     5.3645
 2416.1984    13.0231      .0505    47.7260  -999.2500     2.2894     5.9885
 2416.3508    12.8774      .0574    47.1490  -999.2500     2.2809     6.6136
 2416.5032    13.0016      .0376    48.3512  -999.2500     2.2737     7.2376
 2416.6556    13.7069      .1120    49.9747  -999.2500     2.2761     7.8627
 2416.8080    13.1639      .1259    51.9473  -999.2500     2.2503     8.4867
 2416.9604    13.9784      .1037    52.9912  -999.2500     2.2143     9.1108
 2417.1128    13.3174      .0761    51.9419  -999.2500     2.2114     9.7348
 2417.2652    13.1152      .0861    50.7471  -999.2500     2.2258     9.9648
 2417.4176    12.6592      .0160    48.9617  -999.2500     2.2384     9.9647
 2417.5700    12.6625      .0629    45.9770  -999.2500     2.2585     9.9646
 2417.7224    13.1742      .1357    47.5433  -999.2500     2.2571     9.9646
 2417.8748    12.9022      .0909    48.9332  -999.2500     2.2183     9.9645
 2418.0272    13.2520      .0179    47.2233  -999.2500     2.2110     9.9644
 2418.1796    13.0024      .0682    49.3445  -999.2500     2.2427     9.9643
 2418.3320    13.6868      .0961    54.7962  -999.2500     2.2476     9.9643
 2418.4844    13.7718      .1149    57.1936  -999.2500     2.2369     9.9642
 2418.6368    13.8655      .1217    54.6546  -999.2500     2.2366     9.9641
 2418.7892    13.3759      .0800    51.5349  -999.2500     2.2411     9.9640
 2418.9416    12.7120      .0683    49.1626  -999.2500     2.2603     9.9640
 2419.0940    13.0187      .1000    48.4904  -999.2500     2.2779     9.9639
 2419.2464    13.4228      .1196    49.8734  -999.2500     2.2651     9.9638
 2419.3988    13.4599      .1271    53.8637  -999.2500     2.2328     9.9637
 2419.5512    13.2640      .0738    56.4586  -999.2500     2.2078     9.9635
 2419.7036    13.0713      .0682    55.9134  -999.2500     2.2045     9.9634
 2419.8560    13.0301      .0780    55.0768  -999.2500     2.2211     9.9633
 2420.0084    13.1811      .0948    55.9362  -999.2500     2.2416     9.9632
 2420.1608    13.0821      .1011    55.4111  -999.2500     2.2450     9.9631
 2420.3132    12.8733      .0795    55.9440  -999.2500     2.2252     9.9629
 2420.4656    12.4857      .0474    59.2433  -999.2500     2.1971     9.9628
 2420.6180    13.1754      .0367    62.7299  -999.2500     2.1779     9.9627
 2420.7704    13.1684      .0356    62.7266  -999.2500     2.1707     9.9626
 2420.9228    12.6578      .0622    59.2609  -999.2500     2.1734     9.9624
 2421.0752    12.8634      .0534    55.3788  -999.2500     2.1768     9.9623
 2421.2276    12.7539      .0096    52.9783  -999.2500     2.1753     9.9622
 2421.3800    12.7700      .0163    50.7469  -999.2500     2.1773     9.9621
 2421.5324    13.4988      .0853    51.6697  -999.2500     2.1662     9.9620
 2421.6848    13.4150      .0605    56.6045  -999.2500     2.1452    10.3414
 2421.8372    12.5859      .0458    62.4825  -999.2500     2.1605    10.8809
 2421.9896    12.2988      .0692    63.3016  -999.2500     2.2090    11.4212
 2422.1420    12.5235      .0550    64.2371  -999.2500     2.2535    11.9606
 2422.2944    12.3903      .0886    65.8253  -999.2500     2.2802    12.5001
 2422.4468    12.2675      .0520    65.8309  -999.2500     2.2844    13.0395
 2422.5992    12.1344      .0228    62.9948  -999.2500     2.2887    13.5790
 2422.7516    12.0881      .0314    58.0230  -999.2500     2.3077    14.1184
 2422.9040    12.0627      .0567    54.6239  -999.2500     2.3151    14.6587
