~VERSION INFORMATION
VERS.                                                 2.0:   CWLS Log ASCII Standard-VERSION 2.0
WRAP.                                                  NO:   One line per depth step
~Well Information Block
STRT.M                                           394.3076:   Top Depth
STOP.M                                          3769.9676:   Bottom Depth
STEP.M                                             .15240:   Depth Increment
NULL.                                            -999.250:   Null Value
FLD .                                             WILDCAT:   Field Name
WELL.                                              15/9-2:   NAME
WBN .                                              15/9-2:   WELLBORE
NATI.                                                 NOR:   COUNTRY
CTRY.                                                 NOR:   COUNTRY
COMP.                                             STATOIL:   OPERATOR
PROV.                                           NORTH SEA:   PROVINCE
COUN.                                            ROSS RIG:   RIG NAME
SPUD.                                          1978/04/12:   SPUD DATE
LATI.                                       58 25 34.06 N:   SURF. LATITUDE
LONG.                                        1 42 28.20 E:   SURF. LONGITUDE
PBWE.                                              15/9-2:   PB WELL ID
APIN.                                              15/9-2:   PB WELLBORE ID
PBWS.                                                 all:   PB WELL NAME SET
~PARAMETER INFORMATION (log)
LNAM.                              FDC/CNL/GR  COMPOSITED:   NAME
LTYP.                                         DEPTH MATCH:   LOG TYPE
LSRV.                                            DEN/NEUT:   LOG SERVICE
LSOU.                                             SPT/NPD:   LOG SOURCE
LVSN.                                                   1:   LOG VERSION
BHIS.                                                   R:   BRIEF HISTORY
FHIS.                                             RAW-LIS:   FULL HISTORY
LCNM.                                        SCHLUMBERGER:   LOGGING CONTRACTOR
TOOL.                             FDC/CNL/GR (COMPOSITED):   TOOL STRING
~Curve Information Block
#MNEM.UNIT                                        API CODE    No Description
#=========                                        ========    == ===========
DEPT.M                                       00 001 00 00:     1  DEPTH
CALI.IN                                                  :     2  Caliper
DRHO.G/CC                                                :     3  Bulk density correction
GR.GAPI                                                  :     4  Gamma Ray
NPHI.%                                                   :     5  Neutron porosity
RHOB.G/CC                                                :     6  Bulk density
TENS.LB                                                  :     7  Cable Tension
~ASCII
  394.3076    19.0914  -999.2500  -999.2500  -999.2500  -999.2500  -999.2500
  394.4600    19.0876  -999.2500  -999.2500  -999.2500  -999.2500  -999.2500
  394.6124    19.0839  -999.2500  -999.2500  -999.2500  -999.2500  -999.2500
  394.7648    19.0802  -999.2500  -999.2500  -999.2500  -999.2500  -999.2500
  394.9172    19.0764  -999.2500    44.5061  -999.2500  -999.2500  -999.2500
  395.0696    19.0727  -999.2500    42.4092  -999.2500  -999.2500  -999.2500
  395.2220    19.0689     -.2797    44.4859  -999.2500  -999.2500     -.5862
  395.3744    19.0652     -.2807    45.6733  -999.2500     2.1059     -.5382
  395.5268    19.0615     -.2816    44.3612  -999.2500     2.1154     -.4901
  395.6792    19.0577     -.2825    43.1670  -999.2500     2.1217     -.4420
  395.8316    19.0540     -.2835    45.5425  -999.2500     2.1219     -.3939
  395.9840    19.0503     -.2828    48.1140  -999.2500     2.1190     -.3459
  396.1364    19.0465     -.2821    50.0470  -999.2500     2.1155     -.2978
  396.2888    19.0428     -.2814    50.7254  -999.2500     2.1084     -.2497
  396.4412    19.0403     -.2806    49.3612  -999.2500     2.1000     -.2017
  396.5936    19.0407     -.2804    47.3904  -999.2500     2.1001     -.1536
  396.7460    19.0412     -.2811    45.6237  -999.2500     2.1087     -.1055
  396.8984    19.0417     -.2825    44.0330  -999.2500     2.1156     -.0574
  397.0508    19.0421     -.2833    43.0396  -999.2500     2.1160     -.0094
  397.2032    19.0426     -.2833    43.1111  -999.2500     2.1159      .0387
  397.3556    19.0431     -.2827    45.2543  -999.2500     2.1217      .0868
  397.5080    19.0435     -.2826    47.2203  -999.2500     2.1454      .1348
  397.6604    19.0440     -.2832    46.9823  -999.2500     2.1962      .1829
  397.8128    19.0550     -.2832    45.6133  -999.2500     2.2494      .2310
  397.9652    19.0706     -.2820    44.1095  -999.2500     2.2657      .2791
  398.1176    19.0852     -.2746    43.6075  -999.2500     2.2440      .3271
  398.2700    19.0499     -.1831    48.8964  -999.2500     2.2074      .3752
  398.4224    18.6750     -.0620    56.3256  -999.2500     2.1700      .4233
  398.5748    18.1407      .0824    62.2687  -999.2500     2.1117      .4657
  398.7272    18.0430      .0525    61.7899  -999.2500     2.0290      .5004
  398.8796    18.0223      .0447    61.2036  -999.2500     1.9872      .5351
  399.0320    18.1089      .0485    61.5787  -999.2500     1.9942      .5698
  399.1844    18.3266      .0561    60.0402  -999.2500     2.0064      .6046
  399.3368    18.3719      .0482    60.8256  -999.2500     2.0105      .6393
  399.4892    18.3723      .0368    61.3990  -999.2500     2.0147      .6740
  399.6416    18.3573      .0566    58.7128  -999.2500     2.0326      .7087
  399.7940    18.3877      .0793    58.0683  -999.2500     2.0493      .7434
  399.9464    18.4321      .0629    59.2863  -999.2500     2.0537      .7781
  400.0988    18.5773      .0650    59.1136  -999.2500     2.0624      .8129
  400.2512    18.7533      .0790    51.0885  -999.2500     2.0661      .8476
  400.4036    18.7934      .0518    50.4045  -999.2500     2.0420      .8823
  400.5560    18.5255      .0222    52.9617  -999.2500     1.9902      .9170
  400.7084    18.6050      .0121    56.1021  -999.2500     1.9146      .9517
  400.8608    18.8025      .0141    55.2401  -999.2500     1.8180      .9864
  401.0132    19.6704      .0309    54.1489  -999.2500     1.7334     1.0212
  401.1656    22.2043      .0075    53.8602  -999.2500     1.7020     1.0559
  401.3180    22.4094      .0015    54.2564  -999.2500     1.7019     1.0906
  401.4704    22.3989      .0034    56.2750  -999.2500     1.7018     1.1253
  401.6228    22.3830      .0085    59.1270  -999.2500     1.7017     1.1600
  401.7752    22.3835      .0081    60.9642  -999.2500     1.7016     1.1947
  401.9276    22.3840      .0064    62.3308  -999.2500     1.7015     1.2294
  402.0800    22.3845      .0067    60.6493  -999.2500     1.7014     1.2642
  402.2324    22.3850      .0089    59.9222  -999.2500     1.7013     1.2989
  402.3848    22.3855      .0127    60.1323  -999.2500     1.7012     1.3336
  402.5372    22.3861      .0158    61.0086  -999.2500     1.7011     1.3221
  402.6896    22.3875      .0184    61.6059  -999.2500     1.7010     1.2795
  402.8420    22.3889      .0208    60.8888  -999.2500     1.7009     1.2369
  402.9944    22.3904      .0224    57.7194  -999.2500     1.7008     1.1943
  403.1468    22.3918      .0229    55.2679  -999.2500     1.7007     1.1517
  403.2992    22.3932      .0221    56.3764  -999.2500     1.7006     1.1091
  403.4516    22.3946      .0240    58.6764  -999.2500     1.7005     1.0665
  403.6040    22.3960      .0252    59.5042  -999.2500     1.7004     1.0239
  403.7564    22.3974      .0198    59.9947  -999.2500     1.7004      .9814
  403.9088    22.3988      .0077    60.0242  -999.2500     1.7004      .9388
  404.0612    22.4003      .0103    56.5344  -999.2500     1.7005      .8962
  404.2136    22.4017      .0140    56.0992  -999.2500     1.7005      .8536
  404.3660    22.4031      .0140    56.2547  -999.2500     1.7005      .8110
  404.5184    22.4045      .0141    55.5309  -999.2500     1.7005      .7684
  404.6708    22.4059      .0176    55.4547  -999.2500     1.7005      .7258
  404.8232    22.4073      .0228    58.6747  -999.2500     1.7006      .6833
  404.9756    22.4088      .0295    60.3004  -999.2500     1.7006      .6407
  405.1280    22.4102      .0287    61.3996  -999.2500     1.7006      .5981
  405.2804    22.4116      .0208    60.3638  -999.2500     1.7006      .5555
  405.4328    22.4130      .0185    59.0004  -999.2500     1.7006      .5129
  405.5852    22.4144      .0153    57.9352  -999.2500     1.7006      .4703
  405.7376    22.4158      .0021    57.6713  -999.2500     1.7007      .4277
  405.8900    22.4124     -.0018    58.0526  -999.2500     1.7007      .3852
  406.0424    22.4065     -.0010    57.4331  -999.2500     1.7007      .3426
  406.1948    22.4006      .0021    54.2521  -999.2500     1.7007      .3000
  406.3472    22.3948      .0068    52.4055  -999.2500     1.7007      .2574
  406.4996    22.3889      .0111    51.9712  -999.2500     1.7008      .2148
  406.6520    22.3831      .0126    52.7658  -999.2500     1.7008      .2347
  406.8044    22.3772      .0070    54.7232  -999.2500     1.7008      .2720
  406.9568    22.3713     -.0016    56.9968  -999.2500     1.7008      .3093
  407.1092    22.3655     -.0012    57.4889  -999.2500     1.7008      .3466
  407.2616    22.3596      .0016    54.9932  -999.2500     1.7008      .3838
  407.4140    22.3538      .0046    55.1912  -999.2500     1.7009      .4211
  407.5664    22.3479      .0080    55.0442  -999.2500     1.7009      .4584
  407.7188    22.3421      .0114    51.1385  -999.2500     1.7009      .4957
  407.8712    22.3362      .0089    51.4760  -999.2500     1.7009      .5329
  408.0236    22.3303      .0055    52.9760  -999.2500     1.7009      .5702
  408.1760    22.3245      .0033    54.5471  -999.2500     1.7010      .6075
  408.3284    22.3186      .0033    56.2923  -999.2500     1.7010      .6447
  408.4808    22.3128      .0071    57.3557  -999.2500     1.7010      .6820
  408.6332    22.3069      .0155    54.5874  -999.2500     1.7010      .7193
  408.7856    22.3232      .0116    51.5309  -999.2500     1.7010      .7566
  408.9380    22.3438      .0185    49.1169  -999.2500     1.7010      .7938
  409.0904    22.3644      .0246    48.1198  -999.2500     1.7011      .8311
  409.2428    22.3850      .0251    49.9601  -999.2500     1.7011      .8684
  409.3952    22.3529      .0189    52.2505  -999.2500     1.7011      .9056
  409.5476    22.3221      .0138    52.8241  -999.2500     1.7011      .9429
  409.7000    22.3363      .0092    51.4173  -999.2500     1.7011      .9802
  409.8524    22.3838      .0058    50.4347  -999.2500     1.7012     1.0175
  410.0048    22.4307      .0100    50.3606  -999.2500     1.7012     1.0547
