~VERSION INFORMATION
VERS.                                                 2.0:   CWLS Log ASCII Standard-VERSION 2.0
WRAP.                                                  NO:   One line per depth step
~Well Information Block
STRT.M                                           394.3076:   Top Depth
STOP.M                                          3769.9676:   Bottom Depth
STEP.M                                             .15240:   Depth Increment
NULL.                                            -999.250:   Null Value
FLD .                                             WILDCAT:   Field Name
WELL.                                              15/9-2:   NAME
WBN .                                              15/9-2:   WELLBORE
NATI.                                                 NOR:   COUNTRY
CTRY.                                                 NOR:   COUNTRY
COMP.                                             STATOIL:   OPERATOR
PROV.                                           NORTH SEA:   PROVINCE
COUN.                                            ROSS RIG:   RIG NAME
SPUD.                                          1978/04/12:   SPUD DATE
LATI.                                       58 25 34.06 N:   SURF. LATITUDE
LONG.                                        1 42 28.20 E:   SURF. LONGITUDE
PBWE.                                              15/9-2:   PB WELL ID
APIN.                                              15/9-2:   PB WELLBORE ID
PBWS.                                                 all:   PB WELL NAME SET
~PARAMETER INFORMATION (log)
LNAM.                              FDC/CNL/GR  COMPOSITED:   NAME
LTYP.                                         DEPTH MATCH:   LOG TYPE
LSRV.                                            DEN/NEUT:   LOG SERVICE
LSOU.                                             SPT/NPD:   LOG SOURCE
LVSN.                                                   1:   LOG VERSION
BHIS.                                                   R:   BRIEF HISTORY
FHIS.                                             RAW-LIS:   FULL HISTORY
LCNM.                                        SCHLUMBERGER:   LOGGING CONTRACTOR
TOOL.                             FDC/CNL/GR (COMPOSITED):   TOOL STRING
~Curve Information Block
#MNEM.UNIT                                        API CODE    No Description
#=========                                        ========    == ===========
DEPT.M                                       00 001 00 00:     1  DEPTH
CALI.IN                                                  :     2  Caliper
DRHO.G/CC                                                :     3  Bulk density correction
GR.GAPI                                                  :     4  Gamma Ray
NPHI.%                                                   :     5  Neutron porosity
RHOB.G/CC                                                :     6  Bulk density
TENS.LB                                                  :     7  Cable Tension
~ASCII
# ...
 1741.5236    13.0706      .0552    68.4588  -999.2500     2.0910     1.4524
 1741.6760    13.2694      .0471    68.1981  -999.2500     2.0943     1.8819
 1741.8284    13.1748      .0506    66.5961  -999.2500     2.1001     2.3113
 1741.9808    13.1420      .0614    65.6427  -999.2500     2.1162     2.7411
 1742.1332    13.2584      .0864    63.9177  -999.2500     2.1483     3.1705
 1742.2856    13.3417      .0859    62.1293  -999.2500     2.1915     3.6003
 1742.4380    13.2282      .0750    61.4335  -999.2500     2.2407     4.0298
 1742.5904    13.4125      .0156    59.7475  -999.2500     2.2837     4.4592
 1742.7428    13.5295      .0179    60.4053  -999.2500     2.3029     4.8890
 1742.8952    13.3642      .1053    64.1850  -999.2500     2.2749     5.3188
 1743.0476    13.3880      .0814    64.4817  -999.2500     2.2002     5.7482
 1743.2000    13.4647      .0573    65.3552  -999.2500     2.1380     6.1776
 1743.3524    13.4931      .0641    66.8214  -999.2500     2.1183     6.6074
 1743.5048    13.2508      .0584    69.5960  -999.2500     2.1116     7.0372
 1743.6572    13.1082      .0533    69.3716  -999.2500     2.1020     7.4666
 1743.8096    13.1185      .0447    68.4135  -999.2500     2.1031     7.8961
 1743.9620    13.1184      .0548    69.4288  -999.2500     2.1160     8.3258
 1744.1144    13.0589      .0511    68.5772  -999.2500     2.1255     8.7553
 1744.2668    13.0678      .0381    67.9704  -999.2500     2.1368     9.1851
 1744.4192    13.2263      .0573    65.1878  -999.2500     2.1611     9.6145
 1744.5716    13.0559      .0616    61.1083  -999.2500     2.1991     9.9656
 1744.7240    13.6473      .0690    58.1337  -999.2500     2.2524     9.9656
 1744.8764    13.6447      .0479    55.3454  -999.2500     2.3122     9.9654
 1745.0288    13.7470     -.0052    54.0871  -999.2500     2.3594     9.9653
 1745.1812    13.6598      .0327    59.8939  -999.2500     2.3623     9.9651
 1745.3336    13.5507      .0877    66.6002  -999.2500     2.2946     9.9649
 1745.4860    13.7576      .0548    69.4964  -999.2500     2.1947     9.9647
 1745.6384    13.6774      .0459    68.0232  -999.2500     2.1282     9.9646
 1745.7908    13.3689      .0208    67.6843  -999.2500     2.0985     9.9644
 1745.9432    13.3922      .0230    68.4636  -999.2500     2.0879     9.9642
 1746.0956    13.4709      .0398    69.5357  -999.2500     2.0890     9.9641
 1746.2480    13.3685      .0343    71.4651  -999.2500     2.0853     9.9639
 1746.4004    13.6103      .0240    69.4490  -999.2500     2.0759     9.9637
 1746.5528    13.6224      .0149    69.3436  -999.2500     2.0721     9.9635
 1746.7052    13.8575      .0278    71.9751  -999.2500     2.0753     9.9634
 1746.8576    13.2127      .0299    75.0005  -999.2500     2.0842     9.9632
 1747.0100    13.0197      .0442    75.8708  -999.2500     2.0983     9.9630
 1747.1624    13.2125      .0553    75.6124  -999.2500     2.1081     9.9628
 1747.3148    13.1829      .0614    73.3969  -999.2500     2.1094     9.9627
 1747.4672    13.0450      .0613    73.7903  -999.2500     2.1061     9.9625
 1747.6196    12.8898      .0504    74.7455  -999.2500     2.0987     9.9623
 1747.7720    12.9120      .0369    74.0992  -999.2500     2.0956     9.9621
 1747.9244    12.9808      .0465    75.8360  -999.2500     2.1056     9.9620
 1748.0768    13.0521      .0444    76.8531  -999.2500     2.1188    10.2899
 1748.2292    13.0852      .0637    74.9728  -999.2500     2.1237    10.7969
 1748.3816    13.0295      .0647    72.9912  -999.2500     2.1260    11.3035
 1748.5340    12.9405      .0779    72.8786  -999.2500     2.1287    11.8100
 1748.6864    12.9036      .0642    70.2932  -999.2500     2.1213    12.3170
 1748.8388    13.0588      .0510    68.5274  -999.2500     2.1108    12.8240
 1748.9912    13.3491      .0554    70.4475  -999.2500     2.1073    13.3306
 1749.1436    13.1699      .0626    69.0633  -999.2500     2.1043    13.8372
 1749.2960    13.3745      .0550    68.7364  -999.2500     2.0994    14.3442
 1749.4484    13.2858      .0482    69.7581  -999.2500     2.0936    14.8512
 1749.6008    12.6362      .0570    72.6523  -999.2500     2.0887    15.3577
 1749.7532    12.4902      .0728    75.2230  -999.2500     2.0883    15.8643
 1749.9056    12.6560      .0646    72.6053  -999.2500     2.0881    16.3709
 1750.0580    12.7651      .0661    69.1571  -999.2500     2.0878    16.8779
 1750.2104    12.9363      .0544    72.2358  -999.2500     2.0937    17.3849
 1750.3628    12.8949      .0690    72.2863  -999.2500     2.1031    17.8915
 1750.5152    12.9559      .0733    68.5030  -999.2500     2.1085    18.3980
 1750.6676    13.8285      .0544    67.1030  -999.2500     2.1112    18.9050
 1750.8200    13.7678      .0565    71.2234  -999.2500     2.1120    18.7662
 1750.9724    13.2507      .0523    72.3845  -999.2500     2.1105    18.1953
 1751.1248    13.2211      .0519    68.4721  -999.2500     2.1118    17.6245
 1751.2772    13.0390      .0508    64.8999  -999.2500     2.1147    17.0531
 1751.4296    13.0357      .0470    66.3274  -999.2500     2.1192    16.4818
 1751.5820    13.2780      .0416    69.0541  -999.2500     2.1294    15.9109
 1751.7344    13.3840      .0679    69.5734  -999.2500     2.1330    15.3400
 1751.8868    13.2799      .0520    67.6178  -999.2500     2.1195    14.7691
 1752.0392    13.1617      .0307    64.9621  -999.2500     2.1073    14.1978
 1752.1916    13.1639      .0346    65.2938  -999.2500     2.1083    13.6264
 1752.3440    13.2504      .0486    66.6390  -999.2500     2.1155    13.0555
 1752.4964    13.0473      .0710    69.7704  -999.2500     2.1255    12.4846
 1752.6488    13.6603      .0748    71.2737  -999.2500     2.1306    11.9133
 1752.8012    13.1228      .0698    71.9749  -999.2500     2.1261    11.3419
 1752.9536    13.9703      .0585    73.7984  -999.2500     2.1151    10.7711
 1753.1060    13.8317      .0456    77.3395  -999.2500     2.1073    10.2002
 1753.2584    14.1589      .0437    79.8451  -999.2500     2.1041     9.6288
 1753.4108    13.8603      .0492    79.6001  -999.2500     2.1000     9.0575
 1753.5632    13.1859      .0362    77.3646  -999.2500     2.1024     8.4866
 1753.7156    12.9939      .0571    73.5375  -999.2500     2.1109     7.9157
 1753.8680    12.9109      .0623    71.3876  -999.2500     2.1211     7.3448
 1754.0204    12.8576      .0698    74.5392  -999.2500     2.1302     6.7735
 1754.1728    12.8883      .0809    72.0150  -999.2500     2.1266     6.2021
 1754.3252    13.1181      .0582    70.7293  -999.2500     2.1156     5.6312
 1754.4776    13.5988      .0712    68.1558  -999.2500     2.1149     5.0604
 1754.6300    13.6241      .0636    68.1373  -999.2500     2.1154     4.4890
 1754.7824    13.3442      .0391    68.8403  -999.2500     2.1031     4.3042
 1754.9348    13.8548      .0181    68.2797  -999.2500     2.0930     4.1221
 1755.0872    13.7295      .0215    67.5656  -999.2500     2.0987     3.9399
 1755.2396    13.5702      .0401    67.6075  -999.2500     2.1092     3.7576
 1755.3920    13.4146      .0634    67.4997  -999.2500     2.1132     3.5753
 1755.5444    14.0559      .0731    67.2228  -999.2500     2.1023     3.3931
 1755.6968    13.7741      .0667    68.9548  -999.2500     2.0807     3.2110
 1755.8492    13.6342      .0426    71.1982  -999.2500     2.0656     3.0288
 1756.0016    13.0571      .0211    73.1032  -999.2500     2.0638     2.8465
 1756.1540    12.9224      .0267    75.0079  -999.2500     2.0759     2.6642
 1756.3064    13.2862      .0381    76.9111  -999.2500     2.0911     2.4820
 1756.4588    13.4205      .0287    78.7530  -999.2500     2.1051     2.2999
 1756.6112    13.4712      .0539    80.0441  -999.2500     2.1262     2.1176
 1756.7636    13.1523      .0740    81.3349  -999.2500     2.1410     1.9353
 1756.9160    13.0750      .0640    82.8586  -999.2500     2.1327     1.7531
 1757.0684    12.9994      .0444    84.0440  -999.2500     2.1143     1.5709
 1757.2208    14.3030      .0375    82.9139  -999.2500     2.0989     1.3886
