~VERSION INFORMATION
VERS.                                                 2.0:   CWLS Log ASCII Standard-VERSION 2.0
WRAP.                                                  NO:   One line per depth step
~Well Information Block
STRT.M                                           394.3076:   Top Depth
STOP.M                                          3769.9676:   Bottom Depth
STEP.M                                             .15240:   Depth Increment
NULL.                                            -999.250:   Null Value
FLD .                                             WILDCAT:   Field Name
WELL.                                              15/9-2:   NAME
WBN .                                              15/9-2:   WELLBORE
NATI.                                                 NOR:   COUNTRY
CTRY.                                                 NOR:   COUNTRY
COMP.                                             STATOIL:   OPERATOR
PROV.                                           NORTH SEA:   PROVINCE
COUN.                                            ROSS RIG:   RIG NAME
SPUD.                                          1978/04/12:   SPUD DATE
LATI.                                       58 25 34.06 N:   SURF. LATITUDE
LONG.                                        1 42 28.20 E:   SURF. LONGITUDE
PBWE.                                              15/9-2:   PB WELL ID
APIN.                                              15/9-2:   PB WELLBORE ID
PBWS.                                                 all:   PB WELL NAME SET
~PARAMETER INFORMATION (log)
LNAM.                              FDC/CNL/GR  COMPOSITED:   NAME
LTYP.                                         DEPTH MATCH:   LOG TYPE
LSRV.                                            DEN/NEUT:   LOG SERVICE
LSOU.                                             SPT/NPD:   LOG SOURCE
LVSN.                                                   1:   LOG VERSION
BHIS.                                                   R:   BRIEF HISTORY
FHIS.                                             RAW-LIS:   FULL HISTORY
LCNM.                                        SCHLUMBERGER:   LOGGING CONTRACTOR
TOOL.                             FDC/CNL/GR (COMPOSITED):   TOOL STRING
~Curve Information Block
#MNEM.UNIT                                        API CODE    No Description
#=========                                        ========    == ===========
DEPT.M                                       00 001 00 00:     1  DEPTH
CALI.IN                                                  :     2  Caliper
DRHO.G/CC                                                :     3  Bulk density correction
GR.GAPI                                                  :     4  Gamma Ray
NPHI.%                                                   :     5  Neutron porosity
RHOB.G/CC                                                :     6  Bulk density
TENS.LB                                                  :     7  Cable Tension
~ASCII
# ...
  616.2020    18.1226      .0636    75.2006  -999.2500     2.0326     -.6419
  616.3544    18.0458      .0542    77.0544  -999.2500     2.0292     -.6480
  616.5068    18.0458      .0493    76.1421  -999.2500     2.0227     -.6540
  616.6592    18.0458      .0682    75.7858  -999.2500     2.0204     -.6601
  616.8116    18.0458      .0633    75.9890  -999.2500     2.0194     -.6662
  616.9640    18.0458      .0597    76.5906  -999.2500     2.0191     -.6723
  617.1164    18.0458      .0752    77.2349  -999.2500     2.0250     -.6783
  617.2688    18.0458      .0874    78.5616  -999.2500     2.0322     -.6844
  617.4212    18.0996      .0781    79.9262  -999.2500     2.0340     -.6905
  617.5736    18.1674      .0753    75.6924  -999.2500     2.0341     -.6966
  617.7260    18.3718      .0690    71.6221  -999.2500     2.0339     -.7027
  617.8784    18.3116      .0545    72.6853  -999.2500     2.0300     -.7087
  618.0308    18.2224      .0407    72.3559  -999.2500     2.0242     -.7148
  618.1832    18.3128      .0338    70.9961  -999.2500     2.0263     -.7209
  618.3356    18.3247      .0564    72.3702  -999.2500     2.0406     -.7270
  618.4880    18.3446      .0809    72.4243  -999.2500     2.0622     -.7330
  618.6404    18.3446      .1027    71.8143  -999.2500     2.0802     -.7391
  618.7928    18.3247      .0936    70.6309  -999.2500     2.0793     -.7452
  618.9452    18.2849      .0831    71.9425  -999.2500     2.0658     -.7513
  619.0976    18.2849      .0766    71.9305  -999.2500     2.0501     -.7573
  619.2500    18.3516      .0588    69.1453  -999.2500     2.0331     -.7634
  619.4024    18.3645      .0590    67.5984  -999.2500     2.0273     -.7695
  619.5548    18.3289      .0695    68.5533  -999.2500     2.0301     -.7756
  619.7072    18.3247      .0479    69.7920  -999.2500     2.0229     -.7817
  619.8596    18.4117      .0422    70.8853  -999.2500     2.0100     -.7878
  620.0120    18.5419      .0544    69.0319  -999.2500     2.0045     -.7939
  620.1644    18.6528      .0671    70.2176  -999.2500     2.0038     -.8000
  620.3168    18.6829      .0637    71.9030  -999.2500     2.0028     -.8061
  620.4692    18.7632      .0500    70.7157  -999.2500     2.0107     -.8121
  620.6216    18.7804      .0642    69.7588  -999.2500     2.0309     -.8182
  620.7740    18.6622      .0690    70.2284  -999.2500     2.0488     -.8243
  620.9264    18.6203      .0692    68.6816  -999.2500     2.0603     -.8304
  621.0788    18.5455      .0621    68.6234  -999.2500     2.0741     -.8365
  621.2312    18.3918      .0789    71.2125  -999.2500     2.0876     -.8426
  621.3836    18.3905      .0765    71.5139  -999.2500     2.0907     -.8487
  621.5360    18.4908      .0531    71.8529  -999.2500     2.0854     -.8548
  621.6884    18.5837      .0431    69.8454  -999.2500     2.0786     -.8609
  621.8408    18.5837      .0612    67.1315  -999.2500     2.0694     -.8670
  621.9932    18.5637      .0512    67.2069  -999.2500     2.0537     -.8731
  622.1456    18.4938      .0419    68.1977  -999.2500     2.0370     -.8792
  622.2980    18.3446      .0458    69.0568  -999.2500     2.0333     -.8853
  622.4504    18.2627      .0647    69.9203  -999.2500     2.0420     -.8914
  622.6028    18.2186      .0777    68.3153  -999.2500     2.0477     -.8975
  622.7552    18.1384      .0736    68.7738  -999.2500     2.0464     -.9035
  622.9076    18.0458      .0731    66.5225  -999.2500     2.0452     -.9096
  623.0600    17.9881      .0664    64.3779  -999.2500     2.0437     -.9157
  623.2124    18.0227      .0553    66.6241  -999.2500     2.0404     -.9218
  623.3648    18.3691      .0666    69.4445  -999.2500     2.0418     -.9279
  623.5172    18.1929      .0764    70.4227  -999.2500     2.0448     -.9340
  623.6696    18.1236      .0808    71.8446  -999.2500     2.0425     -.9401
  623.8220    18.1355      .0663    71.8254  -999.2500     2.0382     -.9462
  623.9744    18.2446      .0544    69.3188  -999.2500     2.0392     -.9523
  624.1268    18.2052      .0651    66.7581  -999.2500     2.0448     -.9584
  624.2792    18.2052      .0691    66.3509  -999.2500     2.0480     -.9645
  624.4316    18.2251      .0722    67.2173  -999.2500     2.0494     -.9705
  624.5840    18.2935      .0586    66.4759  -999.2500     2.0497     -.9766
  624.7364    18.3332      .0576    64.7164  -999.2500     2.0502     -.9827
  624.8888    18.2988      .0640    64.7075  -999.2500     2.0529     -.9888
  625.0412    18.3812      .0705    67.5850  -999.2500     2.0539     -.9948
  625.1936    18.1861      .0654    72.0230  -999.2500     2.0509    -1.0009
  625.3460    18.1640      .0562    72.7948  -999.2500     2.0464    -1.0070
  625.4984    18.2587      .0459    69.9551  -999.2500     2.0456    -1.0131
  625.6508    18.2948      .0546    67.1901  -999.2500     2.0486    -1.0192
  625.8032    18.2871      .0715    65.8642  -999.2500     2.0443    -1.0252
  625.9556    18.1650      .0569    65.9663  -999.2500     2.0336    -1.0313
  626.1080    18.0214      .0627    67.8440  -999.2500     2.0339    -1.0374
  626.2604    17.9307      .0722    68.1473  -999.2500     2.0456    -1.0435
  626.4128    17.7418      .0790    67.3841  -999.2500     2.0598    -1.0495
  626.5652    17.4603      .0713    66.9323  -999.2500     2.0811    -1.0556
  626.7176    17.2816      .0629    66.9323  -999.2500     2.1161    -1.0617
  626.8700    17.6915      .0817    67.2937  -999.2500     2.1582    -1.0678
  627.0224    17.6944      .0944    67.7210  -999.2500     2.1884    -1.0739
  627.1748    17.7766      .1059    68.0945  -999.2500     2.1924    -1.0799
  627.3272    17.7870      .1114    68.3267  -999.2500     2.1766    -1.0860
  627.4796    17.9867      .1094    67.7252  -999.2500     2.1547    -1.0921
  627.6320    18.2717      .0901    65.7546  -999.2500     2.1361    -1.0982
  627.7844    18.0965      .0707    65.2716  -999.2500     2.1308    -1.1043
  627.9368    18.3150      .0597    66.3776  -999.2500     2.1329    -1.1103
  628.0892    18.4542      .0567    68.2314  -999.2500     2.1320    -1.1164
  628.2416    18.4244      .0759    65.0739  -999.2500     2.1326    -1.1225
  628.3940    18.3290      .0751    63.4375  -999.2500     2.1301    -1.1286
  628.5464    18.2749      .0548    62.5498  -999.2500     2.1256    -1.1347
  628.6988    18.4117      .0613    63.1886  -999.2500     2.1314    -1.1407
  628.8512    18.5322      .0674    65.1983  -999.2500     2.1341    -1.1468
  629.0036    18.4560      .0608    64.5961  -999.2500     2.1293    -1.1529
  629.1560    18.0005      .0874    65.0642  -999.2500     2.1328    -1.1590
  629.3084    17.7599      .0904    66.3672  -999.2500     2.1366    -1.1651
  629.4608    17.7171      .0795    67.3875  -999.2500     2.1254    -1.1711
  629.6132    17.7728      .0653    67.9892  -999.2500     2.1034    -1.1772
  629.7656    17.9485      .0727    68.3267  -999.2500     2.0839    -1.1833
  629.9180    18.0359      .0723    68.2433  -999.2500     2.0768    -1.1894
  630.0704    18.0359      .0833    67.0340  -999.2500     2.0828    -1.1955
  630.2228    18.0359      .0943    63.1751  -999.2500     2.0920    -1.2016
  630.3752    18.0553      .0977    61.2411  -999.2500     2.0975    -1.2076
  630.5276    18.0754      .0774    61.1115  -999.2500     2.1044    -1.2137
  630.6800    18.1509      .0903    62.3026  -999.2500     2.1159    -1.2198
  630.8324    18.3780      .0917    64.7266  -999.2500     2.1231    -1.2259
  630.9848    18.3341      .0670    67.3307  -999.2500     2.1251    -1.2320
  631.1372    18.4043      .0781    67.5322  -999.2500     2.1306    -1.2380
  631.2896    18.6371      .0827    67.8478  -999.2500     2.1348    -1.2441
  631.4420    18.8776      .0663    68.3146  -999.2500     2.1347    -1.2502
  631.5944    18.9605      .0666    69.2011  -999.2500     2.1410    -1.2563
  631.7468    18.6875      .0666    67.6426  -999.2500     2.1561    -1.2624
  631.8992    18.4042      .0704    65.2310  -999.2500     2.1638    -1.2685
