~VERSION INFORMATION
VERS.                                                 2.0:   CWLS Log ASCII Standard-VERSION 2.0
WRAP.                                                  NO:   One line per depth step
~Well Information Block
STRT.M                                           143.7500:   Top Depth
STOP.M                                          3055.0000:   Bottom Depth
STEP.M                                             .12500:   Depth Increment
NULL.                                            -999.250:   Null Value
FLD .                                                   -:   Field Name
WELL.                                             15/12-8:   NAME
WBN .                                             15/12-8:   WELLBORE
NATI.                                                 NOR:   COUNTRY
CTRY.                                                 NOR:   COUNTRY
COMP.                                             STATOIL:   OPERATOR
PROV.                                           NORTH SEA:   PROVINCE
COUN.                                      DEEPSEA BERGEN:   RIG NAME
SPUD.                                          1991/06/05:   SPUD DATE
LATI.                                         58 3 1.85 N:   SURF. LATITUDE
LONG.                                         1 58 3.41 E:   SURF. LONGITUDE
PBWE.                                             15/12-8:   PB WELL ID
APIN.                                             15/12-8:   PB WELLBORE ID
PBWS.                                                 all:   PB WELL NAME SET
~PARAMETER INFORMATION (log)
LNAM.                              ZDL/CNL/GR  COMPOSITED:   NAME
LTYP.                                         DEPTH MATCH:   LOG TYPE
LSRV.                                            DEN/NEUT:   LOG SERVICE
LSOU.                                             SPT/NPD:   LOG SOURCE
LVSN.                                                   1:   LOG VERSION
BHIS.                                                   R:   BRIEF HISTORY
FHIS.                                             RAW-LIS:   FULL HISTORY
LCNM.                                            ANADRILL:   LOGGING CONTRACTOR
TOOL.                             ZDL/CNL/GR (COMPOSITED):   TOOL STRING
~Curve Information Block
#MNEM.UNIT                                        API CODE    No Description
#=========                                        ========    == ===========
DEPT.M                                       00 001 00 00:     1  DEPTH
CAL.IN                                                   :     2  Caliper
CNC.%                                                    :     3  Neutron Porosity
GR.GAPI                                                  :     4  Gamma Ray
PE.B/E                                                   :     5  Youngs Modulus Apparent
SPD.                                                     :     6  Cable Speed
TTEN.LB                                                  :     7  Cable Tension
ZCOR.G/CC                                                :     8  Density Correction
ZDEN.G/CC                                                :     9  Bulk Density
~ASCII
# ...
  336.1250    10.8302  -999.2500    79.3666  -999.2500    10.6261   553.6383  -999.2500  -999.2500
  336.2500    10.9296  -999.2500    81.5914  -999.2500    10.6242   557.1283  -999.2500  -999.2500
  336.3750    10.7803  -999.2500    73.4367  -999.2500    10.6293   561.2085  -999.2500  -999.2500
  336.5000    10.0484  -999.2500    78.9948  -999.2500    10.6333   563.7065  -999.2500  -999.2500
  336.6250    10.3304  -999.2500    75.6592  -999.2500    10.6306   563.9896  -999.2500  -999.2500
  336.7500    11.0907  -999.2500    67.5031  -999.2500    10.6215   562.2380  -999.2500  -999.2500
  336.8750    11.5322  -999.2500    68.4213  -999.2500    10.6121   558.8708  -999.2500  -999.2500
  337.0000    12.7850  -999.2500    62.3068  -999.2500    10.6083   554.9685  -999.2500  -999.2500
  337.1250    14.0866  -999.2500    54.5201  -999.2500    10.6123   551.0093  -999.2500  -999.2500
  337.2500    14.6173  -999.2500    57.8527  -999.2500    10.6213   547.3169  -999.2500  -999.2500
  337.3750    13.3629  -999.2500    64.9021  -999.2500    10.6321   544.0043  -999.2500  -999.2500
  337.5000    12.0728  -999.2500    61.5678  -999.2500    10.6441   540.3418  -999.2500  -999.2500
  337.6250    11.7491  -999.2500    64.9018  -999.2500    10.6592   537.4816  -999.2500  -999.2500
  337.7500    11.2529  -999.2500    77.8768  -999.2500    10.6789   537.4658  -999.2500  -999.2500
  337.8750    12.2708  -999.2500    64.5357  -999.2500    10.6985   541.8898  -999.2500  -999.2500
  338.0000    13.1390  -999.2500    70.8347  -999.2500    10.7111   548.4027  -999.2500  -999.2500
  338.1250    14.4467  -999.2500    76.0285  -999.2500    10.7133   554.0104  -999.2500  -999.2500
  338.2500    10.6589  -999.2500    86.7786  -999.2500    10.7072   555.9716  -999.2500  -999.2500
  338.3750     9.1104  -999.2500    75.6637  -999.2500    10.6988   553.0161  -999.2500  -999.2500
  338.5000     9.1662  -999.2500    78.6298  -999.2500    10.6904   548.3400  -999.2500  -999.2500
  338.6250     9.6599  -999.2500    79.9223  -999.2500    10.6800   545.3269  -999.2500  -999.2500
  338.7500    11.2143  -999.2500    77.8858  -999.2500    10.6657   545.6970  -999.2500  -999.2500
  338.8750    13.0192  -999.2500    71.3937  -999.2500    10.6502   549.3221  -999.2500  -999.2500
  339.0000    12.6381  -999.2500    69.7270  -999.2500    10.6399   554.3606  -999.2500  -999.2500
  339.1250     9.7783  -999.2500    79.7354  -999.2500    10.6370   558.7804  -999.2500  -999.2500
  339.2500     8.8065  -999.2500    84.5588  -999.2500    10.6380   560.4027  -999.2500  -999.2500
  339.3750     8.7194  -999.2500    77.1490  -999.2500    10.6349   559.6617  -999.2500  -999.2500
  339.5000     8.7194  -999.2500    77.1526  -999.2500    10.6275   559.7725  -999.2500  -999.2500
  339.6250     8.7473  -999.2500    72.6904  -999.2500    10.6217   561.8591  -999.2500  -999.2500
  339.7500     8.7938  -999.2500    73.4335  -999.2500    10.6225   565.6621  -999.2500  -999.2500
  339.8750     9.3378  -999.2500    72.4982  -999.2500    10.6306   570.9448  -999.2500  -999.2500
  340.0000    11.0651  -999.2500    63.7894  -999.2500    10.6401   576.5203  -999.2500  -999.2500
  340.1250    12.7114  -999.2500    76.2122  -999.2500    10.6467   580.9208  -999.2500  -999.2500
  340.2500    12.2835  -999.2500    66.0242  -999.2500    10.6490   582.6727  -999.2500  -999.2500
  340.3750    11.0896  -999.2500    70.4733  -999.2500    10.6477   580.4683  -999.2500  -999.2500
  340.5000     9.3092  -999.2500    72.3290  -999.2500    10.6435   575.8914  -999.2500  -999.2500
  340.6250     9.0174  -999.2500    69.7234  -999.2500    10.6352   571.0992  -999.2500  -999.2500
  340.7500     8.6823  -999.2500    66.0187  -999.2500    10.6233   567.8103  -999.2500  -999.2500
  340.8750     8.7319  -999.2500    74.7234  -999.2500    10.6098   566.4655  -999.2500  -999.2500
  341.0000     8.8001  -999.2500    72.6823  -999.2500    10.5996   565.6696  -999.2500  -999.2500
  341.1250     8.9894  -999.2500    77.3278  -999.2500    10.5960   564.8551  -999.2500  -999.2500
  341.2500    10.6803  -999.2500    80.8478  -999.2500    10.6008   564.0653  -999.2500  -999.2500
  341.3750    11.9976  -999.2500    77.7031  -999.2500    10.6156   563.5553  -999.2500  -999.2500
  341.5000    10.9434  -999.2500    85.2992  -999.2500    10.6377   563.3533  -999.2500  -999.2500
  341.6250    10.3149  -999.2500    76.7730  -999.2500    10.6645   563.3422  -999.2500  -999.2500
  341.7500    10.8549  -999.2500    76.3982  -999.2500    10.6904   563.4142  -999.2500  -999.2500
  341.8750    10.6248  -999.2500    77.5154  -999.2500    10.7078   562.9678  -999.2500  -999.2500
  342.0000     9.7687  -999.2500    79.7393  -999.2500    10.7150   561.6581  -999.2500  -999.2500
  342.1250     9.8338  -999.2500    77.5129  -999.2500    10.7145   560.5858  -999.2500  -999.2500
  342.2500    10.4326  -999.2500    86.0373  -999.2500    10.7107   560.6938  -999.2500  -999.2500
  342.3750     8.8471  -999.2500    78.6235  -999.2500    10.7052   561.9739  -999.2500  -999.2500
  342.5000     9.6380  -999.2500    81.9564  -999.2500    10.6968   563.4082  -999.2500  -999.2500
  342.6250     8.9772  -999.2500    76.9585  -999.2500    10.6848   563.0742  -999.2500  -999.2500
  342.7500     9.2654  -999.2500    66.0201  -999.2500    10.6731   559.9719  -999.2500  -999.2500
  342.8750     9.8178  -999.2500    67.1219  -999.2500    10.6705   554.9336  -999.2500  -999.2500
  343.0000     9.8671  -999.2500    61.5624  -999.2500    10.6777   551.2555  -999.2500  -999.2500
  343.1250    11.7800  -999.2500    67.1275  -999.2500    10.6901   551.0371  -999.2500  -999.2500
  343.2500    12.9159  -999.2500    61.5692  -999.2500    10.7009   554.0757  -999.2500  -999.2500
  343.3750    11.2888  -999.2500    66.0101  -999.2500    10.7063   558.5670  -999.2500  -999.2500
  343.5000     9.9427  -999.2500    61.9328  -999.2500    10.7054   561.4235  -999.2500  -999.2500
  343.6250     9.7034  -999.2500    64.5321  -999.2500    10.6979   560.9741  -999.2500  -999.2500
  343.7500     9.4273  -999.2500    66.0147  -999.2500    10.6850   557.7896  -999.2500  -999.2500
  343.8750     9.2471  -999.2500    66.0156  -999.2500    10.6692   553.2466  -999.2500  -999.2500
  344.0000     9.1912  -999.2500    66.0156  -999.2500    10.6559   550.0673  -999.2500  -999.2500
  344.1250     9.1912  -999.2500    77.1395  -999.2500    10.6477   548.7358  -999.2500  -999.2500
  344.2500     9.1416  -999.2500    70.4724  -999.2500    10.6418   548.1697  -999.2500  -999.2500
  344.3750     9.1322  -999.2500    64.9075  -999.2500    10.6328   547.5718  -999.2500  -999.2500
  344.5000     9.0360  -999.2500    76.7632  -999.2500    10.6186   546.0342  -999.2500  -999.2500
  344.6250     8.9491  -999.2500    75.8452  -999.2500    10.6032   543.2739  -999.2500  -999.2500
  344.7500     8.6202  -999.2500    77.1395  -999.2500    10.5921   540.1826  -999.2500  -999.2500
  344.8750     8.5019  -999.2500    78.4466  -999.2500    10.5917   537.9808  -999.2500  -999.2500
  345.0000     8.2786  -999.2500    83.4507  -999.2500    10.5995   536.8872  -999.2500  -999.2500
  345.1250     8.2599  -999.2500    82.8898  -999.2500    10.6115   536.4639  -999.2500  -999.2500
  345.2500     8.4461  -999.2500    85.3001  -999.2500    10.6232   536.8489  -999.2500  -999.2500
  345.3750     8.7940  -999.2500    86.4055  -999.2500    10.6336   537.8385  -999.2500  -999.2500
  345.5000     9.0173  -999.2500    76.0296  -999.2500    10.6441   538.7949  -999.2500  -999.2500
  345.6250     9.2688  -999.2500    77.8831  -999.2500    10.6568   540.0900  -999.2500  -999.2500
  345.7500     9.6505  -999.2500    74.9188  -999.2500    10.6716   541.4775  -999.2500  -999.2500
  345.8750     9.7564  -999.2500    71.5814  -999.2500    10.6848   542.4408  -999.2500  -999.2500
  346.0000    10.3083  -999.2500    73.4349  -999.2500    10.6935   543.4277  -999.2500  -999.2500
  346.1250    10.9916  -999.2500    69.7248  -999.2500    10.6973   544.8661  -999.2500  -999.2500
