~VERSION INFORMATION
VERS.                                                 2.0:   CWLS Log ASCII Standard-VERSION 2.0
WRAP.                                                  NO:   One line per depth step
~Well Information Block
STRT.M                                           143.7500:   Top Depth
STOP.M                                          3055.0000:   Bottom Depth
STEP.M                                             .12500:   Depth Increment
NULL.                                            -999.250:   Null Value
FLD .                                                   -:   Field Name
WELL.                                             15/12-8:   NAME
WBN .                                             15/12-8:   WELLBORE
NATI.                                                 NOR:   COUNTRY
CTRY.                                                 NOR:   COUNTRY
COMP.                                             STATOIL:   OPERATOR
PROV.                                           NORTH SEA:   PROVINCE
COUN.                                      DEEPSEA BERGEN:   RIG NAME
SPUD.                                          1991/06/05:   SPUD DATE
LATI.                                         58 3 1.85 N:   SURF. LATITUDE
LONG.                                         1 58 3.41 E:   SURF. LONGITUDE
PBWE.                                             15/12-8:   PB WELL ID
APIN.                                             15/12-8:   PB WELLBORE ID
PBWS.                                                 all:   PB WELL NAME SET
~PARAMETER INFORMATION (log)
LNAM.                              ZDL/CNL/GR  COMPOSITED:   NAME
LTYP.                                         DEPTH MATCH:   LOG TYPE
LSRV.                                            DEN/NEUT:   LOG SERVICE
LSOU.                                             SPT/NPD:   LOG SOURCE
LVSN.                                                   1:   LOG VERSION
BHIS.                                                   R:   BRIEF HISTORY
FHIS.                                             RAW-LIS:   FULL HISTORY
LCNM.                                            ANADRILL:   LOGGING CONTRACTOR
TOOL.                             ZDL/CNL/GR (COMPOSITED):   TOOL STRING
~Curve Information Block
#MNEM.UNIT                                        API CODE    No Description
#=========                                        ========    == ===========
DEPT.M                                       00 001 00 00:     1  DEPTH
CAL.IN                                                   :     2  Caliper
CNC.%                                                    :     3  Neutron Porosity
GR.GAPI                                                  :     4  Gamma Ray
PE.B/E                                                   :     5  Youngs Modulus Apparent
SPD.                                                     :     6  Cable Speed
TTEN.LB                                                  :     7  Cable Tension
ZCOR.G/CC                                                :     8  Density Correction
ZDEN.G/CC                                                :     9  Bulk Density
~ASCII
# ...
 2685.1250    12.8852  -999.2500    30.7128     5.6741    10.4138  1650.1423      .0070     2.5023
 2685.2500    12.8852  -999.2500    28.9825     4.7349    10.3898  1652.1106      .0178     2.5269
 2685.3750    12.8852  -999.2500    30.8726     5.5019    10.3682  1656.8601      .0257     2.5262
 2685.5000    12.8852  -999.2500    32.4478     6.2610    10.3549  1660.6997     -.0036     2.4846
 2685.6250    12.8852  -999.2500    33.0794     5.1760    10.3546  1662.1909      .0117     2.5234
 2685.7500    12.8852  -999.2500    28.3524     5.9501    10.3666  1662.4524     -.0184     2.4759
 2685.8750    12.8852  -999.2500    31.6602     5.7864    10.3865  1665.0393     -.0239     2.4513
 2686.0000    12.8852  -999.2500    31.5027     5.1973    10.4069  1670.9363      .0080     2.4854
 2686.1250    12.8852  -999.2500    33.2330     4.6982    10.4227  1678.3376      .0232     2.5195
 2686.2500    12.8852  -999.2500    30.2426     8.4152    10.4307  1684.7769      .0137     2.4718
 2686.3750    12.8852  -999.2500    35.2830     4.8540    10.4270  1688.9194      .0104     2.5138
 2686.5000    12.8852  -999.2500    31.1877     5.9568    10.4135  1691.7622     -.0089     2.4868
 2686.6250    12.8852  -999.2500    30.8757     6.5945    10.3951  1693.5728     -.0107     2.4744
 2686.7500    12.8852  -999.2500    33.3928     4.7349    10.3770  1693.4541      .0443     2.5639
 2686.8750    12.8852  -999.2500    37.4882     4.7326    10.3621  1690.3884     -.0152     2.4878
 2687.0000    12.8852  -999.2500    34.9680     5.3162    10.3513  1685.1394     -.0005     2.5134
 2687.1250    12.8852  -999.2500    32.9164     4.9126    10.3479  1678.6770      .0141     2.5280
 2687.2500    12.8852  -999.2500    36.5431     4.5654    10.3543  1671.8948     -.0080     2.5086
 2687.3750    12.8852  -999.2500    31.8177     5.8383    10.3678  1665.3911      .0042     2.5263
 2687.5000    12.8852  -999.2500    37.4882     6.4605    10.3820  1660.6792      .0003     2.5094
 2687.6250    12.8852  -999.2500    41.2731     5.9704    10.3939  1659.7991     -.0097     2.5174
 2687.7500    12.8852  -999.2500    39.6934     5.5019    10.4026  1663.3062     -.0007     2.5468
 2687.8750    12.8852  -999.2500    39.0633     5.0599    10.4104  1668.8850     -.0072     2.5342
 2688.0000    12.8852  -999.2500    35.5980     6.1146    10.4183  1672.8137      .0102     2.5307
 2688.1250    12.8852  -999.2500    39.7057     5.9704    10.4224  1673.8850     -.0190     2.4917
 2688.2500    12.8852  -999.2500    38.4333     4.9126    10.4171  1673.1555     -.0055     2.5188
 2688.3750    12.8852  -999.2500    37.4882     5.9692    10.4022  1673.2732     -.0072     2.5041
 2688.5000    12.8852  -999.2500    36.8581     5.5076    10.3844  1675.1780      .0346     2.5707
 2688.6250    12.8852  -999.2500    40.0130     5.2536    10.3675  1678.3298      .0052     2.5281
 2688.7500    12.8852  -999.2500    42.8436     4.4035    10.3542  1681.7839      .0218     2.5744
 2688.8750    12.8852  -999.2500    41.8986     4.9267    10.3482  1684.0471      .0032     2.5416
 2689.0000    12.8852  -999.2500    42.2136     5.7260    10.3496  1683.9954     -.0011     2.5452
 2689.1250    12.8852  -999.2500    40.1512     6.3274    10.3581  1681.2644      .0042     2.5387
 2689.2500    12.8852  -999.2500    42.8436     5.7198    10.3716  1676.8340      .0384     2.5805
 2689.3750    12.8852  -999.2500    40.9535     6.4209    10.3848  1673.0557      .0208     2.5719
 2689.5000    12.8852  -999.2500    43.7887     5.6109    10.3932  1671.4312      .0053     2.5333
 2689.6250    12.8852  -999.2500    43.3139     5.2536    10.3954  1671.6377      .0060     2.5194
 2689.7500    12.8852  -999.2500    47.8841     5.5019    10.3910  1672.2329     -.0028     2.4961
 2689.8750    12.8852  -999.2500    37.6457     5.1997    10.3798  1672.3433     -.0040     2.5269
 2690.0000    12.8852  -999.2500    41.5835     5.4313    10.3641  1672.6208      .0061     2.5391
 2690.1250    12.8852  -999.2500    38.9035     5.4582    10.3475  1673.0400      .0132     2.5485
 2690.2500    12.8852  -999.2500    39.0633     6.4524    10.3349  1672.2317     -.0133     2.5280
 2690.3750    12.8852  -999.2500    41.2685     4.9611    10.3323  1669.4583      .0069     2.5306
 2690.5000    12.8852  -999.2500    40.6385     5.0761    10.3396  1666.4629      .0242     2.5352
 2690.6250    12.8852  -999.2500    37.1701     4.2193    10.3544  1665.0918      .0230     2.5524
 2690.7500    12.8852  -999.2500    37.8032     5.7198    10.3746  1666.2715      .0570     2.6137
 2690.8750    12.8852  -999.2500    42.6861     5.8083    10.3987  1669.3201     -.0116     2.5044
 2691.0000    12.8852  -999.2500    39.3783     6.3386    10.4238  1671.7146     -.0258     2.4799
 2691.1250    12.8852  -999.2500    38.4394     4.6720    10.4462  1671.7419      .0134     2.5386
 2691.2500    12.8852  -999.2500    39.0633     4.5654    10.4621  1669.6235      .0140     2.5180
 2691.3750    12.8852  -999.2500    33.2353     4.8260    10.4668  1667.9185      .0167     2.5089
 2691.5000    12.8852  -999.2500    35.5980     5.0059    10.4599  1668.3767      .0250     2.4964
 2691.6250    12.8852  -999.2500    31.8131     5.0528    10.4420  1671.0261     -.0054     2.4491
 2691.7500    12.8852  -999.2500    30.8726     4.4035    10.4160  1674.9001      .0330     2.5383
 2691.8750    12.8852  -999.2500    41.4260     4.5654    10.3866  1678.5808      .0336     2.5317
 2692.0000    12.8852  -999.2500    38.4333     5.1426    10.3611  1680.6584      .0386     2.5617
 2692.1250    12.8852  -999.2500    44.4296     6.6966    10.3432  1681.1045     -.0078     2.4984
 2692.2500    12.8852  -999.2500    43.4737     5.7198    10.3334  1680.9678     -.0008     2.5435
 2692.3750    12.8852  -999.2500    38.1182     5.2463    10.3336  1680.5796      .0170     2.5282
 2692.5000    12.8852  -999.2500    39.0633     4.6739    10.3446  1679.3083      .0258     2.5607
 2692.6250    12.8852  -999.2500    35.7563     5.9041    10.3664  1676.8804      .0115     2.5535
 2692.7500    12.8852  -999.2500    36.5431     7.3328    10.3927  1673.4397      .0090     2.5260
 2692.8750    12.8852  -999.2500    42.0561     5.1999    10.4123  1669.1157      .0085     2.5503
 2693.0000    12.8852  -999.2500    38.4333     5.7260    10.4175  1664.6465      .0118     2.5511
 2693.1250    12.8852  -999.2500    37.6434     5.1707    10.4064  1661.1479     -.0106     2.5031
 2693.2500    12.8852  -999.2500    37.8032     4.9126    10.3833  1659.4307      .0116     2.5354
 2693.3750    12.8852  -999.2500    36.2281     6.2176    10.3574  1660.7478     -.0017     2.4938
 2693.5000    12.9344  -999.2500    42.8436     7.7176    10.3383  1665.1218      .0038     2.5026
 2693.6250    12.9097  -999.2500    39.5274     6.7464    10.3315  1671.6211     -.0065     2.5135
 2693.7500    12.8852  -999.2500    43.4737     7.3328    10.3382  1677.5837     -.0015     2.5100
 2693.8750    12.9098  -999.2500    37.1732     5.6140    10.3539  1679.4839      .0095     2.5102
 2694.0000    12.9344  -999.2500    40.6385     5.5246    10.3690  1677.1248     -.0076     2.5026
 2694.1250    12.8852  -999.2500    38.9004     5.0992    10.3813  1672.5103     -.0278     2.4700
 2694.2500    12.8852  -999.2500    42.2136     8.0275    10.3949  1668.9004     -.0210     2.4842
 2694.3750    12.8852  -999.2500    36.0706     5.0599    10.4159  1669.5107      .0276     2.5686
 2694.5000    12.8852  -999.2500    34.9680     5.6109    10.4423  1673.5664     -.0167     2.4909
 2694.6250    12.8852  -999.2500    32.9195     5.5562    10.4677  1678.5164     -.0222     2.5049
 2694.7500    12.8852  -999.2500    38.4333     6.1938    10.4839  1681.7510      .0228     2.5469
 2694.8750    12.9590  -999.2500    37.9607     6.0110    10.4809  1682.3752      .0005     2.5279
 2695.0000    12.8852  -999.2500    35.2830     5.3796    10.4611  1682.0820      .0256     2.5569
 2695.1250    12.9591  -999.2500    37.3361     7.1662    10.4310  1682.0681      .0214     2.5308
