~VERSION INFORMATION
VERS.                                                 2.0:   CWLS Log ASCII Standard-VERSION 2.0
WRAP.                                                  NO:   One line per depth step
~Well Information Block
STRT.M                                           143.7500:   Top Depth
STOP.M                                          3055.0000:   Bottom Depth
STEP.M                                             .12500:   Depth Increment
NULL.                                            -999.250:   Null Value
FLD .                                                   -:   Field Name
WELL.                                             15/12-8:   NAME
WBN .                                             15/12-8:   WELLBORE
NATI.                                                 NOR:   COUNTRY
CTRY.                                                 NOR:   COUNTRY
COMP.                                             STATOIL:   OPERATOR
PROV.                                           NORTH SEA:   PROVINCE
COUN.                                      DEEPSEA BERGEN:   RIG NAME
SPUD.                                          1991/06/05:   SPUD DATE
LATI.                                         58 3 1.85 N:   SURF. LATITUDE
LONG.                                         1 58 3.41 E:   SURF. LONGITUDE
PBWE.                                             15/12-8:   PB WELL ID
APIN.                                             15/12-8:   PB WELLBORE ID
PBWS.                                                 all:   PB WELL NAME SET
~PARAMETER INFORMATION (log)
LNAM.                              ZDL/CNL/GR  COMPOSITED:   NAME
LTYP.                                         DEPTH MATCH:   LOG TYPE
LSRV.                                            DEN/NEUT:   LOG SERVICE
LSOU.                                             SPT/NPD:   LOG SOURCE
LVSN.                                                   1:   LOG VERSION
BHIS.                                                   R:   BRIEF HISTORY
FHIS.                                             RAW-LIS:   FULL HISTORY
LCNM.                                            ANADRILL:   LOGGING CONTRACTOR
TOOL.                             ZDL/CNL/GR (COMPOSITED):   TOOL STRING
~Curve Information Block
#MNEM.UNIT                                        API CODE    No Description
#=========                                        ========    == ===========
DEPT.M                                       00 001 00 00:     1  DEPTH
CAL.IN                                                   :     2  Caliper
CNC.%                                                    :     3  Neutron Porosity
GR.GAPI                                                  :     4  Gamma Ray
PE.B/E                                                   :     5  Youngs Modulus Apparent
SPD.                                                     :     6  Cable Speed
TTEN.LB                                                  :     7  Cable Tension
ZCOR.G/CC                                                :     8  Density Correction
ZDEN.G/CC                                                :     9  Bulk Density
~ASCII
# ...
  153.8750    19.4106  -999.2500    12.2385  -999.2500      .0000      .0000  -999.2500  -999.2500
  154.0000    19.4044  -999.2500    12.9814  -999.2500      .0000      .0000  -999.2500  -999.2500
  154.1250    19.4075  -999.2500    10.3845  -999.2500      .0000      .0000  -999.2500  -999.2500
  154.2500    19.4106  -999.2500     7.4175  -999.2500      .0000      .0000  -999.2500  -999.2500
  154.3750    19.4199  -999.2500    12.6097  -999.2500      .0000      .0000  -999.2500  -999.2500
  154.5000    19.4106  -999.2500    11.4974  -999.2500      .0000      .0000  -999.2500  -999.2500
  154.6250    19.4106  -999.2500    10.9408  -999.2500      .0000      .0000  -999.2500  -999.2500
  154.7500    19.4106  -999.2500    10.3845  -999.2500      .0000      .0000  -999.2500  -999.2500
  154.8750    19.4106  -999.2500    12.0533  -999.2500      .0000      .0000  -999.2500  -999.2500
  155.0000    19.4106  -999.2500    11.8682  -999.2500      .0000      .0000  -999.2500  -999.2500
  155.1250    19.4106  -999.2500     9.4573  -999.2500      .0000      .0000  -999.2500  -999.2500
  155.2500    19.4230  -999.2500    11.1262  -999.2500      .0000      .0000  -999.2500  -999.2500
  155.3750    19.4106  -999.2500    10.3845  -999.2500      .0000      .0000  -999.2500  -999.2500
  155.5000    19.4106  -999.2500     8.9014  -999.2500      .0000      .0000  -999.2500  -999.2500
  155.6250    19.4106  -999.2500     8.5301  -999.2500      .0000      .0000  -999.2500  -999.2500
  155.7500    19.4106  -999.2500     7.4175  -999.2500      .0000      .0000  -999.2500  -999.2500
  155.8750    19.4137  -999.2500     9.4573  -999.2500      .0000      .0000  -999.2500  -999.2500
  156.0000    19.4168  -999.2500     8.1595  -999.2500      .0000      .0000  -999.2500  -999.2500
  156.1250    19.4199  -999.2500     9.6427  -999.2500      .0000      .0000  -999.2500  -999.2500
  156.2500    19.4106  -999.2500     5.1922  -999.2500      .0000      .0000  -999.2500  -999.2500
  156.3750    19.4199  -999.2500     5.9340  -999.2500      .0000      .0000  -999.2500  -999.2500
  156.5000    19.4106  -999.2500     7.4170  -999.2500      .0000      .0000  -999.2500  -999.2500
  156.6250    19.4106  -999.2500    10.0136  -999.2500      .0000      .0000  -999.2500  -999.2500
  156.7500    19.4106  -999.2500     5.9340  -999.2500      .0000      .0000  -999.2500  -999.2500
  156.8750    19.4075  -999.2500     6.6755  -999.2500      .0000      .0000  -999.2500  -999.2500
  157.0000    19.4044  -999.2500     8.1595  -999.2500      .0000      .0000  -999.2500  -999.2500
  157.1250    19.4106  -999.2500     6.3049  -999.2500      .0000      .0000  -999.2500  -999.2500
  157.2500    19.4106  -999.2500     3.7087  -999.2500      .0000      .0000  -999.2500  -999.2500
  157.3750    19.4106  -999.2500     5.7486  -999.2500      .0000      .0000  -999.2500  -999.2500
  157.5000    19.4044  -999.2500     5.1922  -999.2500      .0000      .0000  -999.2500  -999.2500
  157.6250    19.3889  -999.2500    10.7553  -999.2500      .0000      .0000  -999.2500  -999.2500
  157.7500    19.3485  -999.2500     7.4175  -999.2500      .0000      .0000  -999.2500  -999.2500
  157.8750    19.3485  -999.2500     7.0463  -999.2500      .0000      .0000  -999.2500  -999.2500
  158.0000    19.3423  -999.2500     8.9014  -999.2500      .0000      .0000  -999.2500  -999.2500
  158.1250    19.3361  -999.2500     7.4175  -999.2500      .0000      .0000  -999.2500  -999.2500
  158.2500    19.3485  -999.2500     7.4175  -999.2500      .0000      .0000  -999.2500  -999.2500
  158.3750    19.3454  -999.2500     7.4175  -999.2500      .0000      .0000  -999.2500  -999.2500
  158.5000    19.3361  -999.2500    10.0128  -999.2500      .0000      .0000  -999.2500  -999.2500
  158.6250    19.3361  -999.2500    11.4971  -999.2500      .0000      .0000  -999.2500  -999.2500
  158.7500    19.3361  -999.2500    10.3845  -999.2500      .0000      .0000  -999.2500  -999.2500
  158.8750    19.3361  -999.2500    11.6828  -999.2500      .0000      .0000  -999.2500  -999.2500
  159.0000    19.3361  -999.2500    11.4963  -999.2500      .0000      .0000  -999.2500  -999.2500
  159.1250    19.3361  -999.2500    14.0932  -999.2500      .0000      .0000  -999.2500  -999.2500
  159.2500    19.3361  -999.2500    14.0932  -999.2500      .0000      .0000  -999.2500  -999.2500
  159.3750    19.3361  -999.2500    10.9408  -999.2500      .0000      .0000  -999.2500  -999.2500
  159.5000    19.3361  -999.2500    11.4968  -999.2500      .0000      .0000  -999.2500  -999.2500
  159.6250    19.3361  -999.2500    13.7223  -999.2500      .0000      .0000  -999.2500  -999.2500
  159.7500    19.3361  -999.2500    10.3845  -999.2500      .0000      .0000  -999.2500  -999.2500
  159.8750    19.3268  -999.2500     8.3444  -999.2500      .0000      .0000  -999.2500  -999.2500
  160.0000    19.3299  -999.2500    11.1262  -999.2500      .0000      .0000  -999.2500  -999.2500
  160.1250    19.3330  -999.2500    11.1262  -999.2500      .0000      .0000  -999.2500  -999.2500
  160.2500    19.3237  -999.2500     8.9010  -999.2500      .0000      .0000  -999.2500  -999.2500
  160.3750    19.3330  -999.2500    12.6097  -999.2500      .0000      .0000  -999.2500  -999.2500
  160.5000    19.3299  -999.2500    10.7559  -999.2500      .0000      .0000  -999.2500  -999.2500
  160.6250    19.3268  -999.2500    10.5699  -999.2500      .0000      .0000  -999.2500  -999.2500
  160.7500    19.3237  -999.2500    16.3185  -999.2500      .0000      .0000  -999.2500  -999.2500
  160.8750    19.3237  -999.2500     6.6755  -999.2500      .0000      .0000  -999.2500  -999.2500
  161.0000    19.3237  -999.2500    11.4963  -999.2500      .0000      .0000  -999.2500  -999.2500
  161.1250    19.3237  -999.2500    15.2058  -999.2500      .0000      .0000  -999.2500  -999.2500
  161.2500    19.3237  -999.2500     8.9010  -999.2500      .0000      .0000  -999.2500  -999.2500
  161.3750    19.3237  -999.2500     9.4571  -999.2500      .0000      .0000  -999.2500  -999.2500
  161.5000    19.3237  -999.2500    10.7555  -999.2500      .0000      .0000  -999.2500  -999.2500
  161.6250    19.3237  -999.2500    10.3845  -999.2500      .0000      .0000  -999.2500  -999.2500
  161.7500    19.3237  -999.2500    10.3845  -999.2500      .0000      .0000  -999.2500  -999.2500
  161.8750    19.3237  -999.2500    11.4970  -999.2500      .0000      .0000  -999.2500  -999.2500
  162.0000    19.3237  -999.2500    11.8682  -999.2500      .0000      .0000  -999.2500  -999.2500
  162.1250    19.3237  -999.2500    10.5699  -999.2500      .0000      .0000  -999.2500  -999.2500
  162.2500    19.2988  -999.2500     8.9010  -999.2500      .0000      .0000  -999.2500  -999.2500
  162.3750    19.2461  -999.2500    10.7559  -999.2500      .0000      .0000  -999.2500  -999.2500
  162.5000    19.2181  -999.2500     4.4507  -999.2500      .0000      .0000  -999.2500  -999.2500
  162.6250    19.2088  -999.2500     4.8214  -999.2500      .0000      .0000  -999.2500  -999.2500
  162.7500    19.2119  -999.2500     5.1922  -999.2500      .0000      .0000  -999.2500  -999.2500
  162.8750    19.2119  -999.2500     7.0463  -999.2500      .0000      .0000  -999.2500  -999.2500
  163.0000    19.2119  -999.2500     6.3061  -999.2500      .0000      .0000  -999.2500  -999.2500
  163.1250    19.2119  -999.2500     2.2252  -999.2500      .0000      .0000  -999.2500  -999.2500
  163.2500    19.2119  -999.2500     3.7087  -999.2500      .0000      .0000  -999.2500  -999.2500
  163.3750    19.2119  -999.2500     4.8215  -999.2500      .0000      .0000  -999.2500  -999.2500
  163.5000    19.2119  -999.2500     4.8210  -999.2500      .0000      .0000  -999.2500  -999.2500
  163.6250    19.2119  -999.2500     3.1524  -999.2500      .0000      .0000  -999.2500  -999.2500
  163.7500    19.1871  -999.2500     5.1922  -999.2500      .0000      .0000  -999.2500  -999.2500
  163.8750    19.1902  -999.2500     2.0394  -999.2500      .0000      .0000  -999.2500  -999.2500
