~VERSION INFORMATION
VERS.                                                 2.0:   CWLS Log ASCII Standard-VERSION 2.0
WRAP.                                                  NO:   One line per depth step
~Well Information Block
STRT.M                                           143.7500:   Top Depth
STOP.M                                          3055.0000:   Bottom Depth
STEP.M                                             .12500:   Depth Increment
NULL.                                            -999.250:   Null Value
FLD .                                                   -:   Field Name
WELL.                                             15/12-8:   NAME
WBN .                                             15/12-8:   WELLBORE
NATI.                                                 NOR:   COUNTRY
CTRY.                                                 NOR:   COUNTRY
COMP.                                             STATOIL:   OPERATOR
PROV.                                           NORTH SEA:   PROVINCE
COUN.                                      DEEPSEA BERGEN:   RIG NAME
SPUD.                                          1991/06/05:   SPUD DATE
LATI.                                         58 3 1.85 N:   SURF. LATITUDE
LONG.                                         1 58 3.41 E:   SURF. LONGITUDE
PBWE.                                             15/12-8:   PB WELL ID
APIN.                                             15/12-8:   PB WELLBORE ID
PBWS.                                                 all:   PB WELL NAME SET
~PARAMETER INFORMATION (log)
LNAM.                              ZDL/CNL/GR  COMPOSITED:   NAME
LTYP.                                         DEPTH MATCH:   LOG TYPE
LSRV.                                            DEN/NEUT:   LOG SERVICE
LSOU.                                             SPT/NPD:   LOG SOURCE
LVSN.                                                   1:   LOG VERSION
BHIS.                                                   R:   BRIEF HISTORY
FHIS.                                             RAW-LIS:   FULL HISTORY
LCNM.                                            ANADRILL:   LOGGING CONTRACTOR
TOOL.                             ZDL/CNL/GR (COMPOSITED):   TOOL STRING
~Curve Information Block
#MNEM.UNIT                                        API CODE    No Description
#=========                                        ========    == ===========
DEPT.M                                       00 001 00 00:     1  DEPTH
CAL.IN                                                   :     2  Caliper
CNC.%                                                    :     3  Neutron Porosity
GR.GAPI                                                  :     4  Gamma Ray
PE.B/E                                                   :     5  Youngs Modulus Apparent
SPD.                                                     :     6  Cable Speed
TTEN.LB                                                  :     7  Cable Tension
ZCOR.G/CC                                                :     8  Density Correction
ZDEN.G/CC                                                :     9  Bulk Density
~ASCII
# ...
 2867.3750     8.4776    24.2940    61.7496     3.3832    10.3366   -18.0014      .0577     2.3750
 2867.5000     8.5215    27.3632    57.5686     4.0553    10.3390   -13.3661      .0635     2.3534
 2867.6250     8.5631    25.7617    63.5287     4.6372    10.3409    -9.6055      .0119     2.3186
 2867.7500     8.5563    23.9173    75.2573     4.1530    10.3434    -7.5346      .0132     2.3434
 2867.8750     8.5169    23.7415    68.0210     4.4280    10.3439    -9.9735      .0615     2.4106
 2868.0000     8.5351    23.1587    70.7547     3.8903    10.3405   -18.8843      .0386     2.3941
 2868.1250     8.5533    24.7912    66.2427     3.4735    10.3342   -32.8750      .0393     2.3744
 2868.2500     8.5169    19.7429    51.4580     3.3531    10.3293   -45.5361      .0717     2.3877
 2868.3750     8.4995    16.1172    48.8851     3.7666    10.3302   -47.7579      .0180     2.3925
 2868.5000     8.4654    12.7068    49.5283     3.0481    10.3359   -38.8681      .0271     2.4697
 2868.6250     8.3768    17.1651    43.8835     3.3558    10.3440   -23.6023      .0865     2.5089
 2868.7500     8.3776    16.8905    43.7393     3.4735    10.3517    -9.2539      .0352     2.4036
 2868.8750     8.5116    15.5699    54.9957     4.3462    10.3566    -4.4350      .0431     2.4627
 2869.0000     8.6305    17.6475    68.8250     3.7395    10.3583   -10.9832      .0402     2.5058
 2869.1250     8.6586    18.1960    73.9740     4.1164    10.3561   -25.5799      .0432     2.5247
 2869.2500     8.6926    25.7810    84.9057     5.6193    10.3487   -40.9374      .0539     2.5095
 2869.3750     8.6631    22.7540    84.7449     4.1635    10.3364   -49.0235      .0912     2.5726
 2869.5000     8.6305    25.5035    88.1218     4.2507    10.3241   -47.2754      .0555     2.5369
 2869.6250     8.6389    26.7776    91.9906     4.7176    10.3136   -38.8378      .0433     2.5507
 2869.7500     8.6533    26.0220   102.9160     3.8643    10.3033   -29.6393      .0319     2.5620
 2869.8750     8.6267    29.3994   100.3431     6.1685    10.2928   -25.0793      .0175     2.5355
 2870.0000     8.5806    29.9298    94.2324     7.6157    10.2862   -24.7402      .0443     2.5357
 2870.1250     8.6776    25.4827    94.4035     5.4653    10.2869   -25.5477      .1243     2.6264
 2870.2500     8.7350    21.4838    90.0515     3.7287    10.2946   -24.9449      .1066     2.6096
 2870.3750     8.7320    31.5398    90.0515     3.5712    10.3053   -23.3582      .0721     2.5323
 2870.5000     8.7320    25.4754    79.7599     4.2507    10.3135   -22.7935      .0449     2.4905
 2870.6250     8.7343    19.1694    78.6366     3.9547    10.3178   -22.7897      .0257     2.4790
 2870.7500     8.7350    24.5899    82.9760     3.2373    10.3190   -20.9458      .0586     2.5233
 2870.8750     8.7350    23.9711    78.4734     4.0810    10.3200   -15.6915      .0565     2.5097
 2871.0000     8.7562    18.8722    81.0463     4.0857    10.3223    -9.0434      .0323     2.5425
 2871.1250     8.7820    23.4763    83.6224     5.0193    10.3241    -2.6873      .0226     2.5369
 2871.2500     8.8138    26.0897    82.9760     4.8142    10.3234     1.5230      .0947     2.6089
 2871.3750     8.6464    22.6575    79.1166     4.4280    10.3209      .6327      .0505     2.5655
 2871.5000     8.6260    23.2341    77.1870     4.3877    10.3193    -5.0916      .0578     2.5417
 2871.6250     8.6214    22.9586    74.7709     5.3330    10.3190   -13.8274      .0607     2.4956
 2871.7500     8.5624    22.5030    69.4683     4.1530    10.3190   -22.1335      .0203     2.4194
 2871.8750     8.5056    22.2585    70.1115     3.8643    10.3179   -24.5636      .0381     2.4437
 2872.0000     8.4806    25.5289    72.6844     4.2507    10.3156   -20.8457      .0734     2.4700
 2872.1250     8.4806    19.9504    75.7500     4.3892    10.3139   -14.4086      .0509     2.4364
 2872.2500     8.4745    18.7676    76.5437     3.5986    10.3152   -10.2292      .0332     2.4391
 2872.3750     8.4783    24.0153    62.5536     3.9531    10.3223   -11.6393      .0387     2.4284
 2872.5000     8.5048    25.2213    59.8199     3.9107    10.3338   -17.1777      .0552     2.4087
 2872.6250     8.5496    17.2359    67.2217     3.8149    10.3467   -24.7226      .0281     2.3960
 2872.7500     8.5593    17.3020    57.2470     3.7287    10.3578   -30.8049      .0262     2.3797
 2872.8750     8.6124    23.4227    60.3023     7.4060    10.3618   -31.7925      .0157     2.4168
 2873.0000     8.6457    22.3763    57.2470     7.2770    10.3569   -29.3215      .0795     2.5041
 2873.1250     8.6745    24.0773    63.3655     6.6258    10.3442   -27.1366      .0727     2.4858
 2873.2500     8.6896    18.2554    67.5386     8.7381    10.3305   -28.8942      .0749     2.4708
 2873.3750     8.6926    19.2729    75.7397     9.8911    10.3269   -35.8266      .1191     2.5679
 2873.5000     8.6442    21.4180    73.3276     8.2136    10.3327   -43.3626      .1243     2.5351
 2873.6250     8.5456    22.5677    70.9147     7.0586    10.3395   -46.8727      .1222     2.4988
 2873.7500     8.4594    29.9427    69.4683     5.0002    10.3391   -45.1699      .0285     2.3416
 2873.8750     8.4639    15.7360    63.0360     3.7856    10.3271   -41.9862      .0546     2.3595
 2874.0000     8.5185    19.1430    66.8954     3.8814    10.3111   -41.1191      .0557     2.3498
 2874.1250     8.5412    20.6491    68.3481     4.1627    10.2991   -43.0710      .0325     2.3479
 2874.2500     8.6108    14.3538    72.6844     4.0056    10.2952   -45.7884      .0666     2.4511
 2874.3750     8.5813    20.6310    71.3979     5.5709    10.2970   -46.2712      .0260     2.4327
 2874.5000     8.5185    20.4853    63.0360     3.8671    10.2987   -44.4997      .0727     2.5044
 2874.6250     8.5306    22.7889    52.2455     4.1632    10.2990   -42.5258      .0439     2.4691
 2874.7500     8.5412    15.1508    49.5283     3.4735    10.2996   -41.6803      .0327     2.4718
 2874.8750     8.5503    16.7896    52.1012     4.0987    10.3030   -39.9301      .0591     2.4677
 2875.0000     8.6214    19.2995    61.4280     3.3554    10.3090   -34.7647      .0687     2.4799
 2875.1250     8.6881    17.4147    67.8555     3.8144    10.3149   -25.7038      .0177     2.4347
 2875.2500     8.6987    28.4396    78.4734     3.8643    10.3177   -15.1483     -.0304     2.3840
 2875.3750     8.6964    24.6047    76.0613     3.4470    10.3149   -10.0084      .0592     2.5073
 2875.5000     8.6199    29.8974    79.1166     4.6740    10.3096   -11.4128      .0655     2.4619
 2875.6250     8.5047    33.1432    79.7567     4.0073    10.3078   -14.6648      .0696     2.4436
 2875.7500     8.4897    26.8913    64.3225     2.4438    10.3143   -14.6653      .0847     2.4488
 2875.8750     8.5010    24.2372    59.1767     3.1825    10.3265   -10.6260      .0553     2.3463
 2876.0000     8.4821    20.9151    56.6038     4.0837    10.3351    -8.3622      .0127     2.2637
 2876.1250     8.4836    23.2264    54.5109     3.9988    10.3367   -12.2276      .0151     2.2607
 2876.2500     8.5351    22.5926    52.7444     4.1530    10.3352   -22.3028      .0426     2.2933
 2876.3750     8.6214    24.8861    54.5133     6.3990    10.3371   -32.8490      .0473     2.3690
 2876.5000     8.5593    24.9490    52.7444     8.9668    10.3440   -38.0173      .0530     2.4205
 2876.6250     8.4631    26.5530    59.6757     9.3483    10.3550   -38.6338      .1109     2.4937
 2876.7500     8.4351    34.1077    61.7496     7.5675    10.3660   -38.9138      .1025     2.4397
 2876.8750     8.3912    34.8190    59.0159     7.7541    10.3716   -42.0222      .1114     2.4066
 2877.0000     8.3382    27.8678    62.0712     6.9288    10.3696   -46.3767      .0877     2.3400
 2877.1250     8.2874    26.8687    51.1222     7.0811    10.3590   -49.0089      .0770     2.3179
 2877.2500     8.2807    30.1722    48.2419     5.1958    10.3410   -46.8826      .0515     2.2936
 2877.3750     8.2950    23.9657    57.7294     5.0002    10.3209   -37.8569      .0516     2.3090
