~VERSION INFORMATION
VERS.                                                 2.0:   CWLS Log ASCII Standard-VERSION 2.0
WRAP.                                                  NO:   One line per depth step
~Well Information Block
STRT.M                                           143.7500:   Top Depth
STOP.M                                          3055.0000:   Bottom Depth
STEP.M                                             .12500:   Depth Increment
NULL.                                            -999.250:   Null Value
FLD .                                                   -:   Field Name
WELL.                                             15/12-8:   NAME
WBN .                                             15/12-8:   WELLBORE
NATI.                                                 NOR:   COUNTRY
CTRY.                                                 NOR:   COUNTRY
COMP.                                             STATOIL:   OPERATOR
PROV.                                           NORTH SEA:   PROVINCE
COUN.                                      DEEPSEA BERGEN:   RIG NAME
SPUD.                                          1991/06/05:   SPUD DATE
LATI.                                         58 3 1.85 N:   SURF. LATITUDE
LONG.                                         1 58 3.41 E:   SURF. LONGITUDE
PBWE.                                             15/12-8:   PB WELL ID
APIN.                                             15/12-8:   PB WELLBORE ID
PBWS.                                                 all:   PB WELL NAME SET
~PARAMETER INFORMATION (log)
LNAM.                              ZDL/CNL/GR  COMPOSITED:   NAME
LTYP.                                         DEPTH MATCH:   LOG TYPE
LSRV.                                            DEN/NEUT:   LOG SERVICE
LSOU.                                             SPT/NPD:   LOG SOURCE
LVSN.                                                   1:   LOG VERSION
BHIS.                                                   R:   BRIEF HISTORY
FHIS.                                             RAW-LIS:   FULL HISTORY
LCNM.                                            ANADRILL:   LOGGING CONTRACTOR
TOOL.                             ZDL/CNL/GR (COMPOSITED):   TOOL STRING
~Curve Information Block
#MNEM.UNIT                                        API CODE    No Description
#=========                                        ========    == ===========
DEPT.M                                       00 001 00 00:     1  DEPTH
CAL.IN                                                   :     2  Caliper
CNC.%                                                    :     3  Neutron Porosity
GR.GAPI                                                  :     4  Gamma Ray
PE.B/E                                                   :     5  Youngs Modulus Apparent
SPD.                                                     :     6  Cable Speed
TTEN.LB                                                  :     7  Cable Tension
ZCOR.G/CC                                                :     8  Density Correction
ZDEN.G/CC                                                :     9  Bulk Density
~ASCII
# ...
 1581.5000    18.0993  -999.2500    90.1367  -999.2500     9.3590  1165.2280      .1384     2.1384
 1581.6250    18.0993  -999.2500    94.0169  -999.2500     9.3583  1164.4124      .1293     2.1226
 1581.7500    17.9959  -999.2500    84.9649  -999.2500     9.3525  1166.4624      .1157     2.1115
 1581.8750    17.9959  -999.2500    86.2556  -999.2500     9.3429  1169.4622      .1149     2.1138
 1582.0000    17.9959  -999.2500    82.7484  -999.2500     9.3324  1171.2668      .1292     2.1619
 1582.1250    18.0735  -999.2500    90.3282  -999.2500     9.3218  1171.6465      .1247     2.1592
 1582.2500    18.2028  -999.2500    90.8755  -999.2500     9.3123  1171.0776      .1279     2.1480
 1582.3750    18.2028  -999.2500    85.8997  -999.2500     9.3067  1171.7700      .1739     2.1833
 1582.5000    18.2028  -999.2500    89.7673  -999.2500     9.3081  1175.6372      .1715     2.2220
 1582.6250    18.2028  -999.2500    82.5660  -999.2500     9.3196  1182.6865      .1652     2.2554
 1582.7500    18.2028  -999.2500    88.6590  -999.2500     9.3391  1189.9719      .1839     2.2578
 1582.8750    18.2028  -999.2500    83.8558  -999.2500     9.3575  1191.1208      .1607     2.1801
 1583.0000    18.2028  -999.2500    85.3343  -999.2500     9.3666  1185.1096      .1217     2.1282
 1583.1250    18.5910  -999.2500    91.2476  -999.2500     9.3659  1174.6450      .1021     2.1149
 1583.2500    19.0303  -999.2500    93.0920  -999.2500     9.3591  1163.8489      .0806     2.0905
 1583.3750    19.0563  -999.2500    95.4972  -999.2500     9.3509  1157.7190      .1103     2.1096
 1583.5000    19.2890  -999.2500    95.3085  -999.2500     9.3439  1156.7317      .1381     2.1467
 1583.6250    19.5218  -999.2500    85.1456  -999.2500     9.3379  1159.3970      .1509     2.1575
 1583.7500    19.5476  -999.2500    92.3532  -999.2500     9.3323  1163.4106      .1686     2.1568
 1583.8750    19.7804  -999.2500    89.5776  -999.2500     9.3304  1167.1794      .1866     2.1451
 1584.0000    19.8579  -999.2500    84.9649  -999.2500     9.3342  1170.6121      .1548     2.0959
 1584.1250    19.8579  -999.2500    91.4337  -999.2500     9.3407  1173.3359      .1583     2.0877
 1584.2500    19.4441  -999.2500    87.1814  -999.2500     9.3458  1174.6609      .1494     2.0577
 1584.3750    19.4182  -999.2500    92.3532  -999.2500     9.3486  1173.3479      .1467     1.9886
 1584.5000    19.2373  -999.2500    91.2449  -999.2500     9.3512  1168.8740      .1089     1.9463
 1584.6250    19.3667  -999.2500    86.2547  -999.2500     9.3552  1161.7971      .0648     1.9626
 1584.7500    19.5476  -999.2500    84.9649  -999.2500     9.3620  1154.5896      .0390     1.9882
 1584.8750    18.4613  -999.2500    91.6216  -999.2500     9.3720  1150.6880      .0950     2.1183
 1585.0000    18.3062  -999.2500    97.5249  -999.2500     9.3803  1149.7778      .1084     2.1490
 1585.1250    18.3062  -999.2500    97.3425  -999.2500     9.3840  1149.9260      .1100     2.1463
 1585.2500    18.3062  -999.2500    87.9202  -999.2500     9.3828  1149.8015      .0912     2.1431
 1585.3750    18.3062  -999.2500   107.6815  -999.2500     9.3757  1149.9365      .0491     2.1038
 1585.5000    18.3062  -999.2500   103.0661  -999.2500     9.3642  1152.4221      .0801     2.1656
 1585.6250    18.3062  -999.2500    95.6734  -999.2500     9.3513  1158.7310      .1244     2.2159
 1585.7500    18.3062  -999.2500    96.0473  -999.2500     9.3397  1168.0029      .1041     2.1722
 1585.8750    18.3062  -999.2500    90.3128  -999.2500     9.3310  1176.3599      .1359     2.1860
 1586.0000    18.3062  -999.2500    83.8567  -999.2500     9.3257  1179.5923      .1061     2.1976
 1586.1250    18.3062  -999.2500    91.2476  -999.2500     9.3246  1177.6235      .0723     2.2260
 1586.2500    18.3062  -999.2500    99.7414  -999.2500     9.3280  1174.1648      .1211     2.2892
 1586.3750    18.2028  -999.2500    89.0293  -999.2500     9.3367  1173.7341      .1390     2.2712
 1586.5000    18.2028  -999.2500    90.8755  -999.2500     9.3491  1175.8682      .1592     2.2400
 1586.6250    18.2028  -999.2500    99.9329  -999.2500     9.3614  1177.8564      .1644     2.1944
 1586.7500    18.0993  -999.2500    96.0473  -999.2500     9.3696  1177.6770      .1598     2.1546
 1586.8750    18.0993  -999.2500    88.6626  -999.2500     9.3695  1175.4719      .1018     2.0916
 1587.0000    18.0993  -999.2500    93.4614  -999.2500     9.3621  1173.1619      .0941     2.0961
 1587.1250    18.0993  -999.2500   101.0402  -999.2500     9.3488  1171.6367      .1281     2.1409
 1587.2500    18.0993  -999.2500    96.7861  -999.2500     9.3323  1169.7786      .0931     2.0855
 1587.3750    18.1252  -999.2500    92.3532  -999.2500     9.3171  1164.9285      .0510     2.0369
 1587.5000    18.2028  -999.2500    94.5696  -999.2500     9.3060  1157.7295      .0911     2.1354
 1587.6250    18.3581  -999.2500    89.0221  -999.2500     9.3008  1150.7393      .1111     2.1611
 1587.7500    18.6166  -999.2500    92.3532  -999.2500     9.3026  1146.4678      .0760     2.1046
 1587.8750    18.6166  -999.2500    95.8621  -999.2500     9.3120  1146.5339      .0748     2.1091
 1588.0000    18.6683  -999.2500    92.7226  -999.2500     9.3263  1149.6292      .0304     2.0666
 1588.1250    18.7200  -999.2500    92.9095  -999.2500     9.3448  1154.6221      .0537     2.1061
 1588.2500    18.7200  -999.2500    96.0473  -999.2500     9.3658  1160.4924      .0948     2.1691
 1588.3750    18.5131  -999.2500    88.4775  -999.2500     9.3854  1166.4504      .1236     2.1901
 1588.5000    18.4614  -999.2500    86.8120  -999.2500     9.4000  1171.1943      .1055     2.1432
 1588.6250    18.3320  -999.2500    84.5982  -999.2500     9.4077  1173.3162      .1109     2.1299
 1588.7500    18.2028  -999.2500    87.9202  -999.2500     9.4087  1172.0659      .0865     2.0871
 1588.8750    18.2028  -999.2500    90.3182  -999.2500     9.4047  1168.2495      .0533     2.0671
 1589.0000    18.2028  -999.2500    84.2261  -999.2500     9.3988  1165.4285      .1114     2.1494
 1589.1250    18.2028  -999.2500    88.1099  -999.2500     9.3901  1165.3201      .1435     2.1952
 1589.2500    18.0993  -999.2500    87.1814  -999.2500     9.3755  1166.6921      .1441     2.1609
 1589.3750    17.8406  -999.2500    77.0266  -999.2500     9.3539  1166.7917      .1766     2.2164
 1589.5000    17.6338  -999.2500    80.9014  -999.2500     9.3330  1165.1819      .1472     2.2721
 1589.6250    17.5044  -999.2500    83.1205  -999.2500     9.3194  1163.1494      .2071     2.3665
 1589.7500    17.4786  -999.2500    91.6143  -999.2500     9.3159  1161.9104      .2148     2.3344
 1589.8750    17.4786  -999.2500    89.0293  -999.2500     9.3222  1160.4697      .1692     2.1717
 1590.0000    17.4269  -999.2500    91.9837  -999.2500     9.3321  1156.4006      .1634     2.1592
 1590.1250    17.3752  -999.2500    90.5034  -999.2500     9.3406  1148.9541      .1611     2.1524
 1590.2500    17.3752  -999.2500    91.6143  -999.2500     9.3458  1141.2183      .1487     2.1365
 1590.3750    17.3752  -999.2500    94.9345  -999.2500     9.3473  1139.5706      .1419     2.1183
 1590.5000    17.3752  -999.2500    87.5508  -999.2500     9.3439  1144.8193      .1609     2.1323
 1590.6250    17.3752  -999.2500    82.9309  -999.2500     9.3348  1154.4211      .1822     2.1487
 1590.7500    17.3752  -999.2500    86.4426  -999.2500     9.3208  1164.3672      .1720     2.1383
 1590.8750    17.3752  -999.2500    90.6922  -999.2500     9.3044  1169.7568      .1497     2.1078
 1591.0000    17.3752  -999.2500    89.0284  -999.2500     9.2894  1170.4104      .1470     2.1082
 1591.1250    17.3752  -999.2500    82.3763  -999.2500     9.2801  1167.6489      .1607     2.1240
 1591.2500    17.3752  -999.2500    90.1367  -999.2500     9.2815  1163.6106      .1906     2.1431
 1591.3750    17.3752  -999.2500    91.4328  -999.2500     9.2954  1160.7478      .1568     2.1047
 1591.5000    17.3752  -999.2500    93.0920  -999.2500     9.3142  1159.8701      .1331     2.0657
