~VERSION INFORMATION
VERS.                                                 2.0:   CWLS Log ASCII Standard-VERSION 2.0
WRAP.                                                  NO:   One line per depth step
~Well Information Block
STRT.M                                           143.7500:   Top Depth
STOP.M                                          3055.0000:   Bottom Depth
STEP.M                                             .12500:   Depth Increment
NULL.                                            -999.250:   Null Value
FLD .                                                   -:   Field Name
WELL.                                             15/12-8:   NAME
WBN .                                             15/12-8:   WELLBORE
NATI.                                                 NOR:   COUNTRY
CTRY.                                                 NOR:   COUNTRY
COMP.                                             STATOIL:   OPERATOR
PROV.                                           NORTH SEA:   PROVINCE
COUN.                                      DEEPSEA BERGEN:   RIG NAME
SPUD.                                          1991/06/05:   SPUD DATE
LATI.                                         58 3 1.85 N:   SURF. LATITUDE
LONG.                                         1 58 3.41 E:   SURF. LONGITUDE
PBWE.                                             15/12-8:   PB WELL ID
APIN.                                             15/12-8:   PB WELLBORE ID
PBWS.                                                 all:   PB WELL NAME SET
~PARAMETER INFORMATION (log)
LNAM.                              ZDL/CNL/GR  COMPOSITED:   NAME
LTYP.                                         DEPTH MATCH:   LOG TYPE
LSRV.                                            DEN/NEUT:   LOG SERVICE
LSOU.                                             SPT/NPD:   LOG SOURCE
LVSN.                                                   1:   LOG VERSION
BHIS.                                                   R:   BRIEF HISTORY
FHIS.                                             RAW-LIS:   FULL HISTORY
LCNM.                                            ANADRILL:   LOGGING CONTRACTOR
TOOL.                             ZDL/CNL/GR (COMPOSITED):   TOOL STRING
~Curve Information Block
#MNEM.UNIT                                        API CODE    No Description
#=========                                        ========    == ===========
DEPT.M                                       00 001 00 00:     1  DEPTH
CAL.IN                                                   :     2  Caliper
CNC.%                                                    :     3  Neutron Porosity
GR.GAPI                                                  :     4  Gamma Ray
PE.B/E                                                   :     5  Youngs Modulus Apparent
SPD.                                                     :     6  Cable Speed
TTEN.LB                                                  :     7  Cable Tension
ZCOR.G/CC                                                :     8  Density Correction
ZDEN.G/CC                                                :     9  Bulk Density
~ASCII
# ...
 1763.7500    19.6510  -999.2500    77.5766    25.0511     9.2161  1245.3423      .1360     2.0796
 1763.8750    19.8320  -999.2500    78.3173    17.6357     9.2022  1242.2375      .1482     2.0796
 1764.0000    19.7545  -999.2500    80.5320    19.3268     9.1891  1241.1316      .0919     1.9954
 1764.1250    19.7545  -999.2500    71.6588    20.7905     9.1800  1243.4766      .1403     2.0610
 1764.2500    19.9614  -999.2500    79.0543    24.9516     9.1777  1247.2451      .0981     1.9947
 1764.3750    19.8323  -999.2500    85.8871    17.3520     9.1816  1249.5684      .0892     1.9644
 1764.5000    20.0131  -999.2500    83.1178    20.9474     9.1878  1251.2317      .1413     2.0070
 1764.6250    20.1167  -999.2500    87.0007    15.3837     9.1965  1254.3855      .0871     1.9218
 1764.7500    21.0993  -999.2500    77.5766    19.4867     9.2094  1260.0776      .0819     1.9185
 1764.8750    21.2287  -999.2500    74.2565    22.1315     9.2271  1265.2678      .0629     1.9997
 1765.0000    21.4614  -999.2500    79.7931    20.2965     9.2449  1264.8025      .1061     2.0302
 1765.1250    20.4518  -999.2500    82.5660    18.7113     9.2558  1256.7188      .1295     2.0395
 1765.2500    19.1338  -999.2500    79.7931    22.3275     9.2519  1243.2612      .0472     1.9501
 1765.3750    19.7029  -999.2500    85.5186    20.7614     9.2276  1230.0093      .0779     2.0873
 1765.5000    19.5993  -999.2500    83.4872    17.2447     9.1925  1221.0972      .0924     2.1331
 1765.6250    19.5736  -999.2500    82.0096    19.0550     9.1562  1217.6018      .0888     2.1321
 1765.7500    19.9614  -999.2500    85.7037    17.9408     9.1277  1219.0498      .0683     2.0999
 1765.8750    19.1338  -999.2500    78.1321    23.5858     9.1156  1224.2102      .1646     2.1828
 1766.0000    19.0303  -999.2500    84.9649    18.6522     9.1187  1231.0125      .1441     2.1338
 1766.1250    18.9269  -999.2500    86.2547    22.6373     9.1323  1238.6289      .1016     2.0936
 1766.2500    18.9269  -999.2500    84.2261    22.3882     9.1494  1245.8633      .0921     2.1162
 1766.3750    18.9010  -999.2500    79.0579    22.0414     9.1646  1250.9521      .1018     2.0949
 1766.5000    18.8235  -999.2500    86.0731    34.0141     9.1770  1253.5610      .0719     2.0650
 1766.6250    18.8235  -999.2500    85.8862    20.2572     9.1879  1254.2615      .1065     2.1101
 1766.7500    18.8235  -999.2500    88.6590    20.9536     9.1985  1253.8711      .1624     2.1771
 1766.8750    19.0306  -999.2500    88.8333    23.4703     9.2061  1253.6746      .0731     2.0630
 1767.0000    19.2890  -999.2500    78.6849    15.1400     9.2088  1254.9182      .0806     2.0996
 1767.1250    19.3925  -999.2500    81.8253    17.8998     9.2066  1257.3518      .0653     2.0670
 1767.2500    19.9614  -999.2500    91.6143    21.4404     9.2009  1258.8047      .1218     2.1022
 1767.3750    19.4960  -999.2500    85.5132    31.8417     9.1914  1256.7368      .1730     2.0829
 1767.5000    19.5476  -999.2500    78.6849    16.4770     9.1788  1251.5188      .1099     1.9674
 1767.6250    19.4441  -999.2500    75.7269    26.1601     9.1648  1244.9500      .1160     2.0070
 1767.7500    19.7545  -999.2500    91.6143    18.3044     9.1542  1240.0850      .0586     2.0107
 1767.8750    19.0820  -999.2500    82.9372    19.9381     9.1521  1240.2747      .0740     2.0863
 1768.0000    18.9786  -999.2500    84.9649    17.0471     9.1548  1243.9119      .0980     2.1236
 1768.1250    19.1080  -999.2500    83.6733    31.3182     9.1611  1248.7844      .1066     2.1122
 1768.2500    19.5476  -999.2500    86.4426    21.2325     9.1732  1254.4460      .1196     2.1302
 1768.3750    19.7540  -999.2500    89.7664    35.7596     9.1932  1261.2866      .1021     2.0954
 1768.5000    19.0303  -999.2500    92.3531    19.3858     9.2152  1267.2373      .0984     2.1056
 1768.6250    18.9269  -999.2500    88.2833    21.5014     9.2293  1269.7466      .0397     2.0595
 1768.7500    18.8235  -999.2500    83.4873    35.7942     9.2275  1266.8477      .0513     2.0944
 1768.8750    18.9010  -999.2500    88.6536    25.4107     9.2072  1258.5449      .1129     2.1367
 1769.0000    18.9269  -999.2500    86.0731    23.4658     9.1809  1249.4050      .1176     2.1469
 1769.1250    19.0303  -999.2500    94.5732    28.7565     9.1596  1243.8123      .1111     2.1662
 1769.2500    18.9269  -999.2500    96.7861    21.9033     9.1477  1243.8274      .0643     2.1126
 1769.3750    18.9269  -999.2500    91.9828    22.7570     9.1445  1247.4224      .0927     2.1389
 1769.5000    18.9269  -999.2500    93.0920    24.9211     9.1463  1250.5051      .0597     2.0943
 1769.6250    18.9269  -999.2500    90.3173    20.8609     9.1524  1251.1172      .0479     2.0744
 1769.7500    18.9269  -999.2500    85.7037    19.0212     9.1608  1248.7583      .1494     2.1771
 1769.8750    19.0303  -999.2500    86.2610    18.9583     9.1681  1245.2234      .1016     2.1324
 1770.0000    19.0303  -999.2500    87.5508    18.8464     9.1715  1243.3557      .0508     2.1021
 1770.1250    19.0303  -999.2500    87.1832    25.0913     9.1705  1244.1514      .0466     2.1190
 1770.2500    19.1338  -999.2500    82.0096    19.1268     9.1686  1246.4541      .0445     2.0676
 1770.3750    19.2372  -999.2500    82.5633    19.2717     9.1725  1248.5483      .1334     2.1734
 1770.5000    19.2890  -999.2500    83.1178    19.6888     9.1827  1249.4954      .1084     2.1179
 1770.6250    19.4183  -999.2500    86.9989    18.9732     9.1944  1248.9863      .0766     2.0788
 1770.7500    19.3407  -999.2500    89.3979    32.3761     9.1993  1247.6150      .1227     2.0830
 1770.8750    19.7545  -999.2500    88.2887    19.0098     9.1914  1247.0439      .1585     2.0937
 1771.0000    19.8062  -999.2500    84.9649    19.1893     9.1773  1247.9712      .0961     1.9994
 1771.1250    19.7026  -999.2500    87.7396    21.7569     9.1635  1250.0515      .0787     2.0228
 1771.2500    20.0648  -999.2500    78.3155    17.4030     9.1559  1252.6787      .1443     2.1287
 1771.3750    20.8660  -999.2500    79.2358    16.3407     9.1569  1255.2676      .1414     2.1287
 1771.5000    19.8062  -999.2500    76.4684    10.9391     9.1611  1257.1506      .1220     2.1304
 1771.6250    19.7547  -999.2500    84.7861    14.4204     9.1674  1257.9622      .0837     2.0826
 1771.7500    20.0648  -999.2500    87.9202    15.1367     9.1761  1257.1111      .1514     2.1686
 1771.8750    19.5217  -999.2500    89.0366    17.9966     9.1895  1254.0637      .1240     2.1605
 1772.0000    19.4441  -999.2500    90.8755    18.2090     9.2052  1249.5056      .1039     2.1385
 1772.1250    19.3665  -999.2500    82.7484    23.0561     9.2162  1244.6042      .1853     2.2387
 1772.2500    19.3407  -999.2500    83.4873    28.0443     9.2155  1241.0608      .0672     2.0894
 1772.3750    19.4441  -999.2500    83.1205    20.3828     9.2006  1239.5708      .0379     2.0740
 1772.5000    19.3924  -999.2500    85.3343    18.9342     9.1809  1238.7192      .1352     2.2048
 1772.6250    19.3407  -999.2500    79.2349    22.7114     9.1635  1236.7109      .2066     2.2242
 1772.7500    19.3407  -999.2500    96.0473    14.6334     9.1524  1232.5142      .0996     2.0697
 1772.8750    19.5738  -999.2500    85.6983    18.7988     9.1507  1227.7139      .0539     2.0152
 1773.0000    20.1166  -999.2500    83.1178    15.2096     9.1563  1225.9058      .1189     2.0876
 1773.1250    20.6600  -999.2500    89.9542    16.9961     9.1661  1228.9014      .1605     2.1422
 1773.2500    20.1683  -999.2500    89.3979    22.0825     9.1767  1235.4812      .0237     1.9942
 1773.3750    20.1421  -999.2500    80.7153    17.5077     9.1870  1241.7268      .1250     2.1427
 1773.5000    19.6510  -999.2500    83.1178    20.4885     9.1976  1244.9644      .1164     2.1497
 1773.6250    19.5476  -999.2500    82.7448    21.4642     9.2107  1244.8469      .0935     2.1107
 1773.7500    19.2372  -999.2500    86.4426    18.3368     9.2282  1242.9316      .1482     2.1341
