~VERSION INFORMATION
VERS.                                                 2.0:   CWLS Log ASCII Standard-VERSION 2.0
WRAP.                                                  NO:   One line per depth step
~Well Information Block
STRT.M                                           143.7500:   Top Depth
STOP.M                                          3055.0000:   Bottom Depth
STEP.M                                             .12500:   Depth Increment
NULL.                                            -999.250:   Null Value
FLD .                                                   -:   Field Name
WELL.                                             15/12-8:   NAME
WBN .                                             15/12-8:   WELLBORE
NATI.                                                 NOR:   COUNTRY
CTRY.                                                 NOR:   COUNTRY
COMP.                                             STATOIL:   OPERATOR
PROV.                                           NORTH SEA:   PROVINCE
COUN.                                      DEEPSEA BERGEN:   RIG NAME
SPUD.                                          1991/06/05:   SPUD DATE
LATI.                                         58 3 1.85 N:   SURF. LATITUDE
LONG.                                         1 58 3.41 E:   SURF. LONGITUDE
PBWE.                                             15/12-8:   PB WELL ID
APIN.                                             15/12-8:   PB WELLBORE ID
PBWS.                                                 all:   PB WELL NAME SET
~PARAMETER INFORMATION (log)
LNAM.                              ZDL/CNL/GR  COMPOSITED:   NAME
LTYP.                                         DEPTH MATCH:   LOG TYPE
LSRV.                                            DEN/NEUT:   LOG SERVICE
LSOU.                                             SPT/NPD:   LOG SOURCE
LVSN.                                                   1:   LOG VERSION
BHIS.                                                   R:   BRIEF HISTORY
FHIS.                                             RAW-LIS:   FULL HISTORY
LCNM.                                            ANADRILL:   LOGGING CONTRACTOR
TOOL.                             ZDL/CNL/GR (COMPOSITED):   TOOL STRING
~Curve Information Block
#MNEM.UNIT                                        API CODE    No Description
#=========                                        ========    == ===========
DEPT.M                                       00 001 00 00:     1  DEPTH
CAL.IN                                                   :     2  Caliper
CNC.%                                                    :     3  Neutron Porosity
GR.GAPI                                                  :     4  Gamma Ray
PE.B/E                                                   :     5  Youngs Modulus Apparent
SPD.                                                     :     6  Cable Speed
TTEN.LB                                                  :     7  Cable Tension
ZCOR.G/CC                                                :     8  Density Correction
ZDEN.G/CC                                                :     9  Bulk Density
~ASCII
# ...
  842.3750    18.3062  -999.2500    90.8665  -999.2500    10.5615   910.9092      .0908     2.0521
  842.5000    18.3062  -999.2500    79.7931  -999.2500    10.5613   914.4858      .1247     2.0891
  842.6250    18.3062  -999.2500    86.9937  -999.2500    10.5681   921.3521      .1627     2.1096
  842.7500    18.3062  -999.2500    89.3979  -999.2500    10.5819   926.7190      .0704     1.9826
  842.8750    18.3062  -999.2500    79.7931  -999.2500    10.6003   925.7687      .0825     2.0321
  843.0000    18.3062  -999.2500    80.1621  -999.2500    10.6186   920.4681      .1068     2.0928
  843.1250    18.3062  -999.2500    80.5320  -999.2500    10.6352   914.1489      .1061     2.0963
  843.2500    18.3062  -999.2500    92.3532  -999.2500    10.6487   909.9041      .1488     2.1370
  843.3750    18.3062  -999.2500    90.5016  -999.2500    10.6547   910.0032      .1039     2.0530
  843.5000    18.3062  -999.2500    84.9649  -999.2500    10.6511   913.2843      .0735     2.0180
  843.6250    18.3062  -999.2500    79.4260  -999.2500    10.6366   918.9066      .0757     2.0645
  843.7500    18.3062  -999.2500    77.5766  -999.2500    10.6140   925.4456      .0893     2.0996
  843.8750    18.4356  -999.2500    76.0990  -999.2500    10.5900   930.6556      .1209     2.1577
  844.0000    18.5131  -999.2500    79.0507  -999.2500    10.5711   932.4440      .1011     2.1384
  844.1250    18.5907  -999.2500    82.0096  -999.2500    10.5566   930.5287      .0665     2.1012
  844.2500    18.6166  -999.2500    86.4426  -999.2500    10.5445   926.8960      .0966     2.1219
  844.3750    18.6166  -999.2500    86.6277  -999.2500    10.5368   924.2961      .0803     2.0948
  844.5000    18.6166  -999.2500    87.1814  -999.2500    10.5365   923.8666      .0968     2.0906
  844.6250    18.6166  -999.2500    81.6424  -999.2500    10.5452   925.4458      .1345     2.1077
  844.7500    18.6166  -999.2500    79.7931  -999.2500    10.5613   927.3779      .1348     2.0786
  844.8750    18.6166  -999.2500    87.9202  -999.2500    10.5790   927.3181      .0960     2.0535
  845.0000    18.6166  -999.2500    91.2409  -999.2500    10.5917   924.5017      .0968     2.0653
  845.1250    18.6166  -999.2500    94.5696  -999.2500    10.5976   920.1321      .1122     2.1011
  845.2500    18.6166  -999.2500    80.5320  -999.2500    10.5989   915.9934      .1045     2.0880
  845.3750    18.6422  -999.2500    79.4210  -999.2500    10.5976   913.5613      .0852     2.0743
  845.5000    18.4097  -999.2500    76.0990  -999.2500    10.5920   912.7672      .0950     2.0787
  845.6250    18.4097  -999.2500    93.2697  -999.2500    10.5814   912.6108      .0916     2.0771
  845.7500    18.3062  -999.2500    99.0026  -999.2500    10.5687   911.9231      .1125     2.0914
  845.8750    18.4097  -999.2500    98.2638  -999.2500    10.5579   910.7341      .0936     2.0766
  846.0000    18.4097  -999.2500    94.5741  -999.2500    10.5510   908.6355      .0780     2.0449
  846.1250    18.4097  -999.2500    90.8755  -999.2500    10.5492   905.4929      .0989     2.0762
  846.2500    18.4097  -999.2500    87.1814  -999.2500    10.5528   902.3440      .1125     2.0730
  846.3750    18.3837  -999.2500    87.9220  -999.2500    10.5619   901.2474      .1398     2.1043
  846.5000    18.3062  -999.2500    90.1367  -999.2500    10.5738   902.8044      .1034     2.0368
  846.6250    18.3838  -999.2500    96.2295  -999.2500    10.5866   906.2960      .1062     2.0455
  846.7500    18.4097  -999.2500    98.2638  -999.2500    10.5989   910.2808      .1071     2.0254
  846.8750    17.8665  -999.2500    91.6143  -999.2500    10.6114   913.3699      .1357     2.0375
  847.0000    17.7890  -999.2500   101.2074  -999.2500    10.6259   915.2815      .1423     2.0041
  847.1250    17.8665  -999.2500   110.8238  -999.2500    10.6418   916.9452      .1090     1.9587
  847.2500    17.7890  -999.2500    89.3979  -999.2500    10.6547   918.0737      .1207     1.9502
  847.3750    17.6596  -999.2500    90.5088  -999.2500    10.6574   916.8522      .1119     1.9355
  847.5000    17.3754  -999.2500    93.8308  -999.2500    10.6499   913.9586      .1404     1.9626
  847.6250    16.8581  -999.2500   105.4626  -999.2500    10.6354   911.9880      .1232     1.9283
  847.7500    16.6510  -999.2500   109.3461  -999.2500    10.6190   913.3713      .1341     1.9416
  847.8750    16.5476  -999.2500    93.0920  -999.2500    10.6022   917.9108      .1255     1.9495
  848.0000    16.5476  -999.2500    98.2574  -999.2500    10.5841   921.7153      .1373     1.9604
  848.1250    16.5476  -999.2500   103.4355  -999.2500    10.5656   922.8578      .1372     1.9527
  848.2500    16.5476  -999.2500   112.3014  -999.2500    10.5505   921.7520      .0675     1.8426
  848.3750    16.4441  -999.2500   107.6725  -999.2500    10.5460   920.6782      .0582     1.8529
  848.5000    16.5475  -999.2500    93.8308  -999.2500    10.5510   920.9640      .1045     1.9168
  848.6250    16.7286  -999.2500   101.0314  -999.2500    10.5611   921.9789      .1186     1.9146
  848.7500    16.9614  -999.2500   103.4355  -999.2500    10.5704   923.1606      .1189     1.9306
  848.8750    17.3754  -999.2500    91.6143  -999.2500    10.5736   925.3575      .1171     1.9758
  849.0000    17.6855  -999.2500    95.6729  -999.2500    10.5720   929.3331      .1431     2.0315
  849.1250    17.6855  -999.2500    99.7414  -999.2500    10.5676   934.8423      .1456     2.0473
  849.2500    17.6855  -999.2500   101.2191  -999.2500    10.5616   941.1973      .1410     2.0491
  849.3750    17.6855  -999.2500   100.6636  -999.2500    10.5551   948.3130      .1124     2.0249
  849.5000    17.6855  -999.2500    99.0026  -999.2500    10.5492   955.5133      .1107     2.0382
  849.6250    17.6855  -999.2500    93.4637  -999.2500    10.5448   960.7225      .1258     2.0540
  849.7500    17.6855  -999.2500    91.6143  -999.2500    10.5413   961.4346      .1617     2.0857
  849.8750    17.6855  -999.2500    80.5320  -999.2500    10.5408   956.5343      .1523     2.0314
  850.0000    17.6339  -999.2500    77.9492  -999.2500    10.5462   949.7719      .1227     1.9511
  850.1250    17.5821  -999.2500    75.3602  -999.2500    10.5594   944.0701      .0560     1.8769
  850.2500    17.5821  -999.2500    80.5320  -999.2500    10.5795   941.0466      .0244     1.8968
  850.3750    17.6855  -999.2500    81.0874  -999.2500    10.6026   940.1372      .0554     1.9887
  850.5000    17.7372  -999.2500    82.7484  -999.2500    10.6214   939.0483      .0476     1.9989
  850.6250    17.9441  -999.2500    91.0568  -999.2500    10.6316   936.8605      .1070     2.0759
  850.7500    18.2028  -999.2500    93.8308  -999.2500    10.6333   933.9150      .0813     2.0333
  850.8750    18.5390  -999.2500    84.2261  -999.2500    10.6312   931.4751      .1269     2.1030
  851.0000    18.6682  -999.2500    92.3432  -999.2500    10.6325   929.7900      .1272     2.0975
  851.1250    18.8751  -999.2500   100.4802  -999.2500    10.6391   928.5487      .0825     2.0334
  851.2500    18.8235  -999.2500    89.3979  -999.2500    10.6457   927.5444      .0954     2.0679
  851.3750    18.8235  -999.2500    90.3236  -999.2500    10.6420   926.1997      .1017     2.0698
  851.5000    18.8235  -999.2500    93.0920  -999.2500    10.6269   925.1025      .1064     2.0826
  851.6250    18.8235  -999.2500    91.9842  -999.2500    10.6062   925.8240      .1070     2.0722
  851.7500    18.8235  -999.2500    91.6143  -999.2500    10.5881   928.3259      .1091     2.0673
  851.8750    19.0563  -999.2500    89.3979  -999.2500    10.5824   930.2120      .0928     2.0480
  852.0000    19.1855  -999.2500    91.2427  -999.2500    10.5895   930.2002      .0875     2.0550
  852.1250    19.2372  -999.2500    93.0920  -999.2500    10.6038   930.0273      .1014     2.0751
  852.2500    19.2372  -999.2500    77.5766  -999.2500    10.6177   932.4934      .0904     2.0569
  852.3750    19.2372  -999.2500    81.8353  -999.2500    10.6258   939.1963      .0963     2.0597
