~VERSION INFORMATION
VERS.                                                 2.0:   CWLS Log ASCII Standard-VERSION 2.0
WRAP.                                                  NO:   One line per depth step
~Well Information Block
STRT.M                                           143.7500:   Top Depth
STOP.M                                          3055.0000:   Bottom Depth
STEP.M                                             .12500:   Depth Increment
NULL.                                            -999.250:   Null Value
FLD .                                                   -:   Field Name
WELL.                                             15/12-8:   NAME
WBN .                                             15/12-8:   WELLBORE
NATI.                                                 NOR:   COUNTRY
CTRY.                                                 NOR:   COUNTRY
COMP.                                             STATOIL:   OPERATOR
PROV.                                           NORTH SEA:   PROVINCE
COUN.                                      DEEPSEA BERGEN:   RIG NAME
SPUD.                                          1991/06/05:   SPUD DATE
LATI.                                         58 3 1.85 N:   SURF. LATITUDE
LONG.                                         1 58 3.41 E:   SURF. LONGITUDE
PBWE.                                             15/12-8:   PB WELL ID
APIN.                                             15/12-8:   PB WELLBORE ID
PBWS.                                                 all:   PB WELL NAME SET
~PARAMETER INFORMATION (log)
LNAM.                              ZDL/CNL/GR  COMPOSITED:   NAME
LTYP.                                         DEPTH MATCH:   LOG TYPE
LSRV.                                            DEN/NEUT:   LOG SERVICE
LSOU.                                             SPT/NPD:   LOG SOURCE
LVSN.                                                   1:   LOG VERSION
BHIS.                                                   R:   BRIEF HISTORY
FHIS.                                             RAW-LIS:   FULL HISTORY
LCNM.                                            ANADRILL:   LOGGING CONTRACTOR
TOOL.                             ZDL/CNL/GR (COMPOSITED):   TOOL STRING
~Curve Information Block
#MNEM.UNIT                                        API CODE    No Description
#=========                                        ========    == ===========
DEPT.M                                       00 001 00 00:     1  DEPTH
CAL.IN                                                   :     2  Caliper
CNC.%                                                    :     3  Neutron Porosity
GR.GAPI                                                  :     4  Gamma Ray
PE.B/E                                                   :     5  Youngs Modulus Apparent
SPD.                                                     :     6  Cable Speed
TTEN.LB                                                  :     7  Cable Tension
ZCOR.G/CC                                                :     8  Density Correction
ZDEN.G/CC                                                :     9  Bulk Density
~ASCII
# ...
 3049.6250     7.0871   -15.0000      .0000      .0000     7.1993   -23.5098     -.5000     1.9500
 3049.7500     7.0871   -15.0000      .0000      .0000     7.1999   -10.1545     -.5000     1.9500
 3049.8750     7.0871   -15.0000      .0000      .0000     7.2034     1.5228     -.5000     1.9500
 3050.0000     7.0871   -15.0000      .0000      .0000     7.2093     7.0378     -.5000     1.9500
 3050.1250     7.0871   -15.0000      .0000      .0000     7.2152     3.6497     -.5000     1.9500
 3050.2500     7.0871   -15.0000      .0000      .0000     7.2180    -7.9810     -.5000     1.9500
 3050.3750     7.0871   -15.0000      .0000      .0000     7.2152   -23.1159     -.5000     1.9500
 3050.5000     7.0871   -15.0000      .0000      .0000     7.2096   -35.0781     -.5000     1.9500
 3050.6250     7.0871   -15.0000      .0000      .0000     7.2057   -40.1497     -.5000     1.9500
 3050.7500     7.0871   -15.0000      .0000      .0000     7.2072   -38.8971     -.5000     1.9500
 3050.8750     7.0871   -15.0000      .0000      .0000     7.2132   -35.6384     -.5000     1.9500
 3051.0000     7.0871   -15.0000      .0000      .0000     7.2190   -35.6950     -.5000     1.9500
 3051.1250     7.0871   -15.0000      .0000      .0000     7.2230   -39.6361     -.5000     1.9500
 3051.2500     7.0902   -15.0000      .0000      .0000     7.2246   -44.3816     -.5000     1.9500
 3051.3750     7.0871   -15.0000      .0000      .0000     7.2242   -46.0164     -.5000     1.9500
 3051.5000     7.0871   -15.0000      .0000      .0000     7.2241   -45.0949     -.5000     1.9500
 3051.6250     7.0871   -15.0000      .0000      .0000     7.2245   -44.4883     -.5000     1.9500
 3051.7500     7.0871   -15.0000      .0000      .0000     7.2237   -46.6812     -.5000     1.9500
 3051.8750     7.0871   -15.0000      .0000      .0000     7.2200   -50.2308     -.5000     1.9500
 3052.0000     7.0871   -15.0000      .0000      .0000     7.2144   -51.6739     -.5000     1.9500
 3052.1250     7.0871   -15.0000      .0000      .0000     7.2080   -49.9535     -.5000     1.9500
 3052.2500     7.0902   -15.0000      .0000      .0000     7.2023   -46.0290     -.5000     1.9500
 3052.3750     7.0879   -15.0000      .0000      .0000     7.1997   -41.7088     -.5000     1.9500
 3052.5000     7.0887   -15.0000      .0000      .0000     7.1993   -37.4185     -.5000     1.9500
 3052.6250     7.0871   -15.0000      .0000      .0000     7.1993   -33.1713     -.5000     1.9500
 3052.7500     7.0871   -15.0000      .0000      .0000     7.1987   -29.9204     -.5000     1.9500
 3052.8750     7.0871   -15.0000      .0000      .0000     7.1940   -29.1980     -.5000     1.9500
 3053.0000     7.0871   -15.0000      .0000      .0000     7.1838   -31.4782     -.5000     1.9500
 3053.1250     7.0871   -15.0000      .0000      .0000     7.1687   -37.4074     -.5000     1.9500
 3053.2500     7.0902   -15.0000      .0000      .0000     7.1490   -46.3963     -.5000     1.9500
 3053.3750     7.0871   -15.0000      .0000      .0000     7.1229   -57.5197     -.5000     1.9500
 3053.5000     7.0871   -15.0000      .0000      .0000     7.0900   -68.7957     -.5000     1.9500
 3053.6250     7.0871   -15.0000      .0000      .0000     7.0473   -78.8250     -.5000     1.9500
 3053.7500     7.0871   -15.0000      .0000      .0000     6.9922   -85.6077     -.5000     1.9500
 3053.8750     7.0871   -15.0000      .0000      .0000     6.9235   -85.2693     -.5000     1.9500
 3054.0000     7.0871   -15.0000      .0000      .0000     6.8517   -77.8164     -.5000     1.9500
 3054.1250     7.0871   -15.0000      .0000      .0000     6.7570   -64.9264     -.5000     1.9500
 3054.2500     7.0871   -15.0000      .0000      .0000      .0000      .0000     -.5000     1.9500
 3054.3750     7.0871   -15.0000      .0000      .0000      .0000      .0000     -.5000     1.9500
 3054.5000     7.0962   -15.0000      .0000      .0000      .0000      .0000     -.5000     1.9500
 3054.6250     6.2750   -15.0000      .0000      .0000      .0000      .0000     -.5000     1.9500
 3054.7500     6.0000   -15.0000      .0000      .0000      .0000      .0000     -.5000     1.9500
 3054.8750     6.0000   -15.0000      .0000      .0000      .0000      .0000     -.5000     1.9500
 3055.0000     6.0000   -15.0000      .0000      .0000      .0000  -999.2500  -999.2500  -999.2500
