~VERSION INFORMATION
VERS.                                                 2.0:   CWLS Log ASCII Standard-VERSION 2.0
WRAP.                                                  NO:   One line per depth step
~Well Information Block
STRT.M                                           143.7500:   Top Depth
STOP.M                                          3055.0000:   Bottom Depth
STEP.M                                             .12500:   Depth Increment
NULL.                                            -999.250:   Null Value
FLD .                                                   -:   Field Name
WELL.                                             15/12-8:   NAME
WBN .                                             15/12-8:   WELLBORE
NATI.                                                 NOR:   COUNTRY
CTRY.                                                 NOR:   COUNTRY
COMP.                                             STATOIL:   OPERATOR
PROV.                                           NORTH SEA:   PROVINCE
COUN.                                      DEEPSEA BERGEN:   RIG NAME
SPUD.                                          1991/06/05:   SPUD DATE
LATI.                                         58 3 1.85 N:   SURF. LATITUDE
LONG.                                         1 58 3.41 E:   SURF. LONGITUDE
PBWE.                                             15/12-8:   PB WELL ID
APIN.                                             15/12-8:   PB WELLBORE ID
PBWS.                                                 all:   PB WELL NAME SET
~PARAMETER INFORMATION (log)
LNAM.                              ZDL/CNL/GR  COMPOSITED:   NAME
LTYP.                                         DEPTH MATCH:   LOG TYPE
LSRV.                                            DEN/NEUT:   LOG SERVICE
LSOU.                                             SPT/NPD:   LOG SOURCE
LVSN.                                                   1:   LOG VERSION
BHIS.                                                   R:   BRIEF HISTORY
FHIS.                                             RAW-LIS:   FULL HISTORY
LCNM.                                            ANADRILL:   LOGGING CONTRACTOR
TOOL.                             ZDL/CNL/GR (COMPOSITED):   TOOL STRING
~Curve Information Block
#MNEM.UNIT                                        API CODE    No Description
#=========                                        ========    == ===========
DEPT.M                                       00 001 00 00:     1  DEPTH
CAL.IN                                                   :     2  Caliper
CNC.%                                                    :     3  Neutron Porosity
GR.GAPI                                                  :     4  Gamma Ray
PE.B/E                                                   :     5  Youngs Modulus Apparent
SPD.                                                     :     6  Cable Speed
TTEN.LB                                                  :     7  Cable Tension
ZCOR.G/CC                                                :     8  Density Correction
ZDEN.G/CC                                                :     9  Bulk Density
~ASCII
# ...
 1217.0000    19.2372  -999.2500   100.4802  -999.2500    10.2169  1033.5669      .0983     2.0533
 1217.1250    19.2372  -999.2500   101.5894  -999.2500    10.2164  1036.8269      .0765     2.0392
 1217.2500    19.2372  -999.2500    99.0026  -999.2500    10.2116  1039.9138      .0700     2.0480
 1217.3750    19.2116  -999.2500    90.1403  -999.2500    10.2052  1043.3743      .0647     2.0720
 1217.5000    19.5993  -999.2500    88.2896  -999.2500    10.2005  1046.6936      .0917     2.1115
 1217.6250    19.5215  -999.2500    87.5553  -999.2500    10.1963  1048.5063      .1514     2.1847
 1217.7500    19.6510  -999.2500    97.5249  -999.2500    10.1887  1048.0242      .0876     2.0919
 1217.8750    19.5476  -999.2500    93.6456  -999.2500    10.1765  1046.6135      .0549     2.0550
 1218.0000    19.5476  -999.2500    92.7226  -999.2500    10.1662  1047.5469      .1111     2.1341
 1218.1250    19.5476  -999.2500    93.4623  -999.2500    10.1632  1051.5791      .1546     2.1754
 1218.2500    19.5476  -999.2500    82.7484  -999.2500    10.1693  1055.7319      .1657     2.1270
 1218.3750    19.4441  -999.2500    86.2610  -999.2500    10.1814  1054.7766      .2130     2.1445
 1218.5000    19.4441  -999.2500    94.9390  -999.2500    10.1923  1049.4207      .1520     2.0811
 1218.6250    19.5218  -999.2500    95.3048  -999.2500    10.2005  1043.4836      .1331     2.0665
 1218.7500    18.9269  -999.2500    90.8755  -999.2500    10.2093  1040.8354      .1757     2.1544
 1218.8750    18.5906  -999.2500    94.3736  -999.2500    10.2239  1043.7231      .1997     2.1500
 1219.0000    18.5131  -999.2500    86.8120  -999.2500    10.2441  1049.7705      .1552     2.0932
 1219.1250    18.5131  -999.2500    93.0920  -999.2500    10.2665  1056.7666      .1594     2.1175
 1219.2500    18.5131  -999.2500   100.4802  -999.2500    10.2858  1063.7859      .1930     2.1433
 1219.3750    18.4097  -999.2500    88.8478  -999.2500    10.2931  1072.1936      .1513     2.0153
 1219.5000    18.4614  -999.2500    93.4614  -999.2500    10.2860  1081.8562      .1421     1.9509
 1219.6250    18.5131  -999.2500    96.4194  -999.2500    10.2644  1090.0164      .1334     1.9385
 1219.7500    18.5131  -999.2500    74.6214  -999.2500    10.2317  1093.8577      .1608     2.0106
 1219.8750    18.5131  -999.2500    84.0445  -999.2500    10.1974  1091.7185      .1313     2.0070
 1220.0000    18.5131  -999.2500    87.9202  -999.2500    10.1732  1085.6877      .1516     2.0298
 1220.1250    18.5131  -999.2500    91.2476  -999.2500    10.1621  1077.6738      .1466     2.0235
 1220.2500    18.5131  -999.2500    77.5766  -999.2500    10.1625  1070.0762      .1034     1.9846
 1220.3750    18.5390  -999.2500    78.3245  -999.2500    10.1729  1064.6162      .1269     2.0102
 1220.5000    18.6683  -999.2500    86.0731  -999.2500    10.1893  1060.8650      .1431     2.0400
 1220.6250    18.7200  -999.2500    82.1938  -999.2500    10.2075  1058.9580      .1390     2.0296
 1220.7500    18.8235  -999.2500    88.6590  -999.2500    10.2221  1058.6169      .1144     2.0190
 1220.8750    18.8235  -999.2500    91.0661  -999.2500    10.2270  1058.0869      .1543     2.0899
 1221.0000    18.8235  -999.2500    93.0920  -999.2500    10.2218  1055.6775      .1240     2.0731
 1221.1250    18.9011  -999.2500    92.3568  -999.2500    10.2092  1050.8528      .1019     2.0497
 1221.2500    19.0303  -999.2500    80.5320  -999.2500    10.1946  1044.3582      .0997     2.0452
 1221.3750    19.0303  -999.2500    87.5517  -999.2500    10.1814  1038.2290      .1741     2.1454
 1221.5000    19.0303  -999.2500    91.6143  -999.2500    10.1693  1035.0105      .1347     2.0884
 1221.6250    19.0303  -999.2500    89.0239  -999.2500    10.1593  1035.6145      .1332     2.0844
 1221.7500    19.1338  -999.2500    86.4426  -999.2500    10.1549  1038.9470      .1133     2.0832
 1221.8750    19.1597  -999.2500    90.1403  -999.2500    10.1593  1043.0107      .1011     2.0703
 1222.0000    19.1855  -999.2500    91.2449  -999.2500    10.1693  1046.2354      .1252     2.1118
 1222.1250    19.1338  -999.2500    83.4836  -999.2500    10.1815  1048.5459      .0865     2.0683
 1222.2500    19.1338  -999.2500    93.8308  -999.2500    10.1946  1050.6174      .0682     2.0679
 1222.3750    19.1338  -999.2500    85.1555  -999.2500    10.2117  1053.0354      .0984     2.1247
 1222.5000    19.1338  -999.2500    87.5508  -999.2500    10.2342  1055.4365      .0974     2.1148
 1222.6250    19.1338  -999.2500    82.7484  -999.2500    10.2588  1057.3762      .1521     2.1600
 1222.7500    19.1338  -999.2500    82.0096  -999.2500    10.2798  1058.8164      .1358     2.1139
 1222.8750    19.1338  -999.2500    86.8129  -999.2500    10.2894  1059.9722      .0815     2.0625
 1223.0000    19.1338  -999.2500    96.7861  -999.2500    10.2866  1060.9622      .0604     2.0518
 1223.1250    19.2891  -999.2500    97.8880  -999.2500    10.2729  1061.7849      .0831     2.1063
 1223.2500    19.4441  -999.2500    80.5320  -999.2500    10.2510  1062.4907      .0965     2.1144
 1223.3750    19.4698  -999.2500    94.7494  -999.2500    10.2235  1063.0254      .1252     2.1245
 1223.5000    19.2890  -999.2500    89.0284  -999.2500    10.1956  1063.2271      .1113     2.1088
 1223.6250    19.2630  -999.2500    94.9436  -999.2500    10.1723  1062.9424      .1034     2.0675
 1223.7500    19.1338  -999.2500    87.1814  -999.2500    10.1576  1062.4133      .1278     2.1235
 1223.8750    19.2632  -999.2500    93.2789  -999.2500    10.1527  1062.5935      .0960     2.0863
 1224.0000    19.3407  -999.2500    90.1367  -999.2500    10.1565  1063.5193      .1009     2.1092
 1224.1250    19.3407  -999.2500    89.7718  -999.2500    10.1694  1063.9417      .1010     2.1259
 1224.2500    19.3407  -999.2500    94.5696  -999.2500    10.1884  1062.8311      .0432     2.0580
 1224.3750    19.3148  -999.2500    91.4364  -999.2500    10.2043  1061.5798      .1169     2.1274
 1224.5000    19.3407  -999.2500    97.5249  -999.2500    10.2096  1062.5171      .0873     2.0938
 1224.6250    19.4441  -999.2500    89.2082  -999.2500    10.2026  1066.2126      .0954     2.1051
 1224.7500    19.5476  -999.2500    88.6590  -999.2500    10.1873  1071.0469      .0713     2.0855
 1224.8750    19.4441  -999.2500    86.4444  -999.2500    10.1718  1073.6787      .0885     2.0988
 1225.0000    19.4959  -999.2500    91.9837  -999.2500    10.1608  1072.9370      .1000     2.1182
 1225.1250    19.5476  -999.2500    88.0990  -999.2500    10.1526  1069.6587      .0521     2.0805
 1225.2500    19.5476  -999.2500    87.9202  -999.2500    10.1440  1065.3040      .1026     2.1611
 1225.3750    19.5476  -999.2500   101.9543  -999.2500    10.1369  1060.5991      .0913     2.1386
 1225.5000    19.5476  -999.2500    95.6779  -999.2500    10.1366  1055.8457      .1238     2.1524
 1225.6250    19.3923  -999.2500    96.0491  -999.2500    10.1452  1051.6252      .1037     2.1335
 1225.7500    19.3407  -999.2500    93.0920  -999.2500    10.1619  1048.3904      .0393     2.0430
 1225.8750    19.3407  -999.2500    99.1859  -999.2500    10.1844  1047.5669      .0598     2.0888
 1226.0000    19.3924  -999.2500   100.8496  -999.2500    10.2090  1050.0415      .0467     2.0993
 1226.1250    19.7547  -999.2500    96.9650  -999.2500    10.2340  1055.0789      .0590     2.0884
 1226.2500    19.6510  -999.2500    98.2638  -999.2500    10.2584  1060.2129      .1274     2.1724
 1226.3750    19.8318  -999.2500   100.1063  -999.2500    10.2786  1062.2490      .0711     2.0764
 1226.5000    19.5476  -999.2500    97.1555  -999.2500    10.2914  1061.8325      .0714     2.0821
 1226.6250    19.3404  -999.2500    94.7503  -999.2500    10.2948  1061.9736      .0501     2.0611
 1226.7500    19.0303  -999.2500   104.1744  -999.2500    10.2881  1065.4854      .0805     2.1155
 1226.8750    19.3925  -999.2500    93.1010  -999.2500    10.2711  1071.7212      .1290     2.1551
 1227.0000    19.7028  -999.2500   100.8496  -999.2500    10.2490  1074.5364      .0757     2.0883
