~VERSION INFORMATION
VERS.                                                 2.0:   CWLS Log ASCII Standard-VERSION 2.0
WRAP.                                                  NO:   One line per depth step
~Well Information Block
STRT.M                                           143.7500:   Top Depth
STOP.M                                          3055.0000:   Bottom Depth
STEP.M                                             .12500:   Depth Increment
NULL.                                            -999.250:   Null Value
FLD .                                                   -:   Field Name
WELL.                                             15/12-8:   NAME
WBN .                                             15/12-8:   WELLBORE
NATI.                                                 NOR:   COUNTRY
CTRY.                                                 NOR:   COUNTRY
COMP.                                             STATOIL:   OPERATOR
PROV.                                           NORTH SEA:   PROVINCE
COUN.                                      DEEPSEA BERGEN:   RIG NAME
SPUD.                                          1991/06/05:   SPUD DATE
LATI.                                         58 3 1.85 N:   SURF. LATITUDE
LONG.                                         1 58 3.41 E:   SURF. LONGITUDE
PBWE.                                             15/12-8:   PB WELL ID
APIN.                                             15/12-8:   PB WELLBORE ID
PBWS.                                                 all:   PB WELL NAME SET
~PARAMETER INFORMATION (log)
LNAM.                              ZDL/CNL/GR  COMPOSITED:   NAME
LTYP.                                         DEPTH MATCH:   LOG TYPE
LSRV.                                            DEN/NEUT:   LOG SERVICE
LSOU.                                             SPT/NPD:   LOG SOURCE
LVSN.                                                   1:   LOG VERSION
BHIS.                                                   R:   BRIEF HISTORY
FHIS.                                             RAW-LIS:   FULL HISTORY
LCNM.                                            ANADRILL:   LOGGING CONTRACTOR
TOOL.                             ZDL/CNL/GR (COMPOSITED):   TOOL STRING
~Curve Information Block
#MNEM.UNIT                                        API CODE    No Description
#=========                                        ========    == ===========
DEPT.M                                       00 001 00 00:     1  DEPTH
CAL.IN                                                   :     2  Caliper
CNC.%                                                    :     3  Neutron Porosity
GR.GAPI                                                  :     4  Gamma Ray
PE.B/E                                                   :     5  Youngs Modulus Apparent
SPD.                                                     :     6  Cable Speed
TTEN.LB                                                  :     7  Cable Tension
ZCOR.G/CC                                                :     8  Density Correction
ZDEN.G/CC                                                :     9  Bulk Density
~ASCII
# ...
 2502.8750    13.0820  -999.2500    27.4058     6.9756    10.4452  1559.5417     -.0211     2.5097
 2503.0000    13.0820  -999.2500    29.9275     5.4313    10.4368  1556.8333     -.0097     2.5174
 2503.1250    13.0820  -999.2500    28.6598     5.0372    10.4393  1552.1484      .0060     2.5313
 2503.2500    13.0820  -999.2500    25.2021     5.5019    10.4519  1548.0630      .0366     2.5794
 2503.3750    13.0820  -999.2500    26.6175     5.2551    10.4689  1548.2134      .0046     2.5587
 2503.5000    13.0820  -999.2500    28.0374     6.2235    10.4796  1551.9568      .0150     2.5993
 2503.6250    13.1559  -999.2500    24.7196     6.5207    10.4780  1557.3440      .0133     2.6454
 2503.7500    13.1803  -999.2500    28.9825     6.4524    10.4631  1562.2969      .0092     2.5999
 2503.8750    13.2050  -999.2500    29.7677     4.6127    10.4390  1565.4656     -.0184     2.5201
 2504.0000    13.2787  -999.2500    27.0923     4.4070    10.4162  1568.1416      .0106     2.5283
 2504.1250    13.2787  -999.2500    33.4051     5.4326    10.4002  1571.3911     -.0084     2.5009
 2504.2500    13.2787  -999.2500    30.2426     5.7198    10.3919  1574.1289      .0495     2.6147
 2504.3750    13.2787  -999.2500    29.7677     6.2588    10.3894  1573.0637      .0244     2.5619
 2504.5000    13.2787  -999.2500    30.5576     6.3231    10.3895  1568.0620     -.0098     2.5164
 2504.6250    13.2787  -999.2500    28.0297     7.0494    10.3938  1560.7375      .0059     2.5750
 2504.7500    13.2787  -999.2500    28.3524     6.7272    10.4042  1553.3171      .0100     2.6038
 2504.8750    13.2787  -999.2500    33.7032     5.6551    10.4219  1548.8955     -.0147     2.5733
 2505.0000    13.2787  -999.2500    31.8177     6.7272    10.4420  1549.1282     -.0002     2.5695
 2505.1250    13.2787  -999.2500    33.7094     6.7272    10.4608  1553.7661      .0283     2.5916
 2505.2500    13.2787  -999.2500    28.9825     5.2954    10.4760  1560.7734      .0108     2.6118
 2505.3750    13.2787  -999.2500    37.1639     6.8008    10.4854  1567.2009      .0188     2.5855
 2505.5000    13.2787  -999.2500    30.8726     6.4851    10.4865  1571.1121     -.0071     2.5578
 2505.6250    13.2787  -999.2500    25.9828     6.1332    10.4769  1571.9998      .0135     2.5800
 2505.7500    13.2787  -999.2500    31.5027     6.7272    10.4554  1570.3103      .0176     2.5913
 2505.8750    13.2787  -999.2500    29.4542     5.2667    10.4256  1566.5957     -.0116     2.5283
 2506.0000    13.2787  -999.2500    30.2426     5.5089    10.3980  1561.7842      .0179     2.5891
 2506.1250    13.2787  -999.2500    28.1895     5.9021    10.3814  1556.6055      .0115     2.5674
 2506.2500    13.2787  -999.2500    32.7628     7.0200    10.3811  1552.2581      .0339     2.6354
 2506.3750    13.2787  -999.2500    27.0923     6.0747    10.3968  1550.6084     -.0314     2.5199
 2506.5000    13.2787  -999.2500    24.5721     5.5076    10.4189  1551.3518      .0056     2.5659
 2506.6250    13.2787  -999.2500    30.5714     4.7470    10.4416  1553.6721      .0201     2.6311
 2506.7500    13.2787  -999.2500    27.0923     7.3328    10.4604  1557.4448     -.0099     2.5275
 2506.8750    13.2787  -999.2500    25.9936     7.7380    10.4715  1562.9497      .0038     2.5627
 2507.0000    13.2787  -999.2500    28.9825     5.8350    10.4736  1568.8110     -.0028     2.5504
 2507.1250    13.2787  -999.2500    31.0324     5.7771    10.4663  1573.6709      .0335     2.6244
 2507.2500    13.2787  -999.2500    27.7224     6.1938    10.4537  1577.6563      .0223     2.6157
 2507.3750    13.2787  -999.2500    28.6751     4.9651    10.4403  1582.8728      .0095     2.6151
 2507.5000    13.2787  -999.2500    30.8726     5.1426    10.4253  1589.8125      .0077     2.6300
 2507.6250    13.2787  -999.2500    25.5126     4.8526    10.4055  1596.9375      .0188     2.6170
 2507.7500    13.2787  -999.2500    30.2426     5.2954    10.3793  1602.1138      .0067     2.5619
 2507.8750    13.2787  -999.2500    30.7113     5.5019    10.3491  1603.0732      .0320     2.5737
 2508.0000    13.2787  -999.2500    27.0923     5.6109    10.3231  1600.9519      .0229     2.5666
 2508.1250    13.2787  -999.2500    28.6720     6.6966    10.3114  1598.2766     -.0200     2.4876
 2508.2500    13.2787  -999.2500    34.0229     6.1938    10.3208  1597.2166     -.0202     2.4932
 2508.3750    13.2787  -999.2500    27.8714     5.4008    10.3505  1597.2764     -.0112     2.4944
 2508.5000    13.2787  -999.2500    28.9825     5.7758    10.3871  1595.8826     -.0293     2.4661
 2508.6250    13.2787  -999.2500    34.8097     7.3654    10.4207  1591.6152     -.0168     2.4765
 2508.7500    13.2787  -999.2500    27.0923     5.5019    10.4421  1584.5662      .0222     2.5419
 2508.8750    13.2787  -999.2500    31.8100     5.6132    10.4470  1576.5671     -.0113     2.5151
 2509.0000    13.2787  -999.2500    29.9275     5.1040    10.4435  1571.4324      .0094     2.5452
 2509.1250    13.3526  -999.2500    29.9229     5.2001    10.4378  1571.2712     -.0105     2.5047
 2509.2500    13.2787  -999.2500    34.6529     4.4035    10.4316  1574.8359      .0049     2.5494
 2509.3750    13.3770  -999.2500    35.2768     5.8922    10.4251  1577.9885     -.0099     2.4969
 2509.5000    13.3770  -999.2500    28.3524     5.5076    10.4192  1577.6790      .0008     2.5017
 2509.6250    13.3770  -999.2500    28.0420     5.7872    10.4157  1573.6045     -.0132     2.4864
 2509.7500    13.3770  -999.2500    31.5027     4.7349    10.4172  1567.6450      .0014     2.4929
 2509.8750    13.3770  -999.2500    32.2879     4.6995    10.4291  1563.7683      .0115     2.5363
 2510.0000    13.3770  -999.2500    32.4478     4.9170    10.4475  1564.2505     -.0039     2.5092
 2510.1250    13.3770  -999.2500    37.3360     6.0251    10.4644  1568.5317      .0205     2.5554
 2510.2500    13.3770  -999.2500    30.8726     5.7198    10.4718  1574.6064      .0261     2.5509
 2510.3750    13.3770  -999.2500    31.5027     5.3092    10.4647  1580.5020     -.0224     2.4614
 2510.5000    13.3279  -999.2500    33.0778     4.8237    10.4504  1585.0754      .0129     2.5341
 2510.6250    13.3526  -999.2500    30.3932     5.5190    10.4372  1587.9861      .0230     2.5267
 2510.7500    13.2787  -999.2500    27.0923     5.9501    10.4314  1589.7883     -.0131     2.4717
 2510.8750    13.2787  -999.2500    30.2426     5.5567    10.4360  1591.5000     -.0035     2.4865
 2511.0000    13.2787  -999.2500    34.0229     5.1426    10.4453  1593.8433      .0258     2.5240
 2511.1250    13.2787  -999.2500    31.1769     4.5654    10.4534  1597.0239      .0517     2.5402
 2511.2500    13.2787  -999.2500    27.0923     4.4035    10.4548  1601.0242      .0254     2.5299
 2511.3750    13.1803  -999.2500    29.6187     4.8264    10.4476  1605.2244      .0490     2.5703
 2511.5000    13.1803  -999.2500    31.8177     4.9170    10.4411  1608.6729      .0344     2.5512
 2511.6250    13.1803  -999.2500    32.1358     6.2315    10.4423  1610.7576      .0010     2.4868
 2511.7500    13.0820  -999.2500    30.2426     6.4524    10.4528  1611.2607      .0005     2.4954
 2511.8750    13.0820  -999.2500    27.5733     6.2136    10.4687  1610.3896     -.0040     2.5052
 2512.0000    13.0820  -999.2500    33.7079     5.9772    10.4817  1608.5588      .0045     2.5117
 2512.1250    13.0820  -999.2500    31.8131     6.4524    10.4870  1605.2212     -.0023     2.4960
 2512.2500    13.0820  -999.2500    28.9825     5.2954    10.4821  1599.5112      .0159     2.5368
 2512.3750    13.0820  -999.2500    29.7708     5.7363    10.4672  1590.8765      .0209     2.5263
 2512.5000    13.0820  -999.2500    30.8726     5.1973    10.4475  1581.5671      .0202     2.5302
 2512.6250    13.0820  -999.2500    32.9226     5.9703    10.4271  1574.2947      .0128     2.5115
 2512.7500    13.0820  -999.2500    33.3928     3.5655    10.4129  1571.2791      .0371     2.5862
 2512.8750    13.0820  -999.2500    23.7930     6.1617    10.4118  1573.2488      .0091     2.4958
