~VERSION INFORMATION
VERS.                                                 2.0:   CWLS Log ASCII Standard-VERSION 2.0
WRAP.                                                  NO:   One line per depth step
~Well Information Block
STRT.M                                           143.7500:   Top Depth
STOP.M                                          3055.0000:   Bottom Depth
STEP.M                                             .12500:   Depth Increment
NULL.                                            -999.250:   Null Value
FLD .                                                   -:   Field Name
WELL.                                             15/12-8:   NAME
WBN .                                             15/12-8:   WELLBORE
NATI.                                                 NOR:   COUNTRY
CTRY.                                                 NOR:   COUNTRY
COMP.                                             STATOIL:   OPERATOR
PROV.                                           NORTH SEA:   PROVINCE
COUN.                                      DEEPSEA BERGEN:   RIG NAME
SPUD.                                          1991/06/05:   SPUD DATE
LATI.                                         58 3 1.85 N:   SURF. LATITUDE
LONG.                                         1 58 3.41 E:   SURF. LONGITUDE
PBWE.                                             15/12-8:   PB WELL ID
APIN.                                             15/12-8:   PB WELLBORE ID
PBWS.                                                 all:   PB WELL NAME SET
~PARAMETER INFORMATION (log)
LNAM.                              ZDL/CNL/GR  COMPOSITED:   NAME
LTYP.                                         DEPTH MATCH:   LOG TYPE
LSRV.                                            DEN/NEUT:   LOG SERVICE
LSOU.                                             SPT/NPD:   LOG SOURCE
LVSN.                                                   1:   LOG VERSION
BHIS.                                                   R:   BRIEF HISTORY
FHIS.                                             RAW-LIS:   FULL HISTORY
LCNM.                                            ANADRILL:   LOGGING CONTRACTOR
TOOL.                             ZDL/CNL/GR (COMPOSITED):   TOOL STRING
~Curve Information Block
#MNEM.UNIT                                        API CODE    No Description
#=========                                        ========    == ===========
DEPT.M                                       00 001 00 00:     1  DEPTH
CAL.IN                                                   :     2  Caliper
CNC.%                                                    :     3  Neutron Porosity
GR.GAPI                                                  :     4  Gamma Ray
PE.B/E                                                   :     5  Youngs Modulus Apparent
SPD.                                                     :     6  Cable Speed
TTEN.LB                                                  :     7  Cable Tension
ZCOR.G/CC                                                :     8  Density Correction
ZDEN.G/CC                                                :     9  Bulk Density
~ASCII
# ...
 1034.7500    19.2372  -999.2500    93.0920  -999.2500    10.4366  1021.4917      .0476     2.0089
 1034.8750    19.2891  -999.2500    99.0062  -999.2500    10.4189  1018.7739      .0829     2.0722
 1035.0000    19.4441  -999.2500   104.9132  -999.2500    10.4062  1016.5735      .0838     2.0809
 1035.1250    19.4441  -999.2500    99.1814  -999.2500    10.4003  1014.4037      .0738     2.0707
 1035.2500    19.4441  -999.2500   101.9579  -999.2500    10.3990  1011.0686      .0770     2.0846
 1035.3750    19.6510  -999.2500    97.1564  -999.2500    10.4003  1006.5490      .0799     2.0964
 1035.5000    19.7028  -999.2500   100.1108  -999.2500    10.4059  1003.2239      .0933     2.0947
 1035.6250    19.9098  -999.2500    90.8665  -999.2500    10.4166  1002.7328      .1447     2.1096
 1035.7500    20.1683  -999.2500    97.5249  -999.2500    10.4287  1005.4902      .0939     2.0232
 1035.8750    20.2717  -999.2500    94.7530  -999.2500    10.4349  1010.8151      .0832     2.0427
 1036.0000    20.2717  -999.2500    90.1367  -999.2500    10.4335  1016.2764      .1096     2.0977
 1036.1250    19.8835  -999.2500    94.9454  -999.2500    10.4277  1019.8660      .1287     2.0955
 1036.2500    19.6510  -999.2500    99.0026  -999.2500    10.4214  1019.4507      .0767     1.9808
 1036.3750    19.5476  -999.2500    90.3236  -999.2500    10.4150  1014.1584      .0805     1.9874
 1036.5000    19.7028  -999.2500    96.4167  -999.2500    10.4054  1007.7362      .1185     2.0312
 1036.6250    20.5568  -999.2500    98.0777  -999.2500    10.3905  1003.1366      .0808     1.9670
 1036.7500    21.3062  -999.2500    99.0026  -999.2500    10.3743  1001.8330      .0425     1.8926
 1036.8750    20.5823  -999.2500    90.5034  -999.2500    10.3639  1003.6483      .1006     1.9756
 1037.0000    20.4269  -999.2500    91.2449  -999.2500    10.3614  1006.1560      .1042     1.9863
 1037.1250    19.9614  -999.2500    95.3085  -999.2500    10.3652  1008.6735      .0973     1.9736
 1037.2500    19.9614  -999.2500    92.3532  -999.2500    10.3729  1010.9954      .0671     1.9455
 1037.3750    20.1942  -999.2500    95.3067  -999.2500    10.3849  1011.1987      .0963     1.9991
 1037.5000    20.1683  -999.2500    95.3085  -999.2500    10.4005  1007.3920      .0764     1.9893
 1037.6250    20.0648  -999.2500    87.5427  -999.2500    10.4171   999.0782      .0568     1.9508
 1037.7500    20.2717  -999.2500    91.6143  -999.2500    10.4304   989.0076      .1119     2.0335
 1037.8750    20.2977  -999.2500    87.9238  -999.2500    10.4364   982.3323      .0558     1.9718
 1038.0000    20.3752  -999.2500    95.6779  -999.2500    10.4372   980.5712      .0887     2.0567
 1038.1250    20.4528  -999.2500    93.4569  -999.2500    10.4347   983.6904      .0669     2.0493
 1038.2500    20.2717  -999.2500    83.4873  -999.2500    10.4300   990.7725      .1072     2.0890
 1038.3750    20.4011  -999.2500    89.5794  -999.2500    10.4212   999.1433      .1139     2.1057
 1038.5000    20.5821  -999.2500    93.4614  -999.2500    10.4068  1004.9565      .1126     2.0785
 1038.6250    20.9185  -999.2500    92.3459  -999.2500    10.3885  1006.0491      .1009     2.0444
 1038.7500    19.5476  -999.2500    86.4426  -999.2500    10.3708  1001.8838      .0750     2.0291
 1038.8750    19.5476  -999.2500    90.8791  -999.2500    10.3631   994.9514      .0499     2.0201
 1039.0000    19.5476  -999.2500    92.7226  -999.2500    10.3701   990.4683      .1166     2.0985
 1039.1250    19.6252  -999.2500    86.2547  -999.2500    10.3922   990.7443      .0939     2.0783
 1039.2500    19.4441  -999.2500    87.9202  -999.2500    10.4239   994.2212      .1196     2.0630
 1039.3750    19.3666  -999.2500    89.3961  -999.2500    10.4546   996.2615      .1226     2.0888
 1039.5000    19.4441  -999.2500    89.7673  -999.2500    10.4727   995.1299      .0890     2.0247
 1039.6250    19.5218  -999.2500    88.4712  -999.2500    10.4730   992.7786      .1643     2.1064
 1039.7500    19.7545  -999.2500    91.6143  -999.2500    10.4577   992.4321      .0891     2.0060
 1039.8750    19.9098  -999.2500    97.1600  -999.2500    10.4352   996.8311      .1272     2.0676
 1040.0000    20.1166  -999.2500    89.0284  -999.2500    10.4144  1002.6666      .1002     2.0617
 1040.1250    20.1683  -999.2500    83.1242  -999.2500    10.3981  1005.6556      .1127     2.0759
 1040.2500    19.9614  -999.2500    83.4873  -999.2500    10.3869  1004.6782      .1812     2.0853
 1040.3750    19.9614  -999.2500    83.1205  -999.2500    10.3815  1002.2793      .1168     1.9608
 1040.5000    19.7545  -999.2500    83.4872  -999.2500    10.3814  1001.5494      .1119     1.9178
 1040.6250    19.3923  -999.2500    76.0954  -999.2500    10.3876  1002.7499      .1089     1.8840
 1040.7500    19.3407  -999.2500    80.5320  -999.2500    10.3996  1004.3794      .0561     1.8561
 1040.8750    19.3925  -999.2500    90.4980  -999.2500    10.4144  1004.4343      .0573     1.9206
 1041.0000    19.4959  -999.2500    84.5955  -999.2500    10.4266  1002.2623      .1315     2.0447
 1041.1250    19.5218  -999.2500    89.2136  -999.2500    10.4328   997.9709      .1698     2.0712
 1041.2500    19.5476  -999.2500    79.7931  -999.2500    10.4334   992.4663      .1215     1.9503
 1041.3750    19.5217  -999.2500    83.6742  -999.2500    10.4298   987.2057      .1154     1.9308
 1041.5000    19.4441  -999.2500    85.3343  -999.2500    10.4253   984.8477      .1218     1.9651
 1041.6250    19.4441  -999.2500    89.7718  -999.2500    10.4191   987.1222      .1188     1.9117
 1041.7500    19.0303  -999.2500    95.3085  -999.2500    10.4092   992.2988      .0776     1.8048
 1041.8750    18.9269  -999.2500    86.2520  -999.2500    10.3953   996.1508      .0714     1.7905
 1042.0000    18.8752  -999.2500    79.4237  -999.2500    10.3808   998.1470      .0756     1.8143
 1042.1250    18.8235  -999.2500    84.2297  -999.2500    10.3690  1001.5908      .0474     1.8272
 1042.2500    18.8235  -999.2500    78.3155  -999.2500    10.3613  1008.8328      .0747     1.9368
 1042.3750    18.9528  -999.2500    83.6670  -999.2500    10.3566  1018.3727      .1084     2.0214
 1042.5000    19.0303  -999.2500    82.7484  -999.2500    10.3547  1024.8381      .1276     2.0545
 1042.6250    19.1856  -999.2500    86.8111  -999.2500    10.3591  1024.6606      .1130     2.0474
 1042.7500    19.5476  -999.2500    84.2261  -999.2500    10.3719  1018.2561      .1728     2.1166
 1042.8750    19.4701  -999.2500    92.3495  -999.2500    10.3901  1009.7665      .1536     2.0883
 1043.0000    19.7028  -999.2500    90.1367  -999.2500    10.4051  1004.0405      .1309     2.0413
 1043.1250    20.1685  -999.2500    84.0346  -999.2500    10.4122  1003.4800      .1329     2.0135
 1043.2500    20.2717  -999.2500    90.8755  -999.2500    10.4110  1008.7188      .1086     1.9926
 1043.3750    20.3752  -999.2500    83.3093  -999.2500    10.4063  1018.8655      .1306     1.9997
 1043.5000    20.0648  -999.2500    90.5061  -999.2500    10.4041  1028.9238      .1576     2.0599
 1043.6250    19.5215  -999.2500    91.6161  -999.2500    10.4037  1034.8259      .1415     2.0379
 1043.7500    19.2372  -999.2500    85.7037  -999.2500    10.4004  1034.5063      .1488     2.0368
 1043.8750    19.2372  -999.2500    87.7386  -999.2500    10.3910  1027.9102      .1012     2.0068
 1044.0000    19.1338  -999.2500    86.8120  -999.2500    10.3793  1019.0005      .1735     2.0864
 1044.1250    18.9527  -999.2500    85.8916  -999.2500    10.3689  1010.5190      .1349     1.9861
 1044.2500    18.9269  -999.2500    82.0096  -999.2500    10.3619  1004.4485      .1148     1.9530
 1044.3750    19.0044  -999.2500    93.4569  -999.2500    10.3597  1002.5698      .1200     1.9842
 1044.5000    18.9786  -999.2500    90.8755  -999.2500    10.3625  1004.2124      .0912     1.9497
 1044.6250    18.8751  -999.2500    88.8397  -999.2500    10.3724  1008.3499      .0815     1.9817
 1044.7500    18.5131  -999.2500    93.8308  -999.2500    10.3908  1013.4678      .1898     2.1496
