~VERSION INFORMATION
VERS.                                                 2.0:   CWLS Log ASCII Standard-VERSION 2.0
WRAP.                                                  NO:   One line per depth step
~Well Information Block
STRT.M                                           143.7500:   Top Depth
STOP.M                                          3055.0000:   Bottom Depth
STEP.M                                             .12500:   Depth Increment
NULL.                                            -999.250:   Null Value
FLD .                                                   -:   Field Name
WELL.                                             15/12-8:   NAME
WBN .                                             15/12-8:   WELLBORE
NATI.                                                 NOR:   COUNTRY
CTRY.                                                 NOR:   COUNTRY
COMP.                                             STATOIL:   OPERATOR
PROV.                                           NORTH SEA:   PROVINCE
COUN.                                      DEEPSEA BERGEN:   RIG NAME
SPUD.                                          1991/06/05:   SPUD DATE
LATI.                                         58 3 1.85 N:   SURF. LATITUDE
LONG.                                         1 58 3.41 E:   SURF. LONGITUDE
PBWE.                                             15/12-8:   PB WELL ID
APIN.                                             15/12-8:   PB WELLBORE ID
PBWS.                                                 all:   PB WELL NAME SET
~PARAMETER INFORMATION (log)
LNAM.                              ZDL/CNL/GR  COMPOSITED:   NAME
LTYP.                                         DEPTH MATCH:   LOG TYPE
LSRV.                                            DEN/NEUT:   LOG SERVICE
LSOU.                                             SPT/NPD:   LOG SOURCE
LVSN.                                                   1:   LOG VERSION
BHIS.                                                   R:   BRIEF HISTORY
FHIS.                                             RAW-LIS:   FULL HISTORY
LCNM.                                            ANADRILL:   LOGGING CONTRACTOR
TOOL.                             ZDL/CNL/GR (COMPOSITED):   TOOL STRING
~Curve Information Block
#MNEM.UNIT                                        API CODE    No Description
#=========                                        ========    == ===========
DEPT.M                                       00 001 00 00:     1  DEPTH
CAL.IN                                                   :     2  Caliper
CNC.%                                                    :     3  Neutron Porosity
GR.GAPI                                                  :     4  Gamma Ray
PE.B/E                                                   :     5  Youngs Modulus Apparent
SPD.                                                     :     6  Cable Speed
TTEN.LB                                                  :     7  Cable Tension
ZCOR.G/CC                                                :     8  Density Correction
ZDEN.G/CC                                                :     9  Bulk Density
~ASCII
# ...
 1946.0000    12.8852  -999.2500    85.0523     3.9614     9.6463  1326.8826      .0297     2.1817
 1946.1250    12.8852  -999.2500    83.0329     4.0296     9.6680  1328.4688      .0372     2.2169
 1946.2500    12.8852  -999.2500    81.8503     3.7767     9.6897  1328.1577      .0397     2.2467
 1946.3750    12.8852  -999.2500    84.0804     3.6620     9.7053  1328.2480      .0258     2.2377
 1946.5000    12.8852  -999.2500    82.2466     3.8083     9.7106  1330.9749      .0105     2.2159
 1946.6250    12.8852  -999.2500    80.2592     3.9241     9.7033  1335.9333      .0204     2.2175
 1946.7500    12.8852  -999.2500    82.1728     4.2200     9.6810  1341.2200      .0354     2.2344
 1946.8750    12.8852  -999.2500    80.0584     4.4757     9.6430  1345.0127      .0044     2.1858
 1947.0000    12.8852  -999.2500    78.5155     4.5689     9.6016  1346.8621     -.0138     2.1498
 1947.1250    12.8852  -999.2500    84.1700     3.7463     9.5705  1346.1401      .0035     2.1693
 1947.2500    12.8852  -999.2500    90.2404     3.9436     9.5625  1341.8181      .0081     2.1739
 1947.3750    12.8852  -999.2500    86.6206     4.8339     9.5844  1333.1704      .0048     2.1439
 1947.5000    12.9085  -999.2500    86.7800     5.6371     9.6206  1323.2957      .0310     2.1628
 1947.6250    12.9352  -999.2500    87.9177     5.3808     9.6558  1315.7527      .0179     2.1332
 1947.7500    12.9337  -999.2500    82.5370     5.4232     9.6790  1312.4929      .0096     2.1265
 1947.8750    12.9221  -999.2500    83.6582     4.9468     9.6840  1312.8940      .0085     2.1266
 1948.0000    12.8852  -999.2500    83.6888     4.9042     9.6765  1313.6433      .0152     2.1313
 1948.1250    12.8852  -999.2500    80.8216     4.6374     9.6617  1313.3672     -.0019     2.1089
 1948.2500    12.8852  -999.2500    84.9588     3.7468     9.6436  1312.5129      .0044     2.1261
 1948.3750    12.8852  -999.2500    82.3340     4.3751     9.6246  1312.5784      .0319     2.1483
 1948.5000    12.8852  -999.2500    85.6897     4.9191     9.6068  1314.2295      .0113     2.1388
 1948.6250    12.8852  -999.2500    84.3761     4.5002     9.5932  1317.2166      .0280     2.1931
 1948.7500    12.8852  -999.2500    83.0342     6.5269     9.5864  1320.4827      .0635     2.2292
 1948.8750    12.8852  -999.2500    78.7193     7.7254     9.5900  1322.2046      .0385     2.1766
 1949.0000    12.8852  -999.2500    76.9945     7.1289     9.6004  1321.4558      .0452     2.1839
 1949.1250    12.8852  -999.2500    79.3511     5.4350     9.6126  1318.9771      .0486     2.1811
 1949.2500    12.9475  -999.2500    87.4888     4.5019     9.6231  1316.4900      .0506     2.2179
 1949.3750    12.9114  -999.2500    83.6915     4.8435     9.6309  1315.7129      .0402     2.2265
 1949.5000    12.8852  -999.2500    79.9196     3.8916     9.6376  1316.6262      .0349     2.2385
 1949.6250    12.8852  -999.2500    76.1159     4.1650     9.6456  1317.3232      .0204     2.2270
 1949.7500    12.8852  -999.2500    83.9940     4.3501     9.6581  1315.2175      .0158     2.2015
 1949.8750    12.8852  -999.2500    89.1865     5.0777     9.6758  1309.8254      .0145     2.1656
 1950.0000    12.8852  -999.2500    86.2706     5.8928     9.6929  1305.2466      .0145     2.1690
 1950.1250    12.8852  -999.2500    87.1049     6.8006     9.7043  1305.0225      .0152     2.1597
 1950.2500    12.8852  -999.2500    77.9125     5.0740     9.7058  1309.9512      .0220     2.1467
 1950.3750    12.8852  -999.2500    82.5205     4.8947     9.6939  1316.4141      .0544     2.1926
 1950.5000    12.8852  -999.2500    83.4353     4.6974     9.6746  1319.0051      .0346     2.1813
 1950.6250    12.8852  -999.2500    83.0797     5.8686     9.6544  1316.8315      .0419     2.2051
 1950.7500    12.8852  -999.2500    87.6439     5.6142     9.6384  1313.6160      .0149     2.1687
 1950.8750    12.9442  -999.2500    81.4624     7.2570     9.6318  1314.0034      .0591     2.2120
 1951.0000    13.1108  -999.2500    85.1729    12.6124     9.6353  1316.4937      .0141     2.1500
 1951.1250    13.0868  -999.2500    85.9026     9.8173     9.6469  1317.6619      .0049     2.1326
 1951.2500    13.0820  -999.2500    82.5715     8.9452     9.6608  1316.2659      .0529     2.1674
 1951.3750    12.8684  -999.2500    83.2927     8.9820     9.6711  1314.9924      .0467     2.1259
 1951.5000    12.7039  -999.2500    82.0989    10.0594     9.6767  1316.0925      .0401     2.1057
 1951.6250    12.6885  -999.2500    80.0999    10.8573     9.6792  1318.0122      .0495     2.1100
 1951.7500    12.6885  -999.2500    85.4239    10.5776     9.6812  1317.3147      .0101     2.0760
 1951.8750    12.8454  -999.2500    83.5625     9.5550     9.6798  1312.0564     -.0120     2.0553
 1952.0000    12.8364  -999.2500    83.9251     9.4581     9.6637  1305.8931      .0032     2.0638
 1952.1250    12.8827  -999.2500    80.5650     8.5788     9.6243  1301.8691      .0303     2.1183
 1952.2500    12.9755  -999.2500    88.2173    10.0639     9.5660  1300.7361      .0276     2.1162
 1952.3750    12.8904  -999.2500    80.6296    10.2723     9.5105  1301.0183      .0037     2.0875
 1952.5000    12.8852  -999.2500    77.9359     8.1815     9.4813  1301.9727      .0233     2.1010
 1952.6250    12.8852  -999.2500    81.8319     7.8505     9.4860  1304.9888      .0473     2.1214
 1952.7500    12.8852  -999.2500    91.7220     9.2447     9.5163  1310.2817      .0550     2.1551
 1952.8750    12.7886  -999.2500    84.2409    14.4794     9.5543  1314.9734      .0054     2.1334
 1953.0000    12.8359  -999.2500    83.5276    14.0316     9.5864  1316.1677      .0200     2.1414
 1953.1250    12.8854  -999.2500    90.3788    10.0489     9.6111  1313.7083      .0370     2.1145
 1953.2500    12.9851  -999.2500    83.2458     9.5070     9.6289  1309.6333      .0363     2.1335
 1953.3750    13.1611  -999.2500    87.6315    10.9348     9.6406  1306.8621      .0481     2.1877
 1953.5000    13.3813  -999.2500    81.7962     7.4453     9.6509  1305.9031      .0168     2.1611
 1953.6250    13.5005  -999.2500    78.5272     7.9308     9.6622  1305.7605      .0125     2.1246
 1953.7500    12.8914  -999.2500    81.5526     8.1800     9.6739  1306.2761      .0802     2.1915
 1953.8750    12.9538  -999.2500    93.0717    10.0765     9.6810  1309.2109      .0164     2.1108
 1954.0000    12.8852  -999.2500    84.8886     8.4643     9.6797  1314.8809      .0042     2.0939
 1954.1250    12.8925  -999.2500    83.5719     8.6385     9.6704  1321.8137      .0071     2.1101
 1954.2500    12.9944  -999.2500    82.8127     9.7305     9.6578  1327.1689      .0213     2.1157
 1954.3750    13.2198  -999.2500    83.4939     9.4126     9.6470  1327.6565      .0268     2.1270
 1954.5000    13.0741  -999.2500    82.8077     9.0117     9.6387  1324.4451      .0222     2.1176
 1954.6250    12.6885  -999.2500    88.0260     8.7080     9.6335  1320.2046      .0364     2.1406
 1954.7500    12.6885  -999.2500    89.2116    11.0866     9.6352  1317.1929     -.0277     2.0606
 1954.8750    12.6885  -999.2500    84.4827    10.4974     9.6482  1316.2903     -.0067     2.1078
 1955.0000    12.6885  -999.2500    85.2837     8.4549     9.6662  1316.4521     -.0106     2.0953
 1955.1250    12.7029  -999.2500    87.5208     7.4914     9.6809  1317.2239     -.0243     2.0809
 1955.2500    12.7869  -999.2500    91.0821     8.4657     9.6870  1318.3376      .0008     2.1126
 1955.3750    12.7464  -999.2500    86.2484     7.1466     9.6840  1319.9087      .0126     2.1266
 1955.5000    12.6885  -999.2500    87.4150     8.8975     9.6778  1321.2437      .0147     2.1190
 1955.6250    12.6885  -999.2500    87.9460    11.6581     9.6706  1320.7603      .0301     2.1250
 1955.7500    12.6885  -999.2500    85.5298     7.0746     9.6614  1317.6411     -.0228     2.0450
 1955.8750    12.6885  -999.2500    90.2285     5.5304     9.6494  1312.6919      .0083     2.0741
 1956.0000    12.6885  -999.2500    89.1981     5.5296     9.6397  1308.5264      .0386     2.1184
