~VERSION INFORMATION
VERS.                                                 2.0:   CWLS Log ASCII Standard-VERSION 2.0
WRAP.                                                  NO:   One line per depth step
~Well Information Block
STRT.M                                           143.7500:   Top Depth
STOP.M                                          3055.0000:   Bottom Depth
STEP.M                                             .12500:   Depth Increment
NULL.                                            -999.250:   Null Value
FLD .                                                   -:   Field Name
WELL.                                             15/12-8:   NAME
WBN .                                             15/12-8:   WELLBORE
NATI.                                                 NOR:   COUNTRY
CTRY.                                                 NOR:   COUNTRY
COMP.                                             STATOIL:   OPERATOR
PROV.                                           NORTH SEA:   PROVINCE
COUN.                                      DEEPSEA BERGEN:   RIG NAME
SPUD.                                          1991/06/05:   SPUD DATE
LATI.                                         58 3 1.85 N:   SURF. LATITUDE
LONG.                                         1 58 3.41 E:   SURF. LONGITUDE
PBWE.                                             15/12-8:   PB WELL ID
APIN.                                             15/12-8:   PB WELLBORE ID
PBWS.                                                 all:   PB WELL NAME SET
~PARAMETER INFORMATION (log)
LNAM.                              ZDL/CNL/GR  COMPOSITED:   NAME
LTYP.                                         DEPTH MATCH:   LOG TYPE
LSRV.                                            DEN/NEUT:   LOG SERVICE
LSOU.                                             SPT/NPD:   LOG SOURCE
LVSN.                                                   1:   LOG VERSION
BHIS.                                                   R:   BRIEF HISTORY
FHIS.                                             RAW-LIS:   FULL HISTORY
LCNM.                                            ANADRILL:   LOGGING CONTRACTOR
TOOL.                             ZDL/CNL/GR (COMPOSITED):   TOOL STRING
~Curve Information Block
#MNEM.UNIT                                        API CODE    No Description
#=========                                        ========    == ===========
DEPT.M                                       00 001 00 00:     1  DEPTH
CAL.IN                                                   :     2  Caliper
CNC.%                                                    :     3  Neutron Porosity
GR.GAPI                                                  :     4  Gamma Ray
PE.B/E                                                   :     5  Youngs Modulus Apparent
SPD.                                                     :     6  Cable Speed
TTEN.LB                                                  :     7  Cable Tension
ZCOR.G/CC                                                :     8  Density Correction
ZDEN.G/CC                                                :     9  Bulk Density
~ASCII
# ...
  660.1250    18.9269  -999.2500    90.5101  -999.2500    10.7253   783.8319      .1379     2.0194
  660.2500    18.9269  -999.2500    87.1814  -999.2500    10.7407   782.8428      .1339     2.0005
  660.3750    18.9269  -999.2500   100.4802  -999.2500    10.7561   784.9413      .1472     2.0291
  660.5000    18.9269  -999.2500    99.7423  -999.2500    10.7668   789.8887      .1228     2.0114
  660.6250    18.9269  -999.2500    99.0026  -999.2500    10.7730   795.7689      .1010     2.0107
  660.7500    19.0303  -999.2500    92.3532  -999.2500    10.7766   800.1978      .1279     2.0494
  660.8750    19.0303  -999.2500    89.0203  -999.2500    10.7771   801.5233      .0957     2.0286
  661.0000    19.0303  -999.2500    79.0543  -999.2500    10.7717   800.6318      .1060     2.0294
  661.1250    19.0303  -999.2500    81.8238  -999.2500    10.7585   798.3728      .1235     2.0465
  661.2500    19.0303  -999.2500    82.7484  -999.2500    10.7390   796.0178      .1213     2.0336
  661.3750    19.0303  -999.2500    93.8308  -999.2500    10.7193   794.8822      .1156     2.0287
  661.5000    18.9787  -999.2500    89.4033  -999.2500    10.7065   794.8612      .0932     2.0093
  661.6250    19.0045  -999.2500    84.9649  -999.2500    10.7027   796.0491      .0799     1.9946
  661.7500    19.0303  -999.2500    79.7931  -999.2500    10.7069   798.4297      .0362     1.9561
  661.8750    19.0303  -999.2500    79.9783  -999.2500    10.7181   801.4774      .0802     2.0318
  662.0000    19.0303  -999.2500    80.5320  -999.2500    10.7338   804.3843      .0585     2.0101
  662.1250    19.0303  -999.2500    79.4242  -999.2500    10.7504   806.4077      .0296     1.9829
  662.2500    19.0303  -999.2500    79.0543  -999.2500    10.7630   807.0234      .0580     2.0237
  662.3750    19.0303  -999.2500    78.3155  -999.2500    10.7669   805.7301      .1134     2.0700
  662.5000    19.0303  -999.2500    83.8499  -999.2500    10.7656   803.3037      .1035     2.0382
  662.6250    19.0303  -999.2500    89.3979  -999.2500    10.7639   800.5725      .1003     2.0334
  662.7500    18.9269  -999.2500    90.8755  -999.2500    10.7645   797.8660      .0838     2.0287
  662.8750    18.8235  -999.2500    88.2833  -999.2500    10.7680   795.4036      .0685     2.0200
  663.0000    18.8235  -999.2500    80.5320  -999.2500    10.7720   793.5941      .0607     2.0317
  663.1250    18.8235  -999.2500    80.5320  -999.2500    10.7736   792.6487      .0471     2.0178
  663.2500    18.7200  -999.2500    80.5320  -999.2500    10.7704   791.5605      .0723     2.0505
  663.3750    18.6422  -999.2500    79.7931  -999.2500    10.7597   788.9348      .0677     2.0402
  663.5000    18.2547  -999.2500    82.3759  -999.2500    10.7438   787.4877      .1162     2.1036
  663.6250    17.9442  -999.2500    84.9649  -999.2500    10.7256   790.8965      .0932     2.0576
  663.7500    17.6855  -999.2500    87.1814  -999.2500    10.7104   800.2048      .1079     2.0386
  663.8750    17.7374  -999.2500    87.7368  -999.2500    10.7072   812.1962      .0903     2.0209
  664.0000    18.0991  -999.2500    89.3979  -999.2500    10.7162   820.5752      .0619     2.0016
  664.1250    18.4613  -999.2500   102.6913  -999.2500    10.7329   821.6807      .0452     2.0100
  664.2500    18.5131  -999.2500   107.1297  -999.2500    10.7504   815.1821      .0593     2.0277
  664.3750    18.8494  -999.2500    81.2708  -999.2500    10.7605   805.1481      .0553     2.0146
  664.5000    19.0819  -999.2500    86.4362  -999.2500    10.7617   797.1094      .0856     2.0499
  664.6250    19.3923  -999.2500    91.6143  -999.2500    10.7555   792.5464      .0816     2.0309
  664.7500    19.4441  -999.2500    82.7484  -999.2500    10.7475   792.0049      .0753     2.0132
  664.8750    19.4957  -999.2500    83.3039  -999.2500    10.7430   796.6503      .0928     2.0305
  665.0000    19.2374  -999.2500    84.9649  -999.2500    10.7386   804.3142      .0708     1.9816
  665.1250    19.1338  -999.2500    77.7643  -999.2500    10.7294   811.2333      .1021     2.0072
  665.2500    19.1338  -999.2500    75.3602  -999.2500    10.7133   813.9226      .0380     1.9267
  665.3750    19.1338  -999.2500    82.0096  -999.2500    10.6946   811.0798      .0499     1.9493
  665.5000    19.0821  -999.2500    89.7578  -999.2500    10.6814   805.2052      .0872     2.0028
  665.6250    19.0303  -999.2500    97.5249  -999.2500    10.6785   798.5533      .0921     1.9924
  665.7500    19.0303  -999.2500   102.6967  -999.2500    10.6875   793.2568      .0735     1.9526
  665.8750    19.0303  -999.2500   100.4748  -999.2500    10.7074   790.6958      .0893     1.9671
  666.0000    19.0303  -999.2500    93.8308  -999.2500    10.7326   790.4620      .0898     1.9638
  666.1250    19.0303  -999.2500    88.8458  -999.2500    10.7590   792.4866      .0722     1.9434
  666.2500    19.0303  -999.2500    87.1814  -999.2500    10.7827   796.2839      .0963     2.0095
  666.3750    19.0303  -999.2500    96.0473  -999.2500    10.7994   800.7825      .0742     1.9863
  666.5000    19.0303  -999.2500    87.1922  -999.2500    10.8084   805.3523      .0818     2.0163
  666.6250    19.0303  -999.2500    78.3155  -999.2500    10.8096   810.2793      .0925     2.0172
  666.7500    19.0303  -999.2500    97.5249  -999.2500    10.8042   814.8677      .1101     2.0310
  666.8750    19.0303  -999.2500    96.5992  -999.2500    10.7931   816.3486      .0721     1.9827
  667.0000    18.9787  -999.2500    93.8308  -999.2500    10.7769   813.6484      .0724     1.9882
  667.1250    18.9269  -999.2500    93.2769  -999.2500    10.7560   807.6311      .0612     1.9861
  667.2500    18.9269  -999.2500    93.0920  -999.2500    10.7330   800.3599      .0558     1.9917
  667.3750    19.0303  -999.2500    87.1814  -999.2500    10.7114   794.4620      .0410     1.9909
  667.5000    19.0303  -999.2500    88.2883  -999.2500    10.6950   791.2612      .0467     2.0133
  667.6250    19.0303  -999.2500    89.3979  -999.2500    10.6870   791.3330      .0915     2.0622
  667.7500    19.0303  -999.2500    73.8825  -999.2500    10.6904   794.3906      .0683     2.0320
  667.8750    19.0303  -999.2500    75.7341  -999.2500    10.7057   799.3239      .0601     2.0102
  668.0000    19.0303  -999.2500    81.2708  -999.2500    10.7256   803.6095      .0572     2.0182
  668.1250    18.9528  -999.2500    94.5642  -999.2500    10.7455   804.7704      .0596     2.0404
  668.2500    19.0303  -999.2500    99.0026  -999.2500    10.7606   801.2505      .0377     2.0288
  668.3750    19.0303  -999.2500    92.3532  -999.2500    10.7654   793.7236      .0285     2.0209
  668.5000    19.0303  -999.2500    95.6738  -999.2500    10.7617   786.0458      .0515     2.0574
  668.6250    19.0303  -999.2500    99.0026  -999.2500    10.7539   781.4486      .0651     2.0699
  668.7500    19.0303  -999.2500    82.7484  -999.2500    10.7450   782.2720      .0454     2.0400
  668.8750    19.0303  -999.2500    85.3406  -999.2500    10.7332   788.5454      .0413     2.0401
  669.0000    19.0303  -999.2500    93.0920  -999.2500    10.7189   795.6327      .0716     2.0768
  669.1250    19.0303  -999.2500    91.4303  -999.2500    10.7047   799.9203      .0655     2.0530
  669.2500    19.0303  -999.2500    90.8755  -999.2500    10.6928   799.6550      .0842     2.0786
  669.3750    19.1079  -999.2500    86.4426  -999.2500    10.6852   795.0126      .0935     2.0850
  669.5000    19.0820  -999.2500    86.4426  -999.2500    10.6810   788.6532      .0652     2.0485
  669.6250    19.1338  -999.2500    86.4426  -999.2500    10.6819   781.9592      .0568     2.0337
  669.7500    19.1338  -999.2500   100.4802  -999.2500    10.6899   776.4102      .0843     2.0642
  669.8750    19.1338  -999.2500    97.7029  -999.2500    10.7069   774.5789      .0610     2.0315
  670.0000    19.1338  -999.2500    89.3979  -999.2500    10.7307   776.7726      .0716     2.0556
  670.1250    19.1338  -999.2500    84.4128  -999.2500    10.7573   782.4398      .0463     2.0344
