~VERSION INFORMATION
VERS.                                                 2.0:   CWLS Log ASCII Standard-VERSION 2.0
WRAP.                                                  NO:   One line per depth step
~Well Information Block
STRT.M                                           143.7500:   Top Depth
STOP.M                                          3055.0000:   Bottom Depth
STEP.M                                             .12500:   Depth Increment
NULL.                                            -999.250:   Null Value
FLD .                                                   -:   Field Name
WELL.                                             15/12-8:   NAME
WBN .                                             15/12-8:   WELLBORE
NATI.                                                 NOR:   COUNTRY
CTRY.                                                 NOR:   COUNTRY
COMP.                                             STATOIL:   OPERATOR
PROV.                                           NORTH SEA:   PROVINCE
COUN.                                      DEEPSEA BERGEN:   RIG NAME
SPUD.                                          1991/06/05:   SPUD DATE
LATI.                                         58 3 1.85 N:   SURF. LATITUDE
LONG.                                         1 58 3.41 E:   SURF. LONGITUDE
PBWE.                                             15/12-8:   PB WELL ID
APIN.                                             15/12-8:   PB WELLBORE ID
PBWS.                                                 all:   PB WELL NAME SET
~PARAMETER INFORMATION (log)
LNAM.                              ZDL/CNL/GR  COMPOSITED:   NAME
LTYP.                                         DEPTH MATCH:   LOG TYPE
LSRV.                                            DEN/NEUT:   LOG SERVICE
LSOU.                                             SPT/NPD:   LOG SOURCE
LVSN.                                                   1:   LOG VERSION
BHIS.                                                   R:   BRIEF HISTORY
FHIS.                                             RAW-LIS:   FULL HISTORY
LCNM.                                            ANADRILL:   LOGGING CONTRACTOR
TOOL.                             ZDL/CNL/GR (COMPOSITED):   TOOL STRING
~Curve Information Block
#MNEM.UNIT                                        API CODE    No Description
#=========                                        ========    == ===========
DEPT.M                                       00 001 00 00:     1  DEPTH
CAL.IN                                                   :     2  Caliper
CNC.%                                                    :     3  Neutron Porosity
GR.GAPI                                                  :     4  Gamma Ray
PE.B/E                                                   :     5  Youngs Modulus Apparent
SPD.                                                     :     6  Cable Speed
TTEN.LB                                                  :     7  Cable Tension
ZCOR.G/CC                                                :     8  Density Correction
ZDEN.G/CC                                                :     9  Bulk Density
~ASCII
# ...
 2128.2500    15.2398  -999.2500    63.2416     7.6677     9.2427  1401.5010      .0037     2.1463
 2128.3750    15.0761  -999.2500    60.5537     7.2627     9.2203  1402.9524      .0205     2.1725
 2128.5000    14.7693  -999.2500    59.0848     8.1575     9.2041  1406.1267      .0232     2.1802
 2128.6250    14.8836  -999.2500    65.6576     9.8453     9.1968  1408.5393      .0254     2.1903
 2128.7500    15.3051  -999.2500    62.5697    10.8782     9.1970  1408.0059      .0225     2.1856
 2128.8750    15.4426  -999.2500    66.2620     9.7538     9.2010  1405.1995      .0446     2.1975
 2129.0000    15.4426  -999.2500    65.2105     8.6583     9.2052  1403.8650      .0350     2.1651
 2129.1250    15.3777  -999.2500    65.8377     8.5259     9.2090  1404.9661      .0203     2.1422
 2129.2500    15.1475  -999.2500    67.0367     9.0365     9.2134  1406.5513      .0053     2.1425
 2129.3750    15.1405  -999.2500    65.0466     7.8274     9.2168  1405.6062      .0168     2.1549
 2129.5000    15.0705  -999.2500    63.8828     6.8082     9.2161  1403.5664      .0025     2.1202
 2129.6250    14.9684  -999.2500    58.0044     8.2855     9.2102  1403.6938      .0134     2.1685
 2129.7500    14.8417  -999.2500    62.8675    10.7819     9.1996  1407.7527      .0753     2.3506
 2129.8750    14.5641  -999.2500    61.6246     8.4506     9.1840  1413.6343      .0522     2.3882
 2130.0000    14.6200  -999.2500    64.7281     7.8443     9.1685  1417.0872      .0272     2.2905
 2130.1250    14.6557  -999.2500    64.2288     7.4795     9.1584  1417.2412      .0315     2.2110
 2130.2500    14.7080  -999.2500    67.4551     9.2891     9.1573  1416.1157      .0161     2.1799
 2130.3750    14.8395  -999.2500    70.6732     8.7504     9.1668  1416.0486      .0093     2.1777
 2130.5000    14.7537  -999.2500    70.0282     8.3261     9.1838  1416.3992     -.0075     2.1611
 2130.6250    14.8733  -999.2500    60.5694     8.4661     9.2062  1415.4692     -.0061     2.1717
 2130.7500    15.1475  -999.2500    63.9455     7.8295     9.2320  1413.1450     -.0033     2.1955
 2130.8750    15.0737  -999.2500    63.6369     8.2250     9.2582  1411.6819      .0138     2.2023
 2131.0000    15.0859  -999.2500    65.7508     7.5755     9.2801  1412.3835      .0177     2.1964
 2131.1250    15.1911  -999.2500    68.9677     9.2961     9.2919  1414.1553      .0079     2.1744
 2131.2500    15.0730  -999.2500    66.8792     8.8964     9.2904  1414.7290     -.0108     2.1508
 2131.3750    15.1957  -999.2500    69.2210     7.9624     9.2778  1412.1816      .0372     2.2224
 2131.5000    15.3068  -999.2500    63.2638     9.5672     9.2641  1407.4236      .0286     2.2194
 2131.6250    15.3272  -999.2500    61.5843    10.4576     9.2558  1401.5234     -.0077     2.1697
 2131.7500    15.2459  -999.2500    62.6165     7.9446     9.2530  1394.9614      .0101     2.1609
 2131.8750    15.2515  -999.2500    65.4897     8.0732     9.2487  1388.4546      .0318     2.1648
 2132.0000    15.3172  -999.2500    65.4899     7.7866     9.2403  1383.9519      .0058     2.1523
 2132.1250    15.3589  -999.2500    67.9542     6.5498     9.2310  1383.4404      .0081     2.1879
 2132.2500    14.9846  -999.2500    70.6447     7.4869     9.2250  1387.3950      .0248     2.2187
 2132.3750    14.7084  -999.2500    68.5572     8.1397     9.2243  1393.1040     -.0018     2.1530
 2132.5000    14.5858  -999.2500    71.6612     6.6536     9.2260  1396.6260      .0131     2.1400
 2132.6250    14.5242  -999.2500    71.3666     7.5788     9.2265  1397.4900      .0082     2.1328
 2132.7500    14.7337  -999.2500    64.2433     9.5374     9.2213  1398.6677      .0255     2.1921
 2132.8750    14.8046  -999.2500    64.1602     9.0109     9.2078  1404.6057      .0167     2.1812
 2133.0000    14.9116  -999.2500    66.4091    11.4641     9.1908  1413.5679      .0260     2.1868
 2133.1250    14.6949  -999.2500    64.9787     9.7128     9.1742  1421.0752      .0464     2.1714
 2133.2500    14.7134  -999.2500    65.8160    12.6100     9.1625  1423.3020      .0128     2.1282
 2133.3750    15.0470  -999.2500    60.1488    11.1079     9.1595  1418.6436     -.0016     2.1388
 2133.5000    15.3074  -999.2500    62.8281    13.3506     9.1617  1411.5505      .0236     2.1465
 2133.6250    14.8996  -999.2500    61.5878    12.4740     9.1656  1405.9524      .0341     2.1202
 2133.7500    14.6734  -999.2500    68.0458     9.0983     9.1695  1403.7659      .0114     2.1256
 2133.8750    14.7162  -999.2500    66.9344    11.3094     9.1760  1405.0374      .0193     2.1634
 2134.0000    14.6730  -999.2500    63.3967    13.6323     9.1859  1407.5977     -.0008     2.1462
 2134.1250    14.8375  -999.2500    61.0912    10.6562     9.1982  1409.6003      .0048     2.1457
 2134.2500    15.0327  -999.2500    68.9933     8.1630     9.2100  1410.0583      .0103     2.1181
 2134.3750    15.0621  -999.2500    67.8234     9.1926     9.2180  1409.3843      .0278     2.1719
 2134.5000    15.2617  -999.2500    61.8018     9.6751     9.2225  1409.5056      .0012     2.1516
 2134.6250    15.3897  -999.2500    61.5464     8.9198     9.2248  1410.9832     -.0056     2.1177
 2134.7500    15.3289  -999.2500    69.5028    10.2734     9.2267  1412.5776      .0400     2.1890
 2134.8750    15.3832  -999.2500    69.4542    12.0170     9.2286  1411.6975     -.0082     2.1444
 2135.0000    15.5333  -999.2500    68.0950    12.0007     9.2288  1407.3235      .0018     2.1544
 2135.1250    15.5092  -999.2500    67.9685     8.8333     9.2253  1400.4607      .0197     2.1437
 2135.2500    15.4995  -999.2500    65.7914     6.9380     9.2182  1394.5432      .0353     2.1642
 2135.3750    15.8256  -999.2500    65.7704     6.8071     9.2120  1392.8066      .0177     2.1740
 2135.5000    15.6476  -999.2500    65.1182     7.9501     9.2119  1394.7195      .0207     2.2188
 2135.6250    15.2992  -999.2500    64.4660     8.4152     9.2198  1398.8311      .0028     2.1974
 2135.7500    15.1345  -999.2500    69.1828     9.3391     9.2341  1402.8528      .0450     2.2398
 2135.8750    15.1017  -999.2500    64.6016    15.3053     9.2487  1404.8364      .0238     2.1939
 2136.0000    14.9990  -999.2500    64.1018    13.9280     9.2572  1405.6350      .0321     2.1724
 2136.1250    15.1296  -999.2500    66.2198    12.4504     9.2576  1406.2363      .0466     2.1655
 2136.2500    15.1595  -999.2500    61.5164     8.9456     9.2516  1406.5793      .0610     2.2278
 2136.3750    15.4344  -999.2500    60.5329     6.7330     9.2401  1404.7124      .0346     2.2513
 2136.5000    15.6107  -999.2500    62.4491     7.0288     9.2231  1400.2644      .0037     2.2555
 2136.6250    15.4064  -999.2500    63.4713     7.1269     9.1989  1394.7092      .0105     2.2212
 2136.7500    15.8468  -999.2500    69.2271     6.7626     9.1708  1390.4453     -.0159     2.1374
 2136.8750    15.7694  -999.2500    71.2699     8.8630     9.1505  1389.9016      .0059     2.1635
 2137.0000    15.3982  -999.2500    67.1044     7.9435     9.1463  1391.5789     -.0047     2.1544
 2137.1250    15.5114  -999.2500    66.9941     9.3133     9.1592  1393.0261      .0053     2.1718
 2137.2500    15.7185  -999.2500    71.3339     8.5677     9.1826  1393.2051      .0224     2.2111
 2137.3750    15.5001  -999.2500    68.0304     8.8727     9.2047  1393.3108     -.0205     2.1630
 2137.5000    15.2275  -999.2500    70.8872     7.3178     9.2195  1395.6685      .0073     2.1871
 2137.6250    15.0873  -999.2500    65.6120    11.1409     9.2293  1401.1531      .0439     2.2602
 2137.7500    15.5886  -999.2500    65.6880    12.2089     9.2372  1408.7034      .0459     2.4090
 2137.8750    15.1107  -999.2500    64.4990     8.9350     9.2430  1415.5190     -.0867     2.1986
 2138.0000    15.2459  -999.2500    63.8864     6.6024     9.2451  1419.5198      .0033     2.2186
 2138.1250    15.2459  -999.2500    71.2832     7.6110     9.2424  1419.8167      .0298     2.1807
 2138.2500    15.2532  -999.2500    71.9885     8.0874     9.2355  1416.2212      .0029     2.1517
