~VERSION INFORMATION
VERS.                                                 2.0:   CWLS Log ASCII Standard-VERSION 2.0
WRAP.                                                  NO:   One line per depth step
~Well Information Block
STRT.M                                           143.7500:   Top Depth
STOP.M                                          3055.0000:   Bottom Depth
STEP.M                                             .12500:   Depth Increment
NULL.                                            -999.250:   Null Value
FLD .                                                   -:   Field Name
WELL.                                             15/12-8:   NAME
WBN .                                             15/12-8:   WELLBORE
NATI.                                                 NOR:   COUNTRY
CTRY.                                                 NOR:   COUNTRY
COMP.                                             STATOIL:   OPERATOR
PROV.                                           NORTH SEA:   PROVINCE
COUN.                                      DEEPSEA BERGEN:   RIG NAME
SPUD.                                          1991/06/05:   SPUD DATE
LATI.                                         58 3 1.85 N:   SURF. LATITUDE
LONG.                                         1 58 3.41 E:   SURF. LONGITUDE
PBWE.                                             15/12-8:   PB WELL ID
APIN.                                             15/12-8:   PB WELLBORE ID
PBWS.                                                 all:   PB WELL NAME SET
~PARAMETER INFORMATION (log)
LNAM.                              ZDL/CNL/GR  COMPOSITED:   NAME
LTYP.                                         DEPTH MATCH:   LOG TYPE
LSRV.                                            DEN/NEUT:   LOG SERVICE
LSOU.                                             SPT/NPD:   LOG SOURCE
LVSN.                                                   1:   LOG VERSION
BHIS.                                                   R:   BRIEF HISTORY
FHIS.                                             RAW-LIS:   FULL HISTORY
LCNM.                                            ANADRILL:   LOGGING CONTRACTOR
TOOL.                             ZDL/CNL/GR (COMPOSITED):   TOOL STRING
~Curve Information Block
#MNEM.UNIT                                        API CODE    No Description
#=========                                        ========    == ===========
DEPT.M                                       00 001 00 00:     1  DEPTH
CAL.IN                                                   :     2  Caliper
CNC.%                                                    :     3  Neutron Porosity
GR.GAPI                                                  :     4  Gamma Ray
PE.B/E                                                   :     5  Youngs Modulus Apparent
SPD.                                                     :     6  Cable Speed
TTEN.LB                                                  :     7  Cable Tension
ZCOR.G/CC                                                :     8  Density Correction
ZDEN.G/CC                                                :     9  Bulk Density
~ASCII
# ...
 1399.2500    19.1338  -999.2500   102.6967  -999.2500     9.5329  1118.3245      .1541     2.1315
 1399.3750    19.1597  -999.2500    95.3048  -999.2500     9.5051  1116.6694      .1534     2.1306
 1399.5000    19.2372  -999.2500    96.0473  -999.2500     9.4778  1111.3811      .1631     2.1550
 1399.6250    19.2372  -999.2500    93.4551  -999.2500     9.4557  1105.6462      .1573     2.1598
 1399.7500    19.2372  -999.2500    82.7484  -999.2500     9.4409  1101.1899      .1249     2.1457
 1399.8750    19.3407  -999.2500    76.6563  -999.2500     9.4361  1098.6382      .0843     2.2019
 1400.0000    19.2890  -999.2500    85.3343  -999.2500     9.4394  1098.0000      .1432     2.3053
 1400.1250    19.1596  -999.2500    89.5821  -999.2500     9.4480  1100.7080      .1582     2.2630
 1400.2500    19.1338  -999.2500    98.2638  -999.2500     9.4584  1107.9597      .1204     2.1400
 1400.3750    19.1338  -999.2500    92.5419  -999.2500     9.4674  1119.1372      .1199     2.1251
 1400.5000    19.1338  -999.2500    94.5696  -999.2500     9.4763  1129.7498      .1266     2.1300
 1400.6250    19.1338  -999.2500    96.0509  -999.2500     9.4893  1136.7283      .0930     2.0814
 1400.7500    19.1338  -999.2500    93.0920  -999.2500     9.5094  1139.5903      .0895     2.0941
 1400.8750    19.1338  -999.2500    92.3550  -999.2500     9.5340  1140.0381      .1052     2.0796
 1401.0000    19.0821  -999.2500    93.0920  -999.2500     9.5549  1140.6057      .0870     2.0557
 1401.1250    19.1080  -999.2500    95.4963  -999.2500     9.5665  1142.1155      .0884     2.0657
 1401.2500    19.1338  -999.2500    85.7037  -999.2500     9.5694  1143.5725      .0688     2.0474
 1401.3750    19.1338  -999.2500   106.0187  -999.2500     9.5676  1142.7227      .0939     2.0759
 1401.5000    19.1338  -999.2500   101.2191  -999.2500     9.5639  1138.7996      .0769     2.0744
 1401.6250    19.1338  -999.2500    96.9686  -999.2500     9.5571  1132.3511      .0695     2.0547
 1401.7500    19.1338  -999.2500    98.2638  -999.2500     9.5452  1124.3542      .0708     2.0784
 1401.8750    19.1338  -999.2500    96.0491  -999.2500     9.5305  1116.4731      .0823     2.0489
 1402.0000    19.1338  -999.2500   103.4355  -999.2500     9.5218  1110.6086      .1120     2.0894
 1402.1250    19.1338  -999.2500    91.9702  -999.2500     9.5243  1107.5537      .1204     2.1034
 1402.2500    19.1338  -999.2500    92.3532  -999.2500     9.5373  1106.6135      .1415     2.1591
 1402.3750    19.1338  -999.2500    90.3236  -999.2500     9.5539  1106.2852      .1291     2.1429
 1402.5000    19.1338  -999.2500    96.4167  -999.2500     9.5649  1105.1882      .1485     2.1734
 1402.6250    19.1338  -999.2500    88.0954  -999.2500     9.5667  1103.3186      .1471     2.1525
 1402.7500    19.1338  -999.2500   101.9579  -999.2500     9.5608  1101.6335      .1147     2.1075
 1402.8750    19.2372  -999.2500    93.6511  -999.2500     9.5499  1101.1113      .1325     2.1281
 1403.0000    19.1855  -999.2500    98.2637  -999.2500     9.5357  1101.6384      .1209     2.1260
 1403.1250    19.1338  -999.2500    94.0132  -999.2500     9.5189  1103.0686      .0897     2.1107
 1403.2500    19.1338  -999.2500   100.4802  -999.2500     9.5020  1105.2231      .1249     2.1992
 1403.3750    19.1597  -999.2500    93.0974  -999.2500     9.4884  1107.8889      .0846     2.2097
 1403.5000    19.2372  -999.2500    98.6332  -999.2500     9.4794  1110.2827      .1525     2.2715
 1403.6250    19.2372  -999.2500    93.0884  -999.2500     9.4752  1111.3494      .1235     2.1852
 1403.7500    19.2372  -999.2500   100.4802  -999.2500     9.4743  1110.5356      .1458     2.1776
 1403.8750    19.2372  -999.2500    95.5027  -999.2500     9.4752  1108.3860      .1328     2.1484
 1404.0000    19.2372  -999.2500   100.8497  -999.2500     9.4797  1106.2048      .1461     2.1498
 1404.1250    19.3149  -999.2500    95.6788  -999.2500     9.4904  1105.2632      .1285     2.1332
 1404.2500    19.2372  -999.2500    92.3532  -999.2500     9.5064  1106.4736      .1315     2.1224
 1404.3750    19.0044  -999.2500    96.9767  -999.2500     9.5252  1110.0823      .1750     2.1560
 1404.5000    18.9269  -999.2500   100.4802  -999.2500     9.5439  1113.7480      .1801     2.1290
 1404.6250    18.9269  -999.2500   103.4409  -999.2500     9.5599  1114.0227      .1463     2.0596
 1404.7500    18.9269  -999.2500   104.1744  -999.2500     9.5705  1108.7681      .1563     2.0557
 1404.8750    18.8235  -999.2500   105.0929  -999.2500     9.5723  1099.2927      .1081     2.0180
 1405.0000    18.8235  -999.2500    99.0026  -999.2500     9.5649  1091.4402      .1071     2.0428
 1405.1250    18.9011  -999.2500   102.8846  -999.2500     9.5482  1089.3420      .1318     2.0887
 1405.2500    18.9269  -999.2500   112.3014  -999.2500     9.5270  1092.8787      .1553     2.0985
 1405.3750    18.9269  -999.2500    99.9266  -999.2500     9.5091  1098.4744      .1709     2.1012
 1405.5000    18.9269  -999.2500   103.0661  -999.2500     9.5002  1102.4993      .1606     2.0673
 1405.6250    18.9269  -999.2500    96.7789  -999.2500     9.5032  1105.1135      .1416     2.0410
 1405.7500    18.9269  -999.2500    87.9202  -999.2500     9.5177  1108.9287      .1609     2.0552
 1405.8750    18.9269  -999.2500   103.2486  -999.2500     9.5384  1115.6465      .1564     2.0514
 1406.0000    18.9269  -999.2500    97.1555  -999.2500     9.5563  1123.5388      .1610     2.0345
 1406.1250    18.9269  -999.2500   102.1494  -999.2500     9.5666  1131.3975      .1451     2.0282
 1406.2500    18.9269  -999.2500   102.6967  -999.2500     9.5694  1138.1677      .1035     1.9992
 1406.3750    18.9269  -999.2500    93.0956  -999.2500     9.5686  1142.4424      .1222     2.0737
 1406.5000    18.9786  -999.2500   104.9132  -999.2500     9.5673  1143.6077      .1345     2.1008
 1406.6250    19.0303  -999.2500   100.6554  -999.2500     9.5626  1141.1304      .1368     2.0968
 1406.7500    19.0303  -999.2500    97.5249  -999.2500     9.5519  1134.9832      .1062     2.0682
 1406.8750    19.1597  -999.2500    98.2692  -999.2500     9.5348  1125.9963      .1551     2.1348
 1407.0000    19.2372  -999.2500   104.5438  -999.2500     9.5181  1117.2842      .1623     2.1493
 1407.1250    19.2372  -999.2500   106.9472  -999.2500     9.5074  1110.6104      .1652     2.1638
 1407.2500    19.2372  -999.2500    93.8308  -999.2500     9.5032  1107.1650      .1632     2.1682
 1407.3750    19.2372  -999.2500    91.4274  -999.2500     9.5013  1108.2363      .1670     2.1765
 1407.5000    19.2372  -999.2500    88.2896  -999.2500     9.4970  1112.3916      .1405     2.1474
 1407.6250    19.2372  -999.2500    89.5839  -999.2500     9.4916  1117.8743      .1039     2.2062
 1407.7500    19.2372  -999.2500    73.8825  -999.2500     9.4888  1122.5181      .1160     2.4124
 1407.8750    19.2372  -999.2500    83.6742  -999.2500     9.4902  1124.6677      .1874     2.5362
 1408.0000    19.2372  -999.2500    93.8308  -999.2500     9.4963  1124.4922      .2657     2.4503
 1408.1250    19.2372  -999.2500   101.2191  -999.2500     9.5065  1122.9351      .1994     2.2269
 1408.2500    19.2372  -999.2500   101.2191  -999.2500     9.5191  1120.8462      .1606     2.1301
 1408.3750    19.2372  -999.2500   106.7557  -999.2500     9.5315  1117.9080      .1459     2.1028
 1408.5000    19.2372  -999.2500    92.7226  -999.2500     9.5400  1114.5046      .1355     2.0852
 1408.6250    19.3149  -999.2500    95.8721  -999.2500     9.5416  1111.2859      .1332     2.0838
 1408.7500    19.3407  -999.2500    98.2638  -999.2500     9.5361  1108.9702      .1053     2.0523
 1408.8750    19.4182  -999.2500    93.8326  -999.2500     9.5248  1108.7002      .1115     2.0632
 1409.0000    19.3407  -999.2500    98.2638  -999.2500     9.5108  1109.3130      .1161     2.0747
 1409.1250    19.4183  -999.2500    97.7074  -999.2500     9.4970  1109.6877      .1093     2.0804
 1409.2500    19.4441  -999.2500    87.1814  -999.2500     9.4880  1109.7942      .1196     2.0913
