~VERSION INFORMATION
VERS.                                                 2.0:   CWLS Log ASCII Standard-VERSION 2.0
WRAP.                                                  NO:   One line per depth step
~Well Information Block
STRT.M                                           143.7500:   Top Depth
STOP.M                                          3055.0000:   Bottom Depth
STEP.M                                             .12500:   Depth Increment
NULL.                                            -999.250:   Null Value
FLD .                                                   -:   Field Name
WELL.                                             15/12-8:   NAME
WBN .                                             15/12-8:   WELLBORE
NATI.                                                 NOR:   COUNTRY
CTRY.                                                 NOR:   COUNTRY
COMP.                                             STATOIL:   OPERATOR
PROV.                                           NORTH SEA:   PROVINCE
COUN.                                      DEEPSEA BERGEN:   RIG NAME
SPUD.                                          1991/06/05:   SPUD DATE
LATI.                                         58 3 1.85 N:   SURF. LATITUDE
LONG.                                         1 58 3.41 E:   SURF. LONGITUDE
PBWE.                                             15/12-8:   PB WELL ID
APIN.                                             15/12-8:   PB WELLBORE ID
PBWS.                                                 all:   PB WELL NAME SET
~PARAMETER INFORMATION (log)
LNAM.                              ZDL/CNL/GR  COMPOSITED:   NAME
LTYP.                                         DEPTH MATCH:   LOG TYPE
LSRV.                                            DEN/NEUT:   LOG SERVICE
LSOU.                                             SPT/NPD:   LOG SOURCE
LVSN.                                                   1:   LOG VERSION
BHIS.                                                   R:   BRIEF HISTORY
FHIS.                                             RAW-LIS:   FULL HISTORY
LCNM.                                            ANADRILL:   LOGGING CONTRACTOR
TOOL.                             ZDL/CNL/GR (COMPOSITED):   TOOL STRING
~Curve Information Block
#MNEM.UNIT                                        API CODE    No Description
#=========                                        ========    == ===========
DEPT.M                                       00 001 00 00:     1  DEPTH
CAL.IN                                                   :     2  Caliper
CNC.%                                                    :     3  Neutron Porosity
GR.GAPI                                                  :     4  Gamma Ray
PE.B/E                                                   :     5  Youngs Modulus Apparent
SPD.                                                     :     6  Cable Speed
TTEN.LB                                                  :     7  Cable Tension
ZCOR.G/CC                                                :     8  Density Correction
ZDEN.G/CC                                                :     9  Bulk Density
~ASCII
# ...
 2310.5000    13.5738  -999.2500    80.5988     3.2469     9.2349  1469.4109      .0184     2.2936
 2310.6250    13.5738  -999.2500    73.3213     3.5326     9.2240  1470.9155      .0196     2.2906
 2310.7500    13.5738  -999.2500    71.1862     3.1176     9.2076  1471.6711      .0353     2.3188
 2310.8750    13.5980  -999.2500    74.3094     2.8117     9.1959  1469.7163      .0268     2.3103
 2311.0000    13.6712  -999.2500    73.1108     3.2686     9.2007  1465.3909      .0293     2.3121
 2311.1250    13.6721  -999.2500    77.8712     3.2741     9.2277  1460.3223      .0303     2.3194
 2311.2500    13.6721  -999.2500    84.3238     3.6801     9.2741  1456.6167      .0181     2.3327
 2311.3750    13.6721  -999.2500    90.3188     3.1606     9.3286  1455.9084      .0272     2.3489
 2311.5000    13.6721  -999.2500    84.2241     3.3484     9.3739  1457.7852      .0097     2.3145
 2311.6250    13.6721  -999.2500    81.2003     3.6110     9.4040  1461.7273      .0327     2.3364
 2311.7500    13.6721  -999.2500    78.1857     3.2226     9.4234  1467.0298      .0283     2.3156
 2311.8750    13.6721  -999.2500    80.7406     3.1892     9.4403  1472.3279      .0060     2.2945
 2312.0000    13.6721  -999.2500    77.9223     3.1090     9.4565  1475.1135      .0069     2.3027
 2312.1250    13.6008  -999.2500    80.3436     4.2869     9.4678  1473.6973     -.0025     2.2796
 2312.2500    13.5738  -999.2500    80.7207     3.3828     9.4702  1468.4014      .0061     2.2943
 2312.3750    13.5738  -999.2500    75.7596     3.4130     9.4594  1461.6272      .0297     2.3309
 2312.5000    13.5738  -999.2500    76.7853     3.3861     9.4412  1457.3857      .0162     2.3045
 2312.6250    13.5738  -999.2500    79.9494     3.5302     9.4232  1457.7317      .0166     2.2930
 2312.7500    13.5738  -999.2500    76.4137     3.0288     9.4102  1462.8320      .0330     2.3335
 2312.8750    13.5738  -999.2500    69.8566     3.3415     9.4023  1471.5220      .0141     2.2966
 2313.0000    13.5738  -999.2500    70.8010     2.9711     9.3989  1479.9783      .0224     2.3118
 2313.1250    13.5738  -999.2500    82.4652     3.1318     9.3974  1485.4526      .0387     2.3407
 2313.2500    13.5738  -999.2500    76.1922     3.3158     9.3945  1486.5750      .0232     2.3046
 2313.3750    13.5738  -999.2500    81.7928     3.4993     9.3898  1483.1848      .0241     2.3112
 2313.5000    13.5738  -999.2500    87.3067     3.6312     9.3864  1478.2747      .0217     2.3169
 2313.6250    13.5738  -999.2500    91.9726     3.8529     9.3858  1474.3604      .0411     2.3469
 2313.7500    13.5738  -999.2500    81.9857     3.3587     9.3853  1473.1311      .0360     2.3458
 2313.8750    13.5738  -999.2500    86.3712     3.7990     9.3806  1474.7632      .0155     2.3361
 2314.0000    13.5738  -999.2500    90.5259     3.8222     9.3709  1477.2124      .0238     2.3457
 2314.1250    13.5738  -999.2500    91.9462     3.9178     9.3568  1479.1738      .0280     2.3556
 2314.2500    13.5738  -999.2500    93.1593     4.2283     9.3439  1480.4727      .0061     2.3047
 2314.3750    13.5738  -999.2500    87.9983     3.4035     9.3406  1481.0156     -.0067     2.2955
 2314.5000    13.5738  -999.2500    87.7571     3.4403     9.3459  1480.0173      .0121     2.3079
 2314.6250    13.5738  -999.2500    79.3187     3.6161     9.3561  1476.5667      .0195     2.3089
 2314.7500    13.5738  -999.2500    90.9049     3.8120     9.3680  1471.0530      .0157     2.3092
 2314.8750    13.5738  -999.2500    85.7831     3.4118     9.3808  1465.4727      .0037     2.2840
 2315.0000    13.5738  -999.2500    80.0254     3.4471     9.3934  1461.6702      .0044     2.2789
 2315.1250    13.5738  -999.2500    78.3608     3.4131     9.4051  1460.5959     -.0028     2.2821
 2315.2500    13.5738  -999.2500    72.9435     3.1361     9.4154  1462.2754      .0205     2.3092
 2315.3750    13.5738  -999.2500    72.8470     4.0220     9.4214  1466.1624      .0468     2.3481
 2315.5000    13.5738  -999.2500    75.0847     4.6827     9.4221  1470.9878      .0352     2.3674
 2315.6250    13.5738  -999.2500    65.3401     3.3764     9.4198  1475.4646     -.0287     2.3037
 2315.7500    13.5738  -999.2500    65.9194     3.7453     9.4164  1477.9124     -.0121     2.3222
 2315.8750    13.5738  -999.2500    72.9227     3.7936     9.4107  1477.5383      .0037     2.2976
 2316.0000    13.5738  -999.2500    70.1082     3.8399     9.4022  1476.7700      .0050     2.2806
 2316.1250    13.5738  -999.2500    76.2599     3.2677     9.3877  1477.1477      .0266     2.3274
 2316.2500    13.6625  -999.2500    72.5029     3.4115     9.3624  1478.1013      .0313     2.3505
 2316.3750    13.6721  -999.2500    81.6069     4.0506     9.3252  1478.8848      .0059     2.3093
 2316.5000    13.6721  -999.2500    80.6690     4.1668     9.2886  1479.7573      .0236     2.3621
 2316.6250    13.6721  -999.2500    78.3775     4.3488     9.2674  1481.3130      .0067     2.3365
 2316.7500    13.6721  -999.2500    90.3265     3.3408     9.2742  1483.5059     -.0012     2.3074
 2316.8750    13.6721  -999.2500    79.6021     3.4108     9.3125  1484.3958      .0087     2.3067
 2317.0000    13.6721  -999.2500    73.4258     3.0796     9.3590  1481.3420      .0119     2.3198
 2317.1250    13.6721  -999.2500    77.2131     2.9671     9.3927  1473.6216      .0222     2.3376
 2317.2500    13.6721  -999.2500    81.5501     3.3829     9.4041  1463.7456      .0143     2.3058
 2317.3750    13.6721  -999.2500    80.0588     2.7142     9.3959  1457.5757      .0275     2.3328
 2317.5000    13.6721  -999.2500    74.9124     3.0206     9.3822  1458.0771      .0175     2.3170
 2317.6250    13.6721  -999.2500    73.0498     3.3267     9.3701  1463.8887     -.0024     2.2828
 2317.7500    13.6721  -999.2500    80.3614     3.0559     9.3626  1470.6145      .0335     2.3448
 2317.8750    13.6721  -999.2500    76.7955     2.5336     9.3610  1473.4104      .0411     2.3561
 2318.0000    13.6721  -999.2500    80.3786     2.7302     9.3654  1472.6853      .0281     2.3195
 2318.1250    13.6721  -999.2500    74.3427     3.2476     9.3755  1470.8582      .0193     2.2984
 2318.2500    13.6721  -999.2500    69.0819     3.5499     9.3875  1469.3560      .0479     2.3299
 2318.3750    13.6721  -999.2500    68.8131     2.9455     9.3956  1468.3586      .0185     2.3190
 2318.5000    13.6721  -999.2500    70.6238     3.2325     9.4001  1467.9380      .0093     2.3052
 2318.6250    13.6721  -999.2500    71.1232     3.3573     9.4048  1469.1633      .0149     2.2985
 2318.7500    13.6721  -999.2500    71.6538     2.7936     9.4110  1472.9829      .0627     2.3858
 2318.8750    13.6721  -999.2500    78.4938     3.5987     9.4171  1477.4648      .0208     2.3235
 2319.0000    13.6721  -999.2500    77.8116     2.8537     9.4216  1478.9211      .0228     2.3285
 2319.1250    13.6721  -999.2500    78.8289     3.4892     9.4240  1476.3494      .0221     2.3277
 2319.2500    13.7563  -999.2500    78.1266     3.5187     9.4236  1472.3335      .0131     2.3040
 2319.3750    13.7705  -999.2500    83.9661     3.3707     9.4202  1470.7029      .0055     2.3065
 2319.5000    13.7705  -999.2500    75.4218     3.4727     9.4149  1470.7236      .0149     2.3251
 2319.6250    13.7705  -999.2500    75.1853     3.2025     9.4085  1470.2043      .0257     2.3491
 2319.7500    13.7705  -999.2500    76.7706     3.2155     9.4027  1468.0928      .0376     2.3808
 2319.8750    13.7705  -999.2500    74.9975     3.7864     9.4008  1465.0684      .0164     2.3318
 2320.0000    13.7705  -999.2500    81.0702     3.3781     9.4037  1462.7864     -.0002     2.3121
 2320.1250    13.7705  -999.2500    82.4576     3.4713     9.4100  1461.5085      .0210     2.3445
 2320.2500    13.7705  -999.2500    72.9115     3.7617     9.4185  1460.8467     -.0300     2.2839
 2320.3750    13.7705  -999.2500    80.2176     3.5508     9.4287  1460.7107      .0200     2.3355
 2320.5000    13.7705  -999.2500    80.8585     3.4173     9.4361  1461.5181      .0059     2.3159
