~VERSION INFORMATION
VERS.                                                 2.0:   CWLS Log ASCII Standard-VERSION 2.0
WRAP.                                                  NO:   One line per depth step
~Well Information Block
STRT.M                                           485.3750:   Top Depth
STOP.M                                          4311.3750:   Bottom Depth
STEP.M                                             .12500:   Depth Increment
NULL.                                            -999.250:   Null Value
FLD .                                            SLEIPNER:   Field Name
WELL.                                              15/8-1:   NAME
WBN .                                              15/8-1:   WELLBORE
NATI.                                                 NOR:   COUNTRY
CTRY.                                                 NOR:   COUNTRY
COMP.                                             STATOIL:   OPERATOR
PROV.                                           NORTH SEA:   PROVINCE
COUN.                                    GLOMAR BISCAY II:   RIG NAME
SPUD.                                          1981/07/18:   SPUD DATE
LATI.                                       58 21 48.10 N:   SURF. LATITUDE
LONG.                                        1 34 22.31 E:   SURF. LONGITUDE
PBWE.                                              15/8-1:   PB WELL ID
APIN.                                              15/8-1:   PB WELLBORE ID
PBWS.                                                 all:   PB WELL NAME SET
~PARAMETER INFORMATION (log)
LNAM.                              CDL/CNL/GR  COMPOSITED:   NAME
LTYP.                                         DEPTH MATCH:   LOG TYPE
LSRV.                                            DEN/NEUT:   LOG SERVICE
LSOU.                                             SPT/NPD:   LOG SOURCE
LVSN.                                                   1:   LOG VERSION
BHIS.                                                   R:   BRIEF HISTORY
FHIS.                                             RAW-LIS:   FULL HISTORY
LCNM.                                                  DA:   LOGGING CONTRACTOR
TOOL.                             CDL/CNL/GR (COMPOSITED):   TOOL STRING
~Curve Information Block
#MNEM.UNIT                                        API CODE    No Description
#=========                                        ========    == ===========
DEPT.M                                       00 001 00 00:     1  DEPTH
CAL.IN                                                   :     2  Caliper
CN.%                                                     :     3  Neutron Porosity
CORR.G/CC                                                :     4  Density Correction
DEN.G/CC                                                 :     5  Bulk Density
GR.GAPI                                                  :     6  Gamma Ray
TEN.LB                                                   :     7  Cable Tension
~ASCII
# ...
 1499.3750    15.7837    34.3044      .1663     2.2262    80.5530    28.4546
 1499.5000    15.7642    35.1598      .1640     2.2231    80.3195    28.5921
 1499.6250    15.7565    36.4502      .1600     2.2181    81.4351    28.7297
 1499.7500    15.7526    37.0106      .1553     2.2120    82.8109    28.8672
 1499.8750    15.7487    36.8860      .1505     2.2081    83.6829    29.0047
 1500.0000    15.7450    36.7003      .1470     2.2082    84.0821    29.1422
 1500.1250    15.7434    37.2899      .1455     2.2104    83.4365    29.2797
 1500.2500    15.7474    38.7441      .1427     2.2128    82.2076    29.4172
 1500.3750    15.7536    40.2748      .1382     2.2153    81.3576    29.5547
 1500.5000    15.7586    41.7124      .1346     2.2178    81.6475    29.6922
 1500.6250    15.7619    42.9153      .1322     2.2205    82.4285    29.8297
 1500.7500    15.7726    42.1335      .1331     2.2238    83.1076    29.9672
 1500.8750    15.8024    39.9949      .1374     2.2270    83.5512    30.1047
 1501.0000    15.8575    37.8566      .1431     2.2296    84.1835    30.2423
 1501.1250    15.9338    36.3378      .1508     2.2320    84.9565    30.3113
 1501.2500    16.0188    36.0085      .1609     2.2327    86.1105    29.1858
 1501.3750    16.1039    36.6429      .1703     2.2306    87.7606    26.2425
 1501.5000    16.1700    38.3872      .1777     2.2278    89.7677    23.0999
 1501.6250    16.1423    40.2441      .1822     2.2253    91.5463    21.0213
 1501.7500    16.0315    42.6910      .1809     2.2243    92.9293    20.8975
 1501.8750    15.9144    45.3859      .1755     2.2241    93.8494    20.9978
 1502.0000    15.8101    45.6788      .1690     2.2235    93.6555    21.0980
 1502.1250    15.7384    44.6420      .1618     2.2236    92.8021    21.1983
 1502.2500    15.7097    42.6352      .1537     2.2243    90.5431    21.2985
 1502.3750    15.7103    40.0709      .1457     2.2254    88.3749    21.3988
 1502.5000    15.7134    38.0877      .1392     2.2276    86.6497    21.4990
 1502.6250    15.7103    37.4763      .1358     2.2300    85.4363    21.5993
 1502.7500    15.7049    38.0301      .1371     2.2316    84.5124    21.6995
 1502.8750    15.6999    39.6131      .1411     2.2321    83.8282    21.7998
 1503.0000    15.6969    41.8534      .1451     2.2315    84.0522    21.9000
 1503.1250    15.6952    46.2478      .1456     2.2296    84.8867    22.0003
 1503.2500    15.6884    49.6716      .1427     2.2279    86.5682    22.1005
 1503.3750    15.6730    49.3990      .1390     2.2291    88.2007    22.2008
 1503.5000    15.6457    46.2626      .1387     2.2321    89.0257    22.3011
 1503.6250    15.5921    41.9654      .1460     2.2346    88.9327    22.4014
 1503.7500    15.4958    37.5750      .1593     2.2364    87.6611    22.5016
 1503.8750    15.3775    34.5588      .1706     2.2378    85.7718    22.6018
 1504.0000    15.2569    33.6249      .1771     2.2380    83.8135    22.6705
 1504.1250    15.1388    33.7416      .1813     2.2376    81.9420    22.4670
 1504.2500    15.0317    34.8521      .1858     2.2369    81.2067    22.1237
 1504.3750    14.9479    36.8211      .1910     2.2356    82.5705    21.7803
 1504.5000    14.8894    38.7282      .1966     2.2339    84.7594    21.4371
 1504.6250    14.8519    40.0528      .2019     2.2314    87.0133    21.0937
 1504.7500    14.8298    40.7956      .2055     2.2296    89.1550    20.7504
 1504.8750    14.8228    41.7606      .2040     2.2291    90.5485    20.4071
 1505.0000    14.8334    42.6080      .1963     2.2296    90.8222    20.0637
 1505.1250    14.8558    43.0808      .1860     2.2309    90.7855    19.7205
 1505.2500    14.8810    43.3190      .1765     2.2318    91.2407    19.3769
 1505.3750    14.9030    43.1697      .1702     2.2311    91.8663    19.0336
 1505.5000    14.9277    41.8713      .1663     2.2260    92.3570    18.6902
 1505.6250    14.9565    40.1125      .1648     2.2186    92.7204    18.3470
 1505.7500    14.9874    38.4089      .1664     2.2112    92.7184    18.0036
 1505.8750    15.0181    36.8705      .1658     2.2050    92.5768    17.6603
 1506.0000    15.0435    36.2776      .1590     2.2021    92.1394    17.3170
 1506.1250    15.0617    36.2955      .1491     2.2022    92.8023    16.9736
 1506.2500    15.0790    36.6403      .1427     2.2030    94.4821    16.6303
 1506.3750    15.0984    37.1989      .1411     2.2040    96.1207    16.2871
 1506.5000    15.1086    37.9545      .1424     2.2045    97.7928    15.9437
 1506.6250    15.1105    38.8949      .1452     2.2041    99.5465    15.6004
 1506.7500    15.1121    39.8404      .1502     2.2038   100.2364    15.2571
 1506.8750    15.1199    40.2077      .1574     2.2044    99.8398    15.0405
 1507.0000    15.1358    39.5328      .1654     2.2077    99.6142    15.1002
 1507.1250    15.1626    38.4308      .1739     2.2101    99.8005    15.2004
 1507.2500    15.2169    37.6899      .1826     2.2114   100.0540    15.3006
 1507.3750    15.3188    37.8409      .1872     2.2118   100.0311    15.4009
 1507.5000    15.4482    38.8287      .1845     2.2118    99.7977    15.5011
 1507.6250    15.5567    39.9776      .1782     2.2126    99.0054    15.6014
 1507.7500    15.6502    41.0925      .1714     2.2148    97.4529    15.7016
 1507.8750    15.7413    42.7660      .1654     2.2169    96.3418    15.8018
 1508.0000    15.8287    43.4165      .1605     2.2187    95.2567    15.9021
 1508.1250    15.9140    42.2353      .1578     2.2195    94.1272    16.0023
 1508.2500    15.9928    39.2257      .1573     2.2189    93.0366    16.1025
 1508.3750    16.0577    37.3212      .1584     2.2190    92.1239    16.2028
 1508.5000    16.1094    37.4369      .1601     2.2207    91.7587    16.3030
 1508.6250    16.1427    38.3522      .1616     2.2230    92.1057    16.4046
 1508.7500    16.1532    39.5393      .1623     2.2254    92.9695    16.6697
 1508.8750    16.1406    40.2091      .1623     2.2275    94.4250    17.1907
 1509.0000    16.1233    40.6713      .1625     2.2291    95.6019    17.7470
 1509.1250    16.1254    42.7333      .1630     2.2296    95.5551    18.3031
 1509.2500    16.1456    46.6360      .1638     2.2296    94.9911    18.8593
 1509.3750    16.1659    49.8779      .1647     2.2299    95.0287    19.4156
 1509.5000    16.1770    51.4132      .1662     2.2313    95.5699    19.9720
 1509.6250    16.1757    51.1746      .1697     2.2326    95.9368    20.5281
 1509.7500    16.1726    48.6548      .1749     2.2331    95.7696    21.0843
 1509.8750    16.1784    45.4781      .1802     2.2319    95.6569    21.6406
 1510.0000    16.1846    42.3537      .1834     2.2301    96.0068    22.1966
 1510.1250    16.1980    39.6634      .1820     2.2269    96.7948    22.7529
 1510.2500    16.2230    38.3737      .1764     2.2225    98.0833    23.3091
 1510.3750    16.2402    38.3660      .1702     2.2188    99.7376    23.8651
 1510.5000    16.2424    39.6473      .1639     2.2176   101.2002    24.4215
 1510.6250    16.2302    41.6389      .1574     2.2168   102.6296    24.9775
 1510.7500    16.2010    45.3684      .1526     2.2168   104.0554    25.5337
 1510.8750    16.1597    46.9617      .1503     2.2172   105.4807    26.0900
 1511.0000    16.1028    46.7445      .1491     2.2178   106.8882    26.6460
 1511.1250    16.0394    45.9860      .1496     2.2191   108.1208    27.2023
 1511.2500    16.0013    45.0946      .1527     2.2201   108.7574    27.7585
 1511.3750    15.9970    44.3011      .1589     2.2210   108.8282    28.3150
 1511.5000    15.9879    44.2526      .1658     2.2210   108.6181    28.4699
 1511.6250    15.9714    44.4690      .1679     2.2194   107.9390    28.0322
 1511.7500    15.9444    44.2036      .1641     2.2175   107.0719    27.5409
 1511.8750    15.9032    42.8245      .1574     2.2167   105.9882    27.0497
 1512.0000    15.8527    39.8767      .1501     2.2172   105.9566    26.5583
 1512.1250    15.8059    36.8526      .1437     2.2184   107.0442    26.0671
 1512.2500    15.7779    35.6069      .1398     2.2204   108.2826    25.5758
