~VERSION INFORMATION
VERS.                                                 2.0:   CWLS Log ASCII Standard-VERSION 2.0
WRAP.                                                  NO:   One line per depth step
~Well Information Block
STRT.M                                           485.3750:   Top Depth
STOP.M                                          4311.3750:   Bottom Depth
STEP.M                                             .12500:   Depth Increment
NULL.                                            -999.250:   Null Value
FLD .                                            SLEIPNER:   Field Name
WELL.                                              15/8-1:   NAME
WBN .                                              15/8-1:   WELLBORE
NATI.                                                 NOR:   COUNTRY
CTRY.                                                 NOR:   COUNTRY
COMP.                                             STATOIL:   OPERATOR
PROV.                                           NORTH SEA:   PROVINCE
COUN.                                    GLOMAR BISCAY II:   RIG NAME
SPUD.                                          1981/07/18:   SPUD DATE
LATI.                                       58 21 48.10 N:   SURF. LATITUDE
LONG.                                        1 34 22.31 E:   SURF. LONGITUDE
PBWE.                                              15/8-1:   PB WELL ID
APIN.                                              15/8-1:   PB WELLBORE ID
PBWS.                                                 all:   PB WELL NAME SET
~PARAMETER INFORMATION (log)
LNAM.                              CDL/CNL/GR  COMPOSITED:   NAME
LTYP.                                         DEPTH MATCH:   LOG TYPE
LSRV.                                            DEN/NEUT:   LOG SERVICE
LSOU.                                             SPT/NPD:   LOG SOURCE
LVSN.                                                   1:   LOG VERSION
BHIS.                                                   R:   BRIEF HISTORY
FHIS.                                             RAW-LIS:   FULL HISTORY
LCNM.                                                  DA:   LOGGING CONTRACTOR
TOOL.                             CDL/CNL/GR (COMPOSITED):   TOOL STRING
~Curve Information Block
#MNEM.UNIT                                        API CODE    No Description
#=========                                        ========    == ===========
DEPT.M                                       00 001 00 00:     1  DEPTH
CAL.IN                                                   :     2  Caliper
CN.%                                                     :     3  Neutron Porosity
CORR.G/CC                                                :     4  Density Correction
DEN.G/CC                                                 :     5  Bulk Density
GR.GAPI                                                  :     6  Gamma Ray
TEN.LB                                                   :     7  Cable Tension
~ASCII
# ...
 3787.3750     9.3350    24.8199      .0262     2.4674    58.6592    -5.2343
 3787.5000     9.3289    23.9104      .0161     2.4711    55.6896    -5.0838
 3787.6250     9.3341    22.2623      .0069     2.4878    52.3213    -4.9333
 3787.7500     9.3380    20.6939      .0108     2.5144    49.8268    -4.7829
 3787.8750     9.3317    19.6489      .0269     2.5306    46.8474    -4.6325
 3788.0000     9.3190    19.3517      .0486     2.5321    43.1054    -4.4821
 3788.1250     9.3068    19.9423      .0643     2.5180    39.1418    -4.3317
 3788.2500     9.2967    20.8292      .0658     2.4844    35.9295    -4.1813
 3788.3750     9.2883    22.0058      .0584     2.4447    35.2453    -4.0308
 3788.5000     9.2827    23.5760      .0436     2.4060    37.7579    -3.8803
 3788.6250     9.2813    25.4764      .0239     2.3858    42.7894    -3.7299
 3788.7500     9.2884    25.9090      .0110     2.3919    47.7979    -3.5794
 3788.8750     9.3071    25.3279      .0119     2.4183    48.3436    -3.4289
 3789.0000     9.3230    23.4549      .0267     2.4544    46.0412    -3.2784
 3789.1250     9.3335    21.6837      .0505     2.4929    40.6642    -3.1279
 3789.2500     9.3488    20.6200      .0706     2.5257    33.0661    -2.9774
 3789.3750     9.3733    20.2094      .0784     2.5402    28.9616    -2.8270
 3789.5000     9.4002    20.2349      .0772     2.5414    28.5025    -2.6765
 3789.6250     9.4192    20.7875      .0732     2.5401    30.4366    -2.5260
 3789.7500     9.4276    21.9290      .0670     2.5402    36.6977    -2.3755
 3789.8750     9.4333    23.8011      .0589     2.5430    46.9155    -2.2250
 3790.0000     9.4354    26.3687      .0477     2.5532    58.5206    -2.0745
 3790.1250     9.4306    29.0474      .0368     2.5759    66.8858    -1.9240
 3790.2500     9.4237    30.0915      .0372     2.5957    69.4952    -1.7735
 3790.3750     9.4206    29.5609      .0477     2.5992    67.9716    -1.6230
 3790.5000     9.4237    27.7769      .0616     2.5957    62.0987    -1.4725
 3790.6250     9.4280    25.3741      .0701     2.5941    53.2544    -1.3220
 3790.7500     9.4321    23.3460      .0623     2.6002    45.0769    -1.1715
 3790.8750     9.4340    21.7823      .0421     2.6138    39.6671    -1.0211
 3791.0000     9.4290    20.5619      .0069     2.6406    37.2506     -.8706
 3791.1250     9.4195    19.4376     -.0210     2.6869    36.5103     -.7202
 3791.2500     9.4066    18.8401     -.0276     2.7363    37.7706     -.5698
 3791.3750     9.3917    18.8711     -.0234     2.7614    41.2671     -.4195
 3791.5000     9.3801    19.1938     -.0093     2.7616    46.8472     -.2691
 3791.6250     9.3761    19.8447      .0102     2.7478    55.2585     -.1187
 3791.7500     9.3781    20.6540      .0318     2.6943    62.1091      .0317
 3791.8750     9.3854    21.3278      .0453     2.6527    65.8522      .1821
 3792.0000     9.3954    21.6689      .0451     2.6148    66.0185      .3324
 3792.1250     9.4054    21.6295      .0376     2.5868    63.7969      .4828
 3792.2500     9.4155    21.0561      .0249     2.5605    59.7985      .6332
 3792.3750     9.4250    20.2720      .0197     2.5496    55.1835      .7836
 3792.5000     9.4295    19.2908      .0257     2.5432    50.5929      .9340
 3792.6250     9.4252    18.4579      .0351     2.5368    46.9034     1.0843
 3792.7500     9.4160    18.1217      .0480     2.5314    43.3147     1.2347
 3792.8750     9.3999    18.2826      .0588     2.5277    40.5829     1.3851
 3793.0000     9.3760    18.7614      .0663     2.5264    38.9094     1.5355
 3793.1250     9.3510    19.5263      .0724     2.5281    38.1231     1.6858
 3793.2500     9.3307    20.5316      .0764     2.5322    38.9145     1.8362
 3793.3750     9.3176    21.5581      .0766     2.5386    40.7620     1.9865
 3793.5000     9.3057    22.6063      .0715     2.5461    43.8044     2.1369
 3793.6250     9.2932    23.6836      .0612     2.5537    49.4959     2.2872
 3793.7500     9.2789    24.7390      .0411     2.5618    58.5132     2.4376
 3793.8750     9.2640    25.5914      .0138     2.5791    67.5151     2.5879
 3794.0000     9.2536    26.2820     -.0093     2.5932    73.7727     2.7383
 3794.1250     9.2511    26.8195     -.0125     2.5977    77.2243     2.8886
 3794.2500     9.2524    27.0749     -.0038     2.5976    77.3307     3.0390
 3794.3750     9.2571    26.9925      .0101     2.5963    74.6290     3.1893
 3794.5000     9.2633    26.6691      .0274     2.5952    69.3218     3.3397
 3794.6250     9.2674    26.1298      .0399     2.5979    64.1454     3.4900
 3794.7500     9.2659    25.7940      .0377     2.6070    61.3564     3.6404
 3794.8750     9.2619    26.2009      .0275     2.6237    61.0579     3.7907
 3795.0000     9.2577    27.3522      .0124     2.6500    62.1065     3.9381
 3795.1250     9.2535    29.2131     -.0096     2.6611    62.9983     3.8764
 3795.2500     9.2487    30.2045     -.0299     2.6607    62.8114     3.6529
 3795.3750     9.2427    29.9306     -.0356     2.6571    61.9755     3.4216
 3795.5000     9.2360    28.5375     -.0217     2.6498    60.7156     3.1903
 3795.6250     9.2319    26.3703      .0034     2.6376    59.3781     2.9590
 3795.7500     9.2356    24.9451      .0164     2.6164    58.8152     2.7277
 3795.8750     9.2420    24.0732      .0176     2.5904    59.3502     2.4964
 3796.0000     9.2418    23.9017      .0076     2.5585    61.3286     2.2651
 3796.1250     9.2340    24.4066     -.0208     2.5347    64.3456     2.0338
 3796.2500     9.2225    25.5903     -.0750     2.5329    66.5128     1.8025
 3796.3750     9.2080    26.8000     -.1133     2.5503    67.4223     1.5712
 3796.5000     9.1930    27.6626     -.1215     2.5753    66.9393     1.3399
 3796.6250     9.1798    27.7402     -.1024     2.5957    64.5247     1.1086
 3796.7500     9.1685    27.0790     -.0609     2.6134    61.1468      .8773
 3796.8750     9.1580    25.7378     -.0115     2.6176    57.2567      .6460
 3797.0000     9.1501    24.1238      .0335     2.6056    52.4101      .4147
 3797.1250     9.1517    22.3162      .0596     2.5762    46.9780      .1834
 3797.2500     9.1581    20.3395      .0700     2.5460    40.0176     -.0479
 3797.3750     9.1574    18.5953      .0754     2.5280    33.4740     -.2792
 3797.5000     9.1419    17.4238      .0799     2.5218    29.3774     -.5105
 3797.6250     9.1219    17.0653      .0862     2.5225    27.7556     -.7418
 3797.7500     9.1027    17.3627      .0930     2.5231    27.8301     -.9731
 3797.8750     9.0927    17.9336      .0968     2.5224    28.0174    -1.2044
 3798.0000     9.1024    18.1889      .0949     2.5189    27.7110    -1.4357
 3798.1250     9.1193    17.9651      .0862     2.5063    26.6681    -1.6669
 3798.2500     9.1366    17.5563      .0723     2.4899    25.4801    -1.8759
 3798.3750     9.1555    17.2621      .0592     2.4760    24.2637    -1.7621
 3798.5000     9.1834    17.2743      .0495     2.4680    23.3036    -1.0117
 3798.6250     9.2208    17.3928      .0450     2.4667    23.0701     -.1885
 3798.7500     9.2595    17.3983      .0442     2.4696    23.8363      .6348
 3798.8750     9.2948    17.3716      .0460     2.4752    26.0280     1.4581
 3799.0000     9.3258    17.5304      .0496     2.4847    28.8950     2.2814
 3799.1250     9.3560    18.1382      .0494     2.4927    34.1340     3.1046
 3799.2500     9.3863    19.2357      .0409     2.5017    40.6395     3.9279
 3799.3750     9.4157    20.7676      .0281     2.5167    46.8237     4.7512
 3799.5000     9.4378    22.3893      .0142     2.5397    53.8228     5.5745
 3799.6250     9.4476    23.9992      .0060     2.5659    61.3965     6.3977
 3799.7500     9.4533    25.5646      .0066     2.5930    67.2576     7.2210
 3799.8750     9.4575    26.7924      .0083     2.6128    70.4203     8.0443
 3800.0000     9.4562    27.5465      .0097     2.6208    70.3609     8.8676
 3800.1250     9.4512    27.4792      .0119     2.6185    68.9902     9.6908
 3800.2500     9.4461    27.0490      .0163     2.6037    66.9715     9.5359
