~VERSION INFORMATION
VERS.                                                 2.0:   CWLS Log ASCII Standard-VERSION 2.0
WRAP.                                                  NO:   One line per depth step
~Well Information Block
STRT.M                                           485.3750:   Top Depth
STOP.M                                          4311.3750:   Bottom Depth
STEP.M                                             .12500:   Depth Increment
NULL.                                            -999.250:   Null Value
FLD .                                            SLEIPNER:   Field Name
WELL.                                              15/8-1:   NAME
WBN .                                              15/8-1:   WELLBORE
NATI.                                                 NOR:   COUNTRY
CTRY.                                                 NOR:   COUNTRY
COMP.                                             STATOIL:   OPERATOR
PROV.                                           NORTH SEA:   PROVINCE
COUN.                                    GLOMAR BISCAY II:   RIG NAME
SPUD.                                          1981/07/18:   SPUD DATE
LATI.                                       58 21 48.10 N:   SURF. LATITUDE
LONG.                                        1 34 22.31 E:   SURF. LONGITUDE
PBWE.                                              15/8-1:   PB WELL ID
APIN.                                              15/8-1:   PB WELLBORE ID
PBWS.                                                 all:   PB WELL NAME SET
~PARAMETER INFORMATION (log)
LNAM.                              CDL/CNL/GR  COMPOSITED:   NAME
LTYP.                                         DEPTH MATCH:   LOG TYPE
LSRV.                                            DEN/NEUT:   LOG SERVICE
LSOU.                                             SPT/NPD:   LOG SOURCE
LVSN.                                                   1:   LOG VERSION
BHIS.                                                   R:   BRIEF HISTORY
FHIS.                                             RAW-LIS:   FULL HISTORY
LCNM.                                                  DA:   LOGGING CONTRACTOR
TOOL.                             CDL/CNL/GR (COMPOSITED):   TOOL STRING
~Curve Information Block
#MNEM.UNIT                                        API CODE    No Description
#=========                                        ========    == ===========
DEPT.M                                       00 001 00 00:     1  DEPTH
CAL.IN                                                   :     2  Caliper
CN.%                                                     :     3  Neutron Porosity
CORR.G/CC                                                :     4  Density Correction
DEN.G/CC                                                 :     5  Bulk Density
GR.GAPI                                                  :     6  Gamma Ray
TEN.LB                                                   :     7  Cable Tension
~ASCII
# ...
 1252.3750    15.2222    37.4655      .0122     1.9725    61.3181    15.2102
 1252.5000    15.2358    39.0674      .0224     1.9720    60.2414    16.1307
 1252.6250    15.2432    40.6584      .0296     1.9725    59.4079    17.0512
 1252.7500    15.2547    42.7274      .0331     1.9734    59.4118    17.9722
 1252.8750    15.2676    43.7301      .0335     1.9725    59.8536    18.8930
 1253.0000    15.2837    42.7282      .0313     1.9691    60.3494    19.8134
 1253.1250    15.3068    41.6793      .0276     1.9641    60.8453    20.7339
 1253.2500    15.3355    41.7722      .0220     1.9581    61.3411    21.6544
 1253.3750    15.3629    43.6087      .0136     1.9502    62.0592    22.4122
 1253.5000    15.3786    47.0974      .0047     1.9414    63.4853    22.1870
 1253.6250    15.3870    50.5600     -.0030     1.9351    64.1890    21.9310
 1253.7500    15.3963    52.1355     -.0081     1.9356    64.4460    21.6750
 1253.8750    15.4107    50.8289     -.0095     1.9392    64.3797    21.4191
 1254.0000    15.4290    47.5622     -.0038     1.9517    63.5490    21.1631
 1254.1250    15.4498    44.2870      .0068     1.9720    63.2067    20.9072
 1254.2500    15.4726    42.3495      .0195     1.9943    63.5897    20.6513
 1254.3750    15.4981    41.5476      .0334     2.0037    64.7235    20.3954
 1254.5000    15.5291    41.3345      .0421     2.0035    66.0467    20.1395
 1254.6250    15.5623    41.2421      .0409     2.0041    67.2972    19.8835
 1254.7500    15.5970    40.9877      .0312     2.0060    68.3461    19.6274
 1254.8750    15.6315    40.4366      .0199     2.0077    69.0373    19.3715
 1255.0000    15.6549    39.5577      .0141     2.0082    69.2677    19.1155
 1255.1250    15.6686    38.7887      .0134     2.0086    69.1175    18.8596
 1255.2500    15.6909    38.1404      .0138     2.0085    68.5301    18.6037
 1255.3750    15.7296    37.7005      .0131     2.0080    67.6790    18.3478
 1255.5000    15.7726    37.5341      .0115     2.0064    66.2920    18.0918
 1255.6250    15.7981    37.4901      .0117     2.0054    65.1901    17.8359
 1255.7500    15.8005    37.3449      .0141     2.0065    65.3573    17.5798
 1255.8750    15.7963    36.9862      .0181     2.0080    66.2017    17.3238
 1256.0000    15.8039    36.3344      .0240     2.0083    67.1158    17.0679
 1256.1250    15.8302    35.7173      .0310     2.0069    67.9811    16.8120
 1256.2500    15.8623    35.6840      .0386     2.0032    68.5207    16.5561
 1256.3750    15.8609    36.1662      .0475     1.9964    68.5197    16.3002
 1256.5000    15.8217    37.0960      .0574     1.9880    68.0410    16.0442
 1256.6250    15.7621    38.4767      .0636     1.9803    67.2817    15.7883
 1256.7500    15.6899    39.1390      .0601     1.9762    66.1183    15.5486
 1256.8750    15.6173    38.8059      .0491     1.9763    64.9804    15.7410
 1257.0000    15.5534    38.0665      .0364     1.9799    64.6639    17.3311
 1257.1250    15.5097    37.5448      .0265     1.9870    64.8884    19.2835
 1257.2500    15.4843    37.4991      .0209     2.0017    65.7534    21.2360
 1257.3750    15.4744    37.6812      .0193     2.0123    67.8678    23.1885
 1257.5000    15.4769    37.7223      .0267     2.0167    70.2230    25.0040
 1257.6250    15.4819    37.6855      .0391     2.0170    71.8898    25.8713
 1257.7500    15.4847    37.7947      .0459     2.0146    73.2264    26.0207
 1257.8750    15.4822    38.2689      .0464     2.0115    74.3689    26.1218
 1258.0000    15.4759    38.9930      .0429     2.0082    75.0828    26.2229
 1258.1250    15.4700    39.4317      .0374     2.0048    75.1589    26.3240
 1258.2500    15.4675    39.2822      .0309     2.0017    74.6189    26.4251
 1258.3750    15.4630    38.7833      .0244     1.9997    73.5169    26.5262
 1258.5000    15.4393    38.0923      .0200     1.9988    71.8510    26.6273
 1258.6250    15.3983    37.3307      .0195     1.9985    70.4043    26.7284
 1258.7500    15.3546    36.6290      .0227     1.9994    69.3735    26.8295
 1258.8750    15.3117    36.0470      .0259     2.0010    69.0629    26.9306
 1259.0000    15.2698    35.5095      .0243     2.0031    69.7792    27.0317
 1259.1250    15.2305    34.9885      .0155     2.0057    70.9249    27.1328
 1259.2500    15.1976    34.4935      .0069     2.0064    71.3544    27.2339
 1259.3750    15.1690    34.2132      .0060     2.0062    71.5226    27.3350
 1259.5000    15.1448    34.3809      .0144     2.0049    71.7555    27.4361
 1259.6250    15.1261    35.1020      .0278     2.0016    72.1281    27.5372
 1259.7500    15.1145    36.2913      .0419     1.9971    72.5241    27.6383
 1259.8750    15.1038    37.6952      .0549     1.9923    72.8860    27.7394
 1260.0000    15.0923    39.3311      .0655     1.9894    73.1077    27.8405
 1260.1250    15.0852    40.4044      .0706     1.9886    72.6575    27.9416
 1260.2500    15.0840    42.0515      .0638     1.9902    72.0142    28.0293
 1260.3750    15.0858    43.3637      .0494     1.9934    71.7434    27.9459
 1260.5000    15.1015    42.8456      .0341     1.9990    72.0102    27.7070
 1260.6250    15.1374    41.4091      .0227     2.0058    73.0912    27.4681
 1260.7500    15.1698    39.5215      .0223     2.0092    75.9396    27.2291
 1260.8750    15.1791    38.0582      .0296     2.0103    79.9126    26.9900
 1261.0000    15.1585    37.8168      .0375     2.0093    84.1797    26.7511
 1261.1250    15.1050    38.7395      .0429     2.0067    87.9996    26.5121
 1261.2500    15.0280    40.0503      .0445     2.0027    91.3381    26.2732
 1261.3750    14.9579    40.7841      .0443     1.9978    93.6469    26.0343
 1261.5000    14.9106    44.2819      .0439     1.9911    95.4775    25.7954
 1261.6250    14.8750    48.0326      .0441     1.9820    97.9219    25.5564
 1261.7500    14.8254    47.4235      .0425     1.9711   100.3344    25.3173
 1261.8750    14.7798    45.2554      .0378     1.9540   101.5633    25.0783
 1262.0000    14.7476    43.4247      .0330     1.9445   101.4771    24.8394
 1262.1250    14.7229    42.6683      .0307     1.9405   100.6371    24.6005
 1262.2500    14.7158    42.4586      .0316     1.9398    99.3017    24.3616
 1262.3750    14.7354    42.3100      .0342     1.9413    97.1267    24.1226
 1262.5000    14.7786    41.9783      .0382     1.9446    94.5003    23.8837
 1262.6250    14.8422    41.2574      .0453     1.9483    91.3241    23.6448
 1262.7500    14.9227    40.3100      .0498     1.9504    87.2480    23.4057
 1262.8750    14.9953    39.8132      .0430     1.9516    82.5776    23.1667
 1263.0000    15.0253    40.1221      .0297     1.9546    79.3113    22.9278
 1263.1250    15.0184    40.6761      .0164     1.9608    76.4647    22.6889
 1263.2500    14.9777    42.1517      .0069     1.9721    75.2493    22.4499
 1263.3750    14.9035    44.5499      .0072     1.9919    75.9642    22.2110
 1263.5000    14.8267    45.6859      .0210     2.0128    79.0405    21.9721
 1263.6250    14.7866    45.1644      .0360     2.0192    82.0874    21.7331
 1263.7500    14.7985    44.4789      .0452     2.0166    83.6259    21.4940
 1263.8750    14.8490    44.0103      .0466     2.0115    84.4305    21.2551
 1264.0000    14.9425    43.3016      .0436     1.9968    84.9369    21.1037
 1264.1250    15.0453    41.4537      .0406     1.9782    85.8532    21.1554
 1264.2500    15.0944    39.2447      .0401     1.9638    87.0495    21.2564
 1264.3750    15.0836    36.3939      .0420     1.9534    88.3644    21.3575
 1264.5000    15.0363    35.1419      .0468     1.9523    89.1629    21.4585
 1264.6250    15.0070    35.3066      .0528     1.9570    89.0557    21.5596
 1264.7500    15.0127    36.1787      .0569     1.9633    88.4000    21.6607
 1264.8750    15.0056    37.2504      .0570     1.9739    86.8427    21.7617
 1265.0000    15.0141    38.1884      .0552     1.9877    84.6988    21.8628
 1265.1250    15.0495    38.8676      .0532     2.0031    82.9619    21.9638
 1265.2500    15.0717    39.3904      .0505     2.0207    82.5911    22.0649
