~VERSION INFORMATION
VERS.                                                 2.0:   CWLS Log ASCII Standard-VERSION 2.0
WRAP.                                                  NO:   One line per depth step
~Well Information Block
STRT.M                                           485.3750:   Top Depth
STOP.M                                          4311.3750:   Bottom Depth
STEP.M                                             .12500:   Depth Increment
NULL.                                            -999.250:   Null Value
FLD .                                            SLEIPNER:   Field Name
WELL.                                              15/8-1:   NAME
WBN .                                              15/8-1:   WELLBORE
NATI.                                                 NOR:   COUNTRY
CTRY.                                                 NOR:   COUNTRY
COMP.                                             STATOIL:   OPERATOR
PROV.                                           NORTH SEA:   PROVINCE
COUN.                                    GLOMAR BISCAY II:   RIG NAME
SPUD.                                          1981/07/18:   SPUD DATE
LATI.                                       58 21 48.10 N:   SURF. LATITUDE
LONG.                                        1 34 22.31 E:   SURF. LONGITUDE
PBWE.                                              15/8-1:   PB WELL ID
APIN.                                              15/8-1:   PB WELLBORE ID
PBWS.                                                 all:   PB WELL NAME SET
~PARAMETER INFORMATION (log)
LNAM.                              CDL/CNL/GR  COMPOSITED:   NAME
LTYP.                                         DEPTH MATCH:   LOG TYPE
LSRV.                                            DEN/NEUT:   LOG SERVICE
LSOU.                                             SPT/NPD:   LOG SOURCE
LVSN.                                                   1:   LOG VERSION
BHIS.                                                   R:   BRIEF HISTORY
FHIS.                                             RAW-LIS:   FULL HISTORY
LCNM.                                                  DA:   LOGGING CONTRACTOR
TOOL.                             CDL/CNL/GR (COMPOSITED):   TOOL STRING
~Curve Information Block
#MNEM.UNIT                                        API CODE    No Description
#=========                                        ========    == ===========
DEPT.M                                       00 001 00 00:     1  DEPTH
CAL.IN                                                   :     2  Caliper
CN.%                                                     :     3  Neutron Porosity
CORR.G/CC                                                :     4  Density Correction
DEN.G/CC                                                 :     5  Bulk Density
GR.GAPI                                                  :     6  Gamma Ray
TEN.LB                                                   :     7  Cable Tension
~ASCII
# ...
 2513.3750    13.0597    26.9722      .1018     2.3473    37.1167    32.4928
 2513.5000    13.1728    27.0469      .1256     2.3566    38.2399    32.0741
 2513.6250    13.2811    26.9098      .1415     2.3550    38.9426    31.6553
 2513.7500    13.3468    26.7892      .1446     2.3514    39.4342    31.2366
 2513.8750    13.3525    26.9314      .1434     2.3468    40.1342    30.8179
 2514.0000    13.3226    27.6728      .1469     2.3328    41.9529    30.3991
 2514.1250    13.3000    29.2435      .1586     2.3002    47.2172    29.9804
 2514.2500    13.2952    32.1021      .1700     2.2750    52.5475    29.5618
 2514.3750    13.3112    34.9152      .1681     2.2695    57.8989    29.1421
 2514.5000    13.3348    36.1253      .1504     2.2755    62.3383    28.7233
 2514.6250    13.3444    35.5327      .1267     2.2856    63.4640    28.3046
 2514.7500    13.3447    33.9543      .1096     2.2959    61.5452    27.8890
 2514.8750    13.3444    32.0430      .1021     2.2988    57.0975    27.5785
 2515.0000    13.3442    29.9613      .1010     2.2923    51.6157    27.3516
 2515.1250    13.3446    27.7642      .1012     2.2790    45.8552    27.1254
 2515.2500    13.3469    25.8259      .0998     2.2667    40.8552    26.8992
 2515.3750    13.3500    24.6242      .0972     2.2616    37.9451    26.6730
 2515.5000    13.3532    24.0865      .0928     2.2630    36.5073    26.4468
 2515.6250    13.3564    23.9890      .0884     2.2657    35.0543    26.2206
 2515.7500    13.3603    24.2644      .0858     2.2675    33.6189    25.9944
 2515.8750    13.3712    24.9277      .0856     2.2665    32.7098    25.7681
 2516.0000    13.4009    25.6869      .0884     2.2640    32.5300    25.5419
 2516.1250    13.4568    26.1629      .0882     2.2609    32.6881    25.3157
 2516.2500    13.5372    26.4825      .0817     2.2575    32.8814    25.0895
 2516.3750    13.6099    26.9946      .0757     2.2544    33.1880    24.8628
 2516.5000    13.6526    28.3682      .0767     2.2528    33.9008    24.6366
 2516.6250    13.6682    30.6749      .0865     2.2504    35.1152    24.4104
 2516.7500    13.6826    33.6613      .1025     2.2430    37.0260    24.1842
 2516.8750    13.7152    36.5880      .1206     2.2274    39.7136    23.9580
 2517.0000    13.7365    38.4212      .1369     2.2138    43.5932    23.7317
 2517.1250    13.7109    39.6856      .1423     2.2135    48.6747    23.5055
 2517.2500    13.6365    40.4303      .1344     2.2262    54.4760    23.2793
 2517.3750    13.5261    40.3246      .1213     2.2448    59.8430    23.0531
 2517.5000    13.3865    39.5519      .1101     2.2677    63.9928    22.8269
 2517.6250    13.2417    38.3920      .1040     2.2935    66.7707    22.6007
 2517.7500    13.1208    37.1869      .1010     2.3229    68.1401    22.3745
 2517.8750    13.0380    35.9663      .0999     2.3466    68.6747    22.1482
 2518.0000    12.9982    34.3659      .1001     2.3566    67.5042    21.9290
 2518.1250    13.0017    32.2641      .1015     2.3524    64.5779    21.8347
 2518.2500    13.0078    29.6524      .1031     2.3361    60.0020    21.9644
 2518.3750    13.0030    27.2564      .1008     2.3061    54.2197    22.1188
 2518.5000    13.0043    25.6917      .0968     2.2817    47.7383    22.2735
 2518.6250    13.0117    24.6444      .0949     2.2696    42.1426    22.4280
 2518.7500    13.0130    24.0653      .0970     2.2682    37.6939    22.5824
 2518.8750    13.0027    23.8670      .1030     2.2714    34.6010    22.7368
 2519.0000    12.9830    23.8636      .1100     2.2768    33.7174    22.8913
 2519.1250    12.9697    24.0014      .1155     2.2812    32.9513    23.0457
 2519.2500    12.9622    24.2102      .1174     2.2844    32.5069    23.2001
 2519.3750    12.9567    24.4640      .1147     2.2863    32.7179    23.3545
 2519.5000    12.9564    24.7932      .1096     2.2863    33.0341    23.5089
 2519.6250    12.9595    25.1505      .1052     2.2852    33.3935    23.6634
 2519.7500    12.9632    25.3793      .1021     2.2829    33.8745    23.8178
 2519.8750    12.9670    25.3595      .0998     2.2790    34.4523    23.9722
 2520.0000    12.9708    25.1037      .0964     2.2735    35.2436    24.1266
 2520.1250    12.9745    24.7397      .0919     2.2690    36.0712    24.2810
 2520.2500    12.9783    24.4452      .0904     2.2669    36.7952    24.4355
 2520.3750    12.9821    24.4095      .0931     2.2654    36.9854    24.5900
 2520.5000    12.9858    24.5314      .0992     2.2642    36.6272    24.7446
 2520.6250    12.9889    24.7721      .1047     2.2636    36.0316    24.8990
 2520.7500    12.9898    25.2473      .1072     2.2633    35.6153    25.0535
 2520.8750    12.9896    26.1340      .1077     2.2617    35.5041    25.2079
 2521.0000    12.9893    27.2252      .1063     2.2588    35.5824    25.3622
 2521.1250    12.9890    28.1936      .1028     2.2549    35.9064    25.5166
 2521.2500    12.9887    28.6632      .0961     2.2519    36.1109    25.6710
 2521.3750    12.9884    28.7540      .0891     2.2505    36.1764    25.8254
 2521.5000    12.9880    28.5880      .0823     2.2509    36.2328    25.9797
 2521.6250    12.9877    28.1499      .0771     2.2526    36.2740    26.1341
 2521.7500    12.9874    27.3017      .0773     2.2537    36.2534    26.2885
 2521.8750    12.9871    26.2630      .0819     2.2541    36.0983    26.4429
 2522.0000    12.9868    25.4830      .0863     2.2525    35.7305    26.5973
 2522.1250    12.9865    25.0936      .0868     2.2491    34.9251    26.7516
 2522.2500    12.9862    25.0055      .0809     2.2466    34.3868    26.9060
 2522.3750    12.9859    24.9690      .0698     2.2496    34.4830    27.0604
 2522.5000    12.9856    24.8965      .0560     2.2597    35.7616    27.2147
 2522.6250    12.9853    24.9145      .0404     2.2813    37.6896    27.3694
 2522.7500    12.9850    25.2317      .0271     2.3207    39.4519    27.5238
 2522.8750    12.9846    25.7092      .0243     2.3651    41.0081    27.6782
 2523.0000    12.9843    26.1825      .0349     2.3798    42.5891    27.8326
 2523.1250    12.9840    26.4869      .0478     2.3765    44.2964    27.9869
 2523.2500    12.9837    26.2775      .0577     2.3528    45.7430    28.1413
 2523.3750    12.9834    25.7022      .0633     2.3283    46.7355    28.2957
 2523.5000    12.9831    25.0828      .0663     2.3195    46.9643    28.4501
 2523.6250    12.9828    24.5886      .0695     2.3201    45.7173    28.6044
 2523.7500    12.9825    24.3002      .0725     2.3298    43.5059    28.7588
 2523.8750    12.9822    24.3408      .0739     2.3481    41.7468    28.9083
 2524.0000    12.9819    24.5534      .0736     2.3659    40.7960    29.0473
 2524.1250    12.9831    24.4833      .0744     2.3783    40.2769    29.1851
 2524.2500    12.9911    24.0996      .0823     2.3801    41.0696    29.3229
 2524.3750    13.0112    23.4482      .0912     2.3751    42.3228    29.4607
 2524.5000    13.0537    22.9826      .0976     2.3589    42.7316    29.5985
 2524.6250    13.1089    22.9490      .1003     2.3340    42.6619    29.7366
 2524.7500    13.1529    23.3912      .0985     2.3174    42.5452    29.8744
 2524.8750    13.1732    24.1951      .0992     2.3071    42.6004    30.0122
 2525.0000    13.1758    25.1131      .1081     2.2996    43.6348    30.1500
 2525.1250    13.1679    26.0150      .1224     2.2905    45.3941    30.2864
 2525.2500    13.1604    26.8069      .1353     2.2749    47.6195    30.4085
 2525.3750    13.1584    27.5335      .1353     2.2556    49.3451    30.5140
 2525.5000    13.1611    28.3605      .1168     2.2384    49.3679    30.6173
 2525.6250    13.1685    29.2912      .0952     2.2340    48.3013    30.7192
 2525.7500    13.1775    30.0844      .0782     2.2421    45.6298    30.8185
 2525.8750    13.1862    30.5615      .0669     2.2505    42.0603    30.9178
 2526.0000    13.2037    30.3497      .0648     2.2533    38.4225    31.0171
 2526.1250    13.2411    29.6326      .0669     2.2523    34.8442    31.1164
 2526.2500    13.2913    28.5683      .0664     2.2514    32.9235    31.2158
