~VERSION INFORMATION
VERS.                                                 2.0:   CWLS Log ASCII Standard-VERSION 2.0
WRAP.                                                  NO:   One line per depth step
~Well Information Block
STRT.M                                           485.3750:   Top Depth
STOP.M                                          4311.3750:   Bottom Depth
STEP.M                                             .12500:   Depth Increment
NULL.                                            -999.250:   Null Value
FLD .                                            SLEIPNER:   Field Name
WELL.                                              15/8-1:   NAME
WBN .                                              15/8-1:   WELLBORE
NATI.                                                 NOR:   COUNTRY
CTRY.                                                 NOR:   COUNTRY
COMP.                                             STATOIL:   OPERATOR
PROV.                                           NORTH SEA:   PROVINCE
COUN.                                    GLOMAR BISCAY II:   RIG NAME
SPUD.                                          1981/07/18:   SPUD DATE
LATI.                                       58 21 48.10 N:   SURF. LATITUDE
LONG.                                        1 34 22.31 E:   SURF. LONGITUDE
PBWE.                                              15/8-1:   PB WELL ID
APIN.                                              15/8-1:   PB WELLBORE ID
PBWS.                                                 all:   PB WELL NAME SET
~PARAMETER INFORMATION (log)
LNAM.                              CDL/CNL/GR  COMPOSITED:   NAME
LTYP.                                         DEPTH MATCH:   LOG TYPE
LSRV.                                            DEN/NEUT:   LOG SERVICE
LSOU.                                             SPT/NPD:   LOG SOURCE
LVSN.                                                   1:   LOG VERSION
BHIS.                                                   R:   BRIEF HISTORY
FHIS.                                             RAW-LIS:   FULL HISTORY
LCNM.                                                  DA:   LOGGING CONTRACTOR
TOOL.                             CDL/CNL/GR (COMPOSITED):   TOOL STRING
~Curve Information Block
#MNEM.UNIT                                        API CODE    No Description
#=========                                        ========    == ===========
DEPT.M                                       00 001 00 00:     1  DEPTH
CAL.IN                                                   :     2  Caliper
CN.%                                                     :     3  Neutron Porosity
CORR.G/CC                                                :     4  Density Correction
DEN.G/CC                                                 :     5  Bulk Density
GR.GAPI                                                  :     6  Gamma Ray
TEN.LB                                                   :     7  Cable Tension
~ASCII
# ...
 3020.3750    11.0777    14.4773      .2180     2.5787    11.0886    24.7444
 3020.5000    11.2114    13.7845      .2287     2.5647    11.2119    24.2708
 3020.6250    11.3546    13.1476      .2208     2.5631    11.9259    23.7973
 3020.7500    11.4891    12.7659      .1898     2.5656    12.3710    23.3238
 3020.8750    11.5828    12.3177      .1569     2.5732    12.4486    22.8503
 3021.0000    11.5593    11.7224      .1382     2.5805    11.9979    22.3767
 3021.1250    11.4065    10.8914      .1233     2.5735    11.1519    21.9032
 3021.2500    11.1792    10.3888      .1043     2.5350    10.7347    21.7552
 3021.3750    10.9645    10.3301      .0817     2.4897    10.3066    22.3311
 3021.5000    10.8073    10.5707      .0514     2.4739    10.1301    22.9838
 3021.6250    10.6872    10.8785      .0158     2.4837    10.2615    23.6366
 3021.7500    10.6232    10.9562      .0020     2.5217    10.4885    24.2894
 3021.8750    10.6069    10.5529      .0099     2.5482    10.6329    24.9422
 3022.0000    10.6104     9.6875      .0227     2.5452    10.5278    25.5950
 3022.1250    10.6283     8.9818      .0258     2.5380     9.6949    26.2478
 3022.2500    10.6440     8.8417      .0082     2.5346     8.2963    26.9006
 3022.3750    10.6465     9.0843     -.0162     2.5403     6.9422    27.5534
 3022.5000    10.6669     9.2995     -.0357     2.5525     6.0848    28.2062
 3022.6250    10.6915     9.4271     -.0347     2.5630     6.0908    28.8590
 3022.7500    10.7117     9.7439     -.0042     2.5759     6.7673    29.5118
 3022.8750    10.7281    10.2460      .0398     2.5941     7.5561    30.1646
 3023.0000    10.7602    10.9604      .0927     2.6039     8.2514    30.8174
 3023.1250    10.8188    12.1821      .1278     2.6116     8.9900    31.4702
 3023.2500    10.8826    12.6684      .1321     2.6197     9.7553    32.1230
 3023.3750    10.9426    12.4934      .1158     2.6315    10.5575    32.7758
 3023.5000    11.0050    11.8243      .0950     2.6462    11.2812    33.4286
 3023.6250    11.0372    11.1645      .0913     2.6555    11.6351    34.0814
 3023.7500    10.9961    10.6889      .1108     2.6505    11.5941    34.7342
 3023.8750    10.8847    10.4253      .1463     2.6171    11.2654    35.3870
 3024.0000    10.7718    10.2939      .1777     2.5682    10.5897    36.0398
 3024.1250    10.6657    10.1421      .1845     2.4633     9.6547    36.6926
 3024.2500    10.5524     9.9250      .1694     2.3786     8.8754    37.3454
 3024.3750    10.4732     9.8517      .1405     2.3221     8.5442    37.9982
 3024.5000    10.4465    10.0888      .0921     2.3068     9.0463    38.6510
 3024.6250    10.4314    10.6397      .0347     2.3369    10.2403    39.3038
 3024.7500    10.4286    11.5020      .0117     2.4063    11.8078    39.7734
 3024.8750    10.4287    11.8809      .0192     2.4935    13.5202    39.1641
 3025.0000    10.4288    11.8095      .0564     2.5550    15.6252    37.9244
 3025.1250    10.4289    11.5456      .1065     2.6053    17.2190    36.6847
 3025.2500    10.4289    11.1834      .1330     2.6224    17.2565    35.4449
 3025.3750    10.4291    10.8282      .1356     2.6373    16.4625    34.2052
 3025.5000    10.4323    10.4855      .1345     2.6590    15.1224    32.9655
 3025.6250    10.4429    10.1470      .1487     2.6736    14.0702    31.7258
 3025.7500    10.4602     9.8538      .1846     2.6714    13.9288    30.4861
 3025.8750    10.4828     9.6713      .2090     2.6568    14.3412    29.2464
 3026.0000    10.4894     9.9786      .2064     2.6319    14.7252    28.0066
 3026.1250    10.4894    11.0782      .1921     2.6107    15.1302    26.7669
 3026.2500    10.4895    12.8357      .1754     2.5985    15.8050    25.5272
 3026.3750    10.4912    14.3980      .1706     2.5840    16.7106    24.2875
 3026.5000    10.5014    15.6791      .1666     2.5657    18.1542    23.0478
 3026.6250    10.5091    16.1350      .1519     2.5559    19.1391    21.8081
 3026.7500    10.5077    15.8255      .1203     2.5624    20.0128    20.5683
 3026.8750    10.4971    15.0821      .0931     2.5914    20.9207    19.6584
 3027.0000    10.4889    14.3256      .0831     2.6266    21.9316    20.2469
 3027.1250    10.4897    13.7265      .1010     2.6593    23.2447    21.2684
 3027.2500    10.4963    13.2058      .1582     2.6808    24.4509    22.2914
 3027.3750    10.5082    12.7332      .2065     2.6836    24.8563    23.3143
 3027.5000    10.5169    12.1870      .2243     2.6827    24.1725    24.3373
 3027.6250    10.5276    11.1854      .2142     2.6853    21.1924    25.3602
 3027.7500    10.5270     9.7497      .1898     2.7011    15.8795    26.3832
 3027.8750    10.5148     8.5360      .1716     2.7283    10.6714    27.4061
 3028.0000    10.4971     7.4522      .1732     2.7389     6.2137    28.4291
 3028.1250    10.4894     7.0439      .1950     2.7313     4.1289    29.4520
 3028.2500    10.4816     7.1572      .2020     2.7107     3.9197    30.4750
 3028.3750    10.4821     7.7213      .1886     2.6930     4.8776    31.4979
 3028.5000    10.4905     8.5569      .1638     2.6800     6.8108    32.5209
 3028.6250    10.4906     9.5823      .1537     2.6792     8.6059    33.5438
 3028.7500    10.4903    10.5416      .1609     2.6804    10.6465    34.5667
 3028.8750    10.4860    11.1235      .1703     2.6808    12.8004    35.5897
 3029.0000    10.4792    11.2685      .1766     2.6806    13.8343    36.6126
 3029.1250    10.4847    11.0635      .1746     2.6790    14.1268    37.6356
 3029.2500    10.4585    10.6681      .1660     2.6743    13.5605    34.8612
 3029.3750    10.4387    10.2130      .1543     2.6649    12.5615    29.0534
 3029.5000    10.4487     9.6968      .1420     2.6496    11.3589    28.2231
 3029.6250    10.4398     9.2393      .1271     2.6321    10.7461    28.1731
 3029.7500    10.4309     8.9383      .1057     2.6134    10.4267    28.1231
 3029.8750    10.4214     8.8568      .0800     2.6079     9.7926    28.0731
 3030.0000    10.4119     8.9311      .0556     2.6201     8.6074    28.0231
 3030.1250    10.4155     8.9471      .0396     2.6517     6.9812    27.9731
 3030.2500    10.4368     8.7295      .0463     2.6843     4.8718    27.9231
 3030.3750    10.4697     8.2725      .0734     2.6970     3.6055    27.8731
 3030.5000    10.5123     7.5631      .0978     2.6979     3.3492    27.8231
 3030.6250    10.5370     6.8408      .1086     2.6989     3.8338    27.7731
 3030.7500    10.5519     6.4812      .1191     2.7014     5.0660    27.7231
 3030.8750    10.5550     6.5118      .1166     2.7081     5.6917    27.6731
 3031.0000    10.5622     6.7423      .1036     2.7226     5.4960    27.6231
 3031.1250    10.5708     6.9741      .0887     2.7436     4.7768    27.5731
 3031.2500    10.5721     7.1705      .0768     2.7512     4.6881    27.5231
 3031.3750    10.5765     7.1094      .0718     2.7501     5.5788    27.4731
 3031.5000    10.5872     7.1580      .0782     2.7415     7.0445    27.4231
 3031.6250    10.5943     7.4882      .0927     2.7237     8.4340    27.3731
 3031.7500    10.6047     8.2517      .1095     2.7006    10.1116    27.3231
 3031.8750    10.6120     9.5375      .1229     2.6688    12.2411    27.2731
 3032.0000    10.6122    10.8563      .1295     2.6245    14.4225    27.2231
 3032.1250    10.6123    12.6812      .1272     2.5871    16.5146    27.1731
 3032.2500    10.6126    13.8374      .1252     2.5624    17.8861    27.1231
 3032.3750    10.6081    14.5377      .1310     2.5543    18.8730    27.0731
 3032.5000    10.5973    14.9820      .1361     2.5576    19.1872    27.0231
 3032.6250    10.5981    15.3318      .1295     2.5689    19.0062    26.9731
 3032.7500    10.5940    15.0623      .1123     2.5767    18.4188    26.9231
 3032.8750    10.5768    14.5691      .0899     2.5767    18.0030    26.8731
 3033.0000    10.5726    13.9284      .0781     2.5734    18.0551    26.8231
 3033.1250    10.5726    13.2629      .0744     2.5637    18.9598    26.7731
 3033.2500    10.5694    12.9655      .0714     2.5466    20.2626    26.7230
