~VERSION INFORMATION
VERS.                                                 2.0:   CWLS Log ASCII Standard-VERSION 2.0
WRAP.                                                  NO:   One line per depth step
~Well Information Block
STRT.M                                           485.3750:   Top Depth
STOP.M                                          4311.3750:   Bottom Depth
STEP.M                                             .12500:   Depth Increment
NULL.                                            -999.250:   Null Value
FLD .                                            SLEIPNER:   Field Name
WELL.                                              15/8-1:   NAME
WBN .                                              15/8-1:   WELLBORE
NATI.                                                 NOR:   COUNTRY
CTRY.                                                 NOR:   COUNTRY
COMP.                                             STATOIL:   OPERATOR
PROV.                                           NORTH SEA:   PROVINCE
COUN.                                    GLOMAR BISCAY II:   RIG NAME
SPUD.                                          1981/07/18:   SPUD DATE
LATI.                                       58 21 48.10 N:   SURF. LATITUDE
LONG.                                        1 34 22.31 E:   SURF. LONGITUDE
PBWE.                                              15/8-1:   PB WELL ID
APIN.                                              15/8-1:   PB WELLBORE ID
PBWS.                                                 all:   PB WELL NAME SET
~PARAMETER INFORMATION (log)
LNAM.                              CDL/CNL/GR  COMPOSITED:   NAME
LTYP.                                         DEPTH MATCH:   LOG TYPE
LSRV.                                            DEN/NEUT:   LOG SERVICE
LSOU.                                             SPT/NPD:   LOG SOURCE
LVSN.                                                   1:   LOG VERSION
BHIS.                                                   R:   BRIEF HISTORY
FHIS.                                             RAW-LIS:   FULL HISTORY
LCNM.                                                  DA:   LOGGING CONTRACTOR
TOOL.                             CDL/CNL/GR (COMPOSITED):   TOOL STRING
~Curve Information Block
#MNEM.UNIT                                        API CODE    No Description
#=========                                        ========    == ===========
DEPT.M                                       00 001 00 00:     1  DEPTH
CAL.IN                                                   :     2  Caliper
CN.%                                                     :     3  Neutron Porosity
CORR.G/CC                                                :     4  Density Correction
DEN.G/CC                                                 :     5  Bulk Density
GR.GAPI                                                  :     6  Gamma Ray
TEN.LB                                                   :     7  Cable Tension
~ASCII
# ...
 2773.3750    13.1033    25.5448      .0924     2.3074    47.4237    34.1027
 2773.5000    13.1152    26.2536      .0947     2.2878    45.7606    34.0202
 2773.6250    13.1167    26.9451      .0867     2.2705    42.6428    33.9377
 2773.7500    13.1162    27.4097      .0736     2.2673    38.9368    33.8552
 2773.8750    13.1156    27.9073      .0610     2.2679    35.3786    33.7727
 2774.0000    13.1151    28.5520      .0539     2.2707    33.4926    33.6902
 2774.1250    13.1209    28.9513      .0538     2.2732    32.6006    33.6076
 2774.2500    13.1605    28.9329      .0568     2.2730    32.0853    33.5251
 2774.3750    13.2352    28.4612      .0637     2.2704    31.7615    33.4426
 2774.5000    13.3322    27.4740      .0751     2.2655    31.4631    33.3600
 2774.6250    13.4339    26.2770      .0862     2.2576    31.1650    33.2776
 2774.7500    13.5195    25.5559      .0960     2.2430    30.9576    33.1951
 2774.8750    13.5745    25.2374      .1029     2.2223    30.9792    33.1126
 2775.0000    13.5778    25.1650      .1025     2.2055    31.0703    33.0300
 2775.1250    13.5263    25.3149      .0937     2.1997    31.1508    32.9476
 2775.2500    13.4263    25.6410      .0767     2.2038    31.2244    32.8650
 2775.3750    13.2893    25.8928      .0560     2.2159    31.3429    32.7825
 2775.5000    13.1325    25.8837      .0338     2.2331    31.9734    32.7000
 2775.6250    12.9918    25.5740      .0145     2.2524    33.0885    32.6174
 2775.7500    12.9063    25.1846      .0080     2.2701    34.2582    32.5349
 2775.8750    12.8430    24.8882      .0157     2.2868    35.4423    32.4524
 2776.0000    12.8028    24.7702      .0300     2.2993    36.6401    32.3699
 2776.1250    12.7851    24.9668      .0413     2.3024    37.8195    32.2874
 2776.2500    12.7879    25.3083      .0483     2.3016    38.7230    32.1574
 2776.3750    12.8047    25.4609      .0553     2.3025    38.7104    31.8007
 2776.5000    12.8224    25.3891      .0664     2.3031    38.0186    31.4010
 2776.6250    12.8384    25.0773      .0843     2.3029    37.2875    31.0015
 2776.7500    12.8496    24.3508      .0991     2.3014    36.0130    30.6015
 2776.8750    12.8560    23.4359      .1041     2.3004    34.4897    30.2019
 2777.0000    12.8611    22.9402      .1002     2.3001    32.7173    29.8021
 2777.1250    12.8662    22.8837      .0913     2.3002    31.2724    29.4022
 2777.2500    12.8708    23.2695      .0797     2.3007    30.3937    29.0027
 2777.3750    12.8752    23.9775      .0705     2.3015    30.1950    28.6028
 2777.5000    12.8796    24.7669      .0678     2.3025    30.5795    28.2031
 2777.6250    12.8835    25.5118      .0690     2.3035    31.1522    27.8035
 2777.7500    12.8853    26.2227      .0696     2.3046    31.7445    27.4036
 2777.8750    12.8859    26.9161      .0699     2.3063    32.1752    27.0040
 2778.0000    12.8919    27.5442      .0715     2.3083    32.1580    26.6042
 2778.1250    12.9132    28.1242      .0724     2.3100    31.8925    26.2043
 2778.2500    12.9507    28.6590      .0727     2.3103    31.3809    25.8049
 2778.3750    13.0073    29.0650      .0738     2.3086    30.9051    25.4055
 2778.5000    13.0857    29.2101      .0789     2.3062    30.6735    25.0056
 2778.6250    13.1819    29.1334      .0876     2.3044    30.8072    24.6058
 2778.7500    13.2976    28.8152      .0946     2.3062    31.2428    24.2062
 2778.8750    13.4094    28.2403      .0974     2.3115    32.0161    23.8063
 2779.0000    13.4956    27.7102      .0949     2.3224    33.2634    23.4067
 2779.1250    13.5635    27.9362      .0901     2.3341    34.8041    23.0070
 2779.2500    13.6163    28.9994      .0869     2.3482    37.0302    22.6071
 2779.3750    13.6567    30.5925      .0854     2.3684    40.2244    22.2076
 2779.5000    13.6830    32.1289      .0860     2.3842    45.8452    21.8076
 2779.6250    13.7048    32.8125      .0908     2.3963    49.9392    21.4079
 2779.7500    13.7289    32.6232      .0978     2.4038    50.4223    21.0083
 2779.8750    13.7558    31.9141      .1016     2.4061    48.6627    20.6083
 2780.0000    13.7787    30.8579      .1024     2.4055    45.2433    20.2091
 2780.1250    13.8099    29.6102      .1036     2.4036    41.7943    19.8093
 2780.2500    13.8918    28.1626      .1057     2.4010    39.1769    19.4097
 2780.3750    14.0079    26.9608      .1095     2.3972    37.7112    19.0104
 2780.5000    14.1245    26.6614      .1130     2.3915    38.0172    18.6242
 2780.6250    14.2368    27.0255      .1149     2.3855    39.7549    18.2489
 2780.7500    14.3217    27.8889      .1176     2.3788    41.4886    17.8735
 2780.8750    14.3389    28.9476      .1231     2.3714    42.4371    17.4984
 2781.0000    14.2556    30.0041      .1378     2.3618    42.9205    17.1228
 2781.1250    14.1324    30.9433      .1611     2.3574    43.4448    16.7476
 2781.2500    14.0047    31.7085      .1836     2.3588    44.8197    16.3724
 2781.3750    13.8788    32.1196      .1964     2.3625    47.7342    15.9968
 2781.5000    13.7560    31.9153      .1954     2.3741    51.2536    15.6217
 2781.6250    13.6406    31.0834      .1864     2.3805    54.0418    15.2463
 2781.7500    13.5359    29.6309      .1742     2.3819    54.2088    14.8715
 2781.8750    13.4496    27.8122      .1623     2.3814    52.4379    14.4966
 2782.0000    13.3868    25.8519      .1542     2.3786    49.7196    14.1208
 2782.1250    13.3624    24.2682      .1545     2.3737    47.0319    13.7454
 2782.2500    13.4341    23.2968      .1617     2.3586    44.4024    13.3700
 2782.3750    13.5807    22.8738      .1681     2.3252    42.1429    12.9950
 2782.5000    13.7240    23.2766      .1694     2.2948    40.6247    12.6194
 2782.6250    13.8440    24.2764      .1662     2.2818    39.9794    16.1487
 2782.7500    13.9410    25.6002      .1613     2.2951    40.0376    27.3644
 2782.8750    13.9972    26.5192      .1584     2.3229    40.3614    32.1373
 2783.0000    13.9432    26.2499      .1608     2.3800    40.4964    31.8274
 2783.1250    13.7995    24.8538      .1708     2.4485    40.1987    31.3805
 2783.2500    13.6195    23.0448      .1871     2.4893    39.7605    30.9338
 2783.3750    13.4242    21.2857      .2011     2.4986    39.2670    30.4873
 2783.5000    13.2676    20.1421      .2084     2.4810    39.6301    30.0409
 2783.6250    13.2051    19.9860      .2098     2.4514    40.9676    29.5940
 2783.7500    13.2214    20.9199      .2044     2.4246    44.0101    29.1473
 2783.8750    13.2531    23.0552      .1957     2.4123    47.7859    28.7008
 2784.0000    13.2791    25.4424      .1856     2.4058    51.6155    28.2538
 2784.1250    13.2998    27.5066      .1720     2.3960    54.4639    27.8072
 2784.2500    13.3158    28.9345      .1548     2.3732    55.8491    27.3605
 2784.3750    13.3256    29.5633      .1343     2.3444    55.8026    26.9136
 2784.5000    13.3254    29.7330      .1125     2.3108    54.4101    26.4671
 2784.6250    13.3222    29.7876      .0964     2.2769    52.2134    26.0202
 2784.7500    13.3189    29.6850      .0888     2.2480    49.1398    25.5735
 2784.8750    13.3155    29.3962      .0879     2.2288    44.8806    25.1269
 2785.0000    13.3122    28.7522      .0896     2.2218    41.5474    24.6800
 2785.1250    13.3088    27.7968      .0868     2.2203    39.1728    24.2337
 2785.2500    13.3055    26.7471      .0792     2.2234    37.7763    23.7870
 2785.3750    13.3021    25.7073      .0713     2.2278    36.7060    23.3405
 2785.5000    13.2987    25.1862      .0654     2.2324    35.7150    22.8935
 2785.6250    13.2954    25.1115      .0613     2.2369    34.7983    22.4470
 2785.7500    13.2920    25.2636      .0601     2.2404    34.1381    22.0001
 2785.8750    13.2887    25.5185      .0619     2.2428    33.6864    21.5533
 2786.0000    13.2859    25.6760      .0649     2.2457    33.6453    21.1068
 2786.1250    13.2837    25.7726      .0664     2.2487    33.9996    20.6598
 2786.2500    13.2818    26.0153      .0644     2.2511    34.7048    20.2132
