~VERSION INFORMATION
VERS.                                                 2.0:   CWLS Log ASCII Standard-VERSION 2.0
WRAP.                                                  NO:   One line per depth step
~Well Information Block
STRT.M                                           485.3750:   Top Depth
STOP.M                                          4311.3750:   Bottom Depth
STEP.M                                             .12500:   Depth Increment
NULL.                                            -999.250:   Null Value
FLD .                                            SLEIPNER:   Field Name
WELL.                                              15/8-1:   NAME
WBN .                                              15/8-1:   WELLBORE
NATI.                                                 NOR:   COUNTRY
CTRY.                                                 NOR:   COUNTRY
COMP.                                             STATOIL:   OPERATOR
PROV.                                           NORTH SEA:   PROVINCE
COUN.                                    GLOMAR BISCAY II:   RIG NAME
SPUD.                                          1981/07/18:   SPUD DATE
LATI.                                       58 21 48.10 N:   SURF. LATITUDE
LONG.                                        1 34 22.31 E:   SURF. LONGITUDE
PBWE.                                              15/8-1:   PB WELL ID
APIN.                                              15/8-1:   PB WELLBORE ID
PBWS.                                                 all:   PB WELL NAME SET
~PARAMETER INFORMATION (log)
LNAM.                              CDL/CNL/GR  COMPOSITED:   NAME
LTYP.                                         DEPTH MATCH:   LOG TYPE
LSRV.                                            DEN/NEUT:   LOG SERVICE
LSOU.                                             SPT/NPD:   LOG SOURCE
LVSN.                                                   1:   LOG VERSION
BHIS.                                                   R:   BRIEF HISTORY
FHIS.                                             RAW-LIS:   FULL HISTORY
LCNM.                                                  DA:   LOGGING CONTRACTOR
TOOL.                             CDL/CNL/GR (COMPOSITED):   TOOL STRING
~Curve Information Block
#MNEM.UNIT                                        API CODE    No Description
#=========                                        ========    == ===========
DEPT.M                                       00 001 00 00:     1  DEPTH
CAL.IN                                                   :     2  Caliper
CN.%                                                     :     3  Neutron Porosity
CORR.G/CC                                                :     4  Density Correction
DEN.G/CC                                                 :     5  Bulk Density
GR.GAPI                                                  :     6  Gamma Ray
TEN.LB                                                   :     7  Cable Tension
~ASCII
# ...
 2006.3750    13.0639    44.2886      .0924     2.1661    53.0981    24.2794
 2006.5000    13.0585    46.1030      .0901     2.1671    52.8582    24.6527
 2006.6250    13.0521    46.5631      .0838     2.1677    53.0781    25.0263
 2006.7500    13.0445    45.7419      .0774     2.1673    53.2019    25.3995
 2006.8750    13.0362    44.4801      .0737     2.1637    52.7416    25.7731
 2007.0000    13.0272    43.8708      .0753     2.1579    52.0292    26.1462
 2007.1250    13.0190    44.0171      .0813     2.1503    51.4730    26.5200
 2007.2500    13.0101    44.9665      .0901     2.1410    51.3509    26.8933
 2007.3750    12.9954    46.1122      .0979     2.1304    52.0343    27.2668
 2007.5000    12.9824    46.4424      .1018     2.1169    52.3884    27.6402
 2007.6250    12.9779    45.8420      .1011     2.1083    52.4319    27.9853
 2007.7500    12.9778    44.5318      .0947     2.1058    52.0799    27.9015
 2007.8750    12.9781    43.1960      .0853     2.1044    51.7367    27.2737
 2008.0000    12.9786    42.6090      .0762     2.1044    51.7852    26.5680
 2008.1250    12.9806    42.5690      .0689     2.1054    52.4573    25.8620
 2008.2500    12.9852    42.5027      .0619     2.1074    53.6758    25.1565
 2008.3750    12.9911    41.9040      .0524     2.1110    54.5193    24.4504
 2008.5000    12.9971    41.0864      .0436     2.1151    55.0887    23.7448
 2008.6250    13.0031    40.3786      .0412     2.1182    55.2226    23.0390
 2008.7500    13.0091    39.7917      .0464     2.1196    54.8524    22.3332
 2008.8750    13.0149    39.3795      .0544     2.1194    54.0262    21.6270
 2009.0000    13.0167    39.0291      .0621     2.1179    52.7078    20.9214
 2009.1250    13.0117    38.3010      .0680     2.1161    51.7952    20.2154
 2009.2500    13.0036    37.0852      .0720     2.1157    51.4454    19.5099
 2009.3750    12.9953    35.7889      .0740     2.1156    52.2172    18.8037
 2009.5000    12.9873    35.0900      .0737     2.1162    52.4943    18.0981
 2009.6250    12.9830    35.0603      .0720     2.1173    52.3489    17.3921
 2009.7500    12.9826    35.3688      .0685     2.1182    51.8425    16.6866
 2009.8750    12.9833    35.6263      .0641     2.1201    51.3416    15.9804
 2010.0000    12.9881    35.4973      .0597     2.1224    51.3657    15.2747
 2010.1250    12.9971    35.4445      .0562     2.1254    51.6541    14.5684
 2010.2500    13.0069    35.6761      .0544     2.1296    52.0555    14.4796
 2010.3750    13.0166    36.2538      .0525     2.1342    52.5413    14.8634
 2010.5000    13.0229    37.0014      .0482     2.1396    52.4577    15.2645
 2010.6250    13.0246    37.6646      .0429     2.1532    51.9082    15.6657
 2010.7500    13.0241    38.1173      .0383     2.1736    50.7382    16.0666
 2010.8750    13.0198    38.1966      .0373     2.1957    49.0691    16.4679
 2011.0000    13.0123    37.9122      .0422     2.2067    47.2835    16.8689
 2011.1250    13.0047    37.5327      .0492     2.2092    45.1206    17.2701
 2011.2500    12.9976    37.1616      .0561     2.2072    43.0117    17.6710
 2011.3750    12.9911    36.7847      .0610     2.2015    41.7042    18.0723
 2011.5000    12.9876    36.3276      .0622     2.1982    40.5427    18.4734
 2011.6250    12.9881    35.7333      .0596     2.1934    39.7163    18.8746
 2011.7500    12.9953    35.0048      .0545     2.1905    39.1976    19.2755
 2011.8750    13.0111    34.5415      .0497     2.1899    38.8261    19.6768
 2012.0000    13.0252    34.6259      .0479     2.1911    38.6937    20.0778
 2012.1250    13.0320    35.0845      .0496     2.1936    38.5881    20.4790
 2012.2500    13.0359    35.5586      .0539     2.1971    38.5098    20.9528
 2012.3750    13.0396    35.3493      .0597     2.1993    38.5081    21.6810
 2012.5000    13.0432    34.7076      .0661     2.2005    38.8513    22.5210
 2012.6250    13.0469    34.2259      .0720     2.2005    39.6464    23.3612
 2012.7500    13.0518    34.1911      .0735     2.1984    40.5109    24.2009
 2012.8750    13.0585    34.4746      .0685     2.1927    40.8711    25.0414
 2013.0000    13.0651    34.5635      .0596     2.1823    40.4670    25.8814
 2013.1250    13.0663    34.4077      .0498     2.1719    39.7180    26.7216
 2013.2500    13.0612    34.4320      .0403     2.1634    39.2443    27.5614
 2013.3750    13.0540    34.6965      .0331     2.1569    39.4269    28.3839
 2013.5000    13.0449    35.4328      .0310     2.1532    40.7032    28.8468
 2013.6250    13.0389    36.5309      .0344     2.1522    41.7366    28.7375
 2013.7500    13.0437    37.2526      .0426     2.1542    43.0192    28.5366
 2013.8750    13.0542    37.5837      .0500     2.1597    45.3971    28.3355
 2014.0000    13.0656    37.5271      .0523     2.1681    47.5096    28.1345
 2014.1250    13.0765    37.1238      .0537     2.1807    48.3313    27.9335
 2014.2500    13.0855    36.4628      .0579     2.1989    47.8586    27.7325
 2014.3750    13.0854    35.7361      .0667     2.2218    46.2735    27.5315
 2014.5000    13.0716    35.0805      .0787     2.2389    43.9062    27.3305
 2014.6250    13.0530    34.5707      .0866     2.2444    42.2749    27.1294
 2014.7500    13.0291    34.3391      .0858     2.2412    41.8718    26.9285
 2014.8750    13.0053    34.4231      .0802     2.2342    42.9888    26.7274
 2015.0000    12.9898    34.9943      .0768     2.2245    44.9594    26.5265
 2015.1250    12.9808    35.8123      .0787     2.2157    47.8196    26.3255
 2015.2500    12.9769    36.8483      .0833     2.2110    50.0099    26.1245
 2015.3750    12.9790    38.2872      .0869     2.2120    53.4393    25.9234
 2015.5000    12.9960    39.3562      .0887     2.2173    55.1164    25.7225
 2015.6250    13.0298    39.4660      .0913     2.2310    55.5978    25.5215
 2015.7500    13.0688    38.8166      .0965     2.2526    54.8562    25.3205
 2015.8750    13.1042    38.0997      .1026     2.2740    53.5628    25.1194
 2016.0000    13.1312    37.6369      .1062     2.2939    52.2700    24.9184
 2016.1250    13.1475    37.2651      .1065     2.3056    51.3595    24.7173
 2016.2500    13.1471    36.6133      .1042     2.3058    50.7183    24.5163
 2016.3750    13.1227    35.6124      .1003     2.2983    50.3379    24.3152
 2016.5000    13.0691    35.0857      .0954     2.2744    50.8596    24.1142
 2016.6250    12.9876    35.7635      .0915     2.2453    52.0023    23.9131
 2016.7500    12.8913    38.1390      .0920     2.2304    53.3002    23.7121
 2016.8750    12.8048    41.3271      .0966     2.2303    54.5021    23.5110
 2017.0000    12.7465    42.8957      .1024     2.2488    55.1994    23.3101
 2017.1250    12.7152    42.8778      .1074     2.2917    55.0583    23.1090
 2017.2500    12.7074    41.5797      .1115     2.3267    54.3646    22.9079
 2017.3750    12.7156    40.7040      .1141     2.3411    53.3033    22.7068
 2017.5000    12.7284    40.7227      .1102     2.3305    52.0568    22.5059
 2017.6250    12.7357    41.1136      .0974     2.3050    51.7796    22.3048
 2017.7500    12.7311    41.1054      .0808     2.2813    52.5938    22.1038
 2017.8750    12.7245    40.7991      .0677     2.2687    53.8312    21.9027
 2018.0000    12.7211    40.6470      .0616     2.2641    54.8805    21.7017
 2018.1250    12.7155    40.6144      .0664     2.2587    55.1395    21.5006
 2018.2500    12.7145    40.4247      .0780     2.2475    54.7363    21.2996
 2018.3750    12.7370    39.8821      .0853     2.2321    54.5968    21.0985
 2018.5000    12.7794    38.8563      .0852     2.2250    54.9025    20.8975
 2018.6250    12.8201    38.2623      .0834     2.2272    55.4157    20.6964
 2018.7500    12.8506    38.6214      .0864     2.2390    55.6453    20.4954
 2018.8750    12.8784    39.5282      .0935     2.2646    54.9589    20.2943
 2019.0000    12.8989    40.1290      .1003     2.2834    53.6767    20.0934
 2019.1250    12.9080    40.0682      .1040     2.2886    52.3839    19.8922
 2019.2500    12.9194    39.9478      .1038     2.2838    51.7205    19.6912
