~VERSION INFORMATION
VERS.                                                 2.0:   CWLS Log ASCII Standard-VERSION 2.0
WRAP.                                                  NO:   One line per depth step
~Well Information Block
STRT.M                                           485.3750:   Top Depth
STOP.M                                          4311.3750:   Bottom Depth
STEP.M                                             .12500:   Depth Increment
NULL.                                            -999.250:   Null Value
FLD .                                            SLEIPNER:   Field Name
WELL.                                              15/8-1:   NAME
WBN .                                              15/8-1:   WELLBORE
NATI.                                                 NOR:   COUNTRY
CTRY.                                                 NOR:   COUNTRY
COMP.                                             STATOIL:   OPERATOR
PROV.                                           NORTH SEA:   PROVINCE
COUN.                                    GLOMAR BISCAY II:   RIG NAME
SPUD.                                          1981/07/18:   SPUD DATE
LATI.                                       58 21 48.10 N:   SURF. LATITUDE
LONG.                                        1 34 22.31 E:   SURF. LONGITUDE
PBWE.                                              15/8-1:   PB WELL ID
APIN.                                              15/8-1:   PB WELLBORE ID
PBWS.                                                 all:   PB WELL NAME SET
~PARAMETER INFORMATION (log)
LNAM.                              CDL/CNL/GR  COMPOSITED:   NAME
LTYP.                                         DEPTH MATCH:   LOG TYPE
LSRV.                                            DEN/NEUT:   LOG SERVICE
LSOU.                                             SPT/NPD:   LOG SOURCE
LVSN.                                                   1:   LOG VERSION
BHIS.                                                   R:   BRIEF HISTORY
FHIS.                                             RAW-LIS:   FULL HISTORY
LCNM.                                                  DA:   LOGGING CONTRACTOR
TOOL.                             CDL/CNL/GR (COMPOSITED):   TOOL STRING
~Curve Information Block
#MNEM.UNIT                                        API CODE    No Description
#=========                                        ========    == ===========
DEPT.M                                       00 001 00 00:     1  DEPTH
CAL.IN                                                   :     2  Caliper
CN.%                                                     :     3  Neutron Porosity
CORR.G/CC                                                :     4  Density Correction
DEN.G/CC                                                 :     5  Bulk Density
GR.GAPI                                                  :     6  Gamma Ray
TEN.LB                                                   :     7  Cable Tension
~ASCII
# ...
 3280.3750    10.6320    14.0382      .0258     2.6347    27.3835    21.6950
 3280.5000    10.6161    13.5505      .0285     2.6354    26.4969    22.2330
 3280.6250    10.6061    13.3466      .0392     2.6349    26.0417    22.7710
 3280.7500    10.5949    13.6117      .0524     2.6323    26.4745    23.3091
 3280.8750    10.5808    14.1107      .0636     2.6282    27.4945    23.8478
 3281.0000    10.5583    14.6374      .0676     2.6265    28.8824    24.3850
 3281.1250    10.5229    15.1016      .0615     2.6269    29.7375    24.9230
 3281.2500    10.5069    14.8057      .0502     2.6297    29.3416    25.4611
 3281.3750    10.4959    14.0660      .0422     2.6325    27.1262    25.9991
 3281.5000    10.4871    13.0736      .0413     2.6325    23.1487    26.5371
 3281.6250    10.4901    12.2973      .0437     2.6312    19.3139    27.0751
 3281.7500    10.5065    11.9539      .0453     2.6301    15.9164    27.6131
 3281.8750    10.5226    11.6571      .0443     2.6302    13.5656    28.1511
 3282.0000    10.5222    11.3955      .0430     2.6315    12.6479    28.6892
 3282.1250    10.5114    11.1710      .0432     2.6335    12.4528    29.2272
 3282.2500    10.5072    10.7574      .0449     2.6357    12.6726    29.7385
 3282.3750    10.5104    10.3776      .0479     2.6372    12.7180    29.9910
 3282.5000    10.5033    10.2184      .0497     2.6377    12.6439    29.9995
 3282.6250    10.4899    10.2017      .0496     2.6378    12.4113    29.9995
 3282.7500    10.4949    10.2103      .0500     2.6363    12.2448    29.9995
 3282.8750    10.4939    10.3782      .0488     2.6343    12.3304    29.9995
 3283.0000    10.4861    10.8021      .0434     2.6325    12.9594    29.9995
 3283.1250    10.4861    11.4812      .0335     2.6312    14.3539    29.9995
 3283.2500    10.4864    12.3388      .0199     2.6302    15.5809    29.9995
 3283.3750    10.4911    12.8515      .0071     2.6309    16.7430    29.9995
 3283.5000    10.4970    13.0384      .0020     2.6307    17.6821    29.9995
 3283.6250    10.4884    13.0284      .0064     2.6310    17.9112    29.9995
 3283.7500    10.4926    13.0086      .0178     2.6301    17.9037    29.9995
 3283.8750    10.4962    13.0610      .0317     2.6268    17.9034    29.9995
 3284.0000    10.4874    13.3312      .0452     2.6214    18.0671    29.9995
 3284.1250    10.4857    13.6342      .0569     2.6146    18.0457    29.9995
 3284.2500    10.4858    13.9141      .0642     2.6074    17.9089    29.9995
 3284.3750    10.4892    14.1173      .0666     2.6000    18.0684    29.9995
 3284.5000    10.5043    14.4592      .0670     2.5930    19.2050    29.9995
 3284.6250    10.5209    14.7803      .0667     2.5865    20.8650    29.9995
 3284.7500    10.5164    15.1712      .0629     2.5839    23.2301    29.9995
 3284.8750    10.4991    15.5718      .0541     2.5858    25.3815    29.9995
 3285.0000    10.4885    15.8311      .0427     2.5901    26.1524    29.9995
 3285.1250    10.4868    15.9275      .0300     2.5962    25.8162    29.9995
 3285.2500    10.4956    15.7444      .0175     2.6080    24.4646    29.9995
 3285.3750    10.4984    15.3689      .0071     2.6193    22.9544    29.9995
 3285.5000    10.4892    14.6231      .0032     2.6226    21.4442    29.9995
 3285.6250    10.4873    13.6225      .0073     2.6237    20.0205    29.9995
 3285.7500    10.4901    12.7979      .0157     2.6241    18.5707    29.9995
 3285.8750    10.4958    12.2489      .0284     2.6248    16.7666    29.9995
 3286.0000    10.4889    12.0634      .0394     2.6248    15.0922    29.9995
 3286.1250    10.4797    12.1426      .0467     2.6229    13.9098    29.9995
 3286.2500    10.4682    12.4537      .0535     2.6184    13.7034    29.9995
 3286.3750    10.4663    12.7409      .0545     2.6128    14.0278    29.9995
 3286.5000    10.4754    12.9150      .0462     2.6078    14.2429    29.9995
 3286.6250    10.4917    12.8304      .0350     2.6053    14.0725    29.9995
 3286.7500    10.5022    12.5546      .0252     2.6064    13.9355    29.9995
 3286.8750    10.5048    12.1858      .0190     2.6069    14.0122    29.9995
 3287.0000    10.5047    11.9056      .0188     2.6059    14.1693    29.9995
 3287.1250    10.5046    11.7089      .0250     2.6042    14.2147    29.9681
 3287.2500    10.5047    11.5505      .0337     2.6018    13.9433    29.6995
 3287.3750    10.5076    11.4254      .0298     2.6017    12.9854    29.3280
 3287.5000    10.5161    11.4390      .0160     2.6033    11.5872    28.9502
 3287.6250    10.5101    11.6609      .0037     2.6062    10.7083    28.5724
 3287.7500    10.5044    12.0497     -.0004     2.6111    10.5121    28.1946
 3287.8750    10.4988    12.5759      .0034     2.6155    11.2104    27.8168
 3288.0000    10.4872    13.0763      .0103     2.6179    12.8482    27.4389
 3288.1250    10.4777    13.4591      .0166     2.6193    15.5507    27.0611
 3288.2500    10.4754    13.8193      .0218     2.6205    18.5595    26.6833
 3288.3750    10.4799    14.1233      .0221     2.6223    21.0829    26.3055
 3288.5000    10.4718    14.2917      .0193     2.6253    22.4046    25.9277
 3288.6250    10.4766    14.3136      .0170     2.6289    23.5995    25.5499
 3288.7500    10.4836    14.3407      .0215     2.6316    24.3708    25.1721
 3288.8750    10.4854    14.4934      .0309     2.6328    25.0174    24.7942
 3289.0000    10.4852    14.8706      .0401     2.6328    25.4002    24.4164
 3289.1250    10.4853    15.4334      .0406     2.6339    25.3217    24.0386
 3289.2500    10.4965    15.9419      .0341     2.6354    24.7980    23.6608
 3289.3750    10.5092    16.2514      .0261     2.6409    23.8205    23.2830
 3289.5000    10.5119    16.3773      .0255     2.6500    22.2884    22.9052
 3289.6250    10.5194    16.3495      .0352     2.6572    21.0798    22.5274
 3289.7500    10.5211    16.2161      .0506     2.6599    20.7963    22.1496
 3289.8750    10.5096    15.8494      .0628     2.6589    20.8857    21.7717
 3290.0000    10.4899    15.2528      .0661     2.6536    21.1333    21.3939
 3290.1250    10.4877    14.5306      .0622     2.6481    21.2287    21.0161
 3290.2500    10.4951    13.9355      .0594     2.6436    21.7341    20.6383
 3290.3750    10.4985    13.4885      .0602     2.6410    22.4625    20.2605
 3290.5000    10.5039    13.2105      .0613     2.6377    22.7948    20.0191
 3290.6250    10.5105    13.1358      .0582     2.6330    22.6127    20.0000
 3290.7500    10.5211    13.2088      .0526     2.6275    21.6912    20.0000
 3290.8750    10.5149    13.4791      .0462     2.6207    20.7072    20.0000
 3291.0000    10.5176    13.8586      .0392     2.6110    20.1595    20.0000
 3291.1250    10.5179    14.2860      .0330     2.6024    19.9291    20.0000
 3291.2500    10.5054    14.7906      .0285     2.6010    20.1213    20.0000
 3291.3750    10.5022    15.2125      .0276     2.6024    20.0911    20.0000
 3291.5000    10.4983    15.3965      .0338     2.6055    19.9808    20.0000
 3291.6250    10.4992    15.3937      .0439     2.6107    19.6825    20.0000
 3291.7500    10.4996    15.5408      .0482     2.6154    19.1913    20.0000
 3291.8750    10.4947    15.7946      .0427     2.6188    18.7149    20.0000
 3292.0000    10.5083    16.0743      .0311     2.6208    18.7139    20.0000
 3292.1250    10.5316    16.2448      .0178     2.6217    18.8559    19.9812
 3292.2500    10.5106    16.1668      .0124     2.6244    19.1136    19.7311
 3292.3750    10.5029    15.8999      .0186     2.6274    19.1443    19.3042
 3292.5000    10.5067    15.4658      .0288     2.6300    18.8534    18.8623
 3292.6250    10.5145    14.8946      .0377     2.6307    18.5884    18.4203
 3292.7500    10.5057    14.5366      .0415     2.6308    18.4621    17.9783
 3292.8750    10.4941    14.2763      .0356     2.6313    18.3353    17.5364
 3293.0000    10.4842    14.0219      .0244     2.6330    18.5965    17.0944
 3293.1250    10.4838    13.8377      .0146     2.6367    19.0826    16.6524
 3293.2500    10.4916    13.7687      .0089     2.6411    20.0659    16.2104
