~VERSION INFORMATION
VERS.                                                 2.0:   CWLS Log ASCII Standard-VERSION 2.0
WRAP.                                                  NO:   One line per depth step
~Well Information Block
STRT.M                                           485.3750:   Top Depth
STOP.M                                          4311.3750:   Bottom Depth
STEP.M                                             .12500:   Depth Increment
NULL.                                            -999.250:   Null Value
FLD .                                            SLEIPNER:   Field Name
WELL.                                              15/8-1:   NAME
WBN .                                              15/8-1:   WELLBORE
NATI.                                                 NOR:   COUNTRY
CTRY.                                                 NOR:   COUNTRY
COMP.                                             STATOIL:   OPERATOR
PROV.                                           NORTH SEA:   PROVINCE
COUN.                                    GLOMAR BISCAY II:   RIG NAME
SPUD.                                          1981/07/18:   SPUD DATE
LATI.                                       58 21 48.10 N:   SURF. LATITUDE
LONG.                                        1 34 22.31 E:   SURF. LONGITUDE
PBWE.                                              15/8-1:   PB WELL ID
APIN.                                              15/8-1:   PB WELLBORE ID
PBWS.                                                 all:   PB WELL NAME SET
~PARAMETER INFORMATION (log)
LNAM.                              CDL/CNL/GR  COMPOSITED:   NAME
LTYP.                                         DEPTH MATCH:   LOG TYPE
LSRV.                                            DEN/NEUT:   LOG SERVICE
LSOU.                                             SPT/NPD:   LOG SOURCE
LVSN.                                                   1:   LOG VERSION
BHIS.                                                   R:   BRIEF HISTORY
FHIS.                                             RAW-LIS:   FULL HISTORY
LCNM.                                                  DA:   LOGGING CONTRACTOR
TOOL.                             CDL/CNL/GR (COMPOSITED):   TOOL STRING
~Curve Information Block
#MNEM.UNIT                                        API CODE    No Description
#=========                                        ========    == ===========
DEPT.M                                       00 001 00 00:     1  DEPTH
CAL.IN                                                   :     2  Caliper
CN.%                                                     :     3  Neutron Porosity
CORR.G/CC                                                :     4  Density Correction
DEN.G/CC                                                 :     5  Bulk Density
GR.GAPI                                                  :     6  Gamma Ray
TEN.LB                                                   :     7  Cable Tension
~ASCII
# ...
  992.3750    17.7723    34.2070      .0065     2.0777    23.5316    23.9332
  992.5000    17.7721    34.5436      .0101     2.0776    24.0213    24.0334
  992.6250    17.7715    34.6453      .0199     2.0767    24.3361    24.1336
  992.7500    17.7695    34.5167      .0303     2.0748    24.4836    24.2338
  992.8750    17.7667    34.2511      .0368     2.0719    24.6099    24.3340
  993.0000    17.7639    34.0554      .0376     2.0691    24.8957    24.4342
  993.1250    17.7611    34.1296      .0372     2.0674    25.3316    24.5344
  993.2500    17.7583    34.5473      .0356     2.0675    25.9944    24.6346
  993.3750    17.7555    34.9267      .0335     2.0677    26.5383    24.7348
  993.5000    17.7528    35.1358      .0293     2.0689    26.1457    24.8350
  993.6250    17.7516    35.1731      .0206     2.0706    24.8833    24.9190
  993.7500    17.7528    35.2281      .0107     2.0736    22.8997    24.8279
  993.8750    17.7549    35.5193      .0021     2.0765    21.0641    24.5656
  994.0000    17.7570    35.6274     -.0000     2.0783    20.1069    24.2856
  994.1250    17.7591    35.4235      .0037     2.0797    19.5099    24.0056
  994.2500    17.7612    34.5738      .0116     2.0809    19.6444    23.7256
  994.3750    17.7633    33.2619      .0201     2.0807    20.1399    23.4456
  994.5000    17.7654    32.3546      .0281     2.0806    21.0049    23.1656
  994.6250    17.7675    32.0035      .0325     2.0801    21.9502    22.8856
  994.7500    17.7684    32.5163      .0333     2.0796    23.0505    22.6056
  994.8750    17.7683    33.6990      .0307     2.0796    24.2375    22.3256
  995.0000    17.7681    36.1867      .0229     2.0795    24.7257    22.0456
  995.1250    17.7679    38.1981      .0151     2.0790    24.7094    21.7656
  995.2500    17.7677    39.0573      .0129     2.0786    24.4287    21.4856
  995.3750    17.7675    38.8457      .0171     2.0786    24.3499    21.2056
  995.5000    17.7673    38.1604      .0226     2.0785    25.0049    20.9256
  995.6250    17.7671    37.7144      .0265     2.0786    25.9460    20.6456
  995.7500    17.7671    37.7705      .0294     2.0793    26.2507    20.3657
  995.8750    17.7682    38.0832      .0320     2.0813    26.0952    20.0857
  996.0000    17.7702    38.4189      .0336     2.0832    25.7492    19.8057
  996.1250    17.7723    38.6759      .0344     2.0849    25.0447    19.5257
  996.2500    17.7743    38.9636      .0356     2.0866    23.8345    19.2457
  996.3750    17.7764    39.3527      .0374     2.0878    22.9395    18.9657
  996.5000    17.7784    39.5365      .0394     2.0884    22.7085    18.6857
  996.6250    17.7805    39.3650      .0398     2.0885    22.9172    18.4057
  996.7500    17.7826    38.6904      .0368     2.0885    23.3895    18.1257
  996.8750    17.7846    37.3695      .0329     2.0885    23.5133    17.8457
  997.0000    17.7849    36.1727      .0291     2.0894    23.3362    17.5569
  997.1250    17.7847    35.1573      .0252     2.0908    22.8288    17.2309
  997.2500    17.7845    34.5563      .0221     2.0937    22.1171    16.9018
  997.3750    17.7843    34.2413      .0216     2.0963    21.4271    16.5727
  997.5000    17.7841    33.9079      .0224     2.0973    20.6766    16.2435
  997.6250    17.7839    33.8879      .0251     2.0977    20.1902    15.9144
  997.7500    17.7837    34.2850      .0309     2.0984    20.2003    15.5853
  997.8750    17.7835    34.8157      .0372     2.0993    20.7792    15.2562
  998.0000    17.7818    35.1959      .0429     2.0989    21.7523    14.9270
  998.1250    17.7760    35.3352      .0447     2.0983    22.4263    14.5979
  998.2500    17.7686    35.5001      .0425     2.0992    22.4874    14.2688
  998.3750    17.7609    35.8101      .0393     2.1017    22.2755    13.9397
  998.5000    17.7533    35.8916      .0357     2.1048    22.0307    13.6105
  998.6250    17.7456    35.5671      .0322     2.1072    21.6592    13.2814
  998.7500    17.7380    35.1853      .0317     2.1109    20.8342    12.9523
  998.8750    17.7303    35.1385      .0379     2.1167    20.0424    12.6232
  999.0000    17.7253    36.0126      .0470     2.1207    19.8403    12.2940
  999.1250    17.7280    37.1557      .0567     2.1229    20.0409    11.9649
  999.2500    17.7345    37.9632      .0667     2.1233    20.7039    11.6358
  999.3750    17.7414    37.9587      .0716     2.1223    21.6771    11.3067
  999.5000    17.7483    37.2821      .0667     2.1204    22.5748    10.9775
  999.6250    17.7551    36.8558      .0599     2.1182    22.7024    10.6484
  999.7500    17.7563    37.0568      .0539     2.1164    22.2265    10.3193
  999.8750    17.7492    37.6758      .0503     2.1153    21.5509     9.9902
 1000.0000    17.7400    38.8436      .0478     2.1144    20.9431    10.3496
 1000.1250    17.7308    39.4042      .0453     2.1140    20.8155    10.9373
 1000.2500    17.7236    38.7011      .0428     2.1136    21.1088    11.5250
 1000.3750    17.7240    37.5745      .0403     2.1127    21.6727    12.1127
 1000.5000    17.7290    36.6141      .0381     2.1113    22.5684    12.7004
 1000.6250    17.7342    36.0295      .0382     2.1100    23.1151    13.2881
 1000.7500    17.7394    35.8923      .0406     2.1094    23.0829    13.8758
 1000.8750    17.7446    36.0957      .0433     2.1099    23.0216    14.4635
 1001.0000    17.7498    36.6829      .0459     2.1114    23.3936    15.0512
 1001.1250    17.7550    38.0222      .0486     2.1135    23.9854    15.6389
 1001.2500    17.7602    39.5450      .0511     2.1163    24.7119    16.2266
 1001.3750    17.7654    40.6110      .0535     2.1193    24.9789    16.8143
 1001.5000    17.7706    40.6451      .0538     2.1225    24.9769    17.4020
 1001.6250    17.7748    39.7316      .0530     2.1253    25.0277    17.9897
 1001.7500    17.7747    38.4609      .0506     2.1278    25.2023    18.5774
 1001.8750    17.7715    37.8519      .0459     2.1303    25.6725    19.1651
 1002.0000    17.7680    37.9861      .0408     2.1327    25.8516    19.7528
 1002.1250    17.7645    38.4762      .0404     2.1346    25.9654    20.3405
 1002.2500    17.7610    39.1688      .0482     2.1356    26.2110    20.9282
 1002.3750    17.7578    39.8397      .0580     2.1361    26.9831    21.5159
 1002.5000    17.7598    40.6662      .0647     2.1363    28.3195    21.9930
 1002.6250    17.7646    41.8552      .0638     2.1373    29.5963    22.1222
 1002.7500    17.7697    43.0762      .0599     2.1392    30.2800    22.2227
 1002.8750    17.7749    43.6503      .0600     2.1425    30.6336    22.3232
 1003.0000    17.7800    43.6010      .0702     2.1472    31.3311    22.4236
 1003.1250    17.7852    42.9878      .0811     2.1523    33.3205    22.5241
 1003.2500    17.7903    42.3274      .0857     2.1565    36.9384    22.6246
 1003.3750    17.7907    41.9752      .0839     2.1585    40.3228    22.7250
 1003.5000    17.7794    42.0125      .0774     2.1553    41.6509    22.8255
 1003.6250    17.7663    42.0307      .0699     2.1455    41.2681    22.9260
 1003.7500    17.7595    41.7452      .0639     2.1326    38.9204    23.0264
 1003.8750    17.7646    41.3257      .0645     2.1144    36.0440    23.1269
 1004.0000    17.7741    41.2920      .0703     2.0991    32.9686    23.2274
 1004.1250    17.7836    41.7401      .0764     2.0862    30.1410    23.3278
 1004.2500    17.7930    42.3068      .0825     2.0771    27.9391    23.4283
 1004.3750    17.8025    42.2270      .0852     2.0666    26.0255    23.5288
 1004.5000    17.8119    41.1682      .0843     2.0621    24.7583    23.6292
 1004.6250    17.8214    39.4853      .0822     2.0618    23.9821    23.7297
 1004.7500    17.8248    37.6512      .0797     2.0627    24.0627    23.8302
 1004.8750    17.8083    36.3052      .0770     2.0655    24.6376    23.9306
 1005.0000    17.7805    35.9737      .0751     2.0677    25.1258    24.0311
 1005.1250    17.7566    36.2779      .0757     2.0666    24.8414    24.1316
 1005.2500    17.7430    37.4515      .0776     2.0617    24.1012    24.2320
