~VERSION INFORMATION
VERS.                                                 2.0:   CWLS Log ASCII Standard-VERSION 2.0
WRAP.                                                  NO:   One line per depth step
~Well Information Block
STRT.M                                           485.3750:   Top Depth
STOP.M                                          4311.3750:   Bottom Depth
STEP.M                                             .12500:   Depth Increment
NULL.                                            -999.250:   Null Value
FLD .                                            SLEIPNER:   Field Name
WELL.                                              15/8-1:   NAME
WBN .                                              15/8-1:   WELLBORE
NATI.                                                 NOR:   COUNTRY
CTRY.                                                 NOR:   COUNTRY
COMP.                                             STATOIL:   OPERATOR
PROV.                                           NORTH SEA:   PROVINCE
COUN.                                    GLOMAR BISCAY II:   RIG NAME
SPUD.                                          1981/07/18:   SPUD DATE
LATI.                                       58 21 48.10 N:   SURF. LATITUDE
LONG.                                        1 34 22.31 E:   SURF. LONGITUDE
PBWE.                                              15/8-1:   PB WELL ID
APIN.                                              15/8-1:   PB WELLBORE ID
PBWS.                                                 all:   PB WELL NAME SET
~PARAMETER INFORMATION (log)
LNAM.                              CDL/CNL/GR  COMPOSITED:   NAME
LTYP.                                         DEPTH MATCH:   LOG TYPE
LSRV.                                            DEN/NEUT:   LOG SERVICE
LSOU.                                             SPT/NPD:   LOG SOURCE
LVSN.                                                   1:   LOG VERSION
BHIS.                                                   R:   BRIEF HISTORY
FHIS.                                             RAW-LIS:   FULL HISTORY
LCNM.                                                  DA:   LOGGING CONTRACTOR
TOOL.                             CDL/CNL/GR (COMPOSITED):   TOOL STRING
~Curve Information Block
#MNEM.UNIT                                        API CODE    No Description
#=========                                        ========    == ===========
DEPT.M                                       00 001 00 00:     1  DEPTH
CAL.IN                                                   :     2  Caliper
CN.%                                                     :     3  Neutron Porosity
CORR.G/CC                                                :     4  Density Correction
DEN.G/CC                                                 :     5  Bulk Density
GR.GAPI                                                  :     6  Gamma Ray
TEN.LB                                                   :     7  Cable Tension
~ASCII
  485.3750  -999.2500  -999.2500  -999.2500  -999.2500  -999.2500     6.5218
  485.5000  -999.2500  -999.2500  -999.2500  -999.2500  -999.2500     6.7222
  485.6250  -999.2500  -999.2500  -999.2500  -999.2500  -999.2500     6.9226
  485.7500  -999.2500  -999.2500  -999.2500  -999.2500  -999.2500     7.1230
  485.8750  -999.2500  -999.2500  -999.2500  -999.2500  -999.2500     7.3234
  486.0000  -999.2500  -999.2500  -999.2500  -999.2500  -999.2500     7.5238
  486.1250  -999.2500  -999.2500  -999.2500  -999.2500  -999.2500     7.7242
  486.2500  -999.2500  -999.2500  -999.2500  -999.2500  -999.2500     7.9246
  486.3750  -999.2500  -999.2500  -999.2500  -999.2500  -999.2500     8.1250
  486.5000  -999.2500  -999.2500  -999.2500  -999.2500  -999.2500     8.3253
  486.6250  -999.2500  -999.2500  -999.2500  -999.2500  -999.2500     8.5257
  486.7500  -999.2500  -999.2500  -999.2500  -999.2500  -999.2500     8.7261
  486.8750  -999.2500  -999.2500  -999.2500  -999.2500  -999.2500     8.9265
  487.0000  -999.2500  -999.2500  -999.2500  -999.2500  -999.2500     9.1269
  487.1250  -999.2500  -999.2500  -999.2500  -999.2500  -999.2500     9.3273
  487.2500  -999.2500  -999.2500  -999.2500  -999.2500  -999.2500     9.5277
  487.3750  -999.2500  -999.2500  -999.2500  -999.2500  -999.2500     9.7281
  487.5000  -999.2500  -999.2500  -999.2500  -999.2500  -999.2500     9.9285
  487.6250  -999.2500  -999.2500  -999.2500  -999.2500  -999.2500    10.1289
  487.7500  -999.2500  -999.2500  -999.2500  -999.2500  -999.2500    10.3293
  487.8750  -999.2500  -999.2500  -999.2500  -999.2500  -999.2500    10.5297
  488.0000  -999.2500  -999.2500  -999.2500  -999.2500  -999.2500    10.4348
  488.1250  -999.2500  -999.2500  -999.2500  -999.2500  -999.2500    10.2219
  488.2500  -999.2500  -999.2500  -999.2500  -999.2500  -999.2500    10.0090
  488.3750  -999.2500  -999.2500  -999.2500  -999.2500  -999.2500     9.7961
  488.5000  -999.2500  -999.2500  -999.2500  -999.2500  -999.2500     9.5832
  488.6250  -999.2500  -999.2500  -999.2500  -999.2500  -999.2500     9.3703
  488.7500  -999.2500  -999.2500  -999.2500  -999.2500  -999.2500     9.1574
  488.8750  -999.2500  -999.2500  -999.2500  -999.2500  -999.2500     8.9445
  489.0000  -999.2500  -999.2500  -999.2500  -999.2500  -999.2500     8.7316
  489.1250  -999.2500  -999.2500  -999.2500  -999.2500  -999.2500     8.5187
  489.2500  -999.2500  -999.2500  -999.2500  -999.2500  -999.2500     8.3058
  489.3750  -999.2500  -999.2500  -999.2500  -999.2500  -999.2500     8.0929
  489.5000  -999.2500  -999.2500  -999.2500  -999.2500  -999.2500     7.8800
  489.6250  -999.2500  -999.2500  -999.2500  -999.2500  -999.2500     7.6672
  489.7500  -999.2500  -999.2500  -999.2500  -999.2500  -999.2500     7.4543
  489.8750  -999.2500  -999.2500  -999.2500  -999.2500  -999.2500     7.2414
  490.0000  -999.2500  -999.2500  -999.2500  -999.2500  -999.2500     7.0285
  490.1250  -999.2500  -999.2500  -999.2500  -999.2500  -999.2500     6.8156
  490.2500  -999.2500    41.8112  -999.2500  -999.2500    27.5112     6.6027
  490.3750    19.3867    42.3227  -999.2500      .8588    26.7805     6.3898
  490.5000    19.3928    42.2610  -999.2500      .8944    25.9532     6.1769
  490.6250    19.3989    41.5076  -999.2500      .9377    25.9321     5.9640
  490.7500    19.4050    40.2985  -999.2500      .9712    26.1730     5.7511
  490.8750    19.4111    39.4870  -999.2500      .9973    26.8953     5.5382
  491.0000    19.4130    39.6596  -999.2500     1.0176    28.3687     5.3823
  491.1250    19.4075    40.8701  -999.2500     1.0342    30.0420     5.2862
  491.2500    19.4000    43.0833  -999.2500     1.0472    31.3699     5.1913
  491.3750    19.3924    45.1060  -999.2500     1.0617    32.3968     5.0965
  491.5000    19.3848    46.0210  -999.2500     1.0867    32.4250     5.0017
  491.6250    19.3775    46.2200  -999.2500     1.1114    31.6994     4.9068
  491.7500    19.3735    45.9894  -999.2500     1.1213    30.5725     4.8120
  491.8750    19.3727    45.5984  -999.2500     1.1157    29.6544     4.7172
  492.0000    19.3722    45.0694  -999.2500     1.1000    29.7822     4.6223
  492.1250    19.3717    44.0960  -999.2500     1.0704    30.2534     4.5275
  492.2500    19.3712    42.8516  -999.2500     1.0396    30.7435     4.4326
  492.3750    19.3725    41.4311  -999.2500     1.0230    30.9925     4.3378
  492.5000    19.3756    40.3564  -999.2500     1.0174    30.6096     4.2430
  492.6250    19.3787    40.1382  -999.2500     1.0147    29.9300     4.1481
  492.7500    19.3819    40.4684  -999.2500     1.0140    28.9633     4.0533
  492.8750    19.3851    41.2102  -999.2500     1.0177    28.2034     3.9585
  493.0000    19.3876    42.1225  -999.2500     1.0295    28.2625     3.8636
  493.1250    19.3877    42.7557  -999.2500     1.0413    28.6856     3.7688
  493.2500    19.3872    42.5817  -999.2500     1.0482    29.5962     3.6739
  493.3750    19.3867    41.3728  -999.2500     1.0514    30.2988     3.5791
  493.5000    19.3862    40.0054  -999.2500     1.0562    30.4273     3.4843
  493.6250    19.3857    39.6007  -999.2500     1.0647    30.3128     3.3894
  493.7500    19.3847    40.2435  -999.2500     1.0751    30.4487     3.2946
  493.8750    19.3814    41.8249  -999.2500     1.0772    30.8003     3.1998
  494.0000    19.3767    42.9204  -999.2500     1.0738    30.8547     3.1049
  494.1250    19.3719    42.5099  -999.2500     1.0691    29.8406     3.0101
  494.2500    19.3671    41.3674  -999.2500     1.0587    28.2548     2.9152
  494.3750    19.3650    40.5138  -999.2500     1.0463    25.8845     2.8204
  494.5000    19.3706    40.4684  -999.2500     1.0524    24.3231     2.7256
  494.6250    19.3777    40.4646    -1.4974     1.0755    23.6504     2.6307
  494.7500    19.3849    40.1742    -1.4970     1.1188    23.9404     2.5359
  494.8750    19.3920    39.7880    -1.4966     1.1677    25.0769     2.4410
  495.0000    19.3970    39.3994    -1.4849     1.2030    26.3088     2.3462
  495.1250    19.3957    39.0309    -1.4570     1.2172    27.0901     2.2821
  495.2500    19.3913    38.7732    -1.4310     1.2162    27.9151     2.4963
  495.3750    19.3864    38.9472    -1.4214     1.2094    28.7382     2.9665
  495.5000    19.3818    39.6011    -1.4314     1.1962    29.3919     3.4621
  495.6250    19.3791    40.7404    -1.4484     1.1832    29.6742     3.9578
  495.7500    19.3800    41.9336    -1.4669     1.1808    29.5875     4.4534
  495.8750    19.3818    42.6172    -1.4854     1.1850    29.5673     4.9490
  496.0000    19.3836    42.8706    -1.4953     1.1887    29.5045     5.4446
  496.1250    19.3854    43.1075    -1.4997     1.1898    29.3986     5.9402
  496.2500    19.3872    43.4418    -1.5007     1.1884    29.5878     6.4358
  496.3750    19.3890    44.0819    -1.5008     1.1850    30.5105     6.9314
  496.5000    19.3908    44.8886    -1.5007     1.1774    31.7112     7.4270
  496.6250    19.3924    45.7299    -1.4985     1.1565    32.8323     7.9226
  496.7500    19.3931    46.4130    -1.4879     1.1248    33.4075     8.4182
  496.8750    19.3927    46.6243    -1.4634     1.0971    32.9069     8.9138
  497.0000    19.3922    45.7957    -1.4266     1.0847    32.1672     9.4094
  497.1250    19.3917    44.4238    -1.3857     1.0727    31.3473     9.9051
  497.2500    19.3912    42.7971    -1.3531     1.0528    30.8201    10.4007
  497.3750    19.4025    41.1672    -1.3356     1.0323    30.5782    10.8963
  497.5000    19.4447    40.2786    -1.3390     1.0142    30.4835    11.3919
  497.6250    19.5067    40.2825    -1.3640      .9964    30.7642    11.8875
  497.7500    19.5969    41.5668    -1.4130      .9930    31.2886    12.3831
  497.8750    19.7762    43.3750    -1.4701     1.0191    32.0294    12.8787
  498.0000    20.0970    44.2408    -1.4936     1.1217    32.6206    13.3743
  498.1250    20.6865    43.9278    -1.4948     1.3020    32.5768    13.8699
  498.2500    21.4895    43.1099    -1.4640     1.4689    32.3791    14.3655
