~VERSION INFORMATION
VERS.                                                 2.0:   CWLS Log ASCII Standard-VERSION 2.0
WRAP.                                                  NO:   One line per depth step
~Well Information Block
STRT.M                                           485.3750:   Top Depth
STOP.M                                          4311.3750:   Bottom Depth
STEP.M                                             .12500:   Depth Increment
NULL.                                            -999.250:   Null Value
FLD .                                            SLEIPNER:   Field Name
WELL.                                              15/8-1:   NAME
WBN .                                              15/8-1:   WELLBORE
NATI.                                                 NOR:   COUNTRY
CTRY.                                                 NOR:   COUNTRY
COMP.                                             STATOIL:   OPERATOR
PROV.                                           NORTH SEA:   PROVINCE
COUN.                                    GLOMAR BISCAY II:   RIG NAME
SPUD.                                          1981/07/18:   SPUD DATE
LATI.                                       58 21 48.10 N:   SURF. LATITUDE
LONG.                                        1 34 22.31 E:   SURF. LONGITUDE
PBWE.                                              15/8-1:   PB WELL ID
APIN.                                              15/8-1:   PB WELLBORE ID
PBWS.                                                 all:   PB WELL NAME SET
~PARAMETER INFORMATION (log)
LNAM.                              CDL/CNL/GR  COMPOSITED:   NAME
LTYP.                                         DEPTH MATCH:   LOG TYPE
LSRV.                                            DEN/NEUT:   LOG SERVICE
LSOU.                                             SPT/NPD:   LOG SOURCE
LVSN.                                                   1:   LOG VERSION
BHIS.                                                   R:   BRIEF HISTORY
FHIS.                                             RAW-LIS:   FULL HISTORY
LCNM.                                                  DA:   LOGGING CONTRACTOR
TOOL.                             CDL/CNL/GR (COMPOSITED):   TOOL STRING
~Curve Information Block
#MNEM.UNIT                                        API CODE    No Description
#=========                                        ========    == ===========
DEPT.M                                       00 001 00 00:     1  DEPTH
CAL.IN                                                   :     2  Caliper
CN.%                                                     :     3  Neutron Porosity
CORR.G/CC                                                :     4  Density Correction
DEN.G/CC                                                 :     5  Bulk Density
GR.GAPI                                                  :     6  Gamma Ray
TEN.LB                                                   :     7  Cable Tension
~ASCII
# ...
 3527.3750    14.1121    22.3465      .2319     2.5437    75.1585     3.7161
 3527.5000    14.1272    23.4686      .2109     2.5397    73.9399     3.9165
 3527.6250    14.1016    24.9622      .2035     2.5363    72.5417     4.1169
 3527.7500    14.0719    26.4904      .2059     2.5315    71.4758     4.3172
 3527.8750    14.0451    27.8632      .2122     2.5166    71.4262     4.5176
 3528.0000    14.0232    28.5986      .2137     2.4993    71.7851     4.7180
 3528.1250    14.0195    28.8562      .2017     2.4955    72.0357     4.9184
 3528.2500    14.0341    28.6673      .1853     2.5005    71.6810     5.1188
 3528.3750    14.0444    28.2778      .1732     2.5107    70.9090     5.3191
 3528.5000    14.0460    27.9044      .1719     2.5276    68.8280     5.5195
 3528.6250    14.0490    27.6528      .1811     2.5340    65.7827     5.7200
 3528.7500    14.0572    27.5638      .1923     2.5345    63.4194     5.9204
 3528.8750    14.0666    27.6887      .2000     2.5340    62.1623     6.1208
 3529.0000    14.0757    27.9340      .2018     2.5348    62.3865     6.3213
 3529.1250    14.0774    28.0176      .1961     2.5365    63.4500     6.5217
 3529.2500    14.0624    28.0426      .1853     2.5384    64.6835     6.7221
 3529.3750    14.0519    28.2214      .1856     2.5366    65.8919     6.9225
 3529.5000    14.0616    28.6134      .2032     2.5300    66.3604     7.1230
 3529.6250    14.0748    29.2441      .2205     2.5132    66.1571     7.3234
 3529.7500    14.0716    29.8473      .2234     2.4956    65.6333     7.5238
 3529.8750    14.0674    30.3255      .2162     2.4815    65.2449     7.7243
 3530.0000    14.0741    30.4366      .2028     2.4778    65.4494     7.9247
 3530.1250    14.0800    30.0891      .1883     2.4793    66.4979     8.1251
 3530.2500    14.0817    29.4683      .1734     2.4927    67.5453     8.3255
 3530.3750    14.0906    28.7012      .1613     2.5048    68.4611     8.5258
 3530.5000    14.1065    28.0225      .1583     2.5126    68.5024     8.7262
 3530.6250    14.1094    27.6664      .1659     2.5157    66.7212     8.9266
 3530.7500    14.0966    27.3455      .1821     2.5171    62.1838     9.1270
 3530.8750    14.0854    27.0499      .2034     2.5168    58.0164     9.3274
 3531.0000    14.1085    26.9838      .2237     2.5167    54.3794     9.5277
 3531.1250    14.2067    27.1567      .2357     2.5178    52.0064     9.7281
 3531.2500    14.3411    27.3478      .2419     2.5217    51.5212    11.5129
 3531.3750    14.4857    27.1563      .2417     2.5265    52.2396    32.5993
 3531.5000    14.6217    26.2670      .2357     2.5324    54.2497    75.0527
 3531.6250    14.7321    25.0930      .2293     2.5369    56.5673    94.2974
 3531.7500    14.8061    24.5170      .2245     2.5420    58.9097    86.7634
 3531.8750    14.8388    24.6079      .2238     2.5455    61.5340    66.5859
 3532.0000    14.8496    26.1503      .2292     2.5499    63.9240    27.1456
 3532.1250    14.8444    29.5325      .2359     2.5531    65.9360    -3.0156
 3532.2500    14.8244    33.9176      .2386     2.5552    66.5497    -5.8673
 3532.3750    14.7763    36.6818      .2363     2.5570    65.8945    -3.6098
 3532.5000    14.6943    37.3285      .2322     2.5581    64.7419    -1.2520
 3532.6250    14.5798    36.7877      .2276     2.5582    64.1210     1.1249
 3532.7500    14.4063    35.5709      .2224     2.5555    64.5555     4.1172
 3532.8750    14.1391    34.1636      .2158     2.5507    66.6183     7.5851
 3533.0000    13.7842    33.4746      .2098     2.5436    71.3143    10.9827
 3533.1250    13.4885    32.7091      .2124     2.5324    75.8527    12.0896
 3533.2500    13.4104    31.8103      .2275     2.5231    77.2813    11.1189
 3533.3750    13.5088    31.1852      .2460     2.5164    76.3668     9.9787
 3533.5000    13.6824    31.1140      .2603     2.4982    71.7557     8.8386
 3533.6250    13.8857    31.6788      .2628     2.4590    65.7418     7.6985
 3533.7500    14.0774    33.1323      .2474     2.4064    62.0947     6.5584
 3533.8750    14.2094    35.0121      .2186     2.3566    61.9403     5.4182
 3534.0000    14.2951    37.1874      .1857     2.3271    63.2168     4.4255
 3534.1250    14.3693    38.1273      .1572     2.3215    64.1817     3.8209
 3534.2500    14.3836    37.8480      .1461     2.3408    64.3486     3.3395
 3534.3750    14.3333    36.8015      .1535     2.3786    64.2736     2.8606
 3534.5000    14.2236    35.8955      .1702     2.4221    64.9379     2.3816
 3534.6250    14.0789    35.3349      .1902     2.4681    66.5146     1.9026
 3534.7500    13.9173    35.6798      .2088     2.5069    69.4029     1.4236
 3534.8750    13.7547    36.3630      .2237     2.5296    77.3035      .9446
 3535.0000    13.6108    37.1661      .2312     2.5330    88.2985      .4657
 3535.1250    13.5659    38.1680      .2278     2.5222   100.5131     -.0133
 3535.2500    13.6122    39.5490      .2187     2.5000   116.0730     -.4923
 3535.3750    13.6858    40.4711      .2078     2.4731   133.4005     -.9713
 3535.5000    13.7952    41.6752      .1948     2.4571   148.9763    -1.4503
 3535.6250    13.9004    43.4434      .1813     2.4531   157.9295    -1.9292
 3535.7500    13.9881    43.9484      .1693     2.4535   158.4821    -2.3773
 3535.8750    14.0389    43.7712      .1615     2.4542   156.3940    -2.4192
 3536.0000    14.0434    42.9787      .1619     2.4540   153.9155    -1.7230
 3536.1250    14.0503    41.8833      .1683     2.4525   153.3234     -.9175
 3536.2500    14.0688    40.7527      .1750     2.4477   153.6256     -.1121
 3536.3750    14.0803    39.8908      .1790     2.4377   153.1328      .6934
 3536.5000    14.0813    39.4968      .1798     2.4222   151.3642     1.4988
 3536.6250    14.0788    39.4270      .1775     2.4028   149.3739     2.3043
 3536.7500    14.0678    39.8107      .1722     2.3882   148.1313     3.1097
 3536.8750    14.0521    40.3657      .1700     2.3804   147.6885     3.9152
 3537.0000    14.0418    41.5487      .1760     2.3812   147.4172     4.7206
 3537.1250    14.0394    43.2884      .1869     2.3842   146.6263     5.5261
 3537.2500    14.0392    43.5028      .1985     2.3876   145.8124     6.3315
 3537.3750    14.0434    42.5860      .2050     2.3893   145.9310     7.1370
 3537.5000    14.0620    40.7660      .2075     2.3898   146.7513     7.9424
 3537.6250    14.0857    39.4825      .1996     2.3910   147.0591     8.7479
 3537.7500    14.0961    38.8860      .1879     2.3935   145.0193     9.5534
 3537.8750    14.0946    38.8473      .1771     2.3972   141.5738    10.2571
 3538.0000    14.0860    39.7725      .1716     2.3974   138.0499    10.2689
 3538.1250    14.0656    41.7600      .1770     2.3949   135.6081     9.8251
 3538.2500    14.0191    43.7070      .1828     2.3911   135.2717     9.3814
 3538.3750    13.9587    43.9421      .1845     2.3875   136.1886     8.9377
 3538.5000    13.9077    42.4891      .1886     2.3874   138.1261     8.4940
 3538.6250    13.9006    40.0444      .1963     2.3899   140.1854     8.0502
 3538.7500    13.9439    39.1597      .2043     2.3951   141.6953     7.6065
 3538.8750    14.0205    39.4754      .2124     2.3998   142.3033     7.1628
 3539.0000    14.0874    40.5273      .2161     2.4038   141.4578     6.7191
 3539.1250    14.0960    42.3903      .2146     2.4050   139.2851     6.2754
 3539.2500    14.0149    43.4465      .2112     2.4007   135.5171     5.8316
 3539.3750    13.8857    43.0864      .2051     2.3845   131.1891     5.3879
 3539.5000    13.7518    40.8874      .1923     2.3549   128.9394     4.9442
 3539.6250    13.6164    39.1067      .1738     2.3238   127.5862     4.5005
 3539.7500    13.5010    38.5799      .1557     2.2952   125.9888     4.0567
 3539.8750    13.4692    38.8156      .1416     2.2757   124.3566     3.7428
 3540.0000    13.5403    39.7777      .1337     2.2726   122.7173     3.9166
 3540.1250    13.6859    40.3326      .1337     2.2782   121.7770     4.1170
 3540.2500    13.8534    41.1860      .1390     2.2924   122.7981     4.3174
