~VERSION INFORMATION
VERS.                                                 2.0:   CWLS Log ASCII Standard-VERSION 2.0
WRAP.                                                  NO:   One line per depth step
~Well Information Block
STRT.M                                           485.3750:   Top Depth
STOP.M                                          4311.3750:   Bottom Depth
STEP.M                                             .12500:   Depth Increment
NULL.                                            -999.250:   Null Value
FLD .                                            SLEIPNER:   Field Name
WELL.                                              15/8-1:   NAME
WBN .                                              15/8-1:   WELLBORE
NATI.                                                 NOR:   COUNTRY
CTRY.                                                 NOR:   COUNTRY
COMP.                                             STATOIL:   OPERATOR
PROV.                                           NORTH SEA:   PROVINCE
COUN.                                    GLOMAR BISCAY II:   RIG NAME
SPUD.                                          1981/07/18:   SPUD DATE
LATI.                                       58 21 48.10 N:   SURF. LATITUDE
LONG.                                        1 34 22.31 E:   SURF. LONGITUDE
PBWE.                                              15/8-1:   PB WELL ID
APIN.                                              15/8-1:   PB WELLBORE ID
PBWS.                                                 all:   PB WELL NAME SET
~PARAMETER INFORMATION (log)
LNAM.                              CDL/CNL/GR  COMPOSITED:   NAME
LTYP.                                         DEPTH MATCH:   LOG TYPE
LSRV.                                            DEN/NEUT:   LOG SERVICE
LSOU.                                             SPT/NPD:   LOG SOURCE
LVSN.                                                   1:   LOG VERSION
BHIS.                                                   R:   BRIEF HISTORY
FHIS.                                             RAW-LIS:   FULL HISTORY
LCNM.                                                  DA:   LOGGING CONTRACTOR
TOOL.                             CDL/CNL/GR (COMPOSITED):   TOOL STRING
~Curve Information Block
#MNEM.UNIT                                        API CODE    No Description
#=========                                        ========    == ===========
DEPT.M                                       00 001 00 00:     1  DEPTH
CAL.IN                                                   :     2  Caliper
CN.%                                                     :     3  Neutron Porosity
CORR.G/CC                                                :     4  Density Correction
DEN.G/CC                                                 :     5  Bulk Density
GR.GAPI                                                  :     6  Gamma Ray
TEN.LB                                                   :     7  Cable Tension
~ASCII
# ...
 4034.3750     6.6104    16.7307      .0139     2.5476    75.4818    -4.4888
 4034.5000     6.6034    16.5547      .0595     2.5773    79.7006    -3.9525
 4034.6250     6.6010    16.8051      .0721     2.5786    81.9649    -3.4162
 4034.7500     6.5986    16.9157      .0742     2.5747    82.6268    -2.8799
 4034.8750     6.5963    16.6244      .0760     2.5703    82.1544    -2.3437
 4035.0000     6.5939    16.1256      .0772     2.5657    81.2134    -1.8074
 4035.1250     6.5919    15.5520      .0767     2.5633    79.9104    -1.2711
 4035.2500     6.5960    14.9305      .0648     2.5657    78.6921     -.7401
 4035.3750     6.6090    14.2965      .0473     2.5734    78.3222     -.6396
 4035.5000     6.6231    13.7434      .0323     2.5913    78.1021     -.8891
 4035.6250     6.6372    13.2660      .0220     2.6129    77.2638    -1.1400
 4035.7500     6.6498    12.8818      .0278     2.6357    75.3132    -1.3909
 4035.8750     6.6565    12.5440      .0448     2.6531    70.5155    -1.6418
 4036.0000     6.6608    12.0596      .0718     2.6617    64.3255    -1.7783
 4036.1250     6.6650    11.4792      .1065     2.6629    57.8914    -1.5056
 4036.2500     6.6692    10.8825      .1155     2.6604    52.1246    -1.1732
 4036.3750     6.6739    10.2585      .1024     2.6537    48.7597     -.8408
 4036.5000     6.6942     9.6361      .0770     2.6392    46.3871     -.5084
 4036.6250     6.7292     9.0738      .0445     2.6282    44.6099     -.1759
 4036.7500     6.7616     8.8077      .0157     2.6230    43.3890      .1565
 4036.8750     6.7871     8.8161     -.0047     2.6112    43.0048      .4889
 4037.0000     6.8111     9.2031     -.0165     2.5912    43.7287      .8213
 4037.1250     6.8323     9.7683     -.0125     2.5641    46.0826     1.1537
 4037.2500     6.8332    10.4346      .0082     2.5483    48.1895     1.4861
 4037.3750     6.8255    11.2027      .0317     2.5460    48.0289     1.8185
 4037.5000     6.8339    11.6839      .0531     2.5459    47.3467     2.1509
 4037.6250     6.8603    11.9719      .0552     2.5426    47.1257     2.4833
 4037.7500     6.9125    11.9534      .0397     2.5102    49.0402     2.8157
 4037.8750     7.0121    11.6496      .0026     2.4296    52.7211     3.1481
 4038.0000     7.1859    11.4749     -.0633     2.2887    57.1087     3.4805
 4038.1250     7.4957    12.1139     -.1413     2.0953    64.0481     7.8706
 4038.2500     7.8884    13.8982     -.2020     1.9353    72.2187    38.0737
 4038.3750     8.4015    16.6420     -.2587     1.8587    79.5988    55.2451
 4038.5000     8.9030    20.2790     -.3155     1.8146    86.8166    41.4940
 4038.6250     9.1849    25.2393     -.3619     1.8127    90.7337    20.9796
 4038.7500     9.2779    32.1981     -.3785     1.8407    90.4986     1.1660
 4038.8750     9.2823    39.5931     -.3558     1.8897    86.6467    -6.9502
 4039.0000     9.2410    41.4898     -.2917     1.9845    81.6490    -6.4251
 4039.1250     9.2000    40.0067     -.2219     2.0891    74.7319    -5.7577
 4039.2500     9.1856    35.8591     -.1598     2.1595    71.7130    -5.0902
 4039.3750     9.2477    32.1535     -.1276     2.1987    71.2266    -4.4228
 4039.5000     9.3178    28.9099     -.1192     2.2439    71.8177    -3.7553
 4039.6250     9.2563    27.1810     -.1101     2.3119    72.3736    -3.0879
 4039.7500     9.0945    26.9302     -.0790     2.3926    72.2342    -2.4204
 4039.8750     8.7575    26.6797     -.0291     2.4875    71.4504    -1.7530
 4040.0000     8.3112    25.9082      .0212     2.5720    71.0293    -1.0855
 4040.1250     7.8794    24.1520      .0610     2.6197    71.1476     -.4180
 4040.2500     7.6159    21.9527      .0889     2.6270    71.9935      .2494
 4040.3750     7.4880    19.7685      .1100     2.6203    72.9107      .9169
 4040.5000     7.4490    17.7179      .1248     2.6025    73.7293     1.5843
 4040.6250     7.4605    16.3051      .1294     2.5831    74.6876     2.2518
 4040.7500     7.4773    15.7294      .1191     2.5693    75.0354     2.9192
 4040.8750     7.5063    15.6937      .1068     2.5555    74.0532     3.5867
 4041.0000     7.5421    16.1127      .0903     2.5337    71.0768     4.2541
 4041.1250     7.5810    16.6828      .0569     2.4987    67.4574     4.9216
 4041.2500     7.6616    17.7077      .0018     2.4181    65.1518     5.5891
 4041.3750     7.7986    19.4702     -.0739     2.2981    64.9595     6.2565
 4041.5000     8.0122    22.7431     -.1628     2.1514    68.8558     6.8223
 4041.6250     8.4031    26.4483     -.2451     2.0288    75.0266     6.8919
 4041.7500     9.0029    27.8919     -.2994     1.9439    81.1911     6.6409
 4041.8750     9.7820    27.7691     -.3543     1.8933    84.3363     6.3900
 4042.0000    10.4199    26.2136     -.4160     1.8836    85.0579     6.1390
 4042.1250    10.7913    24.1834     -.4571     1.9324    83.1148     5.8881
 4042.2500    10.6884    22.1895     -.4452     2.0580    80.3712     5.6372
 4042.3750    10.4034    19.9679     -.3666     2.1857    77.8411     5.3862
 4042.5000     9.6142    17.7021     -.2390     2.3043    74.9454     5.1353
 4042.6250     8.8029    16.0508     -.1239     2.3634    71.2168     4.8843
 4042.7500     8.3837    15.7066     -.0613     2.3355    68.1104     4.6334
 4042.8750     8.2342    17.0809     -.0613     2.2560    67.0090     4.3825
 4043.0000     8.3069    20.6305     -.0921     2.1681    68.2263     4.1640
 4043.1250     8.8602    24.5143     -.1282     2.1065    74.2283     4.1857
 4043.2500     9.5142    27.7115     -.1491     2.0817    83.6202     4.3075
 4043.3750    10.1663    30.5469     -.1443     2.0707    87.9512     4.4294
 4043.5000    10.7966    31.8449     -.1233     2.0666    88.2573     4.5513
 4043.6250    11.4344    32.0519     -.0981     2.0619    86.1743     4.6732
 4043.7500    12.0722    32.4705     -.0973     2.0478    81.4743     4.7950
 4043.8750    12.6328    33.3365     -.1364     2.0342    76.7322     4.9169
 4044.0000    12.8485    34.1558     -.2063     2.0490    73.9449     5.0388
 4044.1250    12.6747    33.7512     -.2453     2.1299    71.6496     5.1606
 4044.2500    12.1393    31.3323     -.2364     2.2712    69.9442     5.2825
 4044.3750    11.1245    27.5147     -.1865     2.4545    68.9898     5.4044
 4044.5000     9.9937    23.6189     -.0327     2.6376    69.3238     5.5263
 4044.6250     8.8408    21.6251      .1536     2.7607    71.6270     5.6481
 4044.7500     7.9815    21.6797      .2620     2.7918    75.1967     5.7700
 4044.8750     7.6532    22.4144      .3411     2.7697    80.0211     5.8919
 4045.0000     7.6216    23.7214      .3488     2.7215    85.7243     6.0137
 4045.1250     7.6583    25.7080      .3011     2.6736    89.2188     6.1356
 4045.2500     7.7093    27.4550      .2473     2.6338    89.3288     6.2575
 4045.3750     7.7731    27.2448      .1997     2.6075    87.8763     6.3794
 4045.5000     7.7670    25.7670      .1800     2.6109    84.8374     6.5012
 4045.6250     7.6460    24.0449      .1782     2.6275    82.9757     6.6231
 4045.7500     7.5043    22.2967      .1859     2.6569    81.8817     6.7450
 4045.8750     7.3627    20.4231      .1922     2.6851    80.6943     6.8668
 4046.0000     7.2217    18.6758      .1791     2.6902    79.2068     6.9887
 4046.1250     7.0813    17.1238      .1596     2.6782    76.7759     7.1106
 4046.2500     6.9653    15.7569      .1411     2.6617    72.9019     7.2325
 4046.3750     6.9043    14.5373      .1263     2.6378    69.3708     9.9150
 4046.5000     6.8563    13.3558      .1135     2.6132    65.9899    16.2047
 4046.6250     6.8213    12.3011      .1073     2.5947    62.0717    16.9312
 4046.7500     6.7935    11.6746      .1049     2.5844    57.6192    16.6801
 4046.8750     6.7769    11.6201      .1025     2.5846    53.5797    16.4292
 4047.0000     6.8330    12.0857      .1021     2.5977    50.0950    16.1782
 4047.1250     6.9115    12.6404      .1180     2.6391    49.1845    15.9272
 4047.2500     6.9770    13.0116      .1745     2.6901    51.3451    15.6763
