~VERSION INFORMATION
VERS.                                                 2.0:   CWLS Log ASCII Standard-VERSION 2.0
WRAP.                                                  NO:   One line per depth step
~Well Information Block
STRT.M                                           485.3750:   Top Depth
STOP.M                                          4311.3750:   Bottom Depth
STEP.M                                             .12500:   Depth Increment
NULL.                                            -999.250:   Null Value
FLD .                                            SLEIPNER:   Field Name
WELL.                                              15/8-1:   NAME
WBN .                                              15/8-1:   WELLBORE
NATI.                                                 NOR:   COUNTRY
CTRY.                                                 NOR:   COUNTRY
COMP.                                             STATOIL:   OPERATOR
PROV.                                           NORTH SEA:   PROVINCE
COUN.                                    GLOMAR BISCAY II:   RIG NAME
SPUD.                                          1981/07/18:   SPUD DATE
LATI.                                       58 21 48.10 N:   SURF. LATITUDE
LONG.                                        1 34 22.31 E:   SURF. LONGITUDE
PBWE.                                              15/8-1:   PB WELL ID
APIN.                                              15/8-1:   PB WELLBORE ID
PBWS.                                                 all:   PB WELL NAME SET
~PARAMETER INFORMATION (log)
LNAM.                              CDL/CNL/GR  COMPOSITED:   NAME
LTYP.                                         DEPTH MATCH:   LOG TYPE
LSRV.                                            DEN/NEUT:   LOG SERVICE
LSOU.                                             SPT/NPD:   LOG SOURCE
LVSN.                                                   1:   LOG VERSION
BHIS.                                                   R:   BRIEF HISTORY
FHIS.                                             RAW-LIS:   FULL HISTORY
LCNM.                                                  DA:   LOGGING CONTRACTOR
TOOL.                             CDL/CNL/GR (COMPOSITED):   TOOL STRING
~Curve Information Block
#MNEM.UNIT                                        API CODE    No Description
#=========                                        ========    == ===========
DEPT.M                                       00 001 00 00:     1  DEPTH
CAL.IN                                                   :     2  Caliper
CN.%                                                     :     3  Neutron Porosity
CORR.G/CC                                                :     4  Density Correction
DEN.G/CC                                                 :     5  Bulk Density
GR.GAPI                                                  :     6  Gamma Ray
TEN.LB                                                   :     7  Cable Tension
~ASCII
# ...
 2266.3750    15.6755    34.5321      .1236     2.2332    62.9872    32.7324
 2266.5000    15.7121    34.7861      .1179     2.2349    63.8216    32.5362
 2266.6250    15.7290    35.9265      .1060     2.2386    65.0000    32.3401
 2266.7500    15.7330    37.8152      .0930     2.2417    66.0527    32.1438
 2266.8750    15.7258    39.9043      .0807     2.2435    67.0262    31.9479
 2267.0000    15.7069    40.9638      .0720     2.2407    67.1013    31.7516
 2267.1250    15.6854    41.3001      .0712     2.2371    66.0009    31.5552
 2267.2500    15.6634    41.2427      .0765     2.2338    64.7307    31.3592
 2267.3750    15.6387    41.0257      .0819     2.2300    63.5313    31.1630
 2267.5000    15.6044    40.7248      .0840     2.2308    62.7172    30.9666
 2267.6250    15.5533    40.4294      .0833     2.2333    62.1135    30.7705
 2267.7500    15.4452    39.7992      .0815     2.2371    61.4618    30.5744
 2267.8750    15.2658    38.8488      .0803     2.2405    61.5019    30.3780
 2268.0000    15.0728    38.1539      .0775     2.2431    62.3911    30.1821
 2268.1250    14.9072    37.6741      .0668     2.2449    62.7977    29.9858
 2268.2500    14.7697    37.5210      .0366     2.2505    62.5488    29.7895
 2268.3750    14.6597    37.6645     -.0326     2.2620    61.1904    29.5934
 2268.5000    14.5800    38.0256     -.1173     2.3040    59.0063    29.3972
 2268.6250    14.5229    38.4971     -.1704     2.3747    56.9744    29.2009
 2268.7500    14.4925    39.2951     -.1637     2.4268    56.1044    29.0047
 2268.8750    14.4812    40.8051     -.1105     2.4467    56.7102    28.8085
 2269.0000    14.4828    42.1829     -.0344     2.4479    58.2606    28.6122
 2269.1250    14.5035    42.6943      .0399     2.4390    60.1825    28.4162
 2269.2500    14.5457    42.5993      .0815     2.4133    61.8670    28.2198
 2269.3750    14.5966    42.2721      .0978     2.3794    62.7845    28.0234
 2269.5000    14.6568    41.8493      .1053     2.3361    63.6335    27.8273
 2269.6250    14.7358    41.3323      .1078     2.2937    64.4554    27.6311
 2269.7500    14.8284    40.7707      .1021     2.2730    65.2239    27.4347
 2269.8750    14.8992    40.2556      .0909     2.2700    65.7089    27.2385
 2270.0000    14.9452    39.2467      .0775     2.2847    65.9055    27.0423
 2270.1250    14.9895    38.0499      .0627     2.3153    65.7568    26.8459
 2270.2500    15.0300    37.0869      .0414     2.3649    63.3890    26.6499
 2270.3750    15.0658    36.1678      .0134     2.4110    60.5899    26.4536
 2270.5000    15.1064    35.2477     -.0027     2.4292    57.3778    26.2572
 2270.6250    15.1405    34.3674      .0045     2.4221    53.7469    26.0611
 2270.7500    15.1573    33.8332      .0256     2.3974    51.4473    25.8648
 2270.8750    15.1711    33.9531      .0491     2.3623    51.6179    25.6684
 2271.0000    15.2005    34.9174      .0711     2.3162    53.3650    25.4722
 2271.1250    15.2529    36.5772      .0845     2.2948    56.3166    25.2763
 2271.2500    15.3133    37.9621      .0869     2.2872    59.5940    25.0798
 2271.3750    15.3731    38.5928      .0892     2.2830    62.4967    24.8837
 2271.5000    15.4406    38.8434      .0973     2.2819    64.4264    24.6873
 2271.6250    15.5203    39.2107      .1088     2.2819    65.8424    24.4910
 2271.7500    15.5988    40.2455      .1181     2.2820    67.0082    24.2949
 2271.8750    15.6636    42.1498      .1194     2.2818    67.6122    24.0986
 2272.0000    15.7104    43.3428      .1113     2.2801    67.8233    23.9022
 2272.1250    15.7473    43.2737      .1029     2.2773    67.9822    23.7460
 2272.2500    15.7611    42.3314      .0970     2.2734    68.4605    23.8711
 2272.3750    15.7540    40.9780      .0950     2.2693    69.1318    24.1593
 2272.5000    15.7413    40.3807      .0947     2.2664    69.4311    24.4469
 2272.6250    15.7229    40.1653      .0934     2.2643    69.3730    24.7351
 2272.7500    15.6963    40.3215      .0907     2.2630    68.8660    25.0230
 2272.8750    15.6577    40.7406      .0891     2.2621    68.2851    25.3109
 2273.0000    15.5793    41.0770      .0928     2.2616    67.9870    25.5991
 2273.1250    15.4715    40.9757      .0995     2.2611    68.1340    25.8873
 2273.2500    15.3924    40.6382      .1058     2.2600    68.3515    26.1752
 2273.3750    15.3904    40.1717      .1102     2.2593    68.4393    26.4631
 2273.5000    15.4366    39.4956      .1128     2.2594    68.1460    26.7513
 2273.6250    15.4772    39.1691      .1136     2.2605    67.5749    27.0389
 2273.7500    15.4921    39.3335      .1107     2.2621    66.5206    27.3271
 2273.8750    15.4886    39.6717      .1049     2.2644    65.1640    27.6153
 2274.0000    15.4576    40.1687      .0976     2.2679    64.1752    27.9031
 2274.1250    15.3828    40.6470      .0891     2.2756    63.9158    28.1911
 2274.2500    15.2709    40.9214      .0824     2.2876    64.3095    28.4793
 2274.3750    15.1584    41.2837      .0798     2.2942    64.3980    28.7672
 2274.5000    15.0869    41.9476      .0812     2.2916    64.1547    29.0552
 2274.6250    15.0802    42.7283      .0847     2.2804    64.3553    29.3433
 2274.7500    15.1319    43.1108      .0870     2.2564    65.2744    29.6152
 2274.8750    15.2062    42.9011      .0876     2.2383    67.0682    29.7133
 2275.0000    15.2814    41.9316      .0879     2.2305    69.3067    29.6152
 2275.1250    15.3419    40.7533      .0886     2.2269    71.1395    29.5172
 2275.2500    15.3800    39.5952      .0884     2.2250    72.3107    29.4191
 2275.3750    15.4095    38.7463      .0856     2.2238    72.4556    29.3210
 2275.5000    15.4398    39.3309      .0806     2.2239    71.4598    29.2229
 2275.6250    15.4746    40.2933      .0756     2.2252    69.7927    29.1249
 2275.7500    15.5106    40.6991      .0735     2.2279    68.1278    29.0268
 2275.8750    15.5385    40.9031      .0747     2.2310    66.8629    28.9288
 2276.0000    15.5445    41.1250      .0775     2.2342    65.8005    28.8306
 2276.1250    15.5136    41.4673      .0805     2.2365    64.7392    28.7325
 2276.2500    15.4132    41.9506      .0819     2.2388    63.6825    28.6345
 2276.3750    15.2114    42.4987      .0796     2.2436    62.6680    28.5364
 2276.5000    14.9226    43.0590      .0731     2.2541    61.9902    28.4383
 2276.6250    14.6244    43.4353      .0654     2.2689    62.2114    28.3403
 2276.7500    14.3430    43.0819      .0588     2.2818    62.4689    28.2422
 2276.8750    14.1124    41.9637      .0559     2.2884    62.4829    28.1441
 2277.0000    13.9637    40.5447      .0630     2.2868    62.5178    28.0461
 2277.1250    13.8696    39.0250      .0755     2.2764    62.7865    27.9480
 2277.2500    13.8373    38.2587      .0870     2.2585    63.3333    27.8498
 2277.3750    13.8364    38.8936      .0954     2.2449    64.1312    27.7519
 2277.5000    13.8440    41.6548      .0984     2.2404    65.0017    27.6537
 2277.6250    13.8490    44.7222      .0973     2.2398    66.1843    27.5555
 2277.7500    13.8458    47.0290      .0935     2.2410    67.4563    27.4574
 2277.8750    13.8398    48.5911      .0887     2.2431    68.2993    27.3593
 2278.0000    13.8343    47.8988      .0840     2.2454    68.2789    27.2612
 2278.1250    13.8297    45.3721      .0824     2.2470    66.6650    27.1631
 2278.2500    13.8254    42.2324      .0846     2.2467    64.1634    27.0649
 2278.3750    13.8211    40.4413      .0856     2.2439    62.6302    26.9667
 2278.5000    13.8177    39.6067      .0836     2.2401    62.1453    26.8687
 2278.6250    13.8161    39.0907      .0794     2.2373    62.8134    26.7705
 2278.7500    13.8161    39.0839      .0743     2.2363    64.0127    26.6723
 2278.8750    13.8162    38.9164      .0707     2.2369    65.5157    26.5743
 2279.0000    13.8164    38.4683      .0711     2.2392    66.9942    26.4761
 2279.1250    13.8165    37.6092      .0740     2.2412    67.6927    26.3779
 2279.2500    13.8166    36.3533      .0757     2.2411    68.2117    26.2799
