~VERSION INFORMATION
VERS.                                                 2.0:   CWLS Log ASCII Standard-VERSION 2.0
WRAP.                                                  NO:   One line per depth step
~Well Information Block
STRT.M                                           485.3750:   Top Depth
STOP.M                                          4311.3750:   Bottom Depth
STEP.M                                             .12500:   Depth Increment
NULL.                                            -999.250:   Null Value
FLD .                                            SLEIPNER:   Field Name
WELL.                                              15/8-1:   NAME
WBN .                                              15/8-1:   WELLBORE
NATI.                                                 NOR:   COUNTRY
CTRY.                                                 NOR:   COUNTRY
COMP.                                             STATOIL:   OPERATOR
PROV.                                           NORTH SEA:   PROVINCE
COUN.                                    GLOMAR BISCAY II:   RIG NAME
SPUD.                                          1981/07/18:   SPUD DATE
LATI.                                       58 21 48.10 N:   SURF. LATITUDE
LONG.                                        1 34 22.31 E:   SURF. LONGITUDE
PBWE.                                              15/8-1:   PB WELL ID
APIN.                                              15/8-1:   PB WELLBORE ID
PBWS.                                                 all:   PB WELL NAME SET
~PARAMETER INFORMATION (log)
LNAM.                              CDL/CNL/GR  COMPOSITED:   NAME
LTYP.                                         DEPTH MATCH:   LOG TYPE
LSRV.                                            DEN/NEUT:   LOG SERVICE
LSOU.                                             SPT/NPD:   LOG SOURCE
LVSN.                                                   1:   LOG VERSION
BHIS.                                                   R:   BRIEF HISTORY
FHIS.                                             RAW-LIS:   FULL HISTORY
LCNM.                                                  DA:   LOGGING CONTRACTOR
TOOL.                             CDL/CNL/GR (COMPOSITED):   TOOL STRING
~Curve Information Block
#MNEM.UNIT                                        API CODE    No Description
#=========                                        ========    == ===========
DEPT.M                                       00 001 00 00:     1  DEPTH
CAL.IN                                                   :     2  Caliper
CN.%                                                     :     3  Neutron Porosity
CORR.G/CC                                                :     4  Density Correction
DEN.G/CC                                                 :     5  Bulk Density
GR.GAPI                                                  :     6  Gamma Ray
TEN.LB                                                   :     7  Cable Tension
~ASCII
# ...
 4294.3750     6.6336    23.6502      .3348     2.6955    84.5012   322.3913
 4294.5000     6.5809    23.5183      .3647     2.6844    86.1801   316.8329
 4294.6250     6.5227    23.8506      .3691     2.6693    86.5858   314.3078
 4294.7500     6.4254    24.6435      .3511     2.6654    85.4500   314.0875
 4294.8750     6.3148    25.8991      .3277     2.6621    83.7979   312.3745
 4295.0000     6.2044    27.8252      .3017     2.6600    82.2810   309.9298
 4295.1250     6.0986    29.9662      .2690     2.6543    80.8338   307.4747
 4295.2500     6.0094    30.8500      .2345     2.6378    79.8267   309.0136
 4295.3750     5.9734    30.7364      .2039     2.6243    79.5081   322.7721
 4295.5000     5.9907    29.9202      .1772     2.6204    79.7049   340.4458
 4295.6250     6.0180    28.7660      .1690     2.6204    80.6041   357.9551
 4295.7500     6.0781    27.3815      .1800     2.6232    81.8890   373.5341
 4295.8750     6.1531    25.9621      .2000     2.6261    84.0733   387.2462
 4296.0000     6.2296    24.5587      .2088     2.6253    86.8328   403.9137
 4296.1250     6.3260    23.5211      .2100     2.6216    89.0723   424.3243
 4296.2500     6.4478    22.8928      .1961     2.6157    91.3399   441.5978
 4296.3750     6.5057    22.3579      .1660     2.6053    93.2239   438.8118
 4296.5000     6.5013    22.0520      .1304     2.6023    94.1834   412.4763
 4296.6250     6.4915    22.0278      .1070     2.6055    94.9665   384.6223
 4296.7500     6.4817    22.0135      .0982     2.6179    95.1891   362.8486
 4296.8750     6.4392    21.7699      .1001     2.6355    94.4144   351.6964
 4297.0000     6.3468    21.3715      .1155     2.6486    93.0957   360.2661
 4297.1250     6.2469    20.9754      .1453     2.6547    92.0002   385.6430
 4297.2500     6.1548    20.5950      .1749     2.6503    91.5725   426.0861
 4297.3750     6.0782    20.2555      .2036     2.6362    91.9131   471.1058
 4297.5000     6.0151    20.0871      .2324     2.6242    92.6332   510.0499
 4297.6250     6.0841    20.1655      .2619     2.6193    92.9696   536.5614
 4297.7500     6.2109    20.9253      .2869     2.6174    92.9503   538.7483
 4297.8750     6.3898    21.9979      .2958     2.6224    92.6835   538.7549
 4298.0000     6.6212    22.4382      .2873     2.6388    92.0415   535.2952
 4298.1250     7.0640    22.0959      .2842     2.6787    91.4021   527.3068
 4298.2500     7.5551    21.0094      .3007     2.7378    91.5219   517.6562
 4298.3750     7.8896    19.4067      .3448     2.7937    91.9996   507.9055
 4298.5000     7.9750    18.4646      .4100     2.8179    93.0354   498.1547
 4298.6250     7.8327    18.5618      .4561     2.8145    94.3194   488.4038
 4298.7500     7.5343    19.4462      .4477     2.7946    95.2569   478.6480
 4298.8750     7.1255    20.5285      .4022     2.7507    95.4365   468.3036
 4299.0000     6.6372    21.6232      .3194     2.6957    94.8976   464.8880
 4299.1250     6.2402    22.7219      .2393     2.6534    93.9926   473.1958
 4299.2500     6.0052    23.6935      .1866     2.6393    92.7490   485.6344
 4299.3750     5.8907    24.4595      .1716     2.6393    92.4304   497.1179
 4299.5000     5.8558    25.1280      .1821     2.6391    92.7785   497.2293
 4299.6250     5.8662    25.5129      .2022     2.6384    93.6468   494.1511
 4299.7500     5.8823    25.7820      .2115     2.6376    93.9864   493.7673
 4299.8750     5.8968    26.0009      .2099     2.6355    94.2882   503.3703
 4300.0000     5.8990    26.1862      .2035     2.6323    94.8145   517.3810
 4300.1250     5.8928    26.3693      .1939     2.6289    95.7083   519.1421
 4300.2500     5.8858    26.4560      .1838     2.6244    97.5589   516.8192
 4300.3750     5.8788    26.3278      .1759     2.6198    98.1112   514.4963
 4300.5000     5.8718    26.2364      .1712     2.6181    97.9076   512.6254
 4300.6250     5.8660    26.2809      .1707     2.6179    97.4371   512.3075
 4300.7500     5.8732    26.4520      .1929     2.6211    97.0580   519.0820
 4300.8750     5.8924    26.4537      .2326     2.6255    96.1543   535.9213
 4301.0000     5.9120    26.1693      .2527     2.6314    94.6572   542.8331
 4301.1250     5.9339    25.7214      .2567     2.6378    93.4257   549.4794
 4301.2500     5.9583    25.2454      .2332     2.6443    92.2882   558.8177
 4301.3750     5.9826    25.0767      .2067     2.6535    91.3253   572.6191
 4301.5000     6.0051    25.4222      .2004     2.6614    90.4745   590.6487
 4301.6250     6.0030    26.1098      .2160     2.6689    90.1979   609.4677
 4301.7500     5.9734    26.7106      .2347     2.6793    90.6050   629.5657
 4301.8750     5.9503    27.0891      .2482     2.6817    91.1791   654.2374
 4302.0000     5.9601    27.3670      .2559     2.6664    91.3269   680.8828
 4302.1250     5.9836    27.4552      .2607     2.6373    91.2663   684.6478
 4302.2500     6.0063    27.0062      .2653     2.5989    90.6031   679.8727
 4302.3750     6.0274    26.3719      .2671     2.5608    89.8150   660.9155
 4302.5000     6.0440    25.8786      .2644     2.5321    89.7082   637.8027
 4302.6250     6.0085    25.8589      .2635     2.5099    90.3627   615.0286
 4302.7500     5.9307    26.1395      .2797     2.4995    91.3105   596.3466
 4302.8750     5.8445    26.2245      .3019     2.4945    91.6841   581.4331
 4303.0000     5.6937    26.0887      .3109     2.4838    91.8661   566.5197
 4303.1250     5.5156    26.0774      .3098     2.4597    92.9158   551.6062
 4303.2500     5.3499    26.4239      .2888     2.4361    94.5029   535.5911
 4303.3750     5.2280    27.0094      .2592     2.4163    96.0504   515.5790
 4303.5000     5.1212    27.6238      .2348     2.4097    97.1664   493.9680
 4303.6250     5.0277    27.8022      .2204     2.4104    97.4749   472.3570
 4303.7500     5.0130    27.1530      .2208     2.4127    96.9671   450.7461
 4303.8750     5.0151    26.0405      .2283     2.4150    95.7932   428.8221
 4304.0000     5.0173    25.0943      .2405     2.4168    95.0656   404.3649
 4304.1250     5.0194    24.7083      .2417     2.4174    94.6953   379.0837
 4304.2500     5.0216    25.1299      .2322     2.4179    94.5262   353.7921
 4304.3750     5.0237    25.8835      .2240     2.4194    94.5354   328.5004
 4304.5000     5.0259    26.8295      .2160     2.4214    94.2973   303.2087
 4304.6250     5.0275    28.0583      .2091     2.4244    93.9168   277.9170
 4304.7500     5.0274    28.1418      .2037     2.4279    93.9234   255.6042
 4304.8750     5.0270    27.3996      .2043     2.4316    94.1442   247.0847
 4305.0000     5.0266    26.8265      .2137     2.4370    94.9361   246.7691
 4305.1250     5.0263    26.9206      .2252     2.4431    95.6883   246.6565
 4305.2500     5.0259    27.5216      .2427     2.4504    96.0974   244.7798
 4305.3750     5.0255    28.8312      .2622     2.4569    96.2589   242.4533
 4305.5000     5.0251    30.6723      .2925     2.4566    96.2603   240.0875
 4305.6250     5.0247    30.9064      .3086     2.4527    96.2572   236.5732
 4305.7500     5.0243    30.3667      .3083     2.4470    96.2542   227.6031
 4305.8750     5.0239    28.9484      .2941     2.4305    96.2511   216.3216
 4306.0000     5.0235    27.6998      .2751     2.3992    96.2481   206.4825
 4306.1250     5.0231    26.7612      .2329     2.3645    96.2450   199.1754
 4306.2500     5.0227    26.8399      .1786     2.3550    96.2420   192.2409
 4306.3750     5.0223    27.4676      .1593     2.3598    96.2389   185.3064
 4306.5000     5.0220    28.2963      .1490     2.3673    96.2359   178.3719
 4306.6250     5.0216    28.7961      .1628     2.3797    96.2328   171.7521
 4306.7500     5.0212    28.7099      .1822     2.4013    96.2298   168.0690
 4306.8750     5.0208    28.3329      .2122     2.4259    96.2268   166.7408
 4307.0000     5.0204    27.9506      .2435     2.4481    96.2237   165.6041
 4307.1250     5.0200    27.6205      .2638     2.4624    96.2207   164.4674
 4307.2500     5.0196    27.5987      .2789     2.4695    96.2176   163.3307
