~VERSION INFORMATION
VERS.                                                 2.0:   CWLS Log ASCII Standard-VERSION 2.0
WRAP.                                                  NO:   One line per depth step
~Well Information Block
STRT.M                                           485.3750:   Top Depth
STOP.M                                          4311.3750:   Bottom Depth
STEP.M                                             .12500:   Depth Increment
NULL.                                            -999.250:   Null Value
FLD .                                            SLEIPNER:   Field Name
WELL.                                              15/8-1:   NAME
WBN .                                              15/8-1:   WELLBORE
NATI.                                                 NOR:   COUNTRY
CTRY.                                                 NOR:   COUNTRY
COMP.                                             STATOIL:   OPERATOR
PROV.                                           NORTH SEA:   PROVINCE
COUN.                                    GLOMAR BISCAY II:   RIG NAME
SPUD.                                          1981/07/18:   SPUD DATE
LATI.                                       58 21 48.10 N:   SURF. LATITUDE
LONG.                                        1 34 22.31 E:   SURF. LONGITUDE
PBWE.                                              15/8-1:   PB WELL ID
APIN.                                              15/8-1:   PB WELLBORE ID
PBWS.                                                 all:   PB WELL NAME SET
~PARAMETER INFORMATION (log)
LNAM.                              CDL/CNL/GR  COMPOSITED:   NAME
LTYP.                                         DEPTH MATCH:   LOG TYPE
LSRV.                                            DEN/NEUT:   LOG SERVICE
LSOU.                                             SPT/NPD:   LOG SOURCE
LVSN.                                                   1:   LOG VERSION
BHIS.                                                   R:   BRIEF HISTORY
FHIS.                                             RAW-LIS:   FULL HISTORY
LCNM.                                                  DA:   LOGGING CONTRACTOR
TOOL.                             CDL/CNL/GR (COMPOSITED):   TOOL STRING
~Curve Information Block
#MNEM.UNIT                                        API CODE    No Description
#=========                                        ========    == ===========
DEPT.M                                       00 001 00 00:     1  DEPTH
CAL.IN                                                   :     2  Caliper
CN.%                                                     :     3  Neutron Porosity
CORR.G/CC                                                :     4  Density Correction
DEN.G/CC                                                 :     5  Bulk Density
GR.GAPI                                                  :     6  Gamma Ray
TEN.LB                                                   :     7  Cable Tension
~ASCII
# ...
  745.3750    18.8624    37.9736      .0644     2.0907    79.2200     9.3594
  745.5000    18.9627    39.0406      .0704     2.0909    78.5381     8.6514
  745.6250    19.0493    40.2735      .0765     2.0883    77.7076     7.9433
  745.7500    19.1228    41.4361      .0825     2.0853    77.3286     7.2354
  745.8750    19.1651    42.1426      .0879     2.0829    76.6287     6.5272
  746.0000    19.1786    42.0190      .0916     2.0824    75.4503     5.8192
  746.1250    19.1828    41.1727      .0948     2.0822    74.1293     5.1113
  746.2500    19.1787    40.2493      .0979     2.0816    73.0032     4.4031
  746.3750    19.1706    39.8049      .1007     2.0811    72.3597     3.6951
  746.5000    19.1622    40.0905      .1015     2.0806    71.9749     2.9872
  746.6250    19.1538    41.0405      .1005     2.0805    71.7692     2.2790
  746.7500    19.1484    42.1601      .0968     2.0813    71.5012     1.5711
  746.8750    19.1560    42.8483      .0899     2.0841    70.7297      .8632
  747.0000    19.1733    42.0865      .0821     2.0894    69.4532      .1549
  747.1250    19.1897    40.4420      .0755     2.0952    68.2426     -.5530
  747.2500    19.1954    38.6870      .0717     2.0999    66.9613    -1.2610
  747.3750    19.1912    37.4039      .0698     2.1018    65.8995    -1.9692
  747.5000    19.1852    36.8346      .0743     2.1004    65.4405    -2.6771
  747.6250    19.1810    37.1295      .0850     2.0973    65.4865    -2.6456
  747.7500    19.1851    38.4082      .0909     2.0939    65.8033    -1.8510
  747.8750    19.1939    40.2835      .0871     2.0899    66.1435    -1.0041
  748.0000    19.2032    42.7627      .0801     2.0866    66.3568     -.1572
  748.1250    19.2123    44.7621      .0727     2.0846    66.4137      .6898
  748.2500    19.2197    45.0619      .0679     2.0842    66.4069     1.5368
  748.3750    19.2264    43.9558      .0645     2.0843    66.3999     2.3837
  748.5000    19.2330    42.4823      .0645     2.0851    66.4710     3.2307
  748.6250    19.2396    40.9437      .0707     2.0879    67.1991     4.0777
  748.7500    19.2462    39.8209      .0786     2.0904    68.4126     4.9246
  748.8750    19.2497    39.3119      .0850     2.0917    69.4269     5.7716
  749.0000    19.2498    39.1062      .0908     2.0912    69.1251     6.6185
  749.1250    19.2491    39.0289      .0966     2.0893    67.4339     7.4655
  749.2500    19.2483    39.2606      .0985     2.0881    64.6246     8.3125
  749.3750    19.2451    39.7301      .0943     2.0893    62.5647     9.1574
  749.5000    19.2251    40.1493      .0884     2.0939    61.3834     9.7265
  749.6250    19.1958    40.3974      .0829     2.1058    61.6589     9.6975
  749.7500    19.1648    40.2541      .0799     2.1212    63.2091     9.5193
  749.8750    19.1225    39.7596      .0796     2.1294    65.1028     9.3411
  750.0000    19.0443    39.0306      .0799     2.1322    66.6039     9.1629
  750.1250    18.9305    38.7247      .0802     2.1320    66.9270     8.9846
  750.2500    18.8114    39.1448      .0806     2.1311    66.5375     8.8064
  750.3750    18.7008    40.0355      .0815     2.1318    65.7087     8.6282
  750.5000    18.6196    40.9670      .0833     2.1340    64.9298     8.4500
  750.6250    18.5579    41.7470      .0852     2.1370    64.4914     8.2718
  750.7500    18.5084    42.0230      .0834     2.1427    64.1966     8.0936
  750.8750    18.4791    41.6351      .0781     2.1467    63.6339     7.9154
  751.0000    18.4578    40.6178      .0725     2.1468    62.7597     7.7372
  751.1250    18.4373    39.1568      .0687     2.1451    62.0394     7.5590
  751.2500    18.4169    37.4962      .0672     2.1420    61.9237     7.3807
  751.3750    18.4031    36.5756      .0670     2.1399    62.0796     7.2025
  751.5000    18.4040    36.7966      .0684     2.1401    62.0513     7.0244
  751.6250    18.4108    38.2955      .0705     2.1428    61.3801     6.8461
  751.7500    18.4182    40.3770      .0726     2.1464    60.4695     6.6679
  751.8750    18.4257    42.1379      .0747     2.1483    59.7261     6.4897
  752.0000    18.4413    42.8797      .0768     2.1469    59.1919     6.3115
  752.1250    18.4774    42.9287      .0790     2.1449    59.1772     6.1676
  752.2500    18.5215    42.9594      .0821     2.1420    59.4964     6.2404
  752.3750    18.5664    43.4086      .0859     2.1385    60.4822     6.5058
  752.5000    18.6112    44.1909      .0899     2.1363    61.7828     6.7952
  752.6250    18.6534    45.5360      .0939     2.1352    63.0263     7.0846
  752.7500    18.6940    46.0814      .0979     2.1351    63.6051     7.3739
  752.8750    18.7344    45.3834      .0990     2.1349    63.3642     7.6633
  753.0000    18.7747    44.0016      .0948     2.1334    62.9109     7.9527
  753.1250    18.8151    43.1096      .0888     2.1313    63.2375     8.2420
  753.2500    18.8526    43.1702      .0867     2.1278    64.5645     8.5314
  753.3750    18.8764    43.9603      .0942     2.1229    66.4635     8.8208
  753.5000    18.8916    44.9282      .1008     2.1182    68.0865     9.1101
  753.6250    18.9014    45.8533      .1018     2.1164    68.6793     9.3995
  753.7500    18.8962    45.9415      .1005     2.1170    67.8659     9.6889
  753.8750    18.8852    45.2707      .0979     2.1181    66.3176     9.9783
  754.0000    18.8707    44.4541      .0901     2.1186    64.1527    10.2676
  754.1250    18.8549    43.7392      .0806     2.1177    61.9939    10.5570
  754.2500    18.8390    43.2244      .0715     2.1147    60.6978    10.8464
  754.3750    18.8231    43.0091      .0709     2.1103    60.6185    11.1357
  754.5000    18.8093    43.3911      .0763     2.1050    61.5993    11.4251
  754.6250    18.8058    43.9981      .0829     2.1008    63.2915    11.7145
  754.7500    18.8098    44.5266      .0919     2.0996    65.3031    12.0039
  754.8750    18.8148    44.6288      .1029     2.0993    66.9328    12.2932
  755.0000    18.8251    44.3580      .1074     2.1018    68.2565    12.5826
  755.1250    18.8499    43.6251      .1036     2.1050    69.2519    12.8720
  755.2500    18.8744    42.4502      .0984     2.1066    69.5718    13.1613
  755.3750    18.8909    40.9011      .0937     2.1051    69.5975    13.4507
  755.5000    18.9042    39.3804      .0899     2.1018    69.3991    13.7402
  755.6250    18.9094    38.2605      .0872     2.0983    68.7895    14.0296
  755.7500    18.8890    37.7912      .0874     2.0954    68.2634    14.3190
  755.8750    18.8629    38.3842      .0909     2.0930    67.7782    14.6085
  756.0000    18.8430    39.7697      .0972     2.0909    67.1286    14.8979
  756.1250    18.8415    41.0916      .0988     2.0893    66.2368    15.1873
  756.2500    18.8488    41.8237      .0952     2.0871    65.0671    15.4768
  756.3750    18.8592    42.2827      .0912     2.0842    64.8746    15.7662
  756.5000    18.8728    42.7730      .0888     2.0812    65.6684    16.0556
  756.6250    18.8825    43.7376      .0874     2.0784    67.5815    16.3452
  756.7500    18.8681    45.0207      .0860     2.0759    70.1245    16.6346
  756.8750    18.8280    45.9426      .0841     2.0735    72.2994    16.9240
  757.0000    18.7789    45.9950      .0820     2.0715    74.2549    17.2135
  757.1250    18.7285    45.3199      .0799     2.0708    75.8970    17.5029
  757.2500    18.6781    44.5558      .0777     2.0719    77.2124    17.7924
  757.3750    18.6277    44.4405      .0760     2.0744    78.3377    18.0818
  757.5000    18.6022    45.3161      .0758     2.0790    78.9099    18.3713
  757.6250    18.6140    46.2030      .0763     2.0834    78.4299    18.5651
  757.7500    18.6356    46.3761      .0767     2.0864    77.2995    18.4623
  757.8750    18.6578    44.7677      .0767     2.0879    75.9145    18.2681
  758.0000    18.6764    41.4820      .0762     2.0884    74.8309    18.0739
  758.1250    18.6761    38.6556      .0756     2.0889    74.9862    17.8797
  758.2500    18.6674    37.1449      .0753     2.0906    75.4953    17.6856
