~VERSION INFORMATION
VERS.                                                 2.0:   CWLS Log ASCII Standard-VERSION 2.0
WRAP.                                                  NO:   One line per depth step
~Well Information Block
STRT.M                                           485.3750:   Top Depth
STOP.M                                          4311.3750:   Bottom Depth
STEP.M                                             .12500:   Depth Increment
NULL.                                            -999.250:   Null Value
FLD .                                            SLEIPNER:   Field Name
WELL.                                              15/8-1:   NAME
WBN .                                              15/8-1:   WELLBORE
NATI.                                                 NOR:   COUNTRY
CTRY.                                                 NOR:   COUNTRY
COMP.                                             STATOIL:   OPERATOR
PROV.                                           NORTH SEA:   PROVINCE
COUN.                                    GLOMAR BISCAY II:   RIG NAME
SPUD.                                          1981/07/18:   SPUD DATE
LATI.                                       58 21 48.10 N:   SURF. LATITUDE
LONG.                                        1 34 22.31 E:   SURF. LONGITUDE
PBWE.                                              15/8-1:   PB WELL ID
APIN.                                              15/8-1:   PB WELLBORE ID
PBWS.                                                 all:   PB WELL NAME SET
~PARAMETER INFORMATION (log)
LNAM.                              CDL/CNL/GR  COMPOSITED:   NAME
LTYP.                                         DEPTH MATCH:   LOG TYPE
LSRV.                                            DEN/NEUT:   LOG SERVICE
LSOU.                                             SPT/NPD:   LOG SOURCE
LVSN.                                                   1:   LOG VERSION
BHIS.                                                   R:   BRIEF HISTORY
FHIS.                                             RAW-LIS:   FULL HISTORY
LCNM.                                                  DA:   LOGGING CONTRACTOR
TOOL.                             CDL/CNL/GR (COMPOSITED):   TOOL STRING
~Curve Information Block
#MNEM.UNIT                                        API CODE    No Description
#=========                                        ========    == ===========
DEPT.M                                       00 001 00 00:     1  DEPTH
CAL.IN                                                   :     2  Caliper
CN.%                                                     :     3  Neutron Porosity
CORR.G/CC                                                :     4  Density Correction
DEN.G/CC                                                 :     5  Bulk Density
GR.GAPI                                                  :     6  Gamma Ray
TEN.LB                                                   :     7  Cable Tension
~ASCII
# ...
 1759.3750    15.2551    39.0502      .1044     2.1830    67.6068    26.4004
 1759.5000    15.2609    40.2068      .1026     2.1856    66.2698    26.3509
 1759.6250    15.2640    41.6577      .1005     2.1886    65.2791    26.3014
 1759.7500    15.2497    43.3382      .0983     2.1912    65.0829    26.2519
 1759.8750    15.2221    44.4342      .0980     2.1931    65.8389    26.2024
 1760.0000    15.1824    44.3882      .0999     2.1943    66.6612    26.1529
 1760.1250    15.1400    43.3954      .1027     2.1950    67.3821    26.1035
 1760.2500    15.1018    41.8007      .1045     2.1946    67.8220    26.0540
 1760.3750    15.0636    39.8076      .1053     2.1940    67.8874    26.0045
 1760.5000    15.0204    37.9737      .1064     2.1927    67.7896    25.9549
 1760.6250    14.9785    36.6458      .1076     2.1919    67.6559    25.9055
 1760.7500    14.9554    35.9281      .1078     2.1912    67.6538    25.8560
 1760.8750    14.9606    35.8330      .1082     2.1905    68.0429    25.8065
 1761.0000    14.9674    36.0882      .1111     2.1898    68.6479    25.7570
 1761.1250    14.9528    36.6337      .1156     2.1895    69.2914    25.7075
 1761.2500    14.9260    37.7237      .1197     2.1883    70.4938    25.6679
 1761.3750    14.8942    38.9240      .1236     2.1872    71.6540    25.7755
 1761.5000    14.8519    39.7048      .1264     2.1860    72.3822    26.0897
 1761.6250    14.8015    40.1778      .1254     2.1833    72.6791    26.4379
 1761.7500    14.7555    40.4172      .1192     2.1806    72.3084    26.7864
 1761.8750    14.7175    40.8105      .1114     2.1801    71.7092    27.1347
 1762.0000    14.6977    41.5994      .1061     2.1807    71.0925    27.4833
 1762.1250    14.7080    41.9984      .1053     2.1822    70.4706    27.8316
 1762.2500    14.7380    41.3026      .1075     2.1850    69.9586    28.1800
 1762.3750    14.7798    40.2767      .1090     2.1879    70.2691    28.5284
 1762.5000    14.8237    39.5088      .1063     2.1905    71.4371    28.8769
 1762.6250    14.8565    39.1924      .1007     2.1932    72.4227    29.2252
 1762.7500    14.8706    39.6226      .0948     2.1978    72.5637    29.5737
 1762.8750    14.8736    40.6416      .0898     2.2038    72.4990    29.9220
 1763.0000    14.8502    41.8059      .0900     2.2199    72.2190    30.2706
 1763.1250    14.7961    42.0012      .0974     2.2492    71.7549    30.6188
 1763.2500    14.7381    41.3033      .1079     2.2802    70.6328    30.9673
 1763.3750    14.6958    40.4531      .1181     2.3123    68.0527    31.3156
 1763.5000    14.6649    39.5957      .1243     2.3310    64.6735    31.6642
 1763.6250    14.6405    38.6206      .1248     2.3271    61.9082    32.0125
 1763.7500    14.6244    37.7593      .1229     2.3119    60.6835    32.3609
 1763.8750    14.6110    37.3405      .1215     2.2730    62.2436    32.7092
 1764.0000    14.5974    37.4625      .1227     2.2457    65.4164    33.0578
 1764.1250    14.5831    38.0882      .1259     2.2320    68.9642    33.4061
 1764.2500    14.5684    38.7897      .1311     2.2279    71.0489    33.7546
 1764.3750    14.5543    38.8944      .1372     2.2259    70.5794    34.0684
 1764.5000    14.5442    38.0010      .1427     2.2231    69.3135    33.7373
 1764.6250    14.5409    36.8321      .1450     2.2211    68.0440    32.1948
 1764.7500    14.5409    36.0559      .1430     2.2178    67.6741    30.3503
 1764.8750    14.5410    35.7949      .1392     2.2155    68.3059    28.5061
 1765.0000    14.5412    36.0988      .1351     2.2148    69.0018    26.6626
 1765.1250    14.5413    36.8439      .1324     2.2165    69.6896    24.8192
 1765.2500    14.5424    37.5651      .1321     2.2197    70.0488    22.9749
 1765.3750    14.5455    37.8281      .1328     2.2243    69.7397    21.1306
 1765.5000    14.5500    37.8547      .1328     2.2289    69.0334    19.2871
 1765.6250    14.5546    38.0599      .1316     2.2335    68.3401    17.4437
 1765.7500    14.5597    38.6281      .1284     2.2378    67.4702    15.6123
 1765.8750    14.5662    39.4122      .1245     2.2416    66.5485    14.1673
 1766.0000    14.5747    40.1690      .1209     2.2453    65.6861    14.2388
 1766.1250    14.5832    40.8599      .1178     2.2488    65.2328    14.6419
 1766.2500    14.5907    41.2607      .1162     2.2515    65.0241    15.0452
 1766.3750    14.5964    41.1599      .1168     2.2540    64.8815    15.4484
 1766.5000    14.5930    41.0392      .1192     2.2565    65.0421    15.8515
 1766.6250    14.5789    41.2548      .1225     2.2589    65.1847    16.2546
 1766.7500    14.5610    41.8173      .1255     2.2608    65.1879    16.6578
 1766.8750    14.5444    43.0416      .1255     2.2617    65.0961    17.0611
 1767.0000    14.5315    44.8892      .1210     2.2622    65.2045    17.4641
 1767.1250    14.5199    46.6311      .1154     2.2631    66.0147    17.8672
 1767.2500    14.5086    47.6638      .1102     2.2642    67.2401    18.2705
 1767.3750    14.4981    47.0168      .1071     2.2660    68.4942    18.6738
 1767.5000    14.4896    44.8413      .1095     2.2697    69.7180    19.0768
 1767.6250    14.4877    42.0412      .1176     2.2745    70.5941    19.4799
 1767.7500    14.4969    38.9856      .1283     2.2792    70.1429    19.8831
 1767.8750    14.5126    37.3594      .1377     2.2858    68.7759    20.2864
 1768.0000    14.5436    37.2290      .1453     2.2926    67.2609    20.6894
 1768.1250    14.6090    37.7828      .1511     2.3045    65.7327    21.0926
 1768.2500    14.7410    39.0989      .1530     2.3178    64.3863    21.4958
 1768.3750    14.9239    40.4329      .1486     2.3305    62.9979    21.8991
 1768.5000    15.1013    42.7095      .1418     2.3393    60.1253    22.3006
 1768.6250    15.2649    43.9720      .1398     2.3347    54.8463    22.5809
 1768.7500    15.4157    43.6443      .1435     2.3157    50.3096    22.4333
 1768.8750    15.5009    42.5766      .1505     2.2712    46.5409    22.1124
 1769.0000    15.4663    41.9288      .1526     2.2202    45.5952    21.7918
 1769.1250    15.3662    42.2680      .1428     2.1852    46.1936    21.4710
 1769.2500    15.1971    43.5727      .1242     2.1640    48.2942    21.1503
 1769.3750    15.0128    45.4868      .1051     2.1644    51.8288    20.8264
 1769.5000    14.9087    46.7933      .0927     2.1713    55.2232    20.5015
 1769.6250    14.8416    46.6032      .0842     2.1859    57.6570    20.1767
 1769.7500    14.7919    44.5010      .0787     2.1975    59.8664    19.8516
 1769.8750    14.7568    41.1985      .0754     2.2007    62.3258    19.5267
 1770.0000    14.7037    38.7247      .0761     2.2007    64.9319    19.2018
 1770.1250    14.6288    37.6893      .0799     2.2001    67.4535    18.8770
 1770.2500    14.5536    37.7616      .0849     2.1982    69.3678    18.5521
 1770.3750    14.5177    38.4118      .0902     2.1952    70.3775    18.2273
 1770.5000    14.5336    39.5919      .0938     2.1924    70.6534    17.9024
 1770.6250    14.5451    40.9091      .0930     2.1894    70.8445    17.5774
 1770.7500    14.5414    42.7550      .0900     2.1869    71.2346    17.2524
 1770.8750    14.5106    44.2388      .0881     2.1868    71.8613    16.9276
 1771.0000    14.4525    44.9113      .0906     2.1882    72.9565    16.6027
 1771.1250    14.3829    45.0861      .0954     2.1901    74.1152    16.2779
 1771.2500    14.3018    44.5170      .0981     2.1923    75.2716    15.9530
 1771.3750    14.2086    43.0769      .0968     2.1948    76.3961    15.6282
 1771.5000    14.1363    40.8043      .0960     2.1992    76.5924    15.3030
 1771.6250    14.1100    38.7941      .0979     2.2037    75.4933    14.9782
 1771.7500    14.1046    37.8499      .1007     2.2060    74.1375    14.6533
 1771.8750    14.0981    38.0759      .1011     2.2062    72.7919    14.3285
 1772.0000    14.1109    39.3128      .0975     2.2058    71.8017    14.0036
 1772.1250    14.1495    40.9924      .0935     2.2048    71.8567    13.6788
 1772.2500    14.1854    42.2062      .0939     2.2029    72.6762    13.3539
