~VERSION INFORMATION
VERS.                                                 2.0:   CWLS Log ASCII Standard-VERSION 2.0
WRAP.                                                  NO:   One line per depth step
~Well Information Block
STRT.M                                           472.3364:   Top Depth
STOP.M                                          3124.0964:   Bottom Depth
STEP.M                                             .15240:   Depth Increment
NULL.                                            -999.250:   Null Value
FLD .                                      SLEIPNER-THETA:   Field Name
WELL.                                             15/9-17:   NAME
WBN .                                             15/9-17:   WELLBORE
NATI.                                                 NOR:   COUNTRY
CTRY.                                                 NOR:   COUNTRY
COMP.                                             STATOIL:   OPERATOR
PROV.                                                   ?:   PROVINCE
COUN.                                       WEST VANGUARD:   RIG NAME
SPUD.                                          1982/12/09:   SPUD DATE
LATI.                                       58 26 44.19 N:   SURF. LATITUDE
LONG.                                        1 56 53.58 E:   SURF. LONGITUDE
PBWE.                                             15/9-17:   PB WELL ID
APIN.                                             15/9-17:   PB WELLBORE ID
PBWS.                                                 all:   PB WELL NAME SET
~PARAMETER INFORMATION (log)
LNAM.                             LDT/CNL/NGT  COMPOSITED:   NAME
LTYP.                                         DEPTH MATCH:   LOG TYPE
LSRV.                                           LATEROLOG:   LOG SERVICE
LSOU.                                             SPT/NPD:   LOG SOURCE
LVSN.                                                   1:   LOG VERSION
BHIS.                                                   R:   BRIEF HISTORY
FHIS.                                             RAW-LIS:   FULL HISTORY
LCNM.                                        SCHLUMBERGER:   LOGGING CONTRACTOR
TOOL.                            LDT/CNL/NGT (COMPOSITED):   TOOL STRING
~Curve Information Block
#MNEM.UNIT                                        API CODE    No Description
#=========                                        ========    == ===========
DEPT.M                                       00 001 00 00:     1  DEPTH
CALI.IN                                                  :     2  Caliper
CGR.GAPI                                                 :     3  Gamma Ray
CS.                                                      :     4  Cable Speed
DRHO.G/CC                                                :     5  Bulk density correction
GR.GAPI                                                  :     6  Gamma Ray
NPHI.%                                                   :     7  Neutron porosity
PEF.B/E                                                  :     8  Photo-electric factor
POTA.                                                    :     9  Potassium
RHOB.G/CC                                                :    10  Bulk density
SGR.GAPI                                                 :    11  Gamma Ray
TENS.LB                                                  :    12  Cable Tension
THOR.PPM                                                 :    13  Thorium
URAN.PPM                                                 :    14  Uranium
~ASCII
# ...
 2944.8740     8.6328    50.8592  -999.2500      .0000   102.8800    40.9645  -999.2500      .0142     2.5195    59.0216  3235.8335     6.3635      .9920
 2945.0264     8.6328    48.4166  -999.2500      .0044   102.8800    40.5719  -999.2500      .0166     2.5176    57.5588  3263.8936     5.7876     1.1095
 2945.1788     8.6412    50.0550  -999.2500      .0044   102.8800    39.9359  -999.2500      .0161     2.5157    56.8952  3274.4282     5.5577      .8322
 2945.3312     8.7109    49.0663  -999.2500      .0073   102.8800    39.3301  -999.2500      .0151     2.5273    55.5655  3268.1748     5.9257      .7895
 2945.4836     8.7187    49.4715  -999.2500      .0010   102.8800    42.1692  -999.2500      .0161     2.5293    55.8677  3252.3618     5.9081      .7769
 2945.6360     8.7032    49.8025  -999.2500     -.0030   102.8800    39.8253  -999.2500      .0161     2.5313    54.9745  3241.0068     6.1829      .6303
 2945.7884     8.7189    52.4560  -999.2500     -.0069   102.8800    37.4800  -999.2500      .0156     2.5313    55.6604  3236.6479     6.0842      .3898
 2945.9408     8.7265    50.4534  -999.2500     -.0092   102.8800    34.3834  -999.2500      .0166     2.5274    56.3686  3244.5044     6.3524      .7160
 2946.0932     8.7188    52.8322  -999.2500     -.0005   102.8800    35.7068  -999.2500      .0161     2.5391    60.1804  3254.8765     6.4825      .8897
 2946.2456     8.7266    51.0172  -999.2500      .0025   102.8800    37.8551  -999.2500      .0161     2.5352    58.9966  3252.8237     6.7805      .9687
 2946.3980     8.7265    53.6648  -999.2500      .0073   102.8800    39.8974  -999.2500      .0161     2.5370    58.4411  3247.7617     6.0555      .5781
 2946.5504     8.7188    50.0723  -999.2500      .0078   102.8800    40.5795  -999.2500      .0166     2.5273    54.1127  3246.5181     6.1789      .4915
 2946.7028     8.7188    51.2177  -999.2500      .0088   102.8800    41.0086  -999.2500      .0161     2.5273    52.5790  3250.8491     5.5967      .1661
 2946.8552     8.7188    51.0715  -999.2500      .0087   102.8800    40.0966  -999.2500      .0181     2.5313    50.7305  3253.7100     5.4439     -.0417
 2947.0076     8.7188    52.1190  -999.2500      .0005   102.8800    41.1655  -999.2500      .0190     2.5313    52.1520  3253.6489     5.2363      .0036
 2947.1600     8.7189    51.3830  -999.2500     -.0044   102.8800    41.6061  -999.2500      .0190     2.5371    51.6480  3253.4663     5.5328      .0322
 2947.3124     8.7266    52.6392  -999.2500     -.0078   102.8800    42.2338  -999.2500      .0176     2.5391    50.4128  3253.2837     5.7282     -.2719
 2947.4648     8.7265    54.8294  -999.2500     -.0029   102.8800    41.9019  -999.2500      .0161     2.5469    51.4800  3253.1006     6.5835     -.4051
 2947.6172     8.7188    52.6031  -999.2500     -.0030   102.8800    42.9737  -999.2500      .0166     2.5448    53.2092  3252.9185     7.4170      .0729
 2947.7696     8.7188    58.8107  -999.2500     -.0063   102.8800    43.6853  -999.2500      .0161     2.5332    56.5023  3252.8643     7.8650     -.2797
 2947.9220     8.7188    58.5613  -999.2500     -.0035   102.8800    41.7112  -999.2500      .0161     2.5351    56.8070  3257.3779     8.5526     -.2133
 2948.0744     8.7266    62.3135  -999.2500     -.0088   102.8800    37.1388  -999.2500      .0176     2.5235    60.0465  3272.0322     8.2342     -.2754
 2948.2268     8.7265    62.4126  -999.2500     -.0074   102.8800    34.7715  -999.2500      .0195     2.5312    61.9963  3278.4941     8.2063     -.0503
 2948.3792     8.7188    67.0660  -999.2500     -.0136   102.8800    35.4630  -999.2500      .0186     2.5176    65.3725  3264.4468     8.7001     -.2100
 2948.5316     8.7266    67.3623  -999.2500     -.0024   102.8800    37.2111  -999.2500      .0200     2.5194    65.0379  3252.5215     8.2278     -.2828
 2948.6840     8.7266    55.6212  -999.2500     -.0029   102.8800    37.8364  -999.2500      .0181     2.5099    61.1242  3255.4736     6.4313      .6685
 2948.8364     8.7266    55.0056  -999.2500      .0004   102.8800    36.9758  -999.2500      .0161     2.5176    56.1662  3262.4214     6.0797      .1406
 2948.9888     8.7266    51.0772  -999.2500     -.0078   102.8800    38.9878  -999.2500      .0166     2.5216    52.7936  3270.0264     6.3286      .2073
 2949.1412     8.7267    53.2657  -999.2500     -.0054   102.8800    42.5517  -999.2500      .0161     2.5391    54.7472  3260.2046     6.4133      .1797
 2949.2936     8.7421    51.3920  -999.2500     -.0127   102.8800    45.3547  -999.2500      .0161     2.5352    54.4060  3234.5459     6.8004      .3665
 2949.4460     8.7326    53.4695  -999.2500     -.0107   102.8800    44.5683  -999.2500      .0151     2.5391    54.3735  3221.6011     6.7406      .1073
 2949.5984     8.4527    49.6970  -999.2500     -.0097   102.8800    43.1220  -999.2500      .0161     2.5371    50.3505  3237.4810     6.4880      .0808
 2949.7508     8.3981    50.8456  -999.2500     -.0014   102.8800    44.0052  -999.2500      .0161     2.5449    51.1839  3257.3569     6.4543      .0434
 2949.9032     8.3594    54.2480  -999.2500      .0044   102.8800    45.1522  -999.2500      .0171     2.5488    54.0924  3253.5396     7.0952     -.0195
 2950.0556  -999.2500    58.7710  -999.2500  -999.2500   102.8800    42.9920  -999.2500      .0176     2.5449    58.6923  3244.7378     8.5329     -.0099
 2950.2080  -999.2500    62.0581  -999.2500  -999.2500   102.8800    38.9462  -999.2500      .0181  -999.2500    64.3463  3259.0693     8.7878      .2747
 2950.3604  -999.2500    66.2800  -999.2500  -999.2500   102.8800    36.0253  -999.2500      .0190  -999.2500    69.5421  3277.4014     9.7914      .3969
 2950.5128  -999.2500    70.9595  -999.2500  -999.2500   102.8800    34.5187  -999.2500      .0195  -999.2500    76.0945  3274.9028    10.1471      .6190
 2950.6652  -999.2500    73.6210  -999.2500  -999.2500   102.8800    34.2177  -999.2500      .0205  -999.2500    80.0025  3254.5298    10.0414      .7775
 2950.8176  -999.2500    73.1520  -999.2500  -999.2500   102.8800    32.8044  -999.2500      .0210  -999.2500    80.3100  3229.9165    10.4047      .8701
 2950.9700  -999.2500    76.4536  -999.2500  -999.2500   102.8800    31.7411  -999.2500      .0205  -999.2500    79.8956  3231.9424    10.2015      .4179
 2951.1224  -999.2500    70.7120  -999.2500  -999.2500   102.8800    32.1431  -999.2500      .0200  -999.2500    74.6074  3262.9033     9.9749      .4717
 2951.2748  -999.2500    74.4360  -999.2500  -999.2500   102.8800    34.3507  -999.2500      .0205  -999.2500    71.8634  3270.0210     9.7602     -.3122
 2951.4272  -999.2500    74.1186  -999.2500  -999.2500   102.8800    38.2212  -999.2500      .0220  -999.2500    70.0814  3245.9868    10.1360     -.4872
 2951.5796  -999.2500    73.2111  -999.2500  -999.2500   102.8800    44.0034  -999.2500      .0235  -999.2500    72.9981  3256.6997    10.6010     -.0271
 2951.7320  -999.2500    86.4989  -999.2500  -999.2500   102.8800    45.4422  -999.2500      .0269  -999.2500    82.3811  3310.1704    11.6701     -.5006
 2951.8844  -999.2500    78.6271  -999.2500  -999.2500   102.8800    43.3124  -999.2500      .0269  -999.2500    90.8826  3349.2852    10.4455     1.4801
 2952.0368  -999.2500    86.5525  -999.2500      .1120   102.8800    37.5177  -999.2500      .0269  -999.2500    99.5120  3333.4487    10.5190     1.5715
 2952.1892     9.3719    85.2535  -999.2500      .1315   102.8800    33.6011     6.6267      .0288  -999.2500   100.9940  3283.9404     9.9077     1.9093
 2952.3416     8.9822    85.6850  -999.2500      .1540   102.8800    28.3977     6.8273      .0283  -999.2500   100.2350  3219.3926    10.1243     1.7664
 2952.4940     8.7090    85.2845  -999.2500      .2391   102.8800    25.8734     6.2506      .0259     2.4763    98.3582  3155.2275    10.0196     1.5896
 2952.6464     8.4123    80.8966  -999.2500      .2097   102.8800    25.0038     6.9424      .0269     2.4253    95.7684  3092.3232     9.6022     1.8053
