~VERSION INFORMATION
VERS.                                                 2.0:   CWLS Log ASCII Standard-VERSION 2.0
WRAP.                                                  NO:   One line per depth step
~Well Information Block
STRT.M                                           472.3364:   Top Depth
STOP.M                                          3124.0964:   Bottom Depth
STEP.M                                             .15240:   Depth Increment
NULL.                                            -999.250:   Null Value
FLD .                                      SLEIPNER-THETA:   Field Name
WELL.                                             15/9-17:   NAME
WBN .                                             15/9-17:   WELLBORE
NATI.                                                 NOR:   COUNTRY
CTRY.                                                 NOR:   COUNTRY
COMP.                                             STATOIL:   OPERATOR
PROV.                                                   ?:   PROVINCE
COUN.                                       WEST VANGUARD:   RIG NAME
SPUD.                                          1982/12/09:   SPUD DATE
LATI.                                       58 26 44.19 N:   SURF. LATITUDE
LONG.                                        1 56 53.58 E:   SURF. LONGITUDE
PBWE.                                             15/9-17:   PB WELL ID
APIN.                                             15/9-17:   PB WELLBORE ID
PBWS.                                                 all:   PB WELL NAME SET
~PARAMETER INFORMATION (log)
LNAM.                             LDT/CNL/NGT  COMPOSITED:   NAME
LTYP.                                         DEPTH MATCH:   LOG TYPE
LSRV.                                           LATEROLOG:   LOG SERVICE
LSOU.                                             SPT/NPD:   LOG SOURCE
LVSN.                                                   1:   LOG VERSION
BHIS.                                                   R:   BRIEF HISTORY
FHIS.                                             RAW-LIS:   FULL HISTORY
LCNM.                                        SCHLUMBERGER:   LOGGING CONTRACTOR
TOOL.                            LDT/CNL/NGT (COMPOSITED):   TOOL STRING
~Curve Information Block
#MNEM.UNIT                                        API CODE    No Description
#=========                                        ========    == ===========
DEPT.M                                       00 001 00 00:     1  DEPTH
CALI.IN                                                  :     2  Caliper
CGR.GAPI                                                 :     3  Gamma Ray
CS.                                                      :     4  Cable Speed
DRHO.G/CC                                                :     5  Bulk density correction
GR.GAPI                                                  :     6  Gamma Ray
NPHI.%                                                   :     7  Neutron porosity
PEF.B/E                                                  :     8  Photo-electric factor
POTA.                                                    :     9  Potassium
RHOB.G/CC                                                :    10  Bulk density
SGR.GAPI                                                 :    11  Gamma Ray
TENS.LB                                                  :    12  Cable Tension
THOR.PPM                                                 :    13  Thorium
URAN.PPM                                                 :    14  Uranium
~ASCII
# ...
 1748.2292    12.6754    68.6707   909.4792     -.0137  -999.2500    49.7518     2.6074      .0176     2.0430    75.4019  2253.8271     9.7496      .8942
 1748.3816    13.3721    66.3896   908.9988     -.0103  -999.2500    48.8817     2.5998      .0181     2.0469    75.0936  2243.8804    10.0129     1.0582
 1748.5340    12.4605    68.0507   907.9968     -.0097  -999.2500    50.3387     2.6505      .0190     2.0430    74.1337  2194.3701     9.5008      .8236
 1748.6864    12.2969    66.0697   906.0000     -.0024  -999.2500    49.3177     2.6739      .0186     2.0547    72.1666  2259.4941     9.2361      .6908
 1748.8388    12.2660    65.8115   903.5048      .0025  -999.2500    49.8456     2.7147      .0166     2.0547    71.6156  2184.3896     9.4299      .6438
 1748.9912    12.2660    65.2562   902.4960      .0054  -999.2500    48.1012     2.7012      .0176     2.0586    73.3721  2229.6885     9.7020      .9750
 1749.1436    12.2661    66.5014   900.0048      .0015  -999.2500    49.7009     2.6933      .0190     2.0469    76.0849  2190.1274     9.6943     1.2210
 1749.2960    12.2970    68.1825   898.9984     -.0029  -999.2500    47.8097     2.6679      .0195     2.0430    78.0786  2190.0767     9.3694     1.2435
 1749.4484    12.3050    68.3090   897.4979     -.0024  -999.2500    49.9106     2.6213      .0191     2.0352    79.1547  2213.8911     9.7368     1.3546
 1749.6008    12.3132    67.5693   895.5016     -.0020  -999.2500    52.0475     2.6720      .0215     2.0332    79.6239  2209.9619     8.7688     1.4874
 1749.7532    12.3520    68.9275   893.9979     -.0034  -999.2500    51.3207     2.6914      .0210     2.0293    79.6102  2193.9551     8.7821     1.3589
 1749.9056    12.3520    67.8193   891.9968     -.0059  -999.2500    51.9976     2.6911      .0210     2.0293    79.0948  2160.0444     9.0073     1.3456
 1750.0580    12.3667    68.8067   888.9991     -.0068  -999.2500    50.6451     2.5937      .0200     2.0313    79.2187  2140.3159     9.0709     1.3031
 1750.2104    12.2660    68.2542   885.0048     -.0063  -999.2500    53.7940     2.5725      .0205     2.0391    79.8100  2213.8784     9.3352     1.3734
 1750.3628    12.2660    68.9896   882.5051     -.0063  -999.2500    50.6784     2.6210      .0195     2.0430    80.9553  2249.4414     9.3688     1.5652
 1750.5152    12.2660    66.7081   880.9984     -.0010  -999.2500    48.9207     2.5858      .0190     2.0527    81.0370  2120.6514     9.9033     1.7334
 1750.6676    12.2660    70.7807   879.0048     -.0024  -999.2500    47.2660     2.5543      .0190     2.0469    80.5036  2193.8198     9.5314     1.2954
 1750.8200    12.2660    66.0208   878.0048     -.0025  -999.2500    47.2819     2.4297      .0200     2.0391    78.7528  2229.7251     9.1267     1.5005
 1750.9724    12.2662    67.6766   878.4963     -.0068  -999.2500    50.5815     2.4297      .0186     2.0352    77.6177  2180.3398     9.2484     1.2500
 1751.1248    12.3361    66.3827   878.0040     -.0058  -999.2500    49.1696     2.4300      .0200     2.0392    77.0661  2223.7153     8.9160     1.2475
 1751.2772    12.3519    66.9962   878.5000     -.0005  -999.2500    49.0618     2.5023      .0195     2.0566    77.8864  2190.0767     9.0694     1.3471
 1751.4296    12.3125    66.4385   878.9979     -.0005  -999.2500    45.9076     2.5981      .0200     2.0566    78.8260  2180.0527     8.9564     1.5876
 1751.5820    12.1800    66.1346   878.9968     -.0044  -999.2500    48.2919     2.6957      .0186     2.0507    78.4902  2184.0190     9.6434     1.5204
 1751.7344    12.1800    68.7961   878.0060     -.0073  -999.2500    48.4840     2.7716      .0200     2.0352    77.8002  2193.9790     8.7860     1.1124
 1751.8868    12.1800    67.3772   878.5032     -.0039  -999.2500    47.9953     2.8066      .0200     2.0352    77.3608  2200.1211     9.1015     1.2072
 1752.0392    12.1802    66.6304   879.9877      .0029  -999.2500    47.1724     2.8025      .0190     2.0410    77.2488  2243.6201     9.3975     1.3512
 1752.1916    12.2421    67.3754   878.0063      .0034  -999.2500    48.5313     2.7261      .0186     2.0410    76.9725  2180.3447     9.4836     1.1249
 1752.3440    12.2660    68.2373   878.0032      .0068  -999.2500    47.7590     2.6286      .0186     2.0449    77.3723  2223.7476     9.3371     1.1620
 1752.4964    12.2660    65.3940   878.9983      .0063  -999.2500    49.3137     2.5392      .0200     2.0449    77.5197  2199.9810     9.5071     1.4784
 1752.6488    12.2660    68.4217   879.5044      .0039  -999.2500    48.5898     2.5646      .0181     2.0449    77.7375  2170.3237     9.4610     1.1581
 1752.8012    12.2660    67.3123   881.4935     -.0049  -999.2500    50.3811     2.6098      .0186     2.0332    78.3251  2233.7314     9.4315     1.3238
 1752.9536    12.2660    66.1357   881.5000     -.0103  -999.2500    48.3416     2.6914      .0186     2.0234    79.5298  2214.0669     9.9505     1.6702
 1753.1060    12.2661    67.9883   881.5000     -.0132  -999.2500    48.8172     2.6969      .0181     2.0215    80.0143  2210.0288     9.7969     1.5798
 1753.2584    12.2812    66.9397   881.4952     -.0161  -999.2500    46.1475     2.5916      .0181     2.0176    78.7557  2214.1021     9.6398     1.4136
 1753.4108    12.3520    66.5598   880.0020     -.0141  -999.2500    47.5557     2.5150      .0181     2.0273    77.7081  2249.7603     9.2126     1.3946
 1753.5632    12.3520    65.5054   879.0063     -.0097  -999.2500    46.7330     2.3711      .0190     2.0353    76.9848  2220.0000     9.1962     1.3885
 1753.7156    12.3520    66.1098   879.9979     -.0034  -999.2500    47.5750     2.3652      .0176     2.0469    76.1681  2190.1646     9.4453     1.3158
 1753.8680    12.3520    62.9490   880.4952     -.0049  -999.2500    51.5674     2.3542      .0161     2.0430    73.9037  2203.9233     9.6846     1.3435
 1754.0204    12.3520    63.3268   879.5024     -.0073  -999.2500    52.9297     2.5746      .0161     2.0411    70.8341  2194.0591     9.0333      .9801
 1754.1728    12.3520    58.5489   879.0016     -.0088  -999.2500    52.8191     3.3064      .0151     2.0665    67.4134  2200.1211     8.8583     1.0080
 1754.3252    12.3520    59.2456   878.9968     -.0112  -999.2500    50.1413     3.6637      .0151     2.0958    66.1816  2243.6328     8.3448      .7801
 1754.4776    12.3525    58.7826   878.0048     -.0083  -999.2500    48.6858     3.5254      .0171     2.1210    67.9393  2184.3066     8.0426     1.0624
 1754.6300    12.5076    58.7564   878.4995     -.0093  -999.2500    49.8515     2.9310      .0166     2.0878    71.6355  2219.7607     8.8259     1.6262
 1754.7824    12.3911    60.7181   878.9968     -.0044  -999.2500    49.0760     2.7575      .0161     2.0545    75.1022  2190.1914     9.1322     1.8016
 1754.9348    12.4216    62.4814   878.5035     -.0029  -999.2500    49.9042     2.7029      .0156     2.0234    77.1370  2219.9438     9.2584     1.9136
 1755.0872    12.3045    58.9447   879.0000     -.0015  -999.2500    50.5850     2.6363      .0156     2.0176    77.2846  2239.8369     9.6049     2.2112
 1755.2396    12.1800    64.9069   879.5000     -.0020  -999.2500    50.3456     2.5370      .0166     2.0156    77.4919  2214.0508     8.8323     1.6123
 1755.3920    12.1800    61.4244   879.9924     -.0015  -999.2500    51.4644     2.5019      .0171     2.0215    77.2528  2203.9868     9.3644     1.9174
 1755.5444    12.1800    63.1273   878.5051     -.0049  -999.2500    51.3138     2.4882      .0176     2.0273    77.4110  2190.0972     9.0930     1.7693
 1755.6968    12.1800    65.1106   878.9944     -.0044  -999.2500    50.4324     2.4747      .0181     2.0371    77.6541  2209.8530     8.6682     1.5718
 1755.8492    12.1800    63.1334   878.0071     -.0078  -999.2500    48.7727     2.4922      .0181     2.0371    77.2783  2184.2090     9.3481     1.7711
 1756.0016    12.1800    64.2466   879.4951     -.0088  -999.2500    46.8226     2.4943      .0186     2.0352    76.0006  2229.7383     8.7892     1.4920
