~VERSION INFORMATION
VERS.                                                 2.0:   CWLS Log ASCII Standard-VERSION 2.0
WRAP.                                                  NO:   One line per depth step
~Well Information Block
STRT.M                                           472.3364:   Top Depth
STOP.M                                          3124.0964:   Bottom Depth
STEP.M                                             .15240:   Depth Increment
NULL.                                            -999.250:   Null Value
FLD .                                      SLEIPNER-THETA:   Field Name
WELL.                                             15/9-17:   NAME
WBN .                                             15/9-17:   WELLBORE
NATI.                                                 NOR:   COUNTRY
CTRY.                                                 NOR:   COUNTRY
COMP.                                             STATOIL:   OPERATOR
PROV.                                                   ?:   PROVINCE
COUN.                                       WEST VANGUARD:   RIG NAME
SPUD.                                          1982/12/09:   SPUD DATE
LATI.                                       58 26 44.19 N:   SURF. LATITUDE
LONG.                                        1 56 53.58 E:   SURF. LONGITUDE
PBWE.                                             15/9-17:   PB WELL ID
APIN.                                             15/9-17:   PB WELLBORE ID
PBWS.                                                 all:   PB WELL NAME SET
~PARAMETER INFORMATION (log)
LNAM.                             LDT/CNL/NGT  COMPOSITED:   NAME
LTYP.                                         DEPTH MATCH:   LOG TYPE
LSRV.                                           LATEROLOG:   LOG SERVICE
LSOU.                                             SPT/NPD:   LOG SOURCE
LVSN.                                                   1:   LOG VERSION
BHIS.                                                   R:   BRIEF HISTORY
FHIS.                                             RAW-LIS:   FULL HISTORY
LCNM.                                        SCHLUMBERGER:   LOGGING CONTRACTOR
TOOL.                            LDT/CNL/NGT (COMPOSITED):   TOOL STRING
~Curve Information Block
#MNEM.UNIT                                        API CODE    No Description
#=========                                        ========    == ===========
DEPT.M                                       00 001 00 00:     1  DEPTH
CALI.IN                                                  :     2  Caliper
CGR.GAPI                                                 :     3  Gamma Ray
CS.                                                      :     4  Cable Speed
DRHO.G/CC                                                :     5  Bulk density correction
GR.GAPI                                                  :     6  Gamma Ray
NPHI.%                                                   :     7  Neutron porosity
PEF.B/E                                                  :     8  Photo-electric factor
POTA.                                                    :     9  Potassium
RHOB.G/CC                                                :    10  Bulk density
SGR.GAPI                                                 :    11  Gamma Ray
TENS.LB                                                  :    12  Cable Tension
THOR.PPM                                                 :    13  Thorium
URAN.PPM                                                 :    14  Uranium
~ASCII
  472.3364    19.2031  -999.2500  1819.0000     -.5278  -999.2500  -999.2500   522.5000  -999.2500     2.1367    37.6563   915.0000  -999.2500  -999.2500
  472.4888    19.2656  -999.2500  1819.0000     -.5322  -999.2500  -999.2500   154.3750  -999.2500     2.1465    37.4063   935.0000  -999.2500  -999.2500
  472.6412    19.1563  -999.2500  1819.0000     -.5513  -999.2500  -999.2500   352.7500  -999.2500     2.1250    39.0625   890.0000  -999.2500  -999.2500
  472.7936    19.1875  -999.2500  1820.0000     -.5449  -999.2500  -999.2500    41.0000  -999.2500     2.1582    39.0625   870.0000  -999.2500  -999.2500
  472.9460    19.1719  -999.2500  1821.0000     -.5498  -999.2500  -999.2500    40.8438  -999.2500     2.2227    40.0000   870.0000  -999.2500  -999.2500
  473.0984    19.1719  -999.2500  1822.0000     -.5498  -999.2500  -999.2500    27.6406  -999.2500     2.3926    39.6250   860.0000  -999.2500  -999.2500
  473.2508    19.1563  -999.2500  1822.0000     -.6079  -999.2500  -999.2500    28.8906  -999.2500     2.4277    38.9375   840.0000  -999.2500  -999.2500
  473.4032    19.1563  -999.2500  1820.0000     -.5820  -999.2500  -999.2500    30.0625  -999.2500     2.5586    40.5000   850.0000  -999.2500  -999.2500
  473.5556    19.1875  -999.2500  1820.0000     -.5430  -999.2500  -999.2500    65.6875  -999.2500     2.4609    42.5000   890.0000  -999.2500  -999.2500
  473.7080    19.2500  -999.2500  1819.0000     -.4922  -999.2500  -999.2500    88.6250  -999.2500     2.4043    44.6875   860.0000  -999.2500  -999.2500
  473.8604    19.3438  -999.2500  1818.0000     -.5034  -999.2500  -999.2500    83.1250  -999.2500     2.2207    41.0313   895.0000  -999.2500  -999.2500
  474.0128    19.2656  -999.2500  1818.0000     -.5200  -999.2500  -999.2500    35.9688  -999.2500     2.1348    37.3750   880.0000  -999.2500  -999.2500
  474.1652    19.2813  -999.2500  1819.0000     -.5176  -999.2500  -999.2500    38.2500  -999.2500     2.1074    36.5000   865.0000  -999.2500  -999.2500
  474.3176    19.3125  -999.2500  1820.0000     -.5210  -999.2500  -999.2500    37.9063  -999.2500     2.0996    39.0625   855.0000  -999.2500  -999.2500
  474.4700    19.2969  -999.2500  1820.0000     -.5371  -999.2500  -999.2500    42.8125  -999.2500     2.0703    40.5313   860.0000  -999.2500  -999.2500
  474.6224    19.3125  -999.2500  1820.0000     -.5405  -999.2500  -999.2500    36.2187  -999.2500     2.0605    39.1563   885.0000  -999.2500  -999.2500
  474.7748    19.2500  -999.2500  1819.0000     -.5391  -999.2500  -999.2500    48.2812  -999.2500     2.0449    37.7812   885.0000  -999.2500  -999.2500
  474.9272    19.2344  -999.2500  1819.0000     -.5171  -999.2500  -999.2500    71.7500  -999.2500     2.0566    36.4688   835.0000  -999.2500  -999.2500
  475.0796    19.3438  -999.2500  1817.0000     -.5171  -999.2500  -999.2500   249.3750  -999.2500     2.0547    38.8750   860.0000  -999.2500  -999.2500
  475.2320    19.3438  -999.2500  1817.0000     -.5249  -999.2500  -999.2500   144.0000  -999.2500     2.0508    37.9063   925.0000  -999.2500  -999.2500
  475.3844    19.4219  -999.2500  1817.0000     -.5391  -999.2500  -999.2500    84.3125  -999.2500     2.0449    39.4375   910.0000  -999.2500  -999.2500
  475.5368    19.3281  -999.2500  1815.0000     -.5308  -999.2500  -999.2500    41.6250  -999.2500     2.0488    37.0313   875.0000  -999.2500  -999.2500
  475.6892    19.2813  -999.2500  1814.0000     -.5156  -999.2500  -999.2500    42.7500  -999.2500     2.0723    36.0313   845.0000  -999.2500  -999.2500
  475.8416    19.3125  -999.2500  1812.0000     -.5156  -999.2500  -999.2500    46.4375  -999.2500     2.0703    35.4688   820.0000  -999.2500  -999.2500
  475.9940    19.3281  -999.2500  1812.0000     -.5366  -999.2500  -999.2500    45.3125  -999.2500     2.0430    37.3750   900.0000  -999.2500  -999.2500
  476.1464    19.3750  -999.2500  1811.0000     -.5498  -999.2500  -999.2500    46.0937  -999.2500     2.0156    37.3438   890.0000  -999.2500  -999.2500
  476.2988    19.3125  -999.2500  1812.0000     -.5557  -999.2500  -999.2500    41.0937  -999.2500     2.0117    36.1250   915.0000  -999.2500  -999.2500
  476.4512    19.2813  -999.2500  1812.0000     -.5391  -999.2500  -999.2500    60.3438  -999.2500     2.0449    32.7188   945.0000  -999.2500  -999.2500
  476.6036    19.3125  -999.2500  1813.0000     -.5249  -999.2500  -999.2500    55.9375  -999.2500     2.0801    33.4688   915.0000  -999.2500  -999.2500
  476.7560    19.3281  -999.2500  1813.0000     -.5176  -999.2500  -999.2500    70.7500  -999.2500     2.1035    29.3906   875.0000  -999.2500  -999.2500
  476.9084    19.3125  -999.2500  1813.0000     -.5293  -999.2500  -999.2500    46.3750  -999.2500     2.0918    30.4063   850.0000  -999.2500  -999.2500
  477.0608    19.2813  -999.2500  1812.0000     -.5317  -999.2500  -999.2500    70.0625  -999.2500     2.0918    32.1250   890.0000  -999.2500  -999.2500
  477.2132    19.2656  -999.2500  1812.0000     -.5146  -999.2500  -999.2500    43.4688  -999.2500     2.1074    36.8125   905.0000  -999.2500  -999.2500
  477.3656    19.2656  -999.2500  1812.0000     -.4980  -999.2500  -999.2500    38.3750  -999.2500     2.1230    37.8438   895.0000  -999.2500  -999.2500
  477.5180    19.2188  -999.2500  1813.0000     -.5020  -999.2500  -999.2500    25.8281  -999.2500     2.1113    34.9687   890.0000  -999.2500  -999.2500
  477.6704    19.2969  -999.2500  1814.0000     -.5186  -999.2500  -999.2500    24.8906  -999.2500     2.0977    34.0312   870.0000  -999.2500  -999.2500
  477.8228    19.2813  -999.2500  1816.0000     -.5210  -999.2500  -999.2500    40.1250  -999.2500     2.0996    34.5625   820.0000  -999.2500  -999.2500
  477.9752    19.3125  -999.2500  1817.0000     -.5332  -999.2500  -999.2500    64.5625  -999.2500     2.0859    35.5625   860.0000  -999.2500  -999.2500
  478.1276    19.3125  -999.2500  1817.0000     -.5303  -999.2500  -999.2500   154.6250  -999.2500     2.0859    37.1875   865.0000  -999.2500  -999.2500
  478.2800    19.2813  -999.2500  1818.0000     -.5376  -999.2500  -999.2500    90.8750  -999.2500     2.0645    34.4063   875.0000  -999.2500  -999.2500
  478.4324    19.3281  -999.2500  1818.0000     -.5161  -999.2500  -999.2500    97.1875  -999.2500     2.0898    33.8438   910.0000  -999.2500  -999.2500
  478.5848    19.4844  -999.2500  1818.0000     -.5161  -999.2500  -999.2500    74.3125  -999.2500     2.0898    30.4375   905.0000  -999.2500  -999.2500
  478.7372    19.3125  -999.2500  1817.0000     -.5225  -999.2500  -999.2500   138.6250  -999.2500     2.0820    31.3594   885.0000  -999.2500  -999.2500
  478.8896    19.2031  -999.2500  1818.0000     -.5283  -999.2500  -999.2500    57.9375  -999.2500     2.0742    33.0625   865.0000  -999.2500  -999.2500
  479.0420    19.2656  -999.2500  1816.0000     -.5176  -999.2500  -999.2500    61.8437  -999.2500     2.0781    35.2500   865.0000  -999.2500  -999.2500
  479.1944    19.2344  -999.2500  1814.0000     -.4995  -999.2500  -999.2500    40.2188  -999.2500     2.1055    36.7813   880.0000  -999.2500  -999.2500
  479.3468    19.2969  -999.2500  1813.0000     -.4990  -999.2500  -999.2500    49.7813  -999.2500     2.1133    34.9063   945.0000  -999.2500  -999.2500
  479.4992    19.3125  -999.2500  1812.0000     -.5039  -999.2500  -999.2500    46.4062  -999.2500     2.1152    35.8750   900.0000  -999.2500  -999.2500
  479.6516    19.2656  -999.2500  1813.0000     -.4941  -999.2500  -999.2500    38.8438  -999.2500     2.1387    33.7187   935.0000  -999.2500  -999.2500
  479.8040    19.2969  -999.2500  1813.0000     -.4932  -999.2500  -999.2500    35.5000  -999.2500     2.1230    34.1875   920.0000  -999.2500  -999.2500
  479.9564    19.3281  -999.2500  1814.0000     -.4897  -999.2500  -999.2500    41.6250  -999.2500     2.1094    33.1875   885.0000  -999.2500  -999.2500
  480.1088    19.3438  -999.2500  1815.0000     -.5078  -999.2500  -999.2500    41.4375  -999.2500     2.0723    34.1563   850.0000  -999.2500  -999.2500
