~VERSION INFORMATION
VERS.                                                 2.0:   CWLS Log ASCII Standard-VERSION 2.0
WRAP.                                                  NO:   One line per depth step
~Well Information Block
STRT.M                                           472.3364:   Top Depth
STOP.M                                          3124.0964:   Bottom Depth
STEP.M                                             .15240:   Depth Increment
NULL.                                            -999.250:   Null Value
FLD .                                      SLEIPNER-THETA:   Field Name
WELL.                                             15/9-17:   NAME
WBN .                                             15/9-17:   WELLBORE
NATI.                                                 NOR:   COUNTRY
CTRY.                                                 NOR:   COUNTRY
COMP.                                             STATOIL:   OPERATOR
PROV.                                                   ?:   PROVINCE
COUN.                                       WEST VANGUARD:   RIG NAME
SPUD.                                          1982/12/09:   SPUD DATE
LATI.                                       58 26 44.19 N:   SURF. LATITUDE
LONG.                                        1 56 53.58 E:   SURF. LONGITUDE
PBWE.                                             15/9-17:   PB WELL ID
APIN.                                             15/9-17:   PB WELLBORE ID
PBWS.                                                 all:   PB WELL NAME SET
~PARAMETER INFORMATION (log)
LNAM.                             LDT/CNL/NGT  COMPOSITED:   NAME
LTYP.                                         DEPTH MATCH:   LOG TYPE
LSRV.                                           LATEROLOG:   LOG SERVICE
LSOU.                                             SPT/NPD:   LOG SOURCE
LVSN.                                                   1:   LOG VERSION
BHIS.                                                   R:   BRIEF HISTORY
FHIS.                                             RAW-LIS:   FULL HISTORY
LCNM.                                        SCHLUMBERGER:   LOGGING CONTRACTOR
TOOL.                            LDT/CNL/NGT (COMPOSITED):   TOOL STRING
~Curve Information Block
#MNEM.UNIT                                        API CODE    No Description
#=========                                        ========    == ===========
DEPT.M                                       00 001 00 00:     1  DEPTH
CALI.IN                                                  :     2  Caliper
CGR.GAPI                                                 :     3  Gamma Ray
CS.                                                      :     4  Cable Speed
DRHO.G/CC                                                :     5  Bulk density correction
GR.GAPI                                                  :     6  Gamma Ray
NPHI.%                                                   :     7  Neutron porosity
PEF.B/E                                                  :     8  Photo-electric factor
POTA.                                                    :     9  Potassium
RHOB.G/CC                                                :    10  Bulk density
SGR.GAPI                                                 :    11  Gamma Ray
TENS.LB                                                  :    12  Cable Tension
THOR.PPM                                                 :    13  Thorium
URAN.PPM                                                 :    14  Uranium
~ASCII
# ...
 3111.2948     6.0156   115.2632  -999.2500      .0136  -999.2500    27.9266     3.8481      .0381     2.5664   123.3104  2987.1968    13.9085      .9794
 3111.4472     6.0156   117.3116  -999.2500      .0044  -999.2500    27.3833     3.9139      .0366     2.5645   123.3648  2981.4702    14.2872      .7379
 3111.5996     6.0156   117.5576  -999.2500      .0024  -999.2500    25.8756     3.8787      .0371     2.5702   122.5672  2986.9604    14.0074      .6066
 3111.7520     6.0156   117.1920  -999.2500     -.0010  -999.2500    25.3470     3.8436      .0381     2.5605   123.7020  2992.4502    13.9135      .7879
 3111.9044     6.0156   117.5110  -999.2500      .0005  -999.2500    26.1265     3.8066      .0386     2.5625   125.5660  2997.9404    13.8470      .9803
 3112.0568     6.0156   118.8766  -999.2500      .0064  -999.2500    26.5583     3.8049      .0376     2.5606   126.3030  3006.3799    14.2279      .9025
 3112.2092     6.0160   119.6825  -999.2500      .0127  -999.2500    25.9692     3.8243      .0351     2.5684   125.4425  3015.4238    15.6107      .7012
 3112.3616     6.0627   118.7335  -999.2500      .0088  -999.2500    25.0000     3.8335      .0327     2.5645   125.7385  3022.2329    15.8758      .8521
 3112.5140     6.0814   116.6528  -999.2500      .0054  -999.2500    25.0014     3.7725      .0317     2.5685   124.3100  3028.0103    15.9845      .9329
 3112.6664     6.0155   112.7876  -999.2500      .0103  -999.2500    25.1482     3.6806      .0322     2.5742   124.3020  3033.7871    14.0485     1.3914
 3112.8188     6.0001   109.2880  -999.2500      .0147  -999.2500    25.4880     3.8228      .0337     2.5781   123.0668  3034.3354    11.7862     1.6724
 3112.9712     6.0156   105.9060  -999.2500      .0254  -999.2500    25.4924     3.8931      .0307     2.5819   124.1292  3026.0249    10.1056     2.2148
 3113.1236     6.0156   109.1373  -999.2500      .0205  -999.2500    26.1743     3.9613      .0278     2.5742   124.7043  3017.7139     8.3169     1.8911
 3113.2760     6.0156     8.9607  -999.2500      .0224  -999.2500    26.4654     3.7671      .0188     2.5781    17.9055  3016.5649     5.9101     1.0884
 3113.4284     6.0156   -91.4987  -999.2500      .0151  -999.2500    26.5113     3.6991     -.0061     2.5724   -89.4923  3016.3057    -2.6043      .2430
 3113.5808     6.0154  -191.8700  -999.2500      .0131  -999.2500    26.1712     3.6844     -.0298     2.5801  -196.8700  3024.9692   -11.4690     -.6167
 3113.7332     5.9848  -191.8700  -999.2500      .0073  -999.2500    26.0779     3.7775     -.0298     2.5762  -196.8700  3034.6201   -11.4690     -.6167
 3113.8856     6.0315  -191.8700  -999.2500      .0059  -999.2500    26.5658     3.7990     -.0298     2.5780  -196.8700  3020.4287   -11.4690     -.6167
 3114.0380     6.0512  -191.8700  -999.2500      .0049  -999.2500    26.8559     3.8164     -.0298     2.5703  -196.8700  3006.2378   -11.4690     -.6167
 3114.1904     6.1088  -191.8700  -999.2500      .0059  -999.2500    27.0011     3.8257     -.0298     2.5644  -196.8700  2992.0234   -11.4690     -.6167
 3114.3428     6.0156  -191.8700  -999.2500      .0050  -999.2500    26.8541     4.0571     -.0298     2.5527  -196.8700  2977.8325   -11.4690     -.6167
 3114.4952     6.0156  -191.8700  -999.2500      .0163  -999.2500    26.7082     4.4344     -.0298     2.5548  -196.8700  2993.3569   -11.4690     -.6167
 3114.6476     6.0153  -191.8700  -999.2500      .0427  -999.2500    26.6090     4.5309     -.0298     2.5646  -196.8700  3017.2407   -11.4690     -.6167
 3114.8000     5.9766  -191.8700  -999.2500      .0694  -999.2500    26.3682     4.4794     -.0298     2.5819  -196.8700  3041.1626   -11.4690     -.6167
 3114.9524     5.9720  -191.8700  -999.2500      .0748  -999.2500    26.5163     4.3446     -.0298     2.5704  -196.8700  3053.7104   -11.4690     -.6167
 3115.1048     5.8823  -191.8700  -999.2500      .0834  -999.2500    26.8126     3.9624     -.0298     2.5821  -196.8700  3053.4526   -11.4690     -.6167
 3115.2572     5.8284  -191.8700  -999.2500      .0785  -999.2500    27.3921     3.9049     -.0298     2.5879  -196.8700  3053.1943   -11.4690     -.6167
 3115.4096     5.8792  -191.8700  -999.2500      .0604  -999.2500    27.2447     3.6846     -.0298     2.5917  -196.8700  3044.1162   -11.4690     -.6167
 3115.5620     5.9224  -191.8700  -999.2500      .0405  -999.2500    27.0491     3.8393     -.0298     2.5742  -196.8700  3030.4355   -11.4690     -.6167
 3115.7144     5.9995  -191.8700  -999.2500      .0376  -999.2500    26.7589     4.0600     -.0298     2.5742  -196.8700  3016.7544   -11.4690     -.6167
 3115.8668     5.9219  -191.8700  -999.2500      .0445  -999.2500    26.9013     4.2701     -.0298     2.5722  -196.8700  3018.9932   -11.4690     -.6167
 3116.0192     5.9220  -191.8700  -999.2500      .0479  -999.2500    26.5634     4.3366     -.0298     2.5645  -196.8700  3028.7969   -11.4690     -.6167
 3116.1716     5.9376  -191.8700  -999.2500      .0536  -999.2500    26.6067     3.9436     -.0298     2.5663  -196.8700  3038.6162   -11.4690     -.6167
 3116.3240     5.9492  -191.8700  -999.2500      .0413  -999.2500    26.0763     3.7319     -.0298     2.5587  -196.8700  3048.4194   -11.4690     -.6167
 3116.4764     5.9498  -191.8700  -999.2500      .0218  -999.2500    26.3661     3.9123     -.0298     2.5663  -196.8700  3041.6636   -11.4690     -.6167
 3116.6288     6.0156  -191.8700  -999.2500      .0053  -999.2500    26.2741     4.1272     -.0298     2.5526  -196.8700  3027.9824   -11.4690     -.6167
 3116.7812     6.0156  -191.8700  -999.2500      .0015  -999.2500    26.9031     4.4729     -.0298     2.5409  -196.8700  3014.2798   -11.4690     -.6167
 3116.9336     6.0151  -191.8700  -999.2500      .0129  -999.2500    26.7567     4.5076     -.0298     2.5234  -196.8700  3010.3662   -11.4690     -.6167
 3117.0860     5.9450  -191.8700  -999.2500      .0378  -999.2500    26.5611     4.4802     -.0298     2.5255  -196.8700  3011.8506   -11.4690     -.6167
 3117.2384     5.9019  -191.8700  -999.2500      .0714  -999.2500    26.2704     4.4354     -.0298     2.5431  -196.8700  3035.7231   -11.4690     -.6167
 3117.3908     5.8476  -191.8700  -999.2500      .0859  -999.2500    26.3180     4.1771     -.0298     2.5587  -196.8700  3044.2808   -11.4690     -.6167
 3117.5432     5.8403  -191.8700  -999.2500      .0819  -999.2500    26.3176     3.8482     -.0298     2.5663  -196.8700  3031.3052   -11.4690     -.6167
 3117.6956     5.8990  -191.8700  -999.2500      .0643  -999.2500    26.2692     3.6769     -.0298     2.5586  -196.8700  3018.3291   -11.4690     -.6167
 3117.8480     5.9731  -191.8700  -999.2500      .0418  -999.2500    26.1720     3.8165     -.0298     2.5547  -196.8700  3008.8179   -11.4690     -.6167
 3118.0004     6.0156  -191.8700  -999.2500      .0258  -999.2500    26.1720     4.0271     -.0298     2.5587  -196.8700  3008.5586   -11.4690     -.6167
 3118.1528     6.0156  -191.8700  -999.2500      .0175  -999.2500    26.1720     4.0033     -.0298     2.5664  -196.8700  3025.9282   -11.4690     -.6167
 3118.3052     6.0156  -191.8700  -999.2500      .0112  -999.2500    26.1720     3.9039     -.0298     2.5664  -196.8700  3044.2510   -11.4690     -.6167
 3118.4576     6.0156  -191.8700  -999.2500      .0117  -999.2500    26.1720     3.8449     -.0298     2.5664  -196.8700  3040.9023   -11.4690     -.6167
 3118.6100     6.0156  -191.8700  -999.2500      .0103  -999.2500    26.1720     3.9782     -.0298     2.5684  -196.8700  3032.0151   -11.4690     -.6167
 3118.7624     6.0156  -191.8700  -999.2500      .0117  -999.2500    26.1720     3.9432     -.0298     2.5703  -196.8700  3012.7368   -11.4690     -.6167
 3118.9148     6.0156  -191.8700  -999.2500      .0123  -999.2500    26.1720     4.1600     -.0298     2.5723  -196.8700  3007.0078   -11.4690     -.6167
 3119.0672     6.0156  -191.8700  -999.2500      .0181  -999.2500    26.1720     4.1389     -.0298     2.5722  -196.8700  3012.3848   -11.4690     -.6167
