~VERSION INFORMATION
VERS.                                                 2.0:   CWLS Log ASCII Standard-VERSION 2.0
WRAP.                                                  NO:   One line per depth step
~Well Information Block
STRT.M                                           472.3364:   Top Depth
STOP.M                                          3124.0964:   Bottom Depth
STEP.M                                             .15240:   Depth Increment
NULL.                                            -999.250:   Null Value
FLD .                                      SLEIPNER-THETA:   Field Name
WELL.                                             15/9-17:   NAME
WBN .                                             15/9-17:   WELLBORE
NATI.                                                 NOR:   COUNTRY
CTRY.                                                 NOR:   COUNTRY
COMP.                                             STATOIL:   OPERATOR
PROV.                                                   ?:   PROVINCE
COUN.                                       WEST VANGUARD:   RIG NAME
SPUD.                                          1982/12/09:   SPUD DATE
LATI.                                       58 26 44.19 N:   SURF. LATITUDE
LONG.                                        1 56 53.58 E:   SURF. LONGITUDE
PBWE.                                             15/9-17:   PB WELL ID
APIN.                                             15/9-17:   PB WELLBORE ID
PBWS.                                                 all:   PB WELL NAME SET
~PARAMETER INFORMATION (log)
LNAM.                             LDT/CNL/NGT  COMPOSITED:   NAME
LTYP.                                         DEPTH MATCH:   LOG TYPE
LSRV.                                           LATEROLOG:   LOG SERVICE
LSOU.                                             SPT/NPD:   LOG SOURCE
LVSN.                                                   1:   LOG VERSION
BHIS.                                                   R:   BRIEF HISTORY
FHIS.                                             RAW-LIS:   FULL HISTORY
LCNM.                                        SCHLUMBERGER:   LOGGING CONTRACTOR
TOOL.                            LDT/CNL/NGT (COMPOSITED):   TOOL STRING
~Curve Information Block
#MNEM.UNIT                                        API CODE    No Description
#=========                                        ========    == ===========
DEPT.M                                       00 001 00 00:     1  DEPTH
CALI.IN                                                  :     2  Caliper
CGR.GAPI                                                 :     3  Gamma Ray
CS.                                                      :     4  Cable Speed
DRHO.G/CC                                                :     5  Bulk density correction
GR.GAPI                                                  :     6  Gamma Ray
NPHI.%                                                   :     7  Neutron porosity
PEF.B/E                                                  :     8  Photo-electric factor
POTA.                                                    :     9  Potassium
RHOB.G/CC                                                :    10  Bulk density
SGR.GAPI                                                 :    11  Gamma Ray
TENS.LB                                                  :    12  Cable Tension
THOR.PPM                                                 :    13  Thorium
URAN.PPM                                                 :    14  Uranium
~ASCII
# ...
 1407.4628    13.2420    66.0592   904.9972     -.0034  -999.2500    51.8495     2.2770      .0186     1.9121    85.5573  1895.0000     8.9213     2.3569
 1407.6152    13.2422    66.9264   905.4988     -.0044  -999.2500    50.4891     2.2115      .0200     1.9043    86.6699  1885.0718     8.7807     2.5180
 1407.7676    13.3051    64.1488   905.5000     -.0010  -999.2500    50.8284     2.4070      .0215     1.9014    86.7764  1900.0479     8.5159     2.7555
 1407.9200    13.3280    68.7218   905.5016      .0015  -999.2500    50.3390     2.6191      .0195     1.9053    86.4261  1929.8481     8.3455     2.2834
 1408.0724    13.3280    63.4306   905.9937     -.0010  -999.2500    49.4217     2.6127      .0200     1.9033    84.8227  1905.0479     8.7718     2.5800
 1408.2248    13.3280    65.6772   904.5051     -.0025  -999.2500    51.8062     2.4389      .0190     1.9033    83.3750  1895.1038     8.7048     2.2444
 1408.3772    13.3281    64.1899   905.0000     -.0078  -999.2500    51.5664     2.2420      .0166     1.8984    81.2336  1919.8242     9.1855     2.0840
 1408.5296    13.3525    63.4407   905.4940     -.0024  -999.2500    52.6309     2.1755      .0181     1.9072    79.3378  1889.9761     9.0301     1.9335
 1408.6820    13.5003    63.8733   904.0048     -.0029  -999.2500    50.7364     2.0840      .0186     1.9082    78.4265  1860.3352     8.5489     1.7904
 1408.8344    13.6020    63.7741   903.9984      .0015  -999.2500    52.0937     2.0806      .0181     1.9121    77.6609  1934.6924     8.7033     1.7493
 1408.9868    13.6020    61.4780   903.5000      .0039  -999.2500    50.1494     2.2387      .0176     1.9160    76.2400  1895.0957     8.8811     1.8183
 1409.1392    13.6020    62.0545   902.9995      .0103  -999.2500    51.2149     2.3692      .0166     1.9258    74.7803  1885.1118     8.5405     1.5606
 1409.2916    13.6020    60.5334   902.5063      .0093  -999.2500    49.7119     2.3983      .0166     1.9297    74.0313  1909.7925     8.6246     1.6216
 1409.4440    13.6020    59.6888   903.9991      .0054  -999.2500    51.2187     2.3713      .0166     1.9209    74.2765  1870.0317     8.5994     1.8295
 1409.5964    13.6020    59.3453   904.9960      .0054  -999.2500    50.6333     2.4180      .0176     1.9170    74.2596  1840.3274     8.0343     1.8551
 1409.7488    13.6020    59.5548   904.4984      .0073  -999.2500    50.1003     2.4100      .0156     1.9160    73.8366  1919.7126     8.5512     1.7695
 1409.9012    13.6023    57.3833   903.5071      .0102  -999.2500    50.8269     2.3595      .0171     1.9170    73.5914  1910.1038     7.9946     1.9625
 1410.0536    13.6883    58.3396   904.9935      .0088  -999.2500    49.8610     2.3890      .0156     1.9111    74.1063  1934.8723     8.3278     1.9719
 1410.2060    13.7730    58.0022   904.5012      .0088  -999.2500    52.0536     2.4711      .0161     1.9072    74.7734  1919.7961     8.5463     2.0490
 1410.3584    13.7813    58.4349   904.5000      .0068  -999.2500    52.8909     2.5955      .0156     1.9033    75.8879  1845.3831     8.5164     2.1585
 1410.5108    13.8671    58.0661   904.5000      .0054  -999.2500    55.9609     2.5408      .0151     1.9023    77.1192  1890.1636     8.7252     2.3725
 1410.6632    13.8912    58.9062   904.5048      .0059  -999.2500    57.1818     2.4864      .0166     1.9023    77.9999  1974.3774     8.4597     2.3594
 1410.8156    13.9450    59.7461   906.0011      .0083  -999.2500    58.3414     2.5162      .0176     1.9102    78.6843  1865.3354     7.8148     2.3481
 1410.9680    13.9530    59.4371   907.4888      .0049  -999.2500    56.1961     2.6772      .0181     1.9102    79.1095  1860.3032     7.8694     2.4452
 1411.1204    13.9530    59.0096   905.5104      .0010  -999.2500    54.6759     3.1205      .0195     1.9053    79.4851  1949.4409     7.3933     2.5013
 1411.2728    13.9530    61.0506   906.4984      .0015  -999.2500    51.6555     2.9739      .0181     1.9053    79.9511  1865.2393     7.6848     2.3951
 1411.4252    13.9530    59.4150   906.9944      .0039  -999.2500    50.2534     2.7670      .0181     1.9053    79.4182  1855.3513     8.3644     2.4639
 1411.5776    13.9530    60.2803   906.0032      .0024  -999.2500    52.5979     2.6056      .0171     1.9043    78.9766  1954.5210     8.2107     2.2819
 1411.7300    13.9530    60.8315   906.0063      .0005  -999.2500    55.6729     2.6363      .0171     1.9033    79.3328  1905.0000     7.9718     2.3002
 1411.8824    13.9530    57.5831   907.9904     -.0019  -999.2500    58.4374     2.5171      .0171     1.9004    79.8175  1855.3914     8.6771     2.7301
 1412.0348    13.9530    61.5457   906.5000     -.0000  -999.2500    55.4626     2.3650      .0166     1.9043    79.9984  1939.5688     8.4001     2.3467
 1412.1872    13.9530    60.3102   905.0020     -.0020  -999.2500    53.4609     2.3107      .0161     1.9023    78.9330  1889.9919     8.6479     2.2817
 1412.3396    13.9530    58.6651   904.5000     -.0020  -999.2500    51.5633     2.3830      .0161     1.9063    77.7734  1850.3032     8.6803     2.3660
 1412.4920    13.9527    59.7788   904.0012     -.0039  -999.2500    51.6581     2.4381      .0151     1.9072    76.8456  1904.8362     8.9044     2.0903
 1412.6444    13.8587    59.8428   904.0000     -.0029  -999.2500    51.0745     2.6095      .0161     1.9111    76.5883  1895.0317     8.4930     2.0377
 1412.7968    13.7730    59.5995   903.9979     -.0044  -999.2500    51.2202     2.6547      .0176     1.9092    77.2494  1894.9839     8.3445     2.1830
 1412.9492    13.7730    60.8423   903.5016     -.0010  -999.2500    51.0272     2.7574      .0176     1.9141    77.8856  1889.9680     8.4210     2.1442
 1413.1016    13.7727    61.6183   903.5020     -.0015  -999.2500    51.7117     2.6352      .0181     1.9111    77.7013  1875.0957     8.2215     1.9871
 1413.2540    13.7027    60.5651   903.9984     -.0020  -999.2500    52.3963     2.7308      .0166     1.9072    77.5006  1889.9041     8.7478     2.0626
 1413.4064    13.6084    60.3148   904.0020     -.0024  -999.2500    53.4180     2.8244      .0166     1.9063    78.1963  1875.0957     8.5767     2.1839
 1413.5588    13.4608    60.6812   904.4968      .0010  -999.2500    53.4192     2.8768      .0181     1.9131    79.2662  1890.0159     8.0938     2.3476
 1413.7112    13.3828    59.1040   903.9984      .0063  -999.2500    53.8099     2.8000      .0195     1.9229    79.2169  1909.9521     7.6298     2.5062
 1413.8636    13.3286    60.7072   903.0071      .0068  -999.2500    54.1053     2.5368      .0186     1.9219    78.1547  1914.8284     7.4527     2.1749
 1414.0160    13.5083    58.3168   904.4951      .0049  -999.2500    55.1261     2.4352      .0186     1.9111    76.7608  1865.1917     7.1958     2.2480
 1414.1684    13.6172    57.2524   904.5032      .0024  -999.2500    54.8248     2.3462      .0186     1.9072    75.4491  1874.9441     7.0878     2.3093
 1414.3208    13.6956    57.2304   905.4952      .0044  -999.2500    51.9511     2.4879      .0190     1.9004    72.7596  1864.9998     6.3866     1.9579
 1414.4732    13.8910    60.8056   905.0012      .0138  -999.2500    51.3540     2.9769      .0200     1.8907    68.6420  1855.1836     6.8581      .9841
 1414.6256    13.9060    51.6476   905.0063      .0484  -999.2500    47.3135     4.2919      .0152     1.9290    63.9664  1904.7605     6.8182     1.5178
 1414.7780    13.9139    49.5050   906.9856      .0782  -999.2500    47.1539     5.1690      .0166     2.0317    60.3444  1880.1917     6.1205     1.2056
 1414.9304    13.8981    49.0945   905.0016      .0849  -999.2500    43.6673     4.4446      .0166     2.1326    60.8541  1914.9360     6.4016     1.3204
 1415.0828    13.9145    58.6289   903.5107      .0599  -999.2500    48.4534     4.2185      .0161     2.0832    65.7235  1929.7764     8.8842      .8545
 1415.2352    14.0388    59.4790   904.9967      .0107  -999.2500    52.3036     4.1362      .0171     1.8806    71.3255  1875.1914     9.2710     1.5809
