~VERSION INFORMATION
VERS.                                                 2.0:   CWLS Log ASCII Standard-VERSION 2.0
WRAP.                                                  NO:   One line per depth step
~Well Information Block
STRT.M                                           472.3364:   Top Depth
STOP.M                                          3124.0964:   Bottom Depth
STEP.M                                             .15240:   Depth Increment
NULL.                                            -999.250:   Null Value
FLD .                                      SLEIPNER-THETA:   Field Name
WELL.                                             15/9-17:   NAME
WBN .                                             15/9-17:   WELLBORE
NATI.                                                 NOR:   COUNTRY
CTRY.                                                 NOR:   COUNTRY
COMP.                                             STATOIL:   OPERATOR
PROV.                                                   ?:   PROVINCE
COUN.                                       WEST VANGUARD:   RIG NAME
SPUD.                                          1982/12/09:   SPUD DATE
LATI.                                       58 26 44.19 N:   SURF. LATITUDE
LONG.                                        1 56 53.58 E:   SURF. LONGITUDE
PBWE.                                             15/9-17:   PB WELL ID
APIN.                                             15/9-17:   PB WELLBORE ID
PBWS.                                                 all:   PB WELL NAME SET
~PARAMETER INFORMATION (log)
LNAM.                             LDT/CNL/NGT  COMPOSITED:   NAME
LTYP.                                         DEPTH MATCH:   LOG TYPE
LSRV.                                           LATEROLOG:   LOG SERVICE
LSOU.                                             SPT/NPD:   LOG SOURCE
LVSN.                                                   1:   LOG VERSION
BHIS.                                                   R:   BRIEF HISTORY
FHIS.                                             RAW-LIS:   FULL HISTORY
LCNM.                                        SCHLUMBERGER:   LOGGING CONTRACTOR
TOOL.                            LDT/CNL/NGT (COMPOSITED):   TOOL STRING
~Curve Information Block
#MNEM.UNIT                                        API CODE    No Description
#=========                                        ========    == ===========
DEPT.M                                       00 001 00 00:     1  DEPTH
CALI.IN                                                  :     2  Caliper
CGR.GAPI                                                 :     3  Gamma Ray
CS.                                                      :     4  Cable Speed
DRHO.G/CC                                                :     5  Bulk density correction
GR.GAPI                                                  :     6  Gamma Ray
NPHI.%                                                   :     7  Neutron porosity
PEF.B/E                                                  :     8  Photo-electric factor
POTA.                                                    :     9  Potassium
RHOB.G/CC                                                :    10  Bulk density
SGR.GAPI                                                 :    11  Gamma Ray
TENS.LB                                                  :    12  Cable Tension
THOR.PPM                                                 :    13  Thorium
URAN.PPM                                                 :    14  Uranium
~ASCII
# ...
  813.1028    18.1875  -999.2500  1792.0000      .0591  -999.2500  -999.2500     2.2031  -999.2500     2.1016    84.5625  1150.0000  -999.2500  -999.2500
  813.2552    18.0469  -999.2500  1793.0000      .0391  -999.2500  -999.2500     2.3789  -999.2500     2.0977    86.0000  1155.0000  -999.2500  -999.2500
  813.4076    18.2656  -999.2500  1793.0000      .0156  -999.2500  -999.2500     2.2891  -999.2500     2.0762    82.3750  1120.0000  -999.2500  -999.2500
  813.5600    18.2500  -999.2500  1793.0000      .0132  -999.2500  -999.2500     2.2812  -999.2500     2.0742    76.6875  1170.0000  -999.2500  -999.2500
  813.7124    18.1875  -999.2500  1793.0000      .0229  -999.2500  -999.2500     2.1719  -999.2500     2.0879    74.7500  1175.0000  -999.2500  -999.2500
  813.8648    18.1875  -999.2500  1795.0000      .0435  -999.2500  -999.2500     2.2266  -999.2500     2.0898    78.7500  1180.0000  -999.2500  -999.2500
  814.0172    18.1719  -999.2500  1796.0000      .0605  -999.2500  -999.2500     2.2598  -999.2500     2.0918    78.6250  1210.0000  -999.2500  -999.2500
  814.1696    18.0469  -999.2500  1797.0000      .0684  -999.2500  -999.2500     2.2930  -999.2500     2.0840    73.9375  1115.0000  -999.2500  -999.2500
  814.3220    17.6875  -999.2500  1797.0000      .0615  -999.2500  -999.2500     2.2773  -999.2500     2.0937    71.1250  1145.0000  -999.2500  -999.2500
  814.4744    17.6875  -999.2500  1798.0000      .0586  -999.2500  -999.2500     2.3184  -999.2500     2.1172    73.3125  1150.0000  -999.2500  -999.2500
  814.6268    17.8594  -999.2500  1797.0000      .0571  -999.2500  -999.2500     2.3418  -999.2500     2.1426    71.3750  1145.0000  -999.2500  -999.2500
  814.7792    18.0469  -999.2500  1797.0000      .0400  -999.2500  -999.2500     2.3535  -999.2500     2.1348    70.2500  1165.0000  -999.2500  -999.2500
  814.9316    18.1875  -999.2500  1797.0000      .0444  -999.2500  -999.2500     2.2754  -999.2500     2.1465    66.9375  1185.0000  -999.2500  -999.2500
  815.0840    18.0156  -999.2500  1797.0000      .0435  -999.2500  -999.2500     2.2852  -999.2500     2.1406    69.4375  1170.0000  -999.2500  -999.2500
  815.2364    18.0781  -999.2500  1795.0000      .0566  -999.2500  -999.2500     2.2441  -999.2500     2.1582    70.1875  1180.0000  -999.2500  -999.2500
  815.3888    18.1406  -999.2500  1793.0000      .0298  -999.2500  -999.2500     2.2773  -999.2500     2.1211    73.8125  1180.0000  -999.2500  -999.2500
  815.5412    18.1875  -999.2500  1791.0000      .0317  -999.2500  -999.2500     2.2949  -999.2500     2.1191    77.3750  1170.0000  -999.2500  -999.2500
  815.6936    18.0156  -999.2500  1791.0000      .0381  -999.2500  -999.2500     2.3750  -999.2500     2.1191    79.8125  1185.0000  -999.2500  -999.2500
  815.8460    17.9219  -999.2500  1790.0000      .0322  -999.2500  -999.2500     2.3730  -999.2500     2.1211    74.6875  1160.0000  -999.2500  -999.2500
  815.9984    17.8281  -999.2500  1790.0000      .0161  -999.2500  -999.2500     2.3828  -999.2500     2.1113    71.1875  1160.0000  -999.2500  -999.2500
  816.1508    17.7031  -999.2500  1790.0000      .0034  -999.2500  -999.2500     2.2871  -999.2500     2.1035    62.2813  1185.0000  -999.2500  -999.2500
  816.3032    17.8594  -999.2500  1790.0000      .0024  -999.2500  -999.2500     2.2129  -999.2500     2.0957    65.6250  1135.0000  -999.2500  -999.2500
  816.4556    18.7656  -999.2500  1791.0000      .0044  -999.2500  -999.2500     2.1953  -999.2500     2.0879    67.6250  1155.0000  -999.2500  -999.2500
  816.6080    17.7500  -999.2500  1791.0000      .0107  -999.2500  -999.2500     2.2734  -999.2500     2.0879    73.5000  1190.0000  -999.2500  -999.2500
  816.7604    17.7969  -999.2500  1790.0000      .0112  -999.2500  -999.2500     2.3086  -999.2500     2.0820    71.3125  1165.0000  -999.2500  -999.2500
  816.9128    18.0313  -999.2500  1789.0000      .0073  -999.2500  -999.2500     2.2734  -999.2500     2.0527    70.4375  1160.0000  -999.2500  -999.2500
  817.0652    17.6719  -999.2500  1789.0000      .0098  -999.2500  -999.2500     2.1895  -999.2500     2.0410    71.7500  1140.0000  -999.2500  -999.2500
  817.2176    17.8281  -999.2500  1789.0000      .0166  -999.2500  -999.2500     2.2461  -999.2500     2.0391    74.9375  1165.0000  -999.2500  -999.2500
  817.3700    17.9688  -999.2500  1789.0000      .0215  -999.2500  -999.2500     2.2598  -999.2500     2.0527    76.4375  1170.0000  -999.2500  -999.2500
  817.5224    17.9531  -999.2500  1790.0000      .0190  -999.2500  -999.2500     2.3809  -999.2500     2.0527    75.5000  1130.0000  -999.2500  -999.2500
  817.6748    18.2188  -999.2500  1790.0000      .0269  -999.2500  -999.2500     2.3477  -999.2500     2.0547    74.5625  1195.0000  -999.2500  -999.2500
  817.8272    18.0313  -999.2500  1791.0000      .0581  -999.2500  -999.2500     2.3457  -999.2500     2.0742    75.1250  1115.0000  -999.2500  -999.2500
  817.9796    18.0938  -999.2500  1790.0000      .0713  -999.2500  -999.2500     2.2285  -999.2500     2.0645    75.7500  1165.0000  -999.2500  -999.2500
  818.1320    17.9063  -999.2500  1790.0000      .0742  -999.2500  -999.2500     2.2266  -999.2500     2.0527    73.4375  1180.0000  -999.2500  -999.2500
  818.2844    17.8281  -999.2500  1791.0000      .0747  -999.2500  -999.2500     2.2500  -999.2500     2.0391    69.9375  1190.0000  -999.2500  -999.2500
  818.4368    17.8125  -999.2500  1789.0000      .0791  -999.2500  -999.2500     2.3711  -999.2500     2.0371    72.3750  1185.0000  -999.2500  -999.2500
  818.5892    17.8750  -999.2500  1790.0000      .0708  -999.2500  -999.2500     2.3906  -999.2500     2.0312    73.6875  1175.0000  -999.2500  -999.2500
  818.7416    17.9063  -999.2500  1789.0000      .0498  -999.2500  -999.2500     2.5449  -999.2500     2.0410    74.7500  1145.0000  -999.2500  -999.2500
  818.8940    17.8125  -999.2500  1787.0000      .0142  -999.2500  -999.2500     2.4121  -999.2500     2.0332    67.3750  1165.0000  -999.2500  -999.2500
  819.0464    17.7969  -999.2500  1785.0000      .0249  -999.2500  -999.2500     2.3984  -999.2500     2.0488    66.6875  1180.0000  -999.2500  -999.2500
  819.1988    17.9688  -999.2500  1785.0000      .0396  -999.2500  -999.2500     2.2383  -999.2500     2.0449    65.5000  1175.0000  -999.2500  -999.2500
  819.3512    18.0156  -999.2500  1784.0000      .0591  -999.2500  -999.2500     2.2910  -999.2500     2.0547    69.9375  1155.0000  -999.2500  -999.2500
  819.5036    18.0156  -999.2500  1784.0000      .0552  -999.2500  -999.2500     2.2520  -999.2500     2.0547    70.8125  1180.0000  -999.2500  -999.2500
  819.6560    18.0469  -999.2500  1785.0000      .0410  -999.2500  -999.2500     2.2598  -999.2500     2.0410    71.6250  1165.0000  -999.2500  -999.2500
  819.8084    18.0156  -999.2500  1786.0000      .0503  -999.2500  -999.2500     2.2949  -999.2500     2.0508    71.4375  1120.0000  -999.2500  -999.2500
  819.9608    17.9688  -999.2500  1787.0000      .0371  -999.2500  -999.2500     2.3184  -999.2500     2.0430    72.0625  1190.0000  -999.2500  -999.2500
  820.1132    18.0469  -999.2500  1788.0000      .0308  -999.2500  -999.2500     2.3379  -999.2500     2.0469    73.8125  1200.0000  -999.2500  -999.2500
  820.2656    18.0781  -999.2500  1788.0000      .0215  -999.2500  -999.2500     2.3164  -999.2500     2.0469    73.8125  1175.0000  -999.2500  -999.2500
  820.4180    17.9844  -999.2500  1788.0000      .0264  -999.2500  -999.2500     2.3418  -999.2500     2.0547    70.5625  1150.0000  -999.2500  -999.2500
  820.5704    17.8906  -999.2500  1790.0000      .0425  -999.2500  -999.2500     2.2363  -999.2500     2.0723    69.8125  1225.0000  -999.2500  -999.2500
  820.7228    17.8750  -999.2500  1790.0000      .0552  -999.2500  -999.2500     2.2187  -999.2500     2.0801    69.1250  1160.0000  -999.2500  -999.2500
  820.8752    17.7031  -999.2500  1789.0000      .0815  -999.2500  -999.2500     2.1523  -999.2500     2.1113    72.2500  1165.0000  -999.2500  -999.2500
