~VERSION INFORMATION
VERS.                                                 2.0:   CWLS Log ASCII Standard-VERSION 2.0
WRAP.                                                  NO:   One line per depth step
~Well Information Block
STRT.M                                           472.3364:   Top Depth
STOP.M                                          3124.0964:   Bottom Depth
STEP.M                                             .15240:   Depth Increment
NULL.                                            -999.250:   Null Value
FLD .                                      SLEIPNER-THETA:   Field Name
WELL.                                             15/9-17:   NAME
WBN .                                             15/9-17:   WELLBORE
NATI.                                                 NOR:   COUNTRY
CTRY.                                                 NOR:   COUNTRY
COMP.                                             STATOIL:   OPERATOR
PROV.                                                   ?:   PROVINCE
COUN.                                       WEST VANGUARD:   RIG NAME
SPUD.                                          1982/12/09:   SPUD DATE
LATI.                                       58 26 44.19 N:   SURF. LATITUDE
LONG.                                        1 56 53.58 E:   SURF. LONGITUDE
PBWE.                                             15/9-17:   PB WELL ID
APIN.                                             15/9-17:   PB WELLBORE ID
PBWS.                                                 all:   PB WELL NAME SET
~PARAMETER INFORMATION (log)
LNAM.                             LDT/CNL/NGT  COMPOSITED:   NAME
LTYP.                                         DEPTH MATCH:   LOG TYPE
LSRV.                                           LATEROLOG:   LOG SERVICE
LSOU.                                             SPT/NPD:   LOG SOURCE
LVSN.                                                   1:   LOG VERSION
BHIS.                                                   R:   BRIEF HISTORY
FHIS.                                             RAW-LIS:   FULL HISTORY
LCNM.                                        SCHLUMBERGER:   LOGGING CONTRACTOR
TOOL.                            LDT/CNL/NGT (COMPOSITED):   TOOL STRING
~Curve Information Block
#MNEM.UNIT                                        API CODE    No Description
#=========                                        ========    == ===========
DEPT.M                                       00 001 00 00:     1  DEPTH
CALI.IN                                                  :     2  Caliper
CGR.GAPI                                                 :     3  Gamma Ray
CS.                                                      :     4  Cable Speed
DRHO.G/CC                                                :     5  Bulk density correction
GR.GAPI                                                  :     6  Gamma Ray
NPHI.%                                                   :     7  Neutron porosity
PEF.B/E                                                  :     8  Photo-electric factor
POTA.                                                    :     9  Potassium
RHOB.G/CC                                                :    10  Bulk density
SGR.GAPI                                                 :    11  Gamma Ray
TENS.LB                                                  :    12  Cable Tension
THOR.PPM                                                 :    13  Thorium
URAN.PPM                                                 :    14  Uranium
~ASCII
# ...
 1241.0420    15.1950    39.5478   893.4984     -.0019  -999.2500    50.9757     2.7622      .0132     1.8535    50.7848  1710.3672     5.3347     1.3415
 1241.1944    15.1949    42.6728   893.0028      .0000  -999.2500    50.5885     2.9280      .0137     1.8643    52.3444  1784.6445     5.0163     1.2916
 1241.3468    15.1555    40.4823   893.5000      .0117  -999.2500    51.3617     3.0319      .0137     1.8760    52.4201  1730.1755     4.9872     1.4393
 1241.4992    14.9918    42.4925   893.9988      .0127  -999.2500    49.7064     2.6270      .0142     1.8710    52.4461  1730.0637     4.6100     1.2420
 1241.6516    14.9297    41.6880   894.0000      .0097  -999.2500    49.5159     2.6404      .0151     1.8524    52.5778  1749.8723     4.5322     1.3418
 1241.8040    14.8440    41.0431   894.0000      .0010  -999.2500    50.7332     2.5700      .0146     1.8095    52.9398  1730.1118     4.7523     1.4482
 1241.9564    14.8440    43.4506   894.0016      .0005  -999.2500    51.0225     2.9744      .0146     1.7852    53.5478  1745.0796     4.5422     1.2907
 1242.1088    14.8440    40.2367   894.4924      .0005  -999.2500    50.2436     2.8996      .0137     1.7745    53.7585  1784.6167     5.3014     1.6333
 1242.2612    14.8440    42.1118   893.0048     -.0000  -999.2500    50.1512     2.7094      .0127     1.7900    54.2166  1705.2712     5.0835     1.5362
 1242.4136    14.8440    39.9153   893.0000     -.0059  -999.2500    51.7603     2.2518      .0151     1.7881    54.4265  1710.3433     4.1057     1.7554
 1242.5660    14.8440    40.4032   892.9984     -.0058  -999.2500    52.3451     2.2140      .0146     1.7813    54.9054  1799.5369     4.3634     1.8231
 1242.7184    14.8440    39.9373   892.5000      .0015  -999.2500    52.6891     2.5547      .0137     1.7666    54.6983  1745.0798     4.6518     1.8598
 1242.8708    14.8440    39.4093   892.0032      .0196  -999.2500    53.6683     3.1702      .0127     1.7804    53.4476  1715.1436     4.7804     1.7282
 1243.0232    14.8440    39.8457   892.4984      .0259  -999.2500    55.6188     3.2542      .0127     1.8048    52.6842  1730.0159     4.6288     1.5059
 1243.1756    14.8440    40.9040   892.5000      .0205  -999.2500    56.7873     2.7195      .0142     1.8252    54.2170  1749.7764     4.4451     1.5998
 1243.3280    14.8440    40.9980   892.5016      .0054  -999.2500    56.8808     2.3534      .0132     1.8281    56.5033  1695.3992     5.4540     2.0336
 1243.4804    14.8440    40.4776   892.9988      .0019  -999.2500    55.5607     2.3168      .0132     1.8291    56.2886  1764.8323     5.5138     1.9818
 1243.6328    14.8440    42.8269   893.0032     -.0034  -999.2500    53.9104     2.4495      .0117     1.8271    54.4809  1764.9680     4.9758     1.4473
 1243.7852    14.8436    39.9484   893.9967     -.0044  -999.2500    55.2740     2.5457      .0122     1.8301    53.0936  1754.8723     5.4107     1.5305
 1243.9376    14.7336    40.3479   894.0000     -.0019  -999.2500    55.5230     2.7465      .0112     1.8359    53.5688  1705.2075     5.8910     1.6660
 1244.0900    14.6019    42.0510   894.0000     -.0005  -999.2500    57.0642     2.8686      .0127     1.8398    53.8469  1720.2075     5.2724     1.4929
 1244.2424    14.5700    40.5667   894.0000     -.0005  -999.2500    53.1286     2.7316      .0122     1.8291    52.9730  1799.5688     5.4790     1.5394
 1244.3948    14.5700    40.3750   894.0000      .0068  -999.2500    54.2428     2.4910      .0117     1.8144    51.9858  1745.0161     5.2436     1.3923
 1244.5472    14.5700    40.1804   894.0032      .0054  -999.2500    52.6417     2.1225      .0107     1.7812    51.8132  1695.3352     5.4469     1.4528
 1244.6996    14.5782    37.7997   894.9999      .0034  -999.2500    54.0973     1.9726      .0103     1.7460    51.8587  1749.9360     6.1485     1.7159
 1244.8520    14.6560    41.1424   896.0000     -.0049  -999.2500    52.6381     1.9378      .0107     1.7207    52.0094  1784.6965     5.6693     1.3829
 1245.0044    14.6640    40.1909   897.0000     -.0093  -999.2500    52.9826     2.0377      .0112     1.7070    51.7720  1725.3833     5.5872     1.3889
 1245.1568    14.6640    40.2804   897.9976     -.0117  -999.2500    54.1054     2.2384      .0107     1.7149    51.9875  1784.7283     5.8981     1.4657
 1245.3092    14.6644    40.0954   898.0016     -.0132  -999.2500    55.1774     2.2766      .0103     1.7384    52.2555  1745.0796     6.0102     1.4893
 1245.4616    14.8051    40.4372   898.4956     -.0044  -999.2500    55.6042     2.6501      .0112     1.7716    52.8941  1730.0198     5.6556     1.5132
 1245.6140    14.8443    40.5972   897.5016     -.0039  -999.2500    52.2483     2.5588      .0098     1.7949    54.4514  1725.1755     6.4041     1.6884
 1245.7664    14.9300    41.8423   897.0076     -.0054  -999.2500    52.9766     2.6122      .0107     1.7988    56.4424  1774.6646     6.4855     1.8386
 1245.9188    14.9300    42.4686   898.4904     -.0107  -999.2500    52.4066     2.3484      .0103     1.8096    57.5099  1720.2712     6.8156     1.9017
 1246.0712    14.9301    43.0349   897.0048     -.0083  -999.2500    56.6355     2.5547      .0098     1.8242    57.6630  1749.9041     6.9078     1.7756
 1246.2236    14.9453    44.3929   896.9984     -.0063  -999.2500    55.2678     2.5513      .0112     1.8330    57.9607  1749.8562     6.4047     1.7159
 1246.3760    15.0315    41.6185   896.5000     -.0019  -999.2500    53.6531     2.6956      .0117     1.8291    58.2067  1705.3193     6.6357     1.9823
 1246.5284    15.1953    46.5124   896.0000      .0015  -999.2500    50.8804     2.7909      .0112     1.8311    59.3670  1759.8882     6.5522     1.6209
 1246.6808    15.2972    45.5653   895.5063      .0039  -999.2500    51.3214     2.7649      .0127     1.8389    60.2471  1779.9360     6.8933     1.8160
 1246.8332    15.3752    45.4717   896.9951     -.0005  -999.2500    52.3971     2.5605      .0122     1.8516    60.3553  1779.9041     6.8681     1.8866
 1246.9856    15.4303    46.3067   897.0016     -.0049  -999.2500    53.6643     2.5685      .0103     1.8573    59.3451  1750.0957     7.1242     1.6120
 1247.1380    15.5391    45.3474   897.5020     -.0049  -999.2500    54.3991     2.6054      .0107     1.8417    58.3579  1749.8721     7.1411     1.5569
 1247.2904    15.5550    45.7497   898.4937     -.0068  -999.2500    55.6588     2.5815      .0107     1.8135    58.5560  1710.3511     7.2915     1.5831
 1247.4428    15.5557    46.0555   897.5051     -.0064  -999.2500    54.0442     2.4238      .0112     1.8096    58.7450  1779.8242     6.9860     1.6287
 1247.5952    15.7350    44.5744   898.0000     -.0107  -999.2500    51.8537     2.4300      .0112     1.8175    57.9360  1794.8083     7.1393     1.6037
 1247.7476    16.0486    46.7632   898.5004     -.0073  -999.2500    51.4711     2.5291      .0108     1.8359    57.4746  1750.2395     6.8667     1.3426
 1247.9000    16.4366    44.0480   899.0000     -.0029  -999.2500    52.9798     2.4874      .0127     1.8369    57.5310  1779.8083     6.5365     1.5841
 1248.0524    16.0013    46.5154   899.4984      .0039  -999.2500    53.2242     2.8201      .0122     1.8241    58.6573  1750.1597     6.6315     1.5702
 1248.2048    16.3139    44.5772   899.5048      .0123  -999.2500    53.5118     3.2484      .0107     1.8037    59.6620  1770.1277     7.3512     1.7673
 1248.3572    16.6069    47.1677   900.9984      .0332  -999.2500    52.1984     3.3757      .0112     1.8066    61.4956  1829.5051     6.7492     1.8691
 1248.5096    15.9449    43.6565   901.9952      .0288  -999.2500    52.6298     2.9656      .0127     1.8194    62.6907  1735.3989     7.1031     2.2612
 1248.6620    15.9214    49.9012   901.5032      .0131  -999.2500    50.3852     2.5799      .0122     1.8369    64.1259  1764.9680     6.7213     1.8882
 1248.8144    15.7420    44.9040   901.9952      .0000  -999.2500    48.5881     2.5294      .0127     1.8428    64.0179  1784.8242     7.1353     2.2828
