~VERSION INFORMATION
VERS.                                                 2.0:   CWLS Log ASCII Standard-VERSION 2.0
WRAP.                                                  NO:   One line per depth step
~Well Information Block
STRT.M                                           472.3364:   Top Depth
STOP.M                                          3124.0964:   Bottom Depth
STEP.M                                             .15240:   Depth Increment
NULL.                                            -999.250:   Null Value
FLD .                                      SLEIPNER-THETA:   Field Name
WELL.                                             15/9-17:   NAME
WBN .                                             15/9-17:   WELLBORE
NATI.                                                 NOR:   COUNTRY
CTRY.                                                 NOR:   COUNTRY
COMP.                                             STATOIL:   OPERATOR
PROV.                                                   ?:   PROVINCE
COUN.                                       WEST VANGUARD:   RIG NAME
SPUD.                                          1982/12/09:   SPUD DATE
LATI.                                       58 26 44.19 N:   SURF. LATITUDE
LONG.                                        1 56 53.58 E:   SURF. LONGITUDE
PBWE.                                             15/9-17:   PB WELL ID
APIN.                                             15/9-17:   PB WELLBORE ID
PBWS.                                                 all:   PB WELL NAME SET
~PARAMETER INFORMATION (log)
LNAM.                             LDT/CNL/NGT  COMPOSITED:   NAME
LTYP.                                         DEPTH MATCH:   LOG TYPE
LSRV.                                           LATEROLOG:   LOG SERVICE
LSOU.                                             SPT/NPD:   LOG SOURCE
LVSN.                                                   1:   LOG VERSION
BHIS.                                                   R:   BRIEF HISTORY
FHIS.                                             RAW-LIS:   FULL HISTORY
LCNM.                                        SCHLUMBERGER:   LOGGING CONTRACTOR
TOOL.                            LDT/CNL/NGT (COMPOSITED):   TOOL STRING
~Curve Information Block
#MNEM.UNIT                                        API CODE    No Description
#=========                                        ========    == ===========
DEPT.M                                       00 001 00 00:     1  DEPTH
CALI.IN                                                  :     2  Caliper
CGR.GAPI                                                 :     3  Gamma Ray
CS.                                                      :     4  Cable Speed
DRHO.G/CC                                                :     5  Bulk density correction
GR.GAPI                                                  :     6  Gamma Ray
NPHI.%                                                   :     7  Neutron porosity
PEF.B/E                                                  :     8  Photo-electric factor
POTA.                                                    :     9  Potassium
RHOB.G/CC                                                :    10  Bulk density
SGR.GAPI                                                 :    11  Gamma Ray
TENS.LB                                                  :    12  Cable Tension
THOR.PPM                                                 :    13  Thorium
URAN.PPM                                                 :    14  Uranium
~ASCII
# ...
 2604.1076    12.3520    12.7241   942.9968      .0024     8.8777     6.5953     6.8785      .0039     2.5686    14.4635  2964.0830     1.7942      .2184
 2604.2600    12.3520    13.5123   942.0079     -.0005     9.2850     7.0347     6.8235      .0034     2.5958    13.6116  2960.0254     1.8390      .0125
 2604.4124    12.3520    12.9429   943.4967     -.0020     8.6561     8.1071     7.9203      .0034     2.6113    12.7862  2964.0190     1.8594     -.0200
 2604.5648    12.3520    13.6946   943.9952     -.0083    10.2450     8.5913     8.2725      .0044     2.5996    13.5998  2974.1914     1.7068     -.0119
 2604.7172    12.3520    13.6536   943.0016     -.0108    10.7225     8.2025     8.1569      .0044     2.5938    14.3198  3043.5527     1.9149      .0832
 2604.8696    12.3520    14.5115   942.4984     -.0127    12.5082     8.1061     8.2560      .0039     2.5879    15.3656  2974.2427     1.8944      .1078
 2605.0220    12.3520    13.8219   941.5063     -.0161    12.5474     8.2116     7.9793      .0044     2.5878    15.1593  2979.8530     2.0147      .1682
 2605.1744    12.3520    15.1934   942.4944     -.0175    12.6059     9.5360     7.7850      .0034     2.5780    15.6669  2940.3843     2.1646      .0592
 2605.3268    12.3520    13.9961   942.0016     -.0102    12.1237     9.7143     6.7938      .0044     2.5603    15.0329  3019.9038     1.9940      .1301
 2605.4792    12.3520    13.3969   942.4984      .0025    10.6899     9.3309     6.9206      .0034     2.5409    14.0880  2989.7891     1.9725      .0868
 2605.6316    12.3520    13.2276   942.0032      .0112    10.9840    10.0678     6.7243      .0029     2.5254    13.1538  2924.3574     1.8058     -.0092
 2605.7840    12.3440    12.2361   942.4968      .0034    10.9920    11.4241     6.3689      .0034     2.5098    12.8168  2970.1089     1.8225      .0730
 2605.9364    12.3440    12.5608   942.0000     -.0044    12.6476    11.1314     6.0302      .0034     2.5057    13.4118  3049.8398     1.7157      .1069
 2606.0888    12.3439    12.2343   941.9984     -.0082    12.5872    10.8902     5.8586      .0034     2.4765    13.0840  2999.8530     1.8588      .1073
 2606.2412    12.3361    13.3627   941.5048      .0039    12.7788    11.0881     6.3437      .0034     2.4667    14.0215  2954.3701     1.7700      .0823
 2606.3936    12.3440    12.7029   942.4967      .0044    12.4470    11.7190     6.3295      .0039     2.4473    14.8644  3023.5200     1.9797      .2712
 2606.5460    12.3434    12.6918   942.4984      .0004    12.8566    11.7030     7.1574      .0034     2.4511    14.4666  2944.1475     2.0103      .2228
 2606.6984    12.2653    14.1434   941.9968     -.0078    12.4771     9.7087     7.2902      .0029     2.4335    14.1580  2990.1274     1.8431      .0023
 2606.8508    12.1800    12.2051   941.0016     -.0044    11.4022     8.4404     6.8519      .0039     2.4217    13.2292  3029.7124     2.0451      .1294
 2607.0032    12.1797    13.7710   940.5032     -.0014    10.8169     7.3752     6.2984      .0034     2.4024    13.5697  2980.2041     2.0738     -.0261
 2607.1556    12.0860    14.5316   940.9984      .0034    11.4273     7.7175     5.9236      .0034     2.4200    13.5208  2993.9424     2.0164     -.1269
 2607.3080    12.0860    13.6198   941.0000      .0030    12.2542     8.0591     6.1327      .0039     2.4416    14.1192  2990.1279     2.1197      .0629
 2607.4604    12.0858    14.0484   941.0000      .0073    12.9009     8.4486     6.7219      .0044     2.4765    14.4583  3029.8081     1.8949      .0512
 2607.6128    12.0546    14.2574   940.9984      .0078    12.1164     8.6413     6.5954      .0039     2.4627    14.0393  2969.9482     1.8054     -.0277
 2607.7652    11.9920    14.1693   940.4967      .0098    12.0244     8.4495     6.2420      .0054     2.4375    14.0895  2894.6587     1.4704     -.0104
 2607.9176    11.9920    13.7528   938.9984      .0217    10.6660     8.7916     6.2097      .0044     2.4300    14.6332  3024.0640     1.7244      .1110
 2608.0700    11.9920    14.1754   938.5016      .0430    10.9712     9.1869     6.0289      .0044     2.4729    14.6679  3043.6357     1.8459      .0616
 2608.2224    11.9917    13.4635   939.0000      .0503    11.3194    10.3089     6.2734      .0039     2.4980    14.0302  2930.4399     1.8727      .0718
 2608.3748    11.9060    13.8458   939.4984      .0464    12.3204    11.2419     6.8806      .0039     2.4999    13.9055  2953.9873     1.8273      .0076
 2608.5272    11.9060    12.8893   939.4984      .0421    12.4024    13.0930     7.1400      .0034     2.4844    13.8328  2974.0640     1.9978      .1185
 2608.6796    11.9060    13.6644   939.0000      .0556    11.8447    13.9716     7.0574      .0034     2.4881    14.4174  2994.0830     1.9658      .0941
 2608.8320    11.9055    12.4897   938.9968      .0454    11.9510    14.9825     6.2703      .0039     2.4567    13.7030  3019.8979     1.8128      .1526
 2608.9844    11.8279    13.3668   938.0048      .0361    10.4053    13.8111     6.3994      .0039     2.4177    13.6986  3013.9233     1.5493      .0415
 2609.1368    11.8124    12.1070   938.4984      .0250    10.2869    12.7354     6.5561      .0039     2.3670    13.0261  2984.1152     1.6200      .1160
 2609.2892    11.7340    12.7191   938.5016      .0362     9.9692    11.6666     6.7336      .0039     2.3457    13.3993  2990.1279     1.6057      .0851
 2609.4416    11.7340    11.4993   939.0000      .0444    11.2517    11.1321     6.6121      .0034     2.3418    12.3566  3029.8721     1.6381      .1077
 2609.5940    11.7336    12.6172   939.0000      .0444    10.2820    10.9794     7.0284      .0039     2.3438    11.9734  2990.1724     1.4129     -.0820
 2609.7464    11.6018    11.4216   938.9984      .0469    10.4420     9.9659     7.2013      .0039     2.3516    11.4295  3004.0513     1.3887      .0005
 2609.8988    11.5382    12.5957   938.5000      .0499    11.2758    10.7439     7.5188      .0044     2.3397    12.5926  3033.9678     1.2426     -.0008
 2610.0512    11.4136    11.6335   938.5016      .0606    11.7058    11.0422     6.8013      .0049     2.3301    12.3814  3023.8271     1.3000      .0944
 2610.2036    11.3436    12.9493   938.9984      .0713    12.1203    12.1555     6.2807      .0039     2.3282    12.1409  2970.2358     1.4849     -.1026
 2610.3560    11.2890    13.6258   939.0000      .0742    10.1611    11.7724     6.1933      .0044     2.3360    12.1442  2990.1406     1.5615     -.1867
 2610.5084    11.2884    14.9873   939.0016      .0761    11.2143    12.4561     6.4807      .0054     2.3456    13.8949  3053.9229     1.8548     -.1381
 2610.6608    11.2108    15.4005   939.4968      .0663    10.5054    13.0951     6.5027      .0049     2.3357    15.3706  3029.8530     2.1412     -.0033
 2610.8132    11.1794    15.7770   938.5016      .0551    12.5893    14.5058     6.9118      .0049     2.3064    15.9209  2984.2617     1.9315      .0184
 2610.9656    11.1090    15.1601   937.9984      .0493    13.1039    15.0971     6.5548      .0044     2.2753    15.7524  3019.8208     2.0547      .0750
 2611.1180    11.1085    15.7883   937.0009      .0440    14.6385    16.5083     6.5613      .0049     2.2539    16.1284  2999.9810     2.0570      .0430
 2611.2704    11.0149    15.7030   936.5016      .0576    14.2523    17.0419     5.9368      .0049     2.2499    16.5511  2974.2104     2.1067      .1070
 2611.4228    10.8507    15.7069   936.4984      .0625    14.5949    17.1924     6.4273      .0049     2.2303    17.1919  3013.9043     1.9960      .1875
 2611.5752    10.6472    16.3146   935.9984      .0654    13.4888    17.8810     6.6605      .0054     2.2030    17.7978  3024.1279     1.9777      .1864
 2611.7276    10.5301    16.5612   935.0048      .0606    12.9906    19.4409     6.7003      .0054     2.1816    17.9195  3073.6680     2.1460      .1713
 2611.8800    10.3974    16.2815   935.4919      .0620    12.7071    20.5052     6.2628      .0044     2.1796    17.5252  3020.1401     2.3801      .1560
