~VERSION INFORMATION
VERS.                                                 2.0:   CWLS Log ASCII Standard-VERSION 2.0
WRAP.                                                  NO:   One line per depth step
~Well Information Block
STRT.M                                           472.3364:   Top Depth
STOP.M                                          3124.0964:   Bottom Depth
STEP.M                                             .15240:   Depth Increment
NULL.                                            -999.250:   Null Value
FLD .                                      SLEIPNER-THETA:   Field Name
WELL.                                             15/9-17:   NAME
WBN .                                             15/9-17:   WELLBORE
NATI.                                                 NOR:   COUNTRY
CTRY.                                                 NOR:   COUNTRY
COMP.                                             STATOIL:   OPERATOR
PROV.                                                   ?:   PROVINCE
COUN.                                       WEST VANGUARD:   RIG NAME
SPUD.                                          1982/12/09:   SPUD DATE
LATI.                                       58 26 44.19 N:   SURF. LATITUDE
LONG.                                        1 56 53.58 E:   SURF. LONGITUDE
PBWE.                                             15/9-17:   PB WELL ID
APIN.                                             15/9-17:   PB WELLBORE ID
PBWS.                                                 all:   PB WELL NAME SET
~PARAMETER INFORMATION (log)
LNAM.                             LDT/CNL/NGT  COMPOSITED:   NAME
LTYP.                                         DEPTH MATCH:   LOG TYPE
LSRV.                                           LATEROLOG:   LOG SERVICE
LSOU.                                             SPT/NPD:   LOG SOURCE
LVSN.                                                   1:   LOG VERSION
BHIS.                                                   R:   BRIEF HISTORY
FHIS.                                             RAW-LIS:   FULL HISTORY
LCNM.                                        SCHLUMBERGER:   LOGGING CONTRACTOR
TOOL.                            LDT/CNL/NGT (COMPOSITED):   TOOL STRING
~Curve Information Block
#MNEM.UNIT                                        API CODE    No Description
#=========                                        ========    == ===========
DEPT.M                                       00 001 00 00:     1  DEPTH
CALI.IN                                                  :     2  Caliper
CGR.GAPI                                                 :     3  Gamma Ray
CS.                                                      :     4  Cable Speed
DRHO.G/CC                                                :     5  Bulk density correction
GR.GAPI                                                  :     6  Gamma Ray
NPHI.%                                                   :     7  Neutron porosity
PEF.B/E                                                  :     8  Photo-electric factor
POTA.                                                    :     9  Potassium
RHOB.G/CC                                                :    10  Bulk density
SGR.GAPI                                                 :    11  Gamma Ray
TENS.LB                                                  :    12  Cable Tension
THOR.PPM                                                 :    13  Thorium
URAN.PPM                                                 :    14  Uranium
~ASCII
# ...
 2770.5284     9.1056    88.7700  -999.2500      .0026    90.3082    33.1470     6.1615      .0346     2.3420    94.2880  3003.7485     9.5964      .6936
 2770.6808     8.6333    91.2380  -999.2500      .0250    89.5354    32.2568     5.8314      .0317     2.3713    91.1672  3008.6572     9.9202     -.0099
 2770.8332     8.7118    89.3710  -999.2500      .0332    85.2512    29.4411     5.1335      .0327     2.3967    87.9456  3005.0391     9.6653     -.1811
 2770.9856     8.8543    88.7496  -999.2500      .0354    85.4448    29.1478     5.2432      .0327     2.4218    89.1266  2998.1729     9.8543      .0505
 2771.1380     9.2666    88.7068  -999.2500      .0019    86.5096    28.8102     5.4057      .0322     2.4043    89.3842  3003.7661    10.2639      .0881
 2771.2904     9.4204    91.6090  -999.2500     -.0079    88.5056    28.9890     5.9362      .0322     2.4062    90.8138  3031.2510     9.9391     -.1014
 2771.4428     9.1835    89.1326  -999.2500     -.0160    89.3606    26.6547     5.7354      .0332     2.3868    90.9420  3075.8677    10.1839      .2280
 2771.5952     8.5707    90.2974  -999.2500      .0070    87.1306    25.8206     5.8794      .0337     2.3965    91.5490  3081.3745     9.5560      .1545
 2771.7476     8.6342    87.8722  -999.2500      .0314    87.9925    24.3666     5.3578      .0317     2.3984    89.3698  3046.9312     9.7490      .1857
 2771.9000     8.8458    87.4315  -999.2500      .0500    86.4412    24.6160     5.7081      .0313     2.4019    88.5625  3026.6812     9.5970      .1390
 2772.0524     9.0938    86.6322  -999.2500      .0126    86.9332    25.4996     5.8476      .0332     2.3535    88.5148  3042.9624     9.0324      .2387
 2772.2048     9.0993    87.7484  -999.2500     -.0005    86.1932    27.3078     6.4297      .0327     2.3495    90.8158  3070.1221     9.2016      .3872
 2772.3572     8.7443    87.5068  -999.2500      .0035    87.0096    29.3048     5.8228      .0346     2.3358    91.2572  3079.3818     8.9740      .4684
 2772.5096     9.0716    88.5285  -999.2500      .0202    88.4856    30.5141     5.6125      .0312     2.3241    92.3480  3074.0005     9.7745      .4862
 2772.6620     9.2352    84.2588  -999.2500      .0468    86.2324    30.0331     6.9710      .0303     2.3162    88.9844  3057.2822     9.9013      .5912
 2772.8144     9.3594    85.6134  -999.2500      .0415    83.4948    30.6484     7.9408      .0303     2.2890    86.5438  3043.9971     9.1213      .1143
 2772.9668     9.3564    83.8290  -999.2500      .0409    82.7100    28.2330     9.0470      .0322     2.2734    83.5906  3049.7241     8.5530     -.0337
 2773.1192     8.8981    86.2842  -999.2500      .0298    86.1508    29.7828     6.6469      .0332     2.2697    87.8774  3053.1812     8.3000      .2026
 2773.2716     8.8527    81.8559  -999.2500      .0306    91.4996    29.4580     7.6262      .0346     2.3067    88.2712  3037.0415     8.7893      .8020
 2773.4240     9.0230    88.4691  -999.2500      .0088    91.4284    31.7911     6.5994      .0313     2.3244    91.5502  3025.6929     8.8312      .3919
 2773.5764     8.9678    83.7088  -999.2500      .0029    89.9080    32.4239     6.8574      .0322     2.3496    89.5698  3037.1836     9.3090      .7360
 2773.7288     8.8207    86.9236  -999.2500     -.0014    85.2344    32.6953     6.5512      .0332     2.3555    90.6038  3078.4380     8.7710      .4649
 2773.8812     8.8848    84.6875  -999.2500      .0150    81.9980    29.6238     7.8279      .0332     2.3478    87.3120  3102.5234     8.4108      .3281
 2774.0336     9.1311    84.6242  -999.2500      .0616    81.6832    27.7321     8.2782      .0303     2.3572    87.1996  3090.9995     8.9727      .3272
 2774.1860     8.8774    84.5056  -999.2500      .0770    80.9736    27.4479     7.8068      .0312     2.3319    89.0104  3050.6450     9.5721      .5631
 2774.3384     9.2489    85.3810  -999.2500      .0490    86.4808    28.5244     8.7472      .0313     2.3124    90.6298  3028.7075     9.8452      .6571
 2774.4908     9.0765    86.2855  -999.2500      .0058    83.5200    29.8383    10.7421      .0317     2.2949    91.3645  3056.3345     8.8527      .6422
 2774.6432     8.8852    82.8874  -999.2500      .0040    86.6078    30.3707    11.7325      .0317     2.3009    90.0714  3073.0562     8.9868      .8999
 2774.7956     9.2609    84.8066  -999.2500      .0108    83.9468    30.3142    10.2370      .0298     2.3127    91.3670  3052.4004     9.3532      .8235
 2774.9480     9.7293    83.8106  -999.2500      .0273    85.3086    29.1133     6.9776      .0308     2.3382    90.1114  3028.2778     9.5993      .7930
 2775.1004     8.9373    83.4332  -999.2500      .0238    84.6262    30.8465     5.9283      .0303     2.3887    87.9956  3039.3970     9.2488      .5733
 2775.2528     8.9066    82.6660  -999.2500      .0085    84.8922    28.8963     6.9365      .0283     2.3828    87.3110  3055.8921     9.0715      .5836
 2775.4052     8.9540    79.2788  -999.2500      .0356    87.5550    27.3936     9.2194      .0298     2.3846    87.0160  3066.0991     9.2457      .9740
 2775.5576     9.0927    83.7207  -999.2500      .0269    86.3006    27.5069    11.7320      .0313     2.3537    89.4748  3056.7666     8.5738      .7270
 2775.7100     8.9290    79.1848  -999.2500      .0334    84.3537    30.1320     8.9388      .0322     2.3868    85.5386  3024.1367     7.9064      .7990
 2775.8624     8.8195    78.6775  -999.2500     -.0053    79.9192    30.8756     7.9237      .0283     2.4007    81.7350  3017.1235     7.9287      .3774
 2776.0148     8.7268    77.3694  -999.2500     -.0014    77.0056    26.8365     6.6940      .0288     2.4355    79.8926  3052.3301     7.8071      .3154
 2776.1672     8.7661    76.5156  -999.2500      .0110    77.8998    23.9709     6.5009      .0298     2.4279    82.6458  3078.9243     8.1755      .7692
 2776.3196     8.8370    78.9268  -999.2500      .0561    81.7732    23.3585     6.6373      .0322     2.4568    85.8706  3060.9585     7.5187      .8705
 2776.4720     8.9989    77.1985  -999.2500      .0491    85.3606    26.2319     7.3284      .0312     2.4217    85.2005  3034.2261     7.4052     1.0109
 2776.6244     8.8664    78.4776  -999.2500      .0244    83.1158    27.5939     6.8692      .0293     2.4024    86.7528  3033.9824     7.7633     1.0432
 2776.7768     8.7510    75.0329  -999.2500      .0151    81.7012    28.5025     5.3661      .0317     2.4201    87.2108  3054.9517     7.4068     1.5348
 2776.9292     8.9070    80.1066  -999.2500      .0107    83.7680    26.4097     5.2004      .0327     2.4571    90.7476  3058.9878     6.8887     1.3399
 2777.0816     9.0219    77.2648  -999.2500      .0117    86.5678    25.4399     5.9926      .0327     2.4706    90.3902  3036.3462     7.1909     1.6504
 2777.2340     8.7907    79.5313  -999.2500      .0083    87.5570    25.6013     6.6631      .0317     2.4530    92.7328  3018.3306     7.1142     1.6582
 2777.3864     9.0307    74.6346  -999.2500      .0087    86.6362    27.9878     6.5091      .0312     2.4336    90.0582  3030.8970     7.2546     1.9434
 2777.5388     8.9367    76.0885  -999.2500      .0015    88.3510    29.3407     5.5048      .0278     2.4336    89.2845  3051.2104     7.3674     1.6553
 2777.6912     8.8202    70.4540  -999.2500      .0079    84.6181    28.4997     5.6512      .0278     2.4317    84.8726  3050.8403     7.3991     1.8141
 2777.8436     8.8118    72.9235  -999.2500      .0173    83.1664    25.9614     6.0817      .0264     2.4398    84.4970  3033.4678     7.5012     1.4594
 2777.9960     8.7266    71.1394  -999.2500      .0476    79.8386    24.0177     6.5173      .0269     2.4785    84.1446  3019.5317     7.6509     1.6384
 2778.1484     8.7266    73.3998  -999.2500      .0146    83.8150    23.1989     5.5638      .0288     2.4707    87.2180  3038.3711     7.4350     1.7428
 2778.3008     8.7266    77.2352  -999.2500      .0034    84.1358    24.1282     5.1569      .0303     2.4707    91.8802  3065.7417     7.6578     1.8453
