~VERSION INFORMATION
VERS.                                                 2.0:   CWLS Log ASCII Standard-VERSION 2.0
WRAP.                                                  NO:   One line per depth step
~Well Information Block
STRT.M                                           472.3364:   Top Depth
STOP.M                                          3124.0964:   Bottom Depth
STEP.M                                             .15240:   Depth Increment
NULL.                                            -999.250:   Null Value
FLD .                                      SLEIPNER-THETA:   Field Name
WELL.                                             15/9-17:   NAME
WBN .                                             15/9-17:   WELLBORE
NATI.                                                 NOR:   COUNTRY
CTRY.                                                 NOR:   COUNTRY
COMP.                                             STATOIL:   OPERATOR
PROV.                                                   ?:   PROVINCE
COUN.                                       WEST VANGUARD:   RIG NAME
SPUD.                                          1982/12/09:   SPUD DATE
LATI.                                       58 26 44.19 N:   SURF. LATITUDE
LONG.                                        1 56 53.58 E:   SURF. LONGITUDE
PBWE.                                             15/9-17:   PB WELL ID
APIN.                                             15/9-17:   PB WELLBORE ID
PBWS.                                                 all:   PB WELL NAME SET
~PARAMETER INFORMATION (log)
LNAM.                             LDT/CNL/NGT  COMPOSITED:   NAME
LTYP.                                         DEPTH MATCH:   LOG TYPE
LSRV.                                           LATEROLOG:   LOG SERVICE
LSOU.                                             SPT/NPD:   LOG SOURCE
LVSN.                                                   1:   LOG VERSION
BHIS.                                                   R:   BRIEF HISTORY
FHIS.                                             RAW-LIS:   FULL HISTORY
LCNM.                                        SCHLUMBERGER:   LOGGING CONTRACTOR
TOOL.                            LDT/CNL/NGT (COMPOSITED):   TOOL STRING
~Curve Information Block
#MNEM.UNIT                                        API CODE    No Description
#=========                                        ========    == ===========
DEPT.M                                       00 001 00 00:     1  DEPTH
CALI.IN                                                  :     2  Caliper
CGR.GAPI                                                 :     3  Gamma Ray
CS.                                                      :     4  Cable Speed
DRHO.G/CC                                                :     5  Bulk density correction
GR.GAPI                                                  :     6  Gamma Ray
NPHI.%                                                   :     7  Neutron porosity
PEF.B/E                                                  :     8  Photo-electric factor
POTA.                                                    :     9  Potassium
RHOB.G/CC                                                :    10  Bulk density
SGR.GAPI                                                 :    11  Gamma Ray
TENS.LB                                                  :    12  Cable Tension
THOR.PPM                                                 :    13  Thorium
URAN.PPM                                                 :    14  Uranium
~ASCII
# ...
 2429.7620    12.2660    38.8338   919.0048     -.0112  -999.2500    22.4092     4.6791      .0146     2.2012    36.9640  2773.9995     3.4215     -.2663
 2429.9144    12.2674    38.3214   919.9991     -.0043  -999.2500    21.5431     5.7052      .0161     2.1915    39.2670  2793.8721     3.5768      .0898
 2430.0668    12.5490    39.8098   920.4968      .0087  -999.2500    23.6455     6.1326      .0171     2.2037    41.7359  2774.0508     3.4152      .3184
 2430.2192    12.8674    40.4640   919.9967      .0723  -999.2500    25.6016     6.7052      .0166     2.2904    42.0443  2770.1084     3.6009      .2550
 2430.3716    12.9390    39.6301   918.5048      .0729  -999.2500    28.0286     7.0321      .0156     2.2024    40.4416  2799.7256     3.5900      .0764
 2430.5240    14.3359    40.3632   918.4976      .0886  -999.2500    28.3300     8.3752      .0151     2.0910    39.2190  2744.4663     3.6266     -.1911
 2430.6764    15.3154    38.4148   918.0016      .0509  -999.2500    35.6832     8.3955      .0142     1.9956    39.4417  2833.5723     3.9758      .0995
 2430.8288    14.7426    39.1225   918.0000      .0688  -999.2500    40.4441     8.0390      .0146     2.0568    40.2359  2789.9937     4.0998      .1914
 2430.9812    14.9455    39.0671   918.0016      .0465  -999.2500    44.8157     8.0030      .0156     2.1192    40.0943  2744.4536     3.6855      .1264
 2431.1336    15.1082    40.4289   918.4984      .0673  -999.2500    42.2383     8.9291      .0147     2.1600    39.7107  2839.8525     3.8558     -.1104
 2431.2860    14.8691    39.1393   918.4984      .0512  -999.2500    42.9656     8.7413      .0146     2.1054    40.5295  2889.7446     4.1367      .0841
 2431.4384    13.9527    42.2692   918.0032      .0468  -999.2500    42.4451     8.6066      .0151     2.0839    42.9937  2860.3320     4.4126      .1514
 2431.5908    13.9136    41.6674   918.4968      .0353  -999.2500    44.4945     8.1789      .0171     2.0626    44.5759  2933.5908     4.2214      .3845
 2431.7432    13.8529    44.5149   918.0000      .0532  -999.2500    46.4501     8.0555      .0176     2.0839    44.5447  2880.0132     3.6528      .0723
 2431.8956    14.0033    42.2945   917.5048      .0558  -999.2500    48.6494     8.1770      .0166     2.0626    43.3665  2830.5396     3.8484      .0610
 2432.0480    14.4157    42.8056   918.0016      .0777  -999.2500    50.6797     7.8447      .0156     2.0724    43.0403  2923.3799     4.1982      .0537
 2432.2004    14.6318    41.1977   918.9967      .0811  -999.2500    50.1438     8.4474      .0161     2.0843    42.8551  2824.1470     4.2258      .1865
 2432.3528    14.2479    42.7384   918.9984      .1098  -999.2500    49.4464     6.6767      .0156     2.1661    42.3414  2770.4917     4.0208      .0127
 2432.5052    13.6063    40.7081   918.5016      .0838  -999.2500    44.2751     5.7393      .0156     2.1952    41.6081  2869.6523     4.2139     -.0171
 2432.6576    13.0438    43.6092   918.4968      .0527  -999.2500    41.7986     5.9493      .0151     2.1715    43.1785  2863.6357     4.1475     -.0451
 2432.8100    12.5479    41.6420   917.5032      .0461  -999.2500    42.0613     7.1767      .0156     2.1113    45.6366  2744.8945     5.0071      .4887
 2432.9624    12.6825    44.9265   917.5000      .0767  -999.2500    45.2096     8.5230      .0171     2.1058    47.1698  2903.2842     4.4461      .3936
 2433.1148    13.0648    44.7800   917.5000      .0837  -999.2500    44.3506     6.0093      .0161     2.1486    45.5930  2839.9302     4.1332      .1541
 2433.2672    13.3441    34.5367   917.4984      .0421  -999.2500    38.9816     4.4210      .0137     2.1856    41.9228  2754.5615     2.7275      .9019
 2433.4196    12.3669    35.6738   917.0000      .0009  -999.2500    34.9598     3.8291      .0137     2.1933    38.0297  2843.6484     2.8193      .3018
 2433.5720    12.3520    32.6083   916.5000     -.0137  -999.2500    34.8157     3.9481      .0137     2.1776    34.9731  2824.1470     2.6114      .1700
 2433.7244    12.3520    34.0482   916.0016     -.0190  -999.2500    35.3548     4.1996      .0132     2.1621    34.4560  2849.9297     2.4331      .0645
 2433.8768    12.3520    31.0822   916.0000     -.0181  -999.2500    36.2185     4.3156      .0142     2.1660    34.6204  2853.8398     2.7190      .4318
 2434.0292    12.3519    32.1824   916.0032     -.0171  -999.2500    33.8320     4.1555      .0132     2.1719    34.5042  2809.9614     2.6559      .3228
 2434.1816    12.3435    31.6989   916.9967     -.0176  -999.2500    32.8940     4.0261      .0122     2.1738    33.7199  2754.4346     2.4795      .2356
 2434.3340    12.2659    29.9027   916.9968     -.0244  -999.2500    30.4078     3.8436      .0132     2.1777    33.3936  2833.6675     2.6129      .3831
 2434.4864    12.2575    31.8454   916.0032     -.0264  -999.2500    28.5104     3.8147      .0127     2.1817    33.7396  2809.9487     2.6208      .3125
 2434.6388    12.1800    29.4662   916.0016     -.0264  -999.2500    27.6280     3.8479      .0132     2.1934    33.0972  2770.1914     2.5516      .4072
 2434.7912    12.1800    31.1405   916.4968     -.0264  -999.2500    26.5157     3.8788      .0112     2.1934    32.2646  2789.9487     2.7327      .2031
 2434.9436    12.1800    27.9599   916.0016     -.0215  -999.2500    27.0491     3.8552      .0127     2.1895    31.0217  2793.8145     2.3811      .2964
 2435.0960    12.1800    31.7102   916.0016     -.0210  -999.2500    26.4616     3.7660      .0127     2.1777    30.5813  2740.2363     2.1108     -.0723
 2435.2484    12.1800    27.9900   916.5016     -.0186  -999.2500    25.3935     3.8756      .0132     2.1699    29.7527  2760.0640     2.2964      .1575
 2435.4008    12.1800    30.8627   917.4951     -.0190  -999.2500    25.7779     3.9713      .0122     2.1661    29.6712  2799.9043     2.3342     -.1426
 2435.5532    12.1800    29.9272   917.0032     -.0147  -999.2500    25.2967     4.0689      .0127     2.1777    30.2661  2809.9810     2.4457      .0067
 2435.7056    12.1800    30.6405   917.4937     -.0166  -999.2500    25.8753     3.8462      .0132     2.1816    31.3959  2813.8467     2.6927      .1183
 2435.8580    12.1800    31.3296   916.0071     -.0205  -999.2500    25.2953     3.9177      .0127     2.1816    32.2611  2770.2744     2.7470      .1083
 2436.0104    12.1800    32.3043   916.0000     -.0210  -999.2500    25.5805     3.8761      .0142     2.1816    32.8797  2790.0000     2.1739      .0872
 2436.1628    12.1800    30.7251   916.0032     -.0195  -999.2500    24.8993     4.0074      .0146     2.1836    32.9664  2809.8081     2.2276      .2953
 2436.3152    12.1800    31.1082   916.9919     -.0200  -999.2500    24.0701     3.8910      .0127     2.1855    32.1546  2770.0640     2.5919      .1685
 2436.4676    12.1800    31.1252   915.5016     -.0215  -999.2500    23.4871     3.9995      .0127     2.1836    30.6484  2750.2046     2.3931     -.0995
 2436.6200    12.1800    31.2181   914.4967     -.0171  -999.2500    23.8352     3.8327      .0132     2.1895    30.0663  2794.0830     2.3541     -.1812
 2436.7724    12.1800    31.0333   913.4951     -.0156  -999.2500    24.9519     3.6373      .0132     2.1895    30.7207  2819.8848     2.5486     -.0433
 2436.9248    12.1800    31.6828   912.0048     -.0161  -999.2500    25.0974     3.4157      .0137     2.1875    31.5089  2784.0063     2.4630      .0118
 2437.0772    12.1800    30.8792   912.0016     -.0190  -999.2500    24.9966     3.3715      .0137     2.1816    31.5289  2750.1084     2.3957      .0863
 2437.2296    12.1800    31.3715   912.5048     -.0146  -999.2500    24.4650     3.4302      .0137     2.1816    31.1411  2750.1089     2.0997     -.0290
 2437.3820    12.1800    30.2974   913.9951     -.0132  -999.2500    24.7097     3.4892      .0137     2.1836    31.0635  2784.0957     2.1196      .0512
 2437.5344    12.1800    30.4502   912.5032     -.0107  -999.2500    25.0488     3.5997      .0132     2.1836    31.8165  2813.8403     2.2690      .1885
