~VERSION INFORMATION
VERS.                                                 2.0:   CWLS Log ASCII Standard-VERSION 2.0
WRAP.                                                  NO:   One line per depth step
~Well Information Block
STRT.M                                           472.3364:   Top Depth
STOP.M                                          3124.0964:   Bottom Depth
STEP.M                                             .15240:   Depth Increment
NULL.                                            -999.250:   Null Value
FLD .                                      SLEIPNER-THETA:   Field Name
WELL.                                             15/9-17:   NAME
WBN .                                             15/9-17:   WELLBORE
NATI.                                                 NOR:   COUNTRY
CTRY.                                                 NOR:   COUNTRY
COMP.                                             STATOIL:   OPERATOR
PROV.                                                   ?:   PROVINCE
COUN.                                       WEST VANGUARD:   RIG NAME
SPUD.                                          1982/12/09:   SPUD DATE
LATI.                                       58 26 44.19 N:   SURF. LATITUDE
LONG.                                        1 56 53.58 E:   SURF. LONGITUDE
PBWE.                                             15/9-17:   PB WELL ID
APIN.                                             15/9-17:   PB WELLBORE ID
PBWS.                                                 all:   PB WELL NAME SET
~PARAMETER INFORMATION (log)
LNAM.                             LDT/CNL/NGT  COMPOSITED:   NAME
LTYP.                                         DEPTH MATCH:   LOG TYPE
LSRV.                                           LATEROLOG:   LOG SERVICE
LSOU.                                             SPT/NPD:   LOG SOURCE
LVSN.                                                   1:   LOG VERSION
BHIS.                                                   R:   BRIEF HISTORY
FHIS.                                             RAW-LIS:   FULL HISTORY
LCNM.                                        SCHLUMBERGER:   LOGGING CONTRACTOR
TOOL.                            LDT/CNL/NGT (COMPOSITED):   TOOL STRING
~Curve Information Block
#MNEM.UNIT                                        API CODE    No Description
#=========                                        ========    == ===========
DEPT.M                                       00 001 00 00:     1  DEPTH
CALI.IN                                                  :     2  Caliper
CGR.GAPI                                                 :     3  Gamma Ray
CS.                                                      :     4  Cable Speed
DRHO.G/CC                                                :     5  Bulk density correction
GR.GAPI                                                  :     6  Gamma Ray
NPHI.%                                                   :     7  Neutron porosity
PEF.B/E                                                  :     8  Photo-electric factor
POTA.                                                    :     9  Potassium
RHOB.G/CC                                                :    10  Bulk density
SGR.GAPI                                                 :    11  Gamma Ray
TENS.LB                                                  :    12  Cable Tension
THOR.PPM                                                 :    13  Thorium
URAN.PPM                                                 :    14  Uranium
~ASCII
# ...
  979.5236    17.2188  -999.2500  1930.0000      .0034  -999.2500  -999.2500     1.7969  -999.2500     1.9707    46.0000  1310.0000  -999.2500  -999.2500
  979.6760    17.3281  -999.2500  1931.0000      .0063  -999.2500  -999.2500     1.8203  -999.2500     1.9824    44.8125  1360.0000  -999.2500  -999.2500
  979.8284    17.2813  -999.2500  1931.0000     -.0024  -999.2500  -999.2500     1.8467  -999.2500     1.9805    43.3438  1270.0000  -999.2500  -999.2500
  979.9808    17.2813  -999.2500  1932.0000     -.0015  -999.2500  -999.2500     1.8643  -999.2500     1.9971    42.3750  1365.0000  -999.2500  -999.2500
  980.1332    17.2813  -999.2500  1932.0000     -.0034  -999.2500  -999.2500     1.8750  -999.2500     1.9932    44.2187  1270.0000  -999.2500  -999.2500
  980.2856    17.2656  -999.2500  1931.0000      .0078  -999.2500  -999.2500     1.8564  -999.2500     2.0020    43.9062  1320.0000  -999.2500  -999.2500
  980.4380    17.3281  -999.2500  1931.0000      .0024  -999.2500  -999.2500     1.8330  -999.2500     1.9775    43.7187  1295.0000  -999.2500  -999.2500
  980.5904    17.3594  -999.2500  1932.0000      .0132  -999.2500  -999.2500     1.7930  -999.2500     1.9639    42.4375  1330.0000  -999.2500  -999.2500
  980.7428    17.2969  -999.2500  1932.0000      .0181  -999.2500  -999.2500     1.7559  -999.2500     1.9395    45.1250  1290.0000  -999.2500  -999.2500
  980.8952    17.3281  -999.2500  1933.0000      .0293  -999.2500  -999.2500     1.7578  -999.2500     1.9453    47.0938  1345.0000  -999.2500  -999.2500
  981.0476    17.0781  -999.2500  1934.0000      .0171  -999.2500  -999.2500     1.7422  -999.2500     1.9277    50.3125  1335.0000  -999.2500  -999.2500
  981.2000    16.8125  -999.2500  1933.0000      .0264  -999.2500  -999.2500     1.7793  -999.2500     1.9385    50.9688  1310.0000  -999.2500  -999.2500
  981.3524    16.6719  -999.2500  1933.0000      .0518  -999.2500  -999.2500     1.7334  -999.2500     1.9580    53.2188  1320.0000  -999.2500  -999.2500
  981.5048    16.6875  -999.2500  1933.0000      .0674  -999.2500  -999.2500     1.7441  -999.2500     1.9609    52.4687  1325.0000  -999.2500  -999.2500
  981.6572    16.4219  -999.2500  1932.0000      .0591  -999.2500  -999.2500     1.7393  -999.2500     1.9316    51.9375  1310.0000  -999.2500  -999.2500
  981.8096    16.2344  -999.2500  1932.0000      .0576  -999.2500  -999.2500     1.7861  -999.2500     1.9092    50.4687  1345.0000  -999.2500  -999.2500
  981.9620    15.9531  -999.2500  1933.0000      .0474  -999.2500  -999.2500     1.8174  -999.2500     1.8965    50.6875  1315.0000  -999.2500  -999.2500
  982.1144    15.8437  -999.2500  1933.0000      .0615  -999.2500  -999.2500     1.7715  -999.2500     1.9063    50.1250  1330.0000  -999.2500  -999.2500
  982.2668    15.9062  -999.2500  1931.0000      .0698  -999.2500  -999.2500     1.7188  -999.2500     1.8896    50.8438  1320.0000  -999.2500  -999.2500
  982.4192    16.1563  -999.2500  1930.0000      .0771  -999.2500  -999.2500     1.6348  -999.2500     1.8525    47.0000  1335.0000  -999.2500  -999.2500
  982.5716    16.9688  -999.2500  1930.0000      .0703  -999.2500  -999.2500     1.6289  -999.2500     1.8027    43.3438  1290.0000  -999.2500  -999.2500
  982.7240    17.5469  -999.2500  1930.0000      .0439  -999.2500  -999.2500     1.5957  -999.2500     1.7549    41.8750  1340.0000  -999.2500  -999.2500
  982.8764    18.1250  -999.2500  1931.0000      .0376  -999.2500  -999.2500     1.6113  -999.2500     1.7441    43.0625  1325.0000  -999.2500  -999.2500
  983.0288    18.3281  -999.2500  1931.0000      .0142  -999.2500  -999.2500     1.5703  -999.2500     1.7139    45.1562  1340.0000  -999.2500  -999.2500
  983.1812    18.5313  -999.2500  1930.0000      .0122  -999.2500  -999.2500     1.5371  -999.2500     1.6973    41.7500  1330.0000  -999.2500  -999.2500
  983.3336    18.3750  -999.2500  1930.0000      .0063  -999.2500  -999.2500     1.4932  -999.2500     1.6611    41.2813  1385.0000  -999.2500  -999.2500
  983.4860    16.8281  -999.2500  1930.0000      .0024  -999.2500  -999.2500     1.4785  -999.2500     1.6113    38.9375  1370.0000  -999.2500  -999.2500
  983.6384    16.8281  -999.2500  1930.0000     -.0010  -999.2500  -999.2500     1.5313  -999.2500     1.5654    41.7187  1325.0000  -999.2500  -999.2500
  983.7908    16.9219  -999.2500  1930.0000      .0029  -999.2500  -999.2500     1.6240  -999.2500     1.5957    44.3750  1380.0000  -999.2500  -999.2500
  983.9432    16.8906  -999.2500  1929.0000      .0117  -999.2500  -999.2500     1.7539  -999.2500     1.6934    47.4687  1350.0000  -999.2500  -999.2500
  984.0956    16.5938  -999.2500  1928.0000      .0361  -999.2500  -999.2500     1.7617  -999.2500     1.8545    47.9375  1355.0000  -999.2500  -999.2500
  984.2480    16.8750  -999.2500  1929.0000      .0361  -999.2500  -999.2500     1.7617  -999.2500     1.9160    46.2187  1365.0000  -999.2500  -999.2500
  984.4004    17.1406  -999.2500  1929.0000      .0503  -999.2500  -999.2500     1.7598  -999.2500     1.9443    48.5625  1330.0000  -999.2500  -999.2500
  984.5528    17.1094  -999.2500  1928.0000      .0356  -999.2500  -999.2500     1.8018  -999.2500     1.9355    50.4375  1355.0000  -999.2500  -999.2500
  984.7052    17.1875  -999.2500  1927.0000      .0200  -999.2500  -999.2500     1.8662  -999.2500     1.9590    54.8125  1290.0000  -999.2500  -999.2500
  984.8576    17.2813  -999.2500  1926.0000      .0010  -999.2500  -999.2500     1.8711  -999.2500     1.9736    54.0000  1390.0000  -999.2500  -999.2500
  985.0100    17.2656  -999.2500  1924.0000     -.0029  -999.2500  -999.2500     1.8691  -999.2500     1.9824    50.9688  1385.0000  -999.2500  -999.2500
  985.1624    17.2656  -999.2500  1922.0000     -.0015  -999.2500  -999.2500     1.8135  -999.2500     1.9766    47.0000  1375.0000  -999.2500  -999.2500
  985.3148    17.2969  -999.2500  1921.0000      .0049  -999.2500  -999.2500     1.7783  -999.2500     1.9814    44.2813  1340.0000  -999.2500  -999.2500
  985.4672    17.2969  -999.2500  1920.0000      .0054  -999.2500  -999.2500     1.7256  -999.2500     1.9775    45.5000  1355.0000  -999.2500  -999.2500
  985.6196    17.2969  -999.2500  1919.0000      .0024  -999.2500  -999.2500     1.7168  -999.2500     1.9814    43.7500  1315.0000  -999.2500  -999.2500
  985.7720    17.2969  -999.2500  1916.0000     -.0044  -999.2500  -999.2500     1.7070  -999.2500     1.9805    44.5000  1355.0000  -999.2500  -999.2500
  985.9244    17.3125  -999.2500  1915.0000     -.0059  -999.2500  -999.2500     1.7305  -999.2500     1.9844    42.1875  1320.0000  -999.2500  -999.2500
  986.0768    17.3281  -999.2500  1913.0000     -.0098  -999.2500  -999.2500     1.7148  -999.2500     1.9727    43.3438  1330.0000  -999.2500  -999.2500
  986.2292    17.2813  -999.2500  1912.0000     -.0117  -999.2500  -999.2500     1.6768  -999.2500     1.9590    42.5313  1340.0000  -999.2500  -999.2500
  986.3816    17.3438  -999.2500  1913.0000     -.0044  -999.2500  -999.2500     1.6025  -999.2500     1.9639    39.7500  1335.0000  -999.2500  -999.2500
  986.5340    17.3906  -999.2500  1913.0000     -.0044  -999.2500  -999.2500     1.5850  -999.2500     1.9629    39.0625  1320.0000  -999.2500  -999.2500
  986.6864    17.5000  -999.2500  1913.0000     -.0059  -999.2500  -999.2500     1.5654  -999.2500     1.9658    37.2188  1340.0000  -999.2500  -999.2500
  986.8388    17.3906  -999.2500  1912.0000     -.0054  -999.2500  -999.2500     1.5781  -999.2500     1.9668    37.4687  1315.0000  -999.2500  -999.2500
  986.9912    17.3906  -999.2500  1912.0000      .0078  -999.2500  -999.2500     1.5420  -999.2500     1.9883    34.6875  1330.0000  -999.2500  -999.2500
  987.1436    17.6719  -999.2500  1912.0000      .0083  -999.2500  -999.2500     1.5684  -999.2500     1.9941    34.4063  1330.0000  -999.2500  -999.2500
  987.2960    17.5625  -999.2500  1912.0000      .0063  -999.2500  -999.2500     1.5234  -999.2500     1.9951    33.3438  1300.0000  -999.2500  -999.2500
