~VERSION INFORMATION
VERS.                                                 2.0:   CWLS Log ASCII Standard-VERSION 2.0
WRAP.                                                  NO:   One line per depth step
~Well Information Block
STRT.M                                           472.3364:   Top Depth
STOP.M                                          3124.0964:   Bottom Depth
STEP.M                                             .15240:   Depth Increment
NULL.                                            -999.250:   Null Value
FLD .                                      SLEIPNER-THETA:   Field Name
WELL.                                             15/9-17:   NAME
WBN .                                             15/9-17:   WELLBORE
NATI.                                                 NOR:   COUNTRY
CTRY.                                                 NOR:   COUNTRY
COMP.                                             STATOIL:   OPERATOR
PROV.                                                   ?:   PROVINCE
COUN.                                       WEST VANGUARD:   RIG NAME
SPUD.                                          1982/12/09:   SPUD DATE
LATI.                                       58 26 44.19 N:   SURF. LATITUDE
LONG.                                        1 56 53.58 E:   SURF. LONGITUDE
PBWE.                                             15/9-17:   PB WELL ID
APIN.                                             15/9-17:   PB WELLBORE ID
PBWS.                                                 all:   PB WELL NAME SET
~PARAMETER INFORMATION (log)
LNAM.                             LDT/CNL/NGT  COMPOSITED:   NAME
LTYP.                                         DEPTH MATCH:   LOG TYPE
LSRV.                                           LATEROLOG:   LOG SERVICE
LSOU.                                             SPT/NPD:   LOG SOURCE
LVSN.                                                   1:   LOG VERSION
BHIS.                                                   R:   BRIEF HISTORY
FHIS.                                             RAW-LIS:   FULL HISTORY
LCNM.                                        SCHLUMBERGER:   LOGGING CONTRACTOR
TOOL.                            LDT/CNL/NGT (COMPOSITED):   TOOL STRING
~Curve Information Block
#MNEM.UNIT                                        API CODE    No Description
#=========                                        ========    == ===========
DEPT.M                                       00 001 00 00:     1  DEPTH
CALI.IN                                                  :     2  Caliper
CGR.GAPI                                                 :     3  Gamma Ray
CS.                                                      :     4  Cable Speed
DRHO.G/CC                                                :     5  Bulk density correction
GR.GAPI                                                  :     6  Gamma Ray
NPHI.%                                                   :     7  Neutron porosity
PEF.B/E                                                  :     8  Photo-electric factor
POTA.                                                    :     9  Potassium
RHOB.G/CC                                                :    10  Bulk density
SGR.GAPI                                                 :    11  Gamma Ray
TENS.LB                                                  :    12  Cable Tension
THOR.PPM                                                 :    13  Thorium
URAN.PPM                                                 :    14  Uranium
~ASCII
# ...
 2088.9956    13.1541    47.3578   919.0032     -.0073  -999.2500    45.0260     2.9272      .0142     2.0448    53.6594  2490.2363     5.7189      .8347
 2089.1480    12.8643    46.0047   918.9968     -.0073  -999.2500    45.9797     2.8559      .0156     2.0371    54.1111  2579.7124     5.7041     1.0033
 2089.3004    12.4380    46.0910   918.0016     -.0059  -999.2500    51.0857     2.9182      .0142     2.0352    53.8319  2579.9165     5.9872      .9833
 2089.4528    12.4380    45.2487   918.5000     -.0073  -999.2500    54.7346     2.9807      .0137     2.0371    53.1350  2553.9551     5.6383      .9435
 2089.6052    12.4383    44.8419   918.5016     -.0083  -999.2500    54.2865     3.0568      .0127     2.0430    52.9228  2540.1084     6.1385      .9872
 2089.7576    12.5310    43.8517   919.0016     -.0117  -999.2500    51.0195     3.1195      .0132     2.0449    53.2351  2559.9805     5.9805     1.1505
 2089.9100    12.5310    45.3396   919.9967     -.0112  -999.2500    49.3125     3.2582      .0132     2.0469    53.8438  2573.9551     5.8271     1.0495
 2090.0624    12.5315    45.4634   920.0000     -.0122  -999.2500    48.5837     3.3473      .0146     2.0469    54.3080  2573.7764     5.5152     1.1187
 2090.2148    12.6084    43.7946   920.0000     -.0083  -999.2500    48.5266     3.2916      .0151     2.0548    54.1952  2504.4023     5.3809     1.2806
 2090.3672    13.5970    46.2705   919.9984     -.0053  -999.2500    47.2176     3.3789      .0161     2.0665    53.8591  2559.7251     4.6432      .9484
 2090.5196    14.0713    45.4126   919.4967     -.0010  -999.2500    47.3227     3.3829      .0171     2.0781    53.8735  2530.0767     4.7046      .9720
 2090.6720    14.2667    46.5320   918.0016     -.0025  -999.2500    48.6784     3.3999      .0161     2.0840    55.3631  2524.1279     5.2350     1.1109
 2090.8244    14.4858    46.7513   918.5032     -.0098  -999.2500    47.5532     3.2539      .0166     2.0762    56.5373  2564.0000     5.4176     1.2768
 2090.9768    15.0547    47.1628   919.4937     -.0151  -999.2500    45.7479     3.2496      .0171     2.0644    56.0701  2563.8594     5.3002     1.0988
 2091.1292    14.9681    49.6090   918.5032     -.0181  -999.2500    44.4827     3.1345      .0166     2.0488    55.0853  2520.0894     5.0182      .6859
 2091.2816    14.6702    47.0956   918.4967     -.0136  -999.2500    44.6955     3.0474      .0166     2.0411    54.3391  2504.3525     5.5454      .8448
 2091.4340    13.1503    47.6953   917.4968     -.0063  -999.2500    47.4186     2.8341      .0146     2.0488    54.8022  2613.8911     6.3179      .8571
 2091.5864    12.2660    50.1080   916.5048     -.0044  -999.2500    48.4502     2.8434      .0137     2.0527    55.8219  2580.0254     6.7682      .7461
 2091.7388    12.2660    47.2673   916.9984     -.0054  -999.2500    50.3411     2.7769      .0146     2.0586    56.1256  2554.2295     6.8151     1.0926
 2091.8912    12.2660    49.7757   917.0048     -.0098  -999.2500    50.1966     3.0158      .0142     2.0547    55.8714  2599.6606     6.4619      .7918
 2092.0436    12.2660    50.3099   917.9968     -.0098  -999.2500    50.5285     3.0668      .0151     2.0527    54.9644  2539.9805     6.4343      .5523
 2092.1960    12.2660    49.5079   917.0063     -.0132  -999.2500    47.8987     3.1753      .0151     2.0449    54.3304  2534.0703     6.6393      .5832
 2092.3484    12.2656    51.1553   917.9967     -.0156  -999.2500    47.5064     3.0315      .0156     2.0488    54.6382  2549.7378     6.4354      .3644
 2092.5008    12.1478    52.4894   918.0000     -.0205  -999.2500    46.3959     3.0805      .0151     2.0508    56.3141  2484.4531     6.7961      .4990
 2092.6532    12.0860    50.5496   917.9984     -.0166  -999.2500    49.1769     3.2094      .0171     2.0645    57.9559  2559.9302     6.9237      .9162
 2092.8056    12.0860    54.2934   917.5032     -.0131  -999.2500    50.2443     3.2713      .0171     2.0646    58.8545  2613.3481     6.4160      .6341
 2092.9580    12.0860    52.1323   918.0032     -.0029  -999.2500    50.2855     3.2454      .0166     2.0781    58.6166  2464.7026     6.5120      .7456
 2093.1104    12.0860    52.2227   919.4967     -.0034  -999.2500    49.1076     3.1365      .0166     2.0781    59.2580  2533.9551     6.7061      .8456
 2093.2628    12.0860    53.5551   919.9984     -.0049  -999.2500    47.0221     3.1032      .0171     2.0781    60.6228  2589.7891     6.6138      .9086
 2093.4152    12.0860    52.6015   920.0000     -.0078  -999.2500    47.3638     3.0192      .0171     2.0723    61.2144  2579.9678     6.6794     1.0895
 2093.5676    12.0860    54.0537   920.0000     -.0093  -999.2500    47.6151     2.9316      .0171     2.0645    60.5738  2559.9487     6.6476      .8577
 2093.7200    12.0860    52.7868   920.0000     -.0122  -999.2500    50.1532     2.9357      .0171     2.0625    58.7926  2524.0703     6.3447      .7151
 2093.8724    12.0860    53.2425   920.0023     -.0127  -999.2500    52.3972     2.9885      .0171     2.0664    57.1439  2510.1309     6.3345      .4900
 2094.0248    12.0860    52.1716   920.5032     -.0132  -999.2500    53.2691     3.0390      .0161     2.0703    56.5005  2529.9038     6.8352      .4111
 2094.1772    12.0864    55.8515   921.9904     -.0127  -999.2500    52.9784     3.0274      .0156     2.0664    58.0788  2520.0000     7.1016      .3311
 2094.3296    12.1412    52.2750   920.5048     -.0137  -999.2500    52.8841     3.0490      .0176     2.0605    59.6129  2510.1401     7.3794      .8811
 2094.4820    12.1805    56.4425   920.4984     -.0137  -999.2500    53.3715     3.0741      .0176     2.0586    60.3828  2543.7925     6.6004      .5930
 2094.6344    12.2580    54.5694   919.9984     -.0122  -999.2500    53.7601     3.0546      .0186     2.0645    59.3836  2529.9487     6.2702      .5323
 2094.7868    12.2660    54.8121   919.0048     -.0176  -999.2500    53.7977     3.0372      .0186     2.0645    59.1974  2500.3193     6.1387      .5021
 2094.9392    12.2662    54.9359   919.5000     -.0156  -999.2500    50.2894     3.0802      .0176     2.0742    60.5890  2569.6802     6.6307      .6783
 2095.0916    12.3365    54.5644   920.0000     -.0117  -999.2500    49.1711     3.1016      .0190     2.0801    62.4441  2540.1274     6.4661     1.0186
 2095.2440    12.4843    54.7871   920.4984     -.0049  -999.2500    49.5273     3.0900      .0186     2.0898    63.3561  2549.9810     6.7020     1.0713
 2095.3964    12.5310    56.8322   920.4984     -.0044  -999.2500    51.9087     3.1192      .0181     2.0898    63.3525  2553.8784     6.5785      .8354
 2095.5488    12.5310    55.2901   920.0000     -.0073  -999.2500    52.6151     3.1352      .0190     2.0898    63.1078  2520.3960     6.5564      .8979
 2095.7012    12.5310    56.4953   919.5016     -.0088  -999.2500    49.2065     3.1933      .0200     2.0918    64.1885  2609.4702     5.8481      .9416
 2095.8536    12.5311    56.2445   919.4976     -.0102  -999.2500    47.2632     3.1725      .0195     2.0957    65.5284  2534.2549     6.4838     1.2093
 2096.0060    12.5492    54.8632   919.0032     -.0063  -999.2500    46.6841     3.2876      .0190     2.1035    66.1381  2500.1211     7.0020     1.3325
 2096.1584    13.2329    59.5003   919.5000     -.0039  -999.2500    47.9543     3.4533      .0171     2.1035    67.3624  2504.1978     6.9344     1.0091
 2096.3108    12.9069    54.5630   919.9984      .0034  -999.2500    49.6140     3.5120      .0190     2.1074    69.2193  2569.7891     7.1132     1.6865
 2096.4632    13.1959    59.4403   920.0032      .0059  -999.2500    51.1681     3.6189      .0186     2.1055    72.3338  2569.8213     7.2627     1.7471
 2096.6156    13.4629    57.9798   920.9935      .0059  -999.2500    49.9441     3.5705      .0220     2.1074    72.9112  2514.4346     6.5711     1.8511
 2096.7680    13.7651    59.9312   920.0032      .0068  -999.2500    48.8598     3.6070      .0210     2.1133    72.1381  2593.4888     6.1353     1.5067
