~VERSION INFORMATION
VERS.                                                 2.0:   CWLS Log ASCII Standard-VERSION 2.0
WRAP.                                                  NO:   One line per depth step
~Well Information Block
STRT.M                                           472.3364:   Top Depth
STOP.M                                          3124.0964:   Bottom Depth
STEP.M                                             .15240:   Depth Increment
NULL.                                            -999.250:   Null Value
FLD .                                      SLEIPNER-THETA:   Field Name
WELL.                                             15/9-17:   NAME
WBN .                                             15/9-17:   WELLBORE
NATI.                                                 NOR:   COUNTRY
CTRY.                                                 NOR:   COUNTRY
COMP.                                             STATOIL:   OPERATOR
PROV.                                                   ?:   PROVINCE
COUN.                                       WEST VANGUARD:   RIG NAME
SPUD.                                          1982/12/09:   SPUD DATE
LATI.                                       58 26 44.19 N:   SURF. LATITUDE
LONG.                                        1 56 53.58 E:   SURF. LONGITUDE
PBWE.                                             15/9-17:   PB WELL ID
APIN.                                             15/9-17:   PB WELLBORE ID
PBWS.                                                 all:   PB WELL NAME SET
~PARAMETER INFORMATION (log)
LNAM.                             LDT/CNL/NGT  COMPOSITED:   NAME
LTYP.                                         DEPTH MATCH:   LOG TYPE
LSRV.                                           LATEROLOG:   LOG SERVICE
LSOU.                                             SPT/NPD:   LOG SOURCE
LVSN.                                                   1:   LOG VERSION
BHIS.                                                   R:   BRIEF HISTORY
FHIS.                                             RAW-LIS:   FULL HISTORY
LCNM.                                        SCHLUMBERGER:   LOGGING CONTRACTOR
TOOL.                            LDT/CNL/NGT (COMPOSITED):   TOOL STRING
~Curve Information Block
#MNEM.UNIT                                        API CODE    No Description
#=========                                        ========    == ===========
DEPT.M                                       00 001 00 00:     1  DEPTH
CALI.IN                                                  :     2  Caliper
CGR.GAPI                                                 :     3  Gamma Ray
CS.                                                      :     4  Cable Speed
DRHO.G/CC                                                :     5  Bulk density correction
GR.GAPI                                                  :     6  Gamma Ray
NPHI.%                                                   :     7  Neutron porosity
PEF.B/E                                                  :     8  Photo-electric factor
POTA.                                                    :     9  Potassium
RHOB.G/CC                                                :    10  Bulk density
SGR.GAPI                                                 :    11  Gamma Ray
TENS.LB                                                  :    12  Cable Tension
THOR.PPM                                                 :    13  Thorium
URAN.PPM                                                 :    14  Uranium
~ASCII
# ...
 2263.3412    15.9680    40.6326   920.9872      .0473  -999.2500    36.5305     4.0899      .0137     2.2616    62.1531  2650.3320     5.3170     2.6670
 2263.4936    15.8216    42.4059   917.0208      .0377  -999.2500    37.6956     4.1007      .0122     2.2521    64.5406  2719.6484     6.1880     2.7980
 2263.6460    16.0638    44.0925   919.4872      .0472  -999.2500    37.7883     3.9532      .0127     2.2733    65.7173  2679.9805     6.0046     2.6625
 2263.7984    16.1877    45.3721   918.0063      .0269  -999.2500    37.0657     3.6616      .0132     2.2559    66.7912  2634.3384     6.0406     2.6353
 2263.9508    16.1404    45.7507   918.4904      .0347  -999.2500    37.7821     3.5822      .0137     2.2519    67.9854  2693.7319     6.5521     2.7807
 2264.1032    16.0639    46.3430   916.0079      .0420  -999.2500    36.4251     3.8468      .0137     2.2362    68.1161  2669.9614     6.2612     2.7434
 2264.2556    16.3443    46.7168   916.0016      .0572  -999.2500    36.1324     4.7917      .0146     2.2148    66.8030  2634.1787     5.8231     2.4750
 2264.4080    16.4372    46.4670   916.5016      .0703  -999.2500    35.9435     5.5979      .0132     2.2090    65.3449  2654.1270     6.2570     2.3189
 2264.5604    16.1886    45.6558   917.4951      .0802  -999.2500    37.6521     5.6595      .0127     2.1954    64.2298  2713.5400     6.4395     2.3199
 2264.7128    16.3124    44.7554   917.4984      .0986  -999.2500    38.9135     4.7126      .0127     2.2130    62.9278  2660.1406     6.2321     2.2397
 2264.8652    16.2211    45.5254   917.0000      .0990  -999.2500    38.5331     4.3689      .0146     2.2207    61.6976  2650.1914     5.3120     1.9901
 2265.0176    16.5481    44.4721   916.5016      .0853  -999.2500    39.7903     4.0261      .0146     2.2266    60.8169  2699.6489     5.4409     2.0076
 2265.1700    16.7180    44.4707   916.5000      .0623  -999.2500    39.0646     3.8324      .0146     2.2247    60.1096  2640.4785     5.4113     1.9553
 2265.3224    16.5937    44.8732   916.5016      .0414  -999.2500    39.2477     3.6397      .0137     2.2344    59.0182  2699.6162     5.6199     1.7512
 2265.4748    16.4993    44.7193   916.9984      .0195  -999.2500    36.0336     3.9558      .0142     2.2361    57.7658  2640.3193     5.4605     1.6045
 2265.6272    16.2962    44.7516   917.0000      .0073  -999.2500    35.6032     4.8120      .0156     2.1677    56.9797  2679.8530     5.1586     1.4682
 2265.7796    16.0482    45.2776   917.0048      .0108  -999.2500    37.8492     5.8616      .0137     2.0700    57.2385  2673.9106     5.5864     1.4790
 2265.9320    16.4347    44.6620   918.4951      .0188  -999.2500    40.1055     6.5313      .0137     1.9836    57.9852  2640.2363     6.1582     1.6381
 2266.0844    15.9166    45.8442   918.5032      .0582  -999.2500    42.8098     5.9167      .0137     2.0141    58.8495  2679.8848     6.1213     1.6247
 2266.2368    16.3128    47.1780   919.4967      .0671  -999.2500    40.9195     5.1135      .0142     2.0691    59.1346  2684.0063     6.1349     1.5172
 2266.3892    16.2823    45.5746   919.4952      .0947  -999.2500    41.1564     4.5386      .0127     2.1801    58.6363  2690.0127     6.7934     1.5810
 2266.5416    16.4813    47.6969   918.0048      .0881  -999.2500    40.2694     3.8601      .0127     2.2423    58.1054  2699.7603     6.3825     1.3384
 2266.6940    16.1416    45.3255   917.5079      .0596  -999.2500    38.5734     3.9442      .0146     2.2520    57.2650  2640.1597     5.9156     1.3999
 2266.8464    16.3127    46.9532   919.4856      .0601  -999.2500    38.3760     4.2055      .0137     2.2597    57.0659  2630.2041     5.9195     1.3240
 2266.9988    16.2197    43.7672   917.0079      .0631  -999.2500    37.4560     4.9405      .0132     2.2306    56.4917  2683.8145     6.3822     1.4817
 2267.1512    16.4524    45.8925   917.0000      .0946  -999.2500    39.0096     4.6613      .0137     2.2538    57.3839  2679.8081     5.4541     1.4159
 2267.3036    16.3268    45.1928   917.0016      .0711  -999.2500    38.0894     4.0719      .0156     2.2363    59.1357  2614.5171     5.5349     1.7201
 2267.4560    16.1416    46.1247   917.5000      .0437  -999.2500    38.6318     3.7163      .0166     2.2382    60.1870  2709.6421     5.5258     1.8335
 2267.6084    16.2343    46.9614   917.9984      .0132  -999.2500    39.9962     3.6338      .0161     2.2206    59.0231  2693.9106     5.0267     1.4979
 2267.7608    16.2820    45.4998   918.0016      .0098  -999.2500    40.9626     4.0891      .0137     2.2068    57.3933  2650.2173     5.5456     1.4072
 2267.9132    16.4391    43.9662   918.4984      .0134  -999.2500    40.2775     5.1890      .0142     2.1833    56.9549  2674.0000     5.6687     1.6241
 2268.0656    16.5785    43.2006   918.0016      .0357  -999.2500    39.6014     5.8565      .0137     2.1426    56.9826  2674.0640     5.8864     1.6503
 2268.2180    16.7352    47.2610   918.4968      .0592  -999.2500    40.0429     6.1571      .0132     2.1289    58.0553  2693.9233     5.7908     1.3278
 2268.3704    17.1093    45.0486   918.0000      .0805  -999.2500    41.2556     5.1827      .0146     2.1445    60.3929  2689.7578     6.2418     1.8088
 2268.5228    17.2018    48.2051   917.5039      .0693  -999.2500    39.8979     4.8944      .0142     2.1582    63.5412  2610.4155     6.5905     2.0442
 2268.6752    16.9530    47.5093   918.0032      .0567  -999.2500    40.9115     4.8720      .0142     2.1603    63.9814  2660.1274     6.9600     2.0434
 2268.8276    16.9517    50.3875   919.0000      .0678  -999.2500    39.9027     4.4045      .0132     2.1818    62.5620  2699.7573     6.6616     1.5572
 2268.9800    16.7477    47.4516   920.0016      .0634  -999.2500    41.3929     4.1329      .0137     2.2071    60.5803  2663.8916     6.8109     1.5328
 2269.1324    16.3916    48.8656   921.4976      .0491  -999.2500    39.3577     4.1478      .0142     2.2165    60.5196  2594.5439     6.4496     1.4006
 2269.2848    16.4694    47.8755   922.0000      .0196  -999.2500    39.6979     5.0418      .0147     2.1758    62.3602  2694.1470     6.2933     1.7610
 2269.4372    16.6089    48.0416   922.0000      .0508  -999.2500    39.9923     5.8714      .0156     2.1816    65.2952  2739.3740     6.4067     2.1316
 2269.5896    16.5944    51.4231   921.9984      .0615  -999.2500    40.7217     5.9520      .0156     2.1680    68.0336  2590.5430     6.6572     2.1237
 2269.7420    16.7186    50.3516   921.4983      .0576  -999.2500    40.3247     5.6078      .0146     2.1699    69.0947  2610.2686     7.2177     2.3289
 2269.8944    16.5933    51.7211   920.5032      .0497  -999.2500    38.0411     5.1055      .0137     2.1758    69.0480  2713.7627     7.4440     2.1770
 2270.0468    16.4838    52.4349   921.4919      .0373  -999.2500    38.6726     4.5042      .0156     2.1760    68.0679  2640.0127     7.0387     1.9518
 2270.1992    16.4529    51.6299   919.0079      .0599  -999.2500    38.7759     4.5567      .0156     2.2146    66.5520  2644.4219     6.9132     1.8432
 2270.3516    16.4380    52.3324   918.9984      .0346  -999.2500    39.6873     4.2657      .0156     2.1896    65.0649  2779.1509     6.5322     1.5776
 2270.5040    16.4377    49.5212   918.4967      .0301  -999.2500    38.1863     4.2725      .0156     2.2070    64.3910  2650.4155     6.4405     1.7444
 2270.6564    16.4061    52.0329   917.5016      .0103  -999.2500    38.4801     3.6778      .0146     2.2071    66.1170  2650.1724     6.9980     1.7073
 2270.8088    16.4379    52.5637   918.0000      .0142  -999.2500    39.4543     3.7005      .0151     2.2383    69.2530  2703.6230     7.6042     2.0874
 2270.9612    16.4056    53.4701   918.5000      .0127  -999.2500    39.8379     3.4802      .0156     2.2480    71.5959  2640.2681     7.8303     2.3132
 2271.1136    16.2805    54.8048   918.9984      .0078  -999.2500    37.9299     3.3905      .0151     2.2480    71.9403  2660.0513     7.5109     2.1391
