~VERSION INFORMATION
VERS.                                                 2.0:   CWLS Log ASCII Standard-VERSION 2.0
WRAP.                                                  NO:   One line per depth step
~Well Information Block
STRT.M                                           472.3364:   Top Depth
STOP.M                                          3124.0964:   Bottom Depth
STEP.M                                             .15240:   Depth Increment
NULL.                                            -999.250:   Null Value
FLD .                                      SLEIPNER-THETA:   Field Name
WELL.                                             15/9-17:   NAME
WBN .                                             15/9-17:   WELLBORE
NATI.                                                 NOR:   COUNTRY
CTRY.                                                 NOR:   COUNTRY
COMP.                                             STATOIL:   OPERATOR
PROV.                                                   ?:   PROVINCE
COUN.                                       WEST VANGUARD:   RIG NAME
SPUD.                                          1982/12/09:   SPUD DATE
LATI.                                       58 26 44.19 N:   SURF. LATITUDE
LONG.                                        1 56 53.58 E:   SURF. LONGITUDE
PBWE.                                             15/9-17:   PB WELL ID
APIN.                                             15/9-17:   PB WELLBORE ID
PBWS.                                                 all:   PB WELL NAME SET
~PARAMETER INFORMATION (log)
LNAM.                             LDT/CNL/NGT  COMPOSITED:   NAME
LTYP.                                         DEPTH MATCH:   LOG TYPE
LSRV.                                           LATEROLOG:   LOG SERVICE
LSOU.                                             SPT/NPD:   LOG SOURCE
LVSN.                                                   1:   LOG VERSION
BHIS.                                                   R:   BRIEF HISTORY
FHIS.                                             RAW-LIS:   FULL HISTORY
LCNM.                                        SCHLUMBERGER:   LOGGING CONTRACTOR
TOOL.                            LDT/CNL/NGT (COMPOSITED):   TOOL STRING
~Curve Information Block
#MNEM.UNIT                                        API CODE    No Description
#=========                                        ========    == ===========
DEPT.M                                       00 001 00 00:     1  DEPTH
CALI.IN                                                  :     2  Caliper
CGR.GAPI                                                 :     3  Gamma Ray
CS.                                                      :     4  Cable Speed
DRHO.G/CC                                                :     5  Bulk density correction
GR.GAPI                                                  :     6  Gamma Ray
NPHI.%                                                   :     7  Neutron porosity
PEF.B/E                                                  :     8  Photo-electric factor
POTA.                                                    :     9  Potassium
RHOB.G/CC                                                :    10  Bulk density
SGR.GAPI                                                 :    11  Gamma Ray
TENS.LB                                                  :    12  Cable Tension
THOR.PPM                                                 :    13  Thorium
URAN.PPM                                                 :    14  Uranium
~ASCII
# ...
 1581.8084    13.6155    50.2487   889.9991      .0215  -999.2500    46.1833     4.7796      .0117     1.8906    57.8783  2093.7705     7.5182      .8576
 1581.9608    13.1505    48.2293   889.0032      .0293  -999.2500    43.8078     4.2490      .0132     1.8907    58.3561  2074.0508     7.0889     1.2016
 1582.1132    13.9293    49.4929   888.9960      .0323  -999.2500    46.5326     3.9525      .0151     1.9122    60.0964  2069.7573     6.3541     1.3826
 1582.2656    13.7647    48.7565   888.0048      .0386  -999.2500    46.4462     3.7988      .0156     1.9287    60.5516  1990.5234     6.3945     1.4639
 1582.4180    13.3523    50.0170   888.5004      .0366  -999.2500    49.6067     3.8097      .0142     1.9298    59.8553  2073.6997     6.4285     1.2577
 1582.5704    13.4285    47.5025   888.9988      .0268  -999.2500    49.0186     3.6124      .0146     1.9454    57.8904  2063.9150     6.1688     1.3096
 1582.7228    12.9770    46.3902   888.9979      .0068  -999.2500    47.6445     3.9467      .0142     1.9620    55.6358  2030.5237     6.2346     1.0628
 1582.8752    12.9682    49.2609   888.5012      .0049  -999.2500    44.7763     4.2892      .0127     1.9834    54.9075  2133.5269     6.3369      .7002
 1583.0276    12.7111    45.1205   888.5000      .0103  -999.2500    45.1677     4.3362      .0142     1.9735    55.6438  2064.3062     6.7243     1.1889
 1583.1800    12.7418    49.2733   888.4984      .0259  -999.2500    45.7071     4.4349      .0142     1.9481    58.6262  2089.8228     6.4249     1.1903
 1583.3324    12.6881    49.9407   887.9984      .0253  -999.2500    46.9752     4.8233      .0142     1.9100    61.8608  2054.1660     7.1433     1.4617
 1583.4848    12.7342    51.5956   887.0023      .0044  -999.2500    47.6546     4.5339      .0151     1.8633    64.7046  2069.9932     7.4683     1.6751
 1583.6372    12.7965    53.3985   887.0048     -.0083  -999.2500    47.2297     4.1317      .0146     1.8516    66.1060  2080.0957     7.5771     1.6184
 1583.7896    12.6566    52.7814   888.4979     -.0121  -999.2500    51.1772     3.7793      .0146     1.8614    65.9328  2119.5684     7.3618     1.6346
 1583.9420    12.8555    52.3707   889.0016      .0059  -999.2500    52.7832     3.7718      .0132     1.8965    64.8452  2015.4309     7.9588     1.5829
 1584.0944    13.9518    50.6267   889.9967      .0147  -999.2500    52.8177     3.8718      .0122     1.9073    62.5391  2044.8401     7.8797     1.5000
 1584.2468    13.6612    49.6556   890.0016      .0307  -999.2500    49.2628     3.5656      .0127     1.9276    59.6624  2025.2712     7.0421     1.1931
 1584.3992    12.7807    48.5003   890.4944      .0269  -999.2500    47.6568     3.9013      .0122     1.9015    58.3092  2089.8564     7.1471     1.1149
 1584.5516    12.7035    47.6652   889.4991      .0370  -999.2500    47.8496     3.6635      .0132     1.9198    59.9699  2109.7729     6.9070     1.4542
 1584.7040    12.8686    49.8063   888.5048      .0137  -999.2500    47.1206     4.0926      .0147     1.8926    63.2691  2053.9424     6.9553     1.7369
 1584.8564    13.3658    50.0316   888.9988      .0117  -999.2500    47.6062     3.7196      .0166     1.9042    64.6819  1980.8481     6.4610     1.9040
 1585.0088    12.9905    50.3110   888.9968      .0094  -999.2500    47.3708     3.9621      .0156     1.8858    63.5244  2189.2334     6.1108     1.6205
 1585.1612    12.5327    50.1165   888.0023      .0410  -999.2500    49.8020     3.7283      .0142     1.9170    62.0101  2159.5767     6.1952     1.4591
 1585.3136    13.0564    47.3319   888.0000      .0503  -999.2500    48.8767     3.6768      .0161     1.9287    61.1708  2005.6511     6.2186     1.6653
 1585.4660    13.4834    50.5499   887.9968      .0448  -999.2500    48.7749     3.4061      .0151     1.9385    60.5568  2053.9336     6.2015     1.3369
 1585.6184    13.2946    49.0644   887.0063      .0195  -999.2500    47.5130     3.3340      .0151     1.9366    57.7454  2069.7891     5.6926     1.0999
 1585.7708    12.5471    48.1580   887.9976      .0039  -999.2500    48.4347     3.3340      .0151     1.9563    53.6430  2020.3242     5.5522      .6569
 1585.9232    12.5778    48.0144   887.9984     -.0034  -999.2500    47.4026     3.3456      .0137     2.0080    49.6177  2083.7510     5.8991      .2205
 1586.0756    12.5310    42.6583   887.5035     -.0098  -999.2500    44.4695     3.3228      .0122     2.0666    46.1245  2070.1084     6.4535      .3188
 1586.2280    12.5310    46.6349   887.9984     -.0107  -999.2500    41.3481     3.4384      .0122     2.1153    44.9470  2089.8086     6.0181     -.2107
 1586.3804    12.5310    44.0212   888.0000     -.0103  -999.2500    38.5793     3.7182      .0132     2.1386    45.6289  2050.2041     6.3429      .0826
 1586.5328    12.5312    47.1882   888.0016     -.0102  -999.2500    39.9022     3.5762      .0146     2.1112    48.9922  2073.8467     6.3836      .2110
 1586.6852    12.6024    50.5893   888.4984      .0020  -999.2500    42.7803     3.5811      .0156     2.0683    53.4381  2050.0605     6.6565      .3617
 1586.8376    12.7190    52.5955   888.5016      .0186  -999.2500    45.0716     3.3057      .0166     2.0391    57.3519  2044.9800     7.0222      .6352
 1586.9900    12.7104    54.6520   889.0000      .0302  -999.2500    46.1926     3.0128      .0176     2.0253    59.8817  2034.9998     6.9081      .6821
 1587.1424    12.5177    55.3779   889.5004      .0127  -999.2500    46.6816     2.7358      .0166     1.9950    61.5718  2025.1165     7.3676      .7298
 1587.2948    13.0557    56.8123   889.9984      .0010  -999.2500    47.1677     2.5762      .0166     1.9707    63.8403  2053.9395     7.8346      .8595
 1587.4472    13.2676    58.1905   890.0016      .0005  -999.2500    47.0719     2.5838      .0181     1.9648    66.3983  2063.7715     7.8756     1.0357
 1587.5996    13.7659    60.1495   890.4984     -.0015  -999.2500    47.6596     2.5350      .0181     1.9629    68.1033  2000.3159     8.0764     1.0400
 1587.7520    13.7389    60.0040   890.4979      .0029  -999.2500    48.7860     2.4690      .0186     1.9717    68.4276  2035.0637     7.7559     1.0357
 1587.9044    12.9598    60.8718   889.9984     -.0020  -999.2500    50.5328     2.5313      .0181     1.9766    68.4382  2089.7607     7.9842      .9350
 1588.0568    12.5813    60.7533   889.0051     -.0029  -999.2500    49.2174     2.5274      .0181     1.9824    68.7234  2069.9683     8.1547      .9601
 1588.2092    13.3874    61.4664   889.4952     -.0068  -999.2500    48.8336     2.5429      .0190     1.9824    69.5076  2040.3511     7.9174     1.0098
 1588.3616    12.2809    61.4401   888.4991     -.0029  -999.2500    50.5895     2.5180      .0205     1.9912    70.4618  2119.4570     7.4987     1.0843
 1588.5140    12.2671    62.0524   887.5016     -.0010  -999.2500    51.4644     2.6278      .0190     1.9990    71.4451  2030.7153     7.8054     1.2335
 1588.6664    12.6102    59.5510   887.0016     -.0015  -999.2500    51.2605     2.8819      .0181     1.9951    71.2475  2163.3799     8.3481     1.4150
 1588.8188    12.9833    63.1644   886.9968     -.0005  -999.2500    48.2857     3.1925      .0181     1.9824    70.4821  2103.9551     7.8222      .9836
 1588.9712    12.7663    58.7088   886.0063      .0079  -999.2500    46.6343     3.5212      .0181     1.9697    68.8294  2045.2043     8.0209     1.1724
 1589.1236    12.8678    60.8263   886.9976      .0367  -999.2500    47.6629     4.0639      .0186     1.9824    67.9324  2050.0645     7.4463      .9238
 1589.2760    13.1024    57.0195   886.9984      .0503  -999.2500    49.8075     4.5117      .0186     1.9824    67.1363  2073.9424     7.3085     1.1851
 1589.4284    13.2423    59.2396   886.4996      .0453  -999.2500    50.5890     4.5174      .0190     1.9687    67.1528  2079.9663     7.1477     1.0019
 1589.5808    13.3430    57.6971   886.0016      .0200  -999.2500    51.5090     3.8609      .0200     1.9346    67.4162  2073.9106     6.7859     1.1596
