~VERSION INFORMATION
VERS.                                                 2.0:   CWLS Log ASCII Standard-VERSION 2.0
WRAP.                                                  NO:   One line per depth step
~Well Information Block
STRT.M                                           472.3364:   Top Depth
STOP.M                                          3124.0964:   Bottom Depth
STEP.M                                             .15240:   Depth Increment
NULL.                                            -999.250:   Null Value
FLD .                                      SLEIPNER-THETA:   Field Name
WELL.                                             15/9-17:   NAME
WBN .                                             15/9-17:   WELLBORE
NATI.                                                 NOR:   COUNTRY
CTRY.                                                 NOR:   COUNTRY
COMP.                                             STATOIL:   OPERATOR
PROV.                                                   ?:   PROVINCE
COUN.                                       WEST VANGUARD:   RIG NAME
SPUD.                                          1982/12/09:   SPUD DATE
LATI.                                       58 26 44.19 N:   SURF. LATITUDE
LONG.                                        1 56 53.58 E:   SURF. LONGITUDE
PBWE.                                             15/9-17:   PB WELL ID
APIN.                                             15/9-17:   PB WELLBORE ID
PBWS.                                                 all:   PB WELL NAME SET
~PARAMETER INFORMATION (log)
LNAM.                             LDT/CNL/NGT  COMPOSITED:   NAME
LTYP.                                         DEPTH MATCH:   LOG TYPE
LSRV.                                           LATEROLOG:   LOG SERVICE
LSOU.                                             SPT/NPD:   LOG SOURCE
LVSN.                                                   1:   LOG VERSION
BHIS.                                                   R:   BRIEF HISTORY
FHIS.                                             RAW-LIS:   FULL HISTORY
LCNM.                                        SCHLUMBERGER:   LOGGING CONTRACTOR
TOOL.                            LDT/CNL/NGT (COMPOSITED):   TOOL STRING
~Curve Information Block
#MNEM.UNIT                                        API CODE    No Description
#=========                                        ========    == ===========
DEPT.M                                       00 001 00 00:     1  DEPTH
CALI.IN                                                  :     2  Caliper
CGR.GAPI                                                 :     3  Gamma Ray
CS.                                                      :     4  Cable Speed
DRHO.G/CC                                                :     5  Bulk density correction
GR.GAPI                                                  :     6  Gamma Ray
NPHI.%                                                   :     7  Neutron porosity
PEF.B/E                                                  :     8  Photo-electric factor
POTA.                                                    :     9  Potassium
RHOB.G/CC                                                :    10  Bulk density
SGR.GAPI                                                 :    11  Gamma Ray
TENS.LB                                                  :    12  Cable Tension
THOR.PPM                                                 :    13  Thorium
URAN.PPM                                                 :    14  Uranium
~ASCII
# ...
  638.7572    18.5469  -999.2500  1790.0000      .0430  -999.2500  -999.2500     2.3242  -999.2500     2.1992    65.1875  1025.0000  -999.2500  -999.2500
  638.9096    18.6250  -999.2500  1790.0000      .0112  -999.2500  -999.2500     2.4102  -999.2500     2.1836    68.3750   970.0000  -999.2500  -999.2500
  639.0620    18.7969  -999.2500  1790.0000      .0083  -999.2500  -999.2500     2.4082  -999.2500     2.1875    70.2500   955.0000  -999.2500  -999.2500
  639.2144    18.9375  -999.2500  1789.0000      .0068  -999.2500  -999.2500     2.4316  -999.2500     2.1973    72.3750  1015.0000  -999.2500  -999.2500
  639.3668    19.0000  -999.2500  1788.0000      .0112  -999.2500  -999.2500     2.4102  -999.2500     2.1934    72.0625  1005.0000  -999.2500  -999.2500
  639.5192    19.3125  -999.2500  1785.0000      .0146  -999.2500  -999.2500     2.4180  -999.2500     2.1973    76.1875   980.0000  -999.2500  -999.2500
  639.6716    19.2188  -999.2500  1785.0000      .0098  -999.2500  -999.2500     2.4238  -999.2500     2.1934    75.6250  1035.0000  -999.2500  -999.2500
  639.8240    19.3438  -999.2500  1786.0000      .0049  -999.2500  -999.2500     2.3789  -999.2500     2.1973    76.9375   970.0000  -999.2500  -999.2500
  639.9764    19.4219  -999.2500  1786.0000     -.0010  -999.2500  -999.2500     2.4492  -999.2500     2.1973    73.8125  1040.0000  -999.2500  -999.2500
  640.1288    19.1875  -999.2500  1786.0000     -.0020  -999.2500  -999.2500     2.4805  -999.2500     2.2031    73.8125  1010.0000  -999.2500  -999.2500
  640.2812    19.1719  -999.2500  1786.0000     -.0024  -999.2500  -999.2500     2.5312  -999.2500     2.2051    72.9375   940.0000  -999.2500  -999.2500
  640.4336    19.1563  -999.2500  1785.0000     -.0059  -999.2500  -999.2500     2.4766  -999.2500     2.2090    70.8125  1030.0000  -999.2500  -999.2500
  640.5860    19.1250  -999.2500  1785.0000     -.0093  -999.2500  -999.2500     2.4883  -999.2500     2.2090    69.8125  1035.0000  -999.2500  -999.2500
  640.7384    19.0625  -999.2500  1785.0000     -.0088  -999.2500  -999.2500     2.4551  -999.2500     2.2168    66.8750  1010.0000  -999.2500  -999.2500
  640.8908    19.0000  -999.2500  1783.0000     -.0083  -999.2500  -999.2500     2.4590  -999.2500     2.2129    68.3750  1065.0000  -999.2500  -999.2500
  641.0432    18.9688  -999.2500  1784.0000     -.0049  -999.2500  -999.2500     2.4062  -999.2500     2.2187    68.0625  1045.0000  -999.2500  -999.2500
  641.1956    18.8750  -999.2500  1785.0000     -.0073  -999.2500  -999.2500     2.3164  -999.2500     2.2090    70.5625   985.0000  -999.2500  -999.2500
  641.3480    18.8750  -999.2500  1785.0000     -.0093  -999.2500  -999.2500     2.2617  -999.2500     2.2070    70.5000   930.0000  -999.2500  -999.2500
  641.5004    18.7969  -999.2500  1785.0000     -.0083  -999.2500  -999.2500     2.2559  -999.2500     2.2031    66.9375   995.0000  -999.2500  -999.2500
  641.6528    18.8281  -999.2500  1786.0000     -.0098  -999.2500  -999.2500     2.2773  -999.2500     2.1914    64.0000  1005.0000  -999.2500  -999.2500
  641.8052    18.7344  -999.2500  1788.0000     -.0049  -999.2500  -999.2500     2.2559  -999.2500     2.1875    64.5625  1050.0000  -999.2500  -999.2500
  641.9576    18.5938  -999.2500  1788.0000     -.0020  -999.2500  -999.2500     2.2695  -999.2500     2.1855    65.3750   970.0000  -999.2500  -999.2500
  642.1100    18.4063  -999.2500  1789.0000      .0093  -999.2500  -999.2500     2.2578  -999.2500     2.1992    67.0000   955.0000  -999.2500  -999.2500
  642.2624    18.3594  -999.2500  1790.0000      .0098  -999.2500  -999.2500     2.3281  -999.2500     2.1992    67.1875  1025.0000  -999.2500  -999.2500
  642.4148    18.3594  -999.2500  1789.0000      .0112  -999.2500  -999.2500     2.3262  -999.2500     2.1992    69.0000  1010.0000  -999.2500  -999.2500
  642.5672    18.4063  -999.2500  1788.0000      .0054  -999.2500  -999.2500     2.4473  -999.2500     2.1973    67.3125  1050.0000  -999.2500  -999.2500
  642.7196    18.4531  -999.2500  1786.0000      .0020  -999.2500  -999.2500     2.4492  -999.2500     2.1973    68.4375  1060.0000  -999.2500  -999.2500
  642.8720    18.4063  -999.2500  1787.0000     -.0029  -999.2500  -999.2500     2.4551  -999.2500     2.1895    66.5625   995.0000  -999.2500  -999.2500
  643.0244    18.3281  -999.2500  1785.0000     -.0083  -999.2500  -999.2500     2.3652  -999.2500     2.1777    66.6250  1040.0000  -999.2500  -999.2500
  643.1768    18.4063  -999.2500  1785.0000     -.0117  -999.2500  -999.2500     2.3145  -999.2500     2.1680    65.3750   965.0000  -999.2500  -999.2500
  643.3292    18.4375  -999.2500  1785.0000     -.0083  -999.2500  -999.2500     2.2812  -999.2500     2.1738    65.5625   950.0000  -999.2500  -999.2500
  643.4816    18.4063  -999.2500  1783.0000     -.0068  -999.2500  -999.2500     2.2832  -999.2500     2.1816    62.2188   980.0000  -999.2500  -999.2500
  643.6340    18.6094  -999.2500  1783.0000     -.0020  -999.2500  -999.2500     2.2559  -999.2500     2.1953    61.7500  1005.0000  -999.2500  -999.2500
  643.7864    18.6875  -999.2500  1784.0000     -.0034  -999.2500  -999.2500     2.2363  -999.2500     2.1973    61.6563   970.0000  -999.2500  -999.2500
  643.9388    18.7031  -999.2500  1785.0000     -.0010  -999.2500  -999.2500     2.2578  -999.2500     2.2031    63.3438   990.0000  -999.2500  -999.2500
  644.0912    18.7813  -999.2500  1785.0000     -.0020  -999.2500  -999.2500     2.1855  -999.2500     2.1934    61.7187  1005.0000  -999.2500  -999.2500
  644.2436    19.0000  -999.2500  1785.0000     -.0010  -999.2500  -999.2500     2.0937  -999.2500     2.1758    61.1563   965.0000  -999.2500  -999.2500
  644.3960    18.8594  -999.2500  1785.0000      .0049  -999.2500  -999.2500     2.0469  -999.2500     2.1523    60.2188   995.0000  -999.2500  -999.2500
  644.5484    18.6406  -999.2500  1784.0000      .0112  -999.2500  -999.2500     2.0937  -999.2500     2.1426    60.2500  1035.0000  -999.2500  -999.2500
  644.7008    17.9531  -999.2500  1784.0000      .0127  -999.2500  -999.2500     2.2129  -999.2500     2.1406    61.9063   995.0000  -999.2500  -999.2500
  644.8532    17.7031  -999.2500  1784.0000      .0137  -999.2500  -999.2500     2.2715  -999.2500     2.1484    64.1875  1005.0000  -999.2500  -999.2500
  645.0056    17.8594  -999.2500  1784.0000      .0156  -999.2500  -999.2500     2.2988  -999.2500     2.1426    67.3125  1025.0000  -999.2500  -999.2500
  645.1580    18.2188  -999.2500  1784.0000      .0264  -999.2500  -999.2500     2.3008  -999.2500     2.1426    66.8750  1015.0000  -999.2500  -999.2500
  645.3104    18.5313  -999.2500  1785.0000      .0200  -999.2500  -999.2500     2.2910  -999.2500     2.1328    67.3750   985.0000  -999.2500  -999.2500
  645.4628    18.7500  -999.2500  1785.0000      .0093  -999.2500  -999.2500     2.2812  -999.2500     2.1387    63.8438  1035.0000  -999.2500  -999.2500
  645.6152    18.6875  -999.2500  1785.0000      .0049  -999.2500  -999.2500     2.2910  -999.2500     2.1543    63.7187  1000.0000  -999.2500  -999.2500
  645.7676    18.5469  -999.2500  1785.0000      .0034  -999.2500  -999.2500     2.2910  -999.2500     2.1660    61.5938   945.0000  -999.2500  -999.2500
  645.9200    18.4844  -999.2500  1783.0000      .0034  -999.2500  -999.2500     2.2227  -999.2500     2.1660    61.5938  1015.0000  -999.2500  -999.2500
  646.0724    18.3906  -999.2500  1782.0000      .0024  -999.2500  -999.2500     2.2363  -999.2500     2.1582    63.0000  1030.0000  -999.2500  -999.2500
  646.2248    18.2656  -999.2500  1781.0000     -.0005  -999.2500  -999.2500     2.2734  -999.2500     2.1602    66.3750  1010.0000  -999.2500  -999.2500
  646.3772    18.2188  -999.2500  1781.0000     -.0005  -999.2500  -999.2500     2.2754  -999.2500     2.1719    67.3750  1005.0000  -999.2500  -999.2500
  646.5296    18.0000  -999.2500  1780.0000     -.0034  -999.2500  -999.2500     2.1934  -999.2500     2.1836    70.5000   975.0000  -999.2500  -999.2500
