~VERSION INFORMATION
VERS.                                                 2.0:   CWLS Log ASCII Standard-VERSION 2.0
WRAP.                                                  NO:   One line per depth step
~Well Information Block
STRT.M                                           472.3364:   Top Depth
STOP.M                                          3124.0964:   Bottom Depth
STEP.M                                             .15240:   Depth Increment
NULL.                                            -999.250:   Null Value
FLD .                                      SLEIPNER-THETA:   Field Name
WELL.                                             15/9-17:   NAME
WBN .                                             15/9-17:   WELLBORE
NATI.                                                 NOR:   COUNTRY
CTRY.                                                 NOR:   COUNTRY
COMP.                                             STATOIL:   OPERATOR
PROV.                                                   ?:   PROVINCE
COUN.                                       WEST VANGUARD:   RIG NAME
SPUD.                                          1982/12/09:   SPUD DATE
LATI.                                       58 26 44.19 N:   SURF. LATITUDE
LONG.                                        1 56 53.58 E:   SURF. LONGITUDE
PBWE.                                             15/9-17:   PB WELL ID
APIN.                                             15/9-17:   PB WELLBORE ID
PBWS.                                                 all:   PB WELL NAME SET
~PARAMETER INFORMATION (log)
LNAM.                             LDT/CNL/NGT  COMPOSITED:   NAME
LTYP.                                         DEPTH MATCH:   LOG TYPE
LSRV.                                           LATEROLOG:   LOG SERVICE
LSOU.                                             SPT/NPD:   LOG SOURCE
LVSN.                                                   1:   LOG VERSION
BHIS.                                                   R:   BRIEF HISTORY
FHIS.                                             RAW-LIS:   FULL HISTORY
LCNM.                                        SCHLUMBERGER:   LOGGING CONTRACTOR
TOOL.                            LDT/CNL/NGT (COMPOSITED):   TOOL STRING
~Curve Information Block
#MNEM.UNIT                                        API CODE    No Description
#=========                                        ========    == ===========
DEPT.M                                       00 001 00 00:     1  DEPTH
CALI.IN                                                  :     2  Caliper
CGR.GAPI                                                 :     3  Gamma Ray
CS.                                                      :     4  Cable Speed
DRHO.G/CC                                                :     5  Bulk density correction
GR.GAPI                                                  :     6  Gamma Ray
NPHI.%                                                   :     7  Neutron porosity
PEF.B/E                                                  :     8  Photo-electric factor
POTA.                                                    :     9  Potassium
RHOB.G/CC                                                :    10  Bulk density
SGR.GAPI                                                 :    11  Gamma Ray
TENS.LB                                                  :    12  Cable Tension
THOR.PPM                                                 :    13  Thorium
URAN.PPM                                                 :    14  Uranium
~ASCII
# ...
 1922.5748    12.7971    45.6088   946.4984      .0029  -999.2500    51.8490     3.4279      .0122     2.1853    48.7391  2413.9429     7.0204      .2868
 1922.7272    12.8204    48.9318   946.0000     -.0029  -999.2500    50.0037     2.8804      .0132     2.1384    51.1923  2340.4868     7.5211      .2441
 1922.8796    12.9138    50.8390   945.4951     -.0054  -999.2500    50.9182     2.7467      .0146     2.0563    54.2551  2399.9487     7.4404      .5437
 1923.0320    12.8667    51.2488   943.5039     -.0093  -999.2500    48.8915     2.8682      .0151     2.0020    54.4100  2443.4653     7.0498      .4488
 1923.1844    12.8056    51.3404   942.5032     -.0088  -999.2500    51.4620     3.0520      .0151     1.9951    52.8473  2354.3066     6.4123      .1172
 1923.3368    12.9830    50.3692   942.4952     -.0078  -999.2500    50.5345     3.4103      .0147     1.9844    52.4283  2360.0845     6.4420      .2445
 1923.4892    12.6634    47.3631   940.9984     -.0083  -999.2500    49.7473     3.4260      .0151     1.9746    53.0062  2394.0063     6.6751      .6603
 1923.6416    12.5310    50.3560   939.0095     -.0088  -999.2500    47.9378     3.0663      .0166     1.9727    53.8860  2429.6328     5.4871      .5011
 1923.7940    12.5308    48.2295   939.4937     -.0122  -999.2500    45.6164     2.6312      .0156     1.9806    53.7210  2360.4600     6.0576      .6528
 1923.9464    12.4836    49.4280   938.0044     -.0127  -999.2500    49.1702     2.7213      .0156     2.0099    53.1968  2433.4492     6.3130      .5044
 1924.0988    12.3520    48.0007   937.5048     -.0122  -999.2500    49.2302     2.9100      .0127     2.0470    51.9644  2354.3706     6.7787      .4843
 1924.2512    12.3520    46.7809   938.4951     -.0098  -999.2500    51.5464     2.8698      .0132     2.0780    50.6419  2389.8975     6.4670      .4535
 1924.4036    12.3520    45.4533   938.0020     -.0093  -999.2500    48.0884     2.6088      .0117     2.0624    50.5488  2393.9712     6.8211      .5408
 1924.5560    12.3520    48.0467   938.0016     -.0093  -999.2500    46.1974     2.4552      .0132     2.0351    52.4584  2389.9492     6.3970      .5670
 1924.7084    12.3520    45.7672   938.4940     -.0147  -999.2500    48.1997     2.4847      .0142     2.0078    54.4026  2369.9521     6.7217     1.0844
 1924.8608    12.3520    47.7392   937.5032     -.0185  -999.2500    49.8641     2.5574      .0127     2.0021    55.1414  2330.2998     6.7985      .9861
 1925.0132    12.3520    46.3799   937.4984     -.0171  -999.2500    51.9439     2.7248      .0132     2.0177    54.5797  2383.8164     6.1557      .9603
 1925.1656    12.3520    46.1852   937.0032     -.0151  -999.2500    50.0524     2.7715      .0127     2.0332    55.0149  2393.8594     6.3865     1.0497
 1925.3180    12.3520    45.2786   937.4995     -.0147  -999.2500    51.1219     2.7811      .0127     2.0429    56.4167  2360.1035     6.5648     1.4232
 1925.4704    12.3520    43.3195   938.0016     -.0210  -999.2500    50.7822     2.7097      .0122     2.0272    56.7859  2350.0767     6.2929     1.6969
 1925.6228    12.3520    43.5231   938.9944     -.0200  -999.2500    51.0166     2.8620      .0112     2.0138    55.8633  2364.0396     5.9939     1.5419
 1925.7752    12.3523    41.2554   938.5032     -.0147  -999.2500    49.2621     3.3970      .0107     2.0412    54.4067  2393.8721     6.1413     1.6099
 1925.9276    12.4386    40.6578   938.9995     -.0161  -999.2500    47.4184     4.1777      .0098     2.1116    53.2304  2383.9121     6.5011     1.5459
 1926.0800    12.6170    40.4065   939.4937     -.0181  -999.2500    49.4201     3.5387      .0098     2.2030    52.7709  2344.1147     6.0753     1.4792
 1926.2324    12.6170    40.2500   938.0032     -.0273  -999.2500    50.6913     3.0605      .0103     2.1734    53.8157  2340.0767     5.9924     1.6364
 1926.3848    12.6173    40.0975   937.5060     -.0239  -999.2500    52.1815     2.6510      .0112     2.0974    56.0138  2360.1245     5.9732     1.9922
 1926.5372    12.6881    40.8799   938.4935     -.0205  -999.2500    48.3333     2.7913      .0112     2.0332    57.6584  2423.6870     6.0975     2.1179
 1926.6896    12.7110    43.1749   937.5060     -.0137  -999.2500    46.2361     2.8732      .0112     2.0392    58.1439  2390.0718     6.1712     1.8521
 1926.8420    12.7110    42.3471   937.9952     -.0083  -999.2500    45.2804     2.9328      .0117     2.0566    58.4531  2370.1597     6.0698     1.9668
 1926.9944    12.7110    42.5636   936.9991     -.0083  -999.2500    48.7003     2.7689      .0127     2.0604    59.0811  2399.8164     5.7979     2.0696
 1927.1468    12.7113    43.1864   935.5032     -.0132  -999.2500    52.4909     2.6466      .0132     2.0469    58.9103  2380.0127     5.7688     1.9897
 1927.2992    12.8065    43.4551   935.0035     -.0186  -999.2500    52.7736     2.6853      .0132     2.0334    56.6313  2364.2104     5.5023     1.7346
 1927.4516    13.2815    39.5523   935.5016     -.0205  -999.2500    49.8397     3.2306      .0107     2.0825    52.3860  2409.8018     5.8769     1.4843
 1927.6040    13.3908    42.1627   936.4976     -.0215  -999.2500    46.8862     5.2736      .0093     2.1941    49.7527  2393.8911     5.6237      .9109
 1927.7564    13.3516    37.7820   936.9937     -.0166  -999.2500    49.2242     4.5005      .0098     2.3458    49.6943  2340.2363     6.1218     1.3283
 1927.9088    13.2411    43.3521   935.5060     -.0098  -999.2500    50.8259     3.4253      .0112     2.3647    52.8236  2359.8691     6.8405     1.1963
 1928.0612    12.9770    52.9111   935.4984     -.0068  -999.2500    49.5542     2.6846      .0142     2.2221    56.5075  2344.1021     7.9393      .4374
 1928.2136    12.9773    54.2846   935.0048     -.0034  -999.2500    48.1401     2.5063      .0146     2.1052    59.8312  2360.1084     8.3898      .7145
 1928.3660    13.0473    56.6793   935.9940     -.0039  -999.2500    47.1225     2.5886      .0142     2.0449    62.2321  2409.6084     8.5714      .7287
 1928.5184    13.1178    57.0286   935.5032     -.0049  -999.2500    48.0016     2.7547      .0137     2.0469    63.0737  2350.3960     9.0303      .7979
 1928.6708    13.3575    56.5417   936.0000     -.0054  -999.2500    49.1272     2.9891      .0137     2.0508    62.5258  2413.5850     9.2075      .7226
 1928.8232    12.9776    58.6474   936.5000     -.0078  -999.2500    50.6788     3.1902      .0142     2.0547    62.1972  2364.0957     8.5349      .3987
 1928.9756    13.1028    58.0021   936.9995     -.0049  -999.2500    49.5982     3.3425      .0142     2.0566    62.8608  2344.2266     8.9992      .6041
 1929.1280    13.2658    57.8565   937.5000     -.0073  -999.2500    47.3552     3.4948      .0151     2.0646    63.6682  2389.9165     9.3183      .7345
 1929.2804    13.2112    61.6709   937.9979     -.0059  -999.2500    44.9325     3.7005      .0151     2.0919    64.2342  2409.8882     9.0168      .3002
 1929.4328    13.2583    61.2851   937.9952     -.0098  -999.2500    48.1970     3.4756      .0161     2.1191    65.5444  2399.8721     9.0140      .4725
 1929.5852    13.3280    62.0937   936.5107     -.0122  -999.2500    49.0340     3.2588      .0195     2.1229    67.8166  2350.3271     8.4951      .7573
 1929.7376    13.3280    63.0960   938.0000     -.0181  -999.2500    51.3092     3.0489      .0186     2.0937    68.9991  2389.9360     8.7408      .7874
 1929.8900    13.3357    64.8004   939.4893     -.0151  -999.2500    48.5798     3.0896      .0186     2.0742    68.1115  2409.7607     8.5489      .4473
 1930.0424    13.2420    63.1650   938.0079     -.0146  -999.2500    47.2603     3.0191      .0181     2.0684    66.2334  2360.2124     8.9185      .3314
 1930.1948    13.2423    63.6797   938.4952     -.0103  -999.2500    45.8568     2.9319      .0181     2.0703    65.1093  2364.0508     8.4473      .1834
 1930.3472    13.3053    61.7880   937.5012     -.0132  -999.2500    47.2740     3.0029      .0181     2.0664    64.3842  2383.9229     8.5936      .2935
