~VERSION INFORMATION
VERS.                                                 2.0:   CWLS Log ASCII Standard-VERSION 2.0
WRAP.                                                  NO:   One line per depth step
~Well Information Block
STRT.M                                          1175.1250:   Top Depth
STOP.M                                          3763.3750:   Bottom Depth
STEP.M                                             .12500:   Depth Increment
NULL.                                            -999.250:   Null Value
FLD .                                            SLEIPNER:   Field Name
WELL.                                              15/6-6:   NAME
WBN .                                              15/6-6:   WELLBORE
NATI.                                                 NOR:   COUNTRY
BHT1.DEGF                                            90.0:   BH TEMP 1
BHT2.DEGF                                           156.0:   BH TEMP 2
BHT3.DEGF                                           240.0:   BH TEMP 3
BS1 .IN                                            12.250:   BIT SIZE 1
CTRY.                                                 NOR:   COUNTRY
CBD1.M                                       196.60000610:   CSG 1 DRILL DEP
CBL1.M                                       196.39999390:   CSG 1 LOG DEP
CS1 .IN                                              30.0:   CSG 1 SIZE
COMP.            ESSO EXPLORATION & PRODUCTION NORWAY INC:   OPERATOR
PDAT.                                                 MSL:   PERM DATUM
PROV.                                           NORTH SEA:   PROVINCE
COUN.                                    GLOMAR BISCAY II:   RIG NAME
SON .                                               20315:   SOURCE OPERATOR NAME
SPUD.                                          1982/04/01:   SPUD DATE
LATI.                                       58 31 14.57 N:   SURF. LATITUDE
LONG.                                        1 44 53.78 E:   SURF. LONGITUDE
BTD1.                                      463.79998779 M:   TOTAL DEPTH 1
BTD2.                                      2775.1000977 M:   TOTAL DEPTH 2
BTD3.                                            3751.0 M:   TOTAL DEPTH 3
PBWE.                                              15/6-6:   PB WELL ID
APIN.                                              15/6-6:   PB WELLBORE ID
PBWS.                                                 all:   PB WELL NAME SET
~PARAMETER INFORMATION (log)
LNAM.                              CDL/CNL/GR  COMPOSITED:   NAME
LTYP.                                         DEPTH MATCH:   LOG TYPE
LSRV.                                             CAL/BGT:   LOG SERVICE
LSOU.                                             SPT/NPD:   LOG SOURCE
LVSN.                                                   1:   LOG VERSION
BHIS.                                                   R:   BRIEF HISTORY
FHIS.                                             RAW-LIS:   FULL HISTORY
LCNM.                                                  DA:   LOGGING CONTRACTOR
TOOL.                             CDL/CNL/GR (COMPOSITED):   TOOL STRING
~Curve Information Block
#MNEM.UNIT                                        API CODE    No Description
#=========                                        ========    == ===========
DEPT.M                                       00 001 00 00:     1  DEPTH
CAL.IN                                                   :     2  Caliper
CN.%                                                     :     3  Neutron Porosity
CORR.G/CC                                                :     4  Density Correction
DEN.G/CC                                                 :     5  Bulk Density
GR.GAPI                                                  :     6  Gamma Ray
TEN.LB                                                   :     7  Cable Tension
~ASCII
# ...
 3411.1250    12.6579    33.5805      .2542     2.4388    84.4954     5.5793
 3411.2500    12.7270    32.7074      .2702     2.4301    80.4320     5.5292
 3411.3750    12.8245    31.5990      .2825     2.4227    77.3826     5.4792
 3411.5000    12.9401    30.4656      .2899     2.4195    75.4013     5.4291
 3411.6250    13.0603    30.9032      .2916     2.4215    74.2163     5.1603
 3411.7500    13.1771    31.7075      .2880     2.4286    73.5606     4.1945
 3411.8750    13.2901    32.5633      .2765     2.4384    73.6819     2.9869
 3412.0000    13.3974    33.4218      .2699     2.4467    74.3217     1.7763
 3412.1250    13.4586    34.2813      .2726     2.4522    75.4169      .5659
 3412.2500    13.4472    33.9809      .2823     2.4544    76.8004     -.6435
 3412.3750    13.3592    33.5969      .2941     2.4533    78.2134    -1.8530
 3412.5000    13.2389    33.5556      .3059     2.4511    79.2424    -3.0625
 3412.6250    13.1508    33.9454      .3160     2.4531    79.2977    -4.2713
 3412.7500    13.1384    34.5974      .3245     2.4590    78.2202    -4.9113
 3412.8750    13.1934    35.3175      .3299     2.4666    76.5298    -5.1422
 3413.0000    13.2889    36.0711      .3296     2.4739    74.9697    -5.1924
 3413.1250    13.3894    36.8321      .3199     2.4797    74.3108    -5.2425
 3413.2500    13.5126    36.7970      .3029     2.4826    74.5649    -5.2927
 3413.3750    13.6962    35.7367      .2866     2.4828    75.8429    -5.3429
 3413.5000    13.8678    34.6759      .2713     2.4810    77.7108    -5.3931
 3413.6250    13.9578    33.9499      .2639     2.4768    79.4762    -5.4433
 3413.7500    13.9315    34.1305      .2711     2.4693    80.4582    -5.4935
 3413.8750    13.8394    34.5708      .2931     2.4577    80.2547    -5.5436
 3414.0000    13.6978    34.9966      .3143     2.4421    79.1017    -5.5938
 3414.1250    13.4848    35.3159      .3335     2.4203    78.0021    -5.6440
 3414.2500    13.2527    35.0915      .3459     2.3961    77.4883    -5.6941
 3414.3750    13.0418    34.4977      .3468     2.3743    77.9154    -5.7441
 3414.5000    12.8685    33.9071      .3328     2.3592    79.4258    -5.7941
 3414.6250    12.6993    33.3513      .3085     2.3535    81.8743    -5.8442
 3414.7500    12.5495    32.9582      .2859     2.3555    84.4007    -5.8942
 3414.8750    12.4481    33.0157      .2688     2.3606    86.6772    -5.9443
 3415.0000    12.4117    33.2395      .2590     2.3669    88.8083    -5.9943
 3415.1250    12.4372    33.1030      .2576     2.3733    90.9074    -6.0443
 3415.2500    12.4917    32.4678      .2669     2.3785    92.8507    -6.0944
 3415.3750    12.5417    31.3766      .2845     2.3819    94.1297    -6.1444
 3415.5000    12.6299    30.0414      .2980     2.3851    94.4102    -6.1944
 3415.6250    12.7595    28.9427      .3049     2.3891    93.6921    -6.2445
 3415.7500    12.9148    29.5006      .3060     2.3946    92.2908    -6.2945
 3415.8750    13.0714    30.2864      .3043     2.4016    90.7243    -6.3444
 3416.0000    13.2218    31.3321      .3055     2.4099    89.5583    -6.3945
 3416.1250    13.3194    32.5899      .3120     2.4174    89.2677    -6.4446
 3416.2500    13.3400    33.7665      .3214     2.4228    89.2284    -6.4946
 3416.3750    13.3001    34.1078      .3286     2.4251    88.8585    -6.5446
 3416.5000    13.2274    33.9726      .3291     2.4228    87.7562    -6.5946
 3416.6250    13.1490    33.2146      .3217     2.4144    85.8396    -6.6447
 3416.7500    13.0675    32.1286      .3117     2.3985    83.6552    -6.6947
 3416.8750    13.0059    31.1028      .3000     2.3845    82.0894    -6.7447
 3417.0000    12.9713    30.3448      .2832     2.3766    81.1833    -6.4423
 3417.1250    12.9570    30.3543      .2641     2.3756    81.0139    -5.8293
 3417.2500    12.9505    30.6168      .2487     2.3808    81.6299    -5.1354
 3417.3750    12.9439    30.9796      .2426     2.3935    82.9561    -4.4405
 3417.5000    12.9374    31.3030      .2406     2.4135    84.6317    -3.7467
 3417.6250    12.9302    31.4743      .2425     2.4389    85.9201    -3.0530
 3417.7500    12.9222    31.5345      .2482     2.4683    86.3888    -2.3592
 3417.8750    12.9259    31.4288      .2593     2.5002    85.8443    -1.6655
 3418.0000    12.9676    31.5000      .2803     2.5321    84.3441     -.9718
 3418.1250    13.0549    31.7907      .3179     2.5558    81.7148     -.2780
 3418.2500    13.1951    32.2969      .3634     2.5652    78.6590      .4157
 3418.3750    13.3890    33.0774      .4064     2.5624    75.4214     1.1088
 3418.5000    13.6132    33.9035      .4375     2.5509    72.1076     1.8023
 3418.6250    13.8366    34.7609      .4481     2.5333    68.7685     2.5060
 3418.7500    14.0398    34.5359      .4306     2.5055    65.4618     3.2576
 3418.8750    14.1443    33.3005      .3890     2.4579    62.7685     4.0237
 3419.0000    14.1574    31.8472      .3461     2.4037    60.8745     4.7900
 3419.1250    14.1113    30.4008      .3141     2.3521    59.7597     5.5571
 3419.2500    14.0406    29.0957      .2971     2.3086    59.6005     6.3251
 3419.3750    13.9764    29.0208      .2914     2.2747    60.7222     7.0922
 3419.5000    13.9426    29.9292      .2894     2.2548    62.9404     7.8593
 3419.6250    13.9188    31.3025      .2881     2.2481    65.1031     8.6265
 3419.7500    13.9054    32.6448      .2821     2.2512    66.6507     9.3928
 3419.8750    13.8954    33.6983      .2697     2.2640    67.3595    10.1597
 3420.0000    13.8750    34.0153      .2524     2.2874    67.1804    10.9278
 3420.1250    13.8205    34.1371      .2369     2.3216    66.1764    11.6950
 3420.2500    13.7240    34.3096      .2406     2.3682    64.7194    11.8858
 3420.3750    13.6088    34.6168      .2612     2.4141    63.5099    11.8915
 3420.5000    13.4857    35.1692      .2901     2.4499    62.7856    16.9073
 3420.6250    13.3729    35.4757      .3162     2.4722    62.6857    34.5459
 3420.7500    13.2915    35.2513      .3289     2.4831    63.2401    65.7439
 3420.8750    13.2499    34.4129      .3203     2.4896    64.3116    48.8446
 3421.0000    13.2409    33.1886      .3064     2.4959    65.1541    20.9567
 3421.1250    13.2683    32.1447      .2944     2.5020    65.2950     4.4918
 3421.2500    13.3322    32.2768      .2866     2.5077    64.7541    -2.2168
 3421.3750    13.4351    33.0557      .2856     2.5119    63.8043    -5.3860
 3421.5000    13.5884    34.2043      .2959     2.5119    62.9133    -8.5511
 3421.6250    13.7746    35.4097      .3131     2.5009    62.8726    -8.6453
 3421.7500    13.9486    36.2710      .3256     2.4808    63.6628    -8.6999
 3421.8750    14.1103    36.1567      .3343     2.4551    64.9561    -8.7500
 3422.0000    14.2650    35.4663      .3383     2.4281    66.4239    -8.8001
 3422.1250    14.4181    34.3557      .3353     2.4047    67.7659    -8.8501
 3422.2500    14.5584    33.4915      .3217     2.3902    68.7126    -8.9002
 3422.3750    14.6809    33.2363      .2979     2.3875    68.6541    -8.9502
 3422.5000    14.7889    33.5426      .2725     2.3957    67.7892    -9.0003
 3422.6250    14.8807    33.9629      .2568     2.4101    66.6793    -9.0504
 3422.7500    14.9513    34.2484      .2581     2.4244    65.8658    -9.1004
 3422.8750    14.9933    34.3066      .2761     2.4318    65.6956    -9.1505
 3423.0000    15.0066    34.1295      .2995     2.4303    66.6952    -9.2004
 3423.1250    15.0181    33.7834      .3160     2.4256    68.2508    -9.2505
 3423.2500    14.9956    33.4241      .3205     2.4217    70.0161    -9.3006
 3423.3750    14.9268    33.5497      .3158     2.4201    71.8727    -9.3507
 3423.5000    14.8186    33.8797      .3096     2.4200    73.6849    -9.4009
 3423.6250    14.7071    34.0884      .3104     2.4178    74.7966    -9.4511
 3423.7500    14.5874    33.9431      .3152     2.4104    74.5900    -9.5013
 3423.8750    14.4957    33.3597      .3194     2.4001    73.1337    -9.5515
 3424.0000    14.4660    32.6095      .3195     2.3902    71.1280    -9.6018
