~VERSION INFORMATION
VERS.                                                 2.0:   CWLS Log ASCII Standard-VERSION 2.0
WRAP.                                                  NO:   One line per depth step
~Well Information Block
STRT.M                                          1175.1250:   Top Depth
STOP.M                                          3763.3750:   Bottom Depth
STEP.M                                             .12500:   Depth Increment
NULL.                                            -999.250:   Null Value
FLD .                                            SLEIPNER:   Field Name
WELL.                                              15/6-6:   NAME
WBN .                                              15/6-6:   WELLBORE
NATI.                                                 NOR:   COUNTRY
BHT1.DEGF                                            90.0:   BH TEMP 1
BHT2.DEGF                                           156.0:   BH TEMP 2
BHT3.DEGF                                           240.0:   BH TEMP 3
BS1 .IN                                            12.250:   BIT SIZE 1
CTRY.                                                 NOR:   COUNTRY
CBD1.M                                       196.60000610:   CSG 1 DRILL DEP
CBL1.M                                       196.39999390:   CSG 1 LOG DEP
CS1 .IN                                              30.0:   CSG 1 SIZE
COMP.            ESSO EXPLORATION & PRODUCTION NORWAY INC:   OPERATOR
PDAT.                                                 MSL:   PERM DATUM
PROV.                                           NORTH SEA:   PROVINCE
COUN.                                    GLOMAR BISCAY II:   RIG NAME
SON .                                               20315:   SOURCE OPERATOR NAME
SPUD.                                          1982/04/01:   SPUD DATE
LATI.                                       58 31 14.57 N:   SURF. LATITUDE
LONG.                                        1 44 53.78 E:   SURF. LONGITUDE
BTD1.                                      463.79998779 M:   TOTAL DEPTH 1
BTD2.                                      2775.1000977 M:   TOTAL DEPTH 2
BTD3.                                            3751.0 M:   TOTAL DEPTH 3
PBWE.                                              15/6-6:   PB WELL ID
APIN.                                              15/6-6:   PB WELLBORE ID
PBWS.                                                 all:   PB WELL NAME SET
~PARAMETER INFORMATION (log)
LNAM.                              CDL/CNL/GR  COMPOSITED:   NAME
LTYP.                                         DEPTH MATCH:   LOG TYPE
LSRV.                                             CAL/BGT:   LOG SERVICE
LSOU.                                             SPT/NPD:   LOG SOURCE
LVSN.                                                   1:   LOG VERSION
BHIS.                                                   R:   BRIEF HISTORY
FHIS.                                             RAW-LIS:   FULL HISTORY
LCNM.                                                  DA:   LOGGING CONTRACTOR
TOOL.                             CDL/CNL/GR (COMPOSITED):   TOOL STRING
~Curve Information Block
#MNEM.UNIT                                        API CODE    No Description
#=========                                        ========    == ===========
DEPT.M                                       00 001 00 00:     1  DEPTH
CAL.IN                                                   :     2  Caliper
CN.%                                                     :     3  Neutron Porosity
CORR.G/CC                                                :     4  Density Correction
DEN.G/CC                                                 :     5  Bulk Density
GR.GAPI                                                  :     6  Gamma Ray
TEN.LB                                                   :     7  Cable Tension
~ASCII
# ...
 2553.1250    12.6899    21.8769      .1944     2.4330    42.3965     1.7107
 2553.2500    12.6964    22.5133      .2116     2.4338    45.0788     1.7858
 2553.3750    12.7050    23.1138      .2189     2.4282    47.5714     1.8610
 2553.5000    12.7181    23.4398      .2115     2.4149    49.6011     1.9362
 2553.6250    12.7339    23.2848      .1939     2.3970    50.4821     2.0115
 2553.7500    12.7484    22.8537      .1760     2.3787    49.5435     2.0866
 2553.8750    12.7600    22.2750      .1650     2.3621    47.1565     2.1618
 2554.0000    12.7716    21.6613      .1637     2.3550    44.5952     2.2371
 2554.1250    12.7901    21.0971      .1706     2.3496    42.3227     2.3123
 2554.2500    12.8167    20.6333      .1817     2.3441    40.6228     2.3874
 2554.3750    12.8493    20.5585      .1921     2.3382    39.4515     2.4625
 2554.5000    12.8820    20.9615      .1977     2.3336    38.3666     2.5377
 2554.6250    12.9100    21.6852      .1919     2.3336    37.3587     2.6128
 2554.7500    12.9343    22.4318      .1794     2.3348    36.5710     2.6880
 2554.8750    12.9576    22.7889      .1686     2.3366    36.1038     2.7632
 2555.0000    12.9750    22.6675      .1647     2.3385    36.0326     2.8383
 2555.1250    12.9813    22.4973      .1714     2.3403    36.3046     2.9135
 2555.2500    12.9814    22.4028      .1928     2.3418    36.4774     2.9888
 2555.3750    12.9813    22.4036      .2065     2.3424    36.2759     3.0641
 2555.5000    12.9812    22.4445      .2173     2.3425    36.2262     3.1393
 2555.6250    12.9802    22.4764      .2220     2.3429    36.2520     3.2144
 2555.7500    12.9764    22.5846      .2185     2.3441    36.2485     3.2895
 2555.8750    12.9681    22.8477      .2065     2.3467    36.1486     3.3647
 2556.0000    12.9595    23.2923      .1888     2.3506    35.6857     3.4398
 2556.1250    12.9509    23.8957      .1758     2.3546    35.0761     3.5150
 2556.2500    12.9423    24.5812      .1701     2.3590    34.3365     3.5902
 2556.3750    12.9337    25.3806      .1702     2.3638    33.8971     3.6655
 2556.5000    12.9262    25.9737      .1735     2.3685    34.1521     3.7407
 2556.6250    12.9240    26.1382      .1785     2.3723    35.0167     3.8160
 2556.7500    12.9298    25.8778      .1846     2.3731    35.7248     3.8911
 2556.8750    12.9363    25.3453      .1883     2.3722    36.2674     3.9662
 2557.0000    12.9613    24.7260      .1936     2.3683    36.7517     4.0413
 2557.1250    13.0048    24.1049      .2017     2.3624    37.2466     4.1165
 2557.2500    13.0480    23.5085      .2107     2.3568    37.7435     4.1917
 2557.3750    13.0635    23.0257      .2152     2.3523    37.9315     4.2669
 2557.5000    13.0719    22.7451      .2146     2.3484    37.5564     4.3420
 2557.6250    13.0747    22.7303      .2126     2.3450    36.8754     4.4172
 2557.7500    13.0719    22.9511      .2076     2.3418    36.2882     4.4924
 2557.8750    13.0652    23.2558      .1985     2.3396    36.0198     4.5676
 2558.0000    13.0592    23.5942      .1882     2.3418    35.8357     4.6431
 2558.1250    13.0583    23.9410      .1824     2.3498    35.2770     4.7183
 2558.2500    13.0330    24.2782      .1844     2.3585    34.4537     4.7934
 2558.3750    12.9730    24.5751      .2041     2.3646    33.5059     4.8685
 2558.5000    12.8653    24.6887      .2396     2.3644    32.7202     4.9437
 2558.6250    12.7078    24.4364      .2808     2.3555    32.4008     5.0189
 2558.7500    12.5696    23.8158      .3223     2.3404    32.5024     5.0941
 2558.8750    12.5096    22.9304      .3523     2.3287    32.8580     5.1692
 2559.0000    12.5330    21.9451      .3665     2.3286    33.1462     5.2445
 2559.1250    12.6072    20.7112      .3392     2.3479    33.1977     5.3198
 2559.2500    12.6887    19.1252      .2752     2.3896    32.9593     5.3950
 2559.3750    12.7363    16.7631      .2324     2.4486    32.5154     5.4703
 2559.5000    12.7376    13.9624      .2015     2.5124    31.5799     5.5455
 2559.6250    12.7378    11.3931      .1881     2.5618    30.4280     5.6206
 2559.7500    12.7377     9.8869      .1909     2.5822    29.4466     5.6957
 2559.8750    12.7376     9.2314      .2032     2.5724    28.8875     5.7709
 2560.0000    12.7380     9.4044      .2151     2.5391    28.9212     5.8461
 2560.1250    12.7420    10.3039      .2159     2.4882    29.8369     5.9213
 2560.2500    12.7570    11.8039      .2083     2.4356    31.1648     5.9965
 2560.3750    12.7767    13.7959      .2006     2.3977    32.5768     6.0716
 2560.5000    12.8044    16.3821      .1968     2.3699    34.0342     6.1469
 2560.6250    12.8394    19.1334      .1988     2.3459    35.4893     6.2222
 2560.7500    12.8739    21.1823      .2058     2.3223    36.8214     6.2975
 2560.8750    12.8842    22.2619      .2158     2.3056    37.2798     6.3726
 2561.0000    12.8931    22.5356      .2220     2.2953    36.8721     6.4477
 2561.1250    12.9016    22.6556      .2152     2.2886    35.9863     6.5229
 2561.2500    12.9093    23.2002      .1961     2.2863    34.8835     6.5981
 2561.3750    12.9138    23.9119      .1711     2.2908    33.7957     6.6733
 2561.5000    12.9082    24.6449      .1510     2.3049    33.0282     6.7485
 2561.6250    12.9023    25.3421      .1451     2.3180    33.0141     6.8238
 2561.7500    12.8963    26.0135      .1501     2.3261    33.0198     6.8990
 2561.8750    12.8904    26.6860      .1644     2.3295    32.9493     6.9742
 2562.0000    12.8845    27.0957      .1840     2.3287    32.8663     7.0495
 2562.1250    12.8791    27.0770      .2030     2.3240    32.9294     7.1247
 2562.2500    12.8828    26.7714      .2074     2.3178    33.1936     7.1998
 2562.3750    12.8942    26.4423      .2019     2.3139    33.7775     7.2749
 2562.5000    12.9074    26.4194      .1905     2.3141    34.3365     7.3501
 2562.6250    12.9241    26.9937      .1816     2.3176    34.6639     7.4253
 2562.7500    12.9430    27.7755      .1809     2.3222    34.6901     7.5005
 2562.8750    12.9499    28.3960      .1855     2.3237    34.5680     7.5757
 2563.0000    12.9444    28.6515      .1881     2.3213    34.4622     7.6509
 2563.1250    12.9382    28.5060      .1872     2.3172    34.4996     7.7261
 2563.2500    12.9309    28.1967      .1830     2.3143    34.9159     7.8014
 2563.3750    12.9227    27.9657      .1786     2.3138    35.7981     7.8768
 2563.5000    12.9150    27.6986      .1785     2.3156    37.0653     7.9520
 2563.6250    12.9140    27.3100      .1830     2.3157    38.3976     8.0270
 2563.7500    12.9137    26.7979      .1874     2.3146    38.9538     8.1022
 2563.8750    12.9121    26.2697      .1874     2.3159    38.8514     8.1774
 2564.0000    12.9069    26.0861      .1833     2.3192    38.3095     8.2526
 2564.1250    12.8971    26.2605      .1744     2.3257    37.7608     8.3278
 2564.2500    12.8838    26.5645      .1558     2.3393    37.9229     8.4030
 2564.3750    12.8653    26.8130      .1410     2.3589    39.3485     8.4783
 2564.5000    12.8467    26.8821      .1314     2.3817    41.5982     8.5536
 2564.6250    12.8359    26.7779      .1255     2.4041    44.5116     8.6288
 2564.7500    12.8330    26.7071      .1260     2.4181    47.4552     8.7040
 2564.8750    12.8334    26.6586      .1355     2.4165    49.5944     8.7792
 2565.0000    12.8384    26.5171      .1455     2.4092    50.3650     8.8543
 2565.1250    12.8462    26.1685      .1532     2.3952    49.3942     8.9295
 2565.2500    12.8629    25.5242      .1588     2.3777    46.9562     9.0046
 2565.3750    12.8888    24.5194      .1620     2.3569    43.6441     9.0798
 2565.5000    12.9215    23.5388      .1633     2.3365    40.0971     9.1550
 2565.6250    12.9576    22.9434      .1630     2.3245    36.8331     9.2302
 2565.7500    13.0106    22.8985      .1621     2.3192    34.6066     9.3054
 2565.8750    13.0534    23.4031      .1578     2.3192    33.4764     9.3807
 2566.0000    13.0708    24.2496      .1509     2.3222    33.2227     9.4560
