~VERSION INFORMATION
VERS.                                                 2.0:   CWLS Log ASCII Standard-VERSION 2.0
WRAP.                                                  NO:   One line per depth step
~Well Information Block
STRT.M                                          1175.1250:   Top Depth
STOP.M                                          3763.3750:   Bottom Depth
STEP.M                                             .12500:   Depth Increment
NULL.                                            -999.250:   Null Value
FLD .                                            SLEIPNER:   Field Name
WELL.                                              15/6-6:   NAME
WBN .                                              15/6-6:   WELLBORE
NATI.                                                 NOR:   COUNTRY
BHT1.DEGF                                            90.0:   BH TEMP 1
BHT2.DEGF                                           156.0:   BH TEMP 2
BHT3.DEGF                                           240.0:   BH TEMP 3
BS1 .IN                                            12.250:   BIT SIZE 1
CTRY.                                                 NOR:   COUNTRY
CBD1.M                                       196.60000610:   CSG 1 DRILL DEP
CBL1.M                                       196.39999390:   CSG 1 LOG DEP
CS1 .IN                                              30.0:   CSG 1 SIZE
COMP.            ESSO EXPLORATION & PRODUCTION NORWAY INC:   OPERATOR
PDAT.                                                 MSL:   PERM DATUM
PROV.                                           NORTH SEA:   PROVINCE
COUN.                                    GLOMAR BISCAY II:   RIG NAME
SON .                                               20315:   SOURCE OPERATOR NAME
SPUD.                                          1982/04/01:   SPUD DATE
LATI.                                       58 31 14.57 N:   SURF. LATITUDE
LONG.                                        1 44 53.78 E:   SURF. LONGITUDE
BTD1.                                      463.79998779 M:   TOTAL DEPTH 1
BTD2.                                      2775.1000977 M:   TOTAL DEPTH 2
BTD3.                                            3751.0 M:   TOTAL DEPTH 3
PBWE.                                              15/6-6:   PB WELL ID
APIN.                                              15/6-6:   PB WELLBORE ID
PBWS.                                                 all:   PB WELL NAME SET
~PARAMETER INFORMATION (log)
LNAM.                              CDL/CNL/GR  COMPOSITED:   NAME
LTYP.                                         DEPTH MATCH:   LOG TYPE
LSRV.                                             CAL/BGT:   LOG SERVICE
LSOU.                                             SPT/NPD:   LOG SOURCE
LVSN.                                                   1:   LOG VERSION
BHIS.                                                   R:   BRIEF HISTORY
FHIS.                                             RAW-LIS:   FULL HISTORY
LCNM.                                                  DA:   LOGGING CONTRACTOR
TOOL.                             CDL/CNL/GR (COMPOSITED):   TOOL STRING
~Curve Information Block
#MNEM.UNIT                                        API CODE    No Description
#=========                                        ========    == ===========
DEPT.M                                       00 001 00 00:     1  DEPTH
CAL.IN                                                   :     2  Caliper
CN.%                                                     :     3  Neutron Porosity
CORR.G/CC                                                :     4  Density Correction
DEN.G/CC                                                 :     5  Bulk Density
GR.GAPI                                                  :     6  Gamma Ray
TEN.LB                                                   :     7  Cable Tension
~ASCII
 1175.1250  -999.2500  -999.2500  -999.2500  -999.2500  -999.2500    10.3950
 1175.2500  -999.2500  -999.2500  -999.2500  -999.2500  -999.2500    10.9913
 1175.3750  -999.2500  -999.2500  -999.2500  -999.2500  -999.2500    11.5873
 1175.5000  -999.2500  -999.2500  -999.2500  -999.2500  -999.2500    12.1836
 1175.6250  -999.2500  -999.2500  -999.2500  -999.2500  -999.2500    12.7804
 1175.7500  -999.2500  -999.2500  -999.2500  -999.2500  -999.2500    13.3771
 1175.8750  -999.2500  -999.2500  -999.2500  -999.2500  -999.2500    13.9735
 1176.0000  -999.2500  -999.2500  -999.2500  -999.2500  -999.2500    14.5694
 1176.1250  -999.2500  -999.2500  -999.2500  -999.2500  -999.2500    15.1656
 1176.2500  -999.2500  -999.2500  -999.2500  -999.2500  -999.2500    15.7623
 1176.3750  -999.2500  -999.2500  -999.2500  -999.2500  -999.2500    16.3592
 1176.5000  -999.2500  -999.2500  -999.2500  -999.2500  -999.2500    16.9556
 1176.6250  -999.2500  -999.2500  -999.2500  -999.2500  -999.2500    17.5515
 1176.7500  -999.2500  -999.2500  -999.2500  -999.2500  -999.2500    18.1477
 1176.8750  -999.2500  -999.2500  -999.2500  -999.2500  -999.2500    16.8296
 1177.0000  -999.2500  -999.2500  -999.2500  -999.2500  -999.2500    15.3765
 1177.1250  -999.2500  -999.2500  -999.2500  -999.2500  -999.2500    15.9772
 1177.2500  -999.2500  -999.2500  -999.2500  -999.2500  -999.2500    16.5783
 1177.3750  -999.2500  -999.2500  -999.2500  -999.2500  -999.2500    17.1785
 1177.5000  -999.2500  -999.2500  -999.2500  -999.2500  -999.2500    17.7786
 1177.6250  -999.2500  -999.2500  -999.2500  -999.2500  -999.2500    18.3792
 1177.7500  -999.2500  -999.2500  -999.2500  -999.2500  -999.2500    18.9803
 1177.8750  -999.2500  -999.2500  -999.2500  -999.2500  -999.2500    19.5813
 1178.0000  -999.2500  -999.2500  -999.2500  -999.2500  -999.2500    20.1815
 1178.1250  -999.2500  -999.2500  -999.2500  -999.2500  -999.2500    20.7816
 1178.2500  -999.2500  -999.2500  -999.2500  -999.2500  -999.2500    21.3823
 1178.3750  -999.2500  -999.2500  -999.2500  -999.2500  -999.2500    21.9834
 1178.5000  -999.2500  -999.2500  -999.2500  -999.2500  -999.2500    22.5844
 1178.6250  -999.2500  -999.2500  -999.2500  -999.2500  -999.2500    23.1845
 1178.7500  -999.2500  -999.2500  -999.2500  -999.2500  -999.2500    23.7846
 1178.8750  -999.2500  -999.2500  -999.2500  -999.2500  -999.2500    24.3855
 1179.0000  -999.2500  -999.2500  -999.2500  -999.2500  -999.2500    24.9863
 1179.1250  -999.2500  -999.2500  -999.2500  -999.2500  -999.2500    25.5871
 1179.2500  -999.2500  -999.2500  -999.2500  -999.2500  -999.2500    26.1881
 1179.3750  -999.2500  -999.2500  -999.2500  -999.2500  -999.2500    26.7882
 1179.5000  -999.2500  -999.2500  -999.2500  -999.2500  -999.2500    27.3884
 1179.6250  -999.2500  -999.2500  -999.2500  -999.2500  -999.2500    27.5587
 1179.7500  -999.2500  -999.2500  -999.2500  -999.2500  -999.2500    27.3372
 1179.8750  -999.2500  -999.2500  -999.2500  -999.2500    32.2452    26.9064
 1180.0000  -999.2500  -999.2500  -999.2500  -999.2500    32.1532    26.4762
 1180.1250  -999.2500  -999.2500  -999.2500  -999.2500    31.7317    26.0460
 1180.2500    12.9594  -999.2500  -999.2500  -999.2500    31.2728    25.6152
 1180.3750    12.9590  -999.2500  -999.2500  -999.2500    31.5785    25.1844
 1180.5000    12.9585  -999.2500  -999.2500  -999.2500    32.1148    24.7537
 1180.6250    12.9580  -999.2500  -999.2500  -999.2500    31.7912    24.3235
 1180.7500    12.9576  -999.2500  -999.2500  -999.2500    31.3188    23.8933
 1180.8750    12.9571  -999.2500  -999.2500  -999.2500    30.9022    23.4625
 1181.0000    12.9567    44.0607    -1.3579     1.3011    30.6421    23.0318
 1181.1250    12.9562    43.5524    -1.3548     1.2951    30.4909    22.6011
 1181.2500    12.9557    42.7993    -1.3548     1.2910    30.3384    22.1703
 1181.3750    12.9553    42.1354    -1.3544     1.2918    30.0405    21.7401
 1181.5000    12.9574    41.8055    -1.3529     1.2947    29.7927    21.3099
 1181.6250    12.9574    42.0865    -1.3482     1.2983    29.8592    20.8792
 1181.7500    12.9570    43.4308    -1.3439     1.3005    30.1049    20.4483
 1181.8750    12.9565    45.6769    -1.3392     1.3008    30.3529    20.0176
 1182.0000    12.9560    47.9692    -1.3330     1.3003    30.4124    19.5874
 1182.1250    12.9556    49.9688    -1.3309     1.3022    30.0825    19.1572
 1182.2500    12.9551    51.1052    -1.3197     1.3034    29.3968    18.7264
 1182.3750    12.9547    50.7227    -1.3088     1.3040    28.6714    18.2955
 1182.5000    12.9542    48.5125    -1.3029     1.3027    28.0559    17.8649
 1182.6250    12.9537    45.7567    -1.3029     1.2989    27.6715    17.4347
 1182.7500    12.9533    42.8887    -1.3063     1.2937    27.6165    17.0045
 1182.8750    12.9528    40.3085    -1.3212     1.2894    28.0582    16.5736
 1183.0000    12.9524    38.4300    -1.3371     1.2890    28.7325    16.1430
 1183.1250    12.9519    37.6746    -1.3532     1.2921    29.3848    15.7122
 1183.2500    12.9514    37.9811    -1.3682     1.2978    29.8952    15.2816
 1183.3750    12.9510    38.6980    -1.3796     1.3062    30.2149    14.8514
 1183.5000    12.9505    39.3080    -1.3806     1.3212    30.3289    14.4212
 1183.6250    12.9501    39.5033    -1.3678     1.3379    29.9155    13.9903
 1183.7500    12.9496    39.1953    -1.3446     1.3510    29.0531    13.5594
 1183.8750    12.9491    38.5916    -1.3245     1.3569    28.0877    13.1289
 1184.0000    12.9487    37.8605    -1.3155     1.3557    27.3286    12.6987
 1184.1250    12.9482    37.2909    -1.3177     1.3509    26.9558    12.2684
 1184.2500    12.9478    37.0275    -1.3223     1.3435    26.6886    11.8375
 1184.3750    12.9473    37.1182    -1.3278     1.3406    26.1526    11.4066
 1184.5000    12.9468    37.4962    -1.3266     1.3406    25.4067    11.1982
 1184.6250    12.9464    37.5984    -1.3197     1.3429    24.4939    11.1573
 1184.7500    12.9459    37.2189    -1.3104     1.3472    23.4652    11.1687
 1184.8750    12.9455    36.6864    -1.3012     1.3523    22.3822    11.1800
 1185.0000    12.9450    36.2476    -1.2968     1.3574    21.2983    11.1914
 1185.1250    12.9445    36.0580    -1.2969     1.3625    20.2177    11.2027
 1185.2500    12.9441    36.1234    -1.2994     1.3683    19.1593    11.2141
 1185.3750    12.9436    36.3665    -1.3026     1.3774    18.2784    11.2254
 1185.5000    12.9434    36.8713    -1.3062     1.3919    17.8306    11.2368
 1185.6250    12.9444    37.6546    -1.3131     1.4006    18.1929    11.2481
 1185.7500    12.9455    38.6211    -1.3228     1.4083    18.4887    11.2595
 1185.8750    12.9466    39.5602    -1.3324     1.4169    18.2785    11.2709
 1186.0000    12.9476    40.0997    -1.3399     1.4264    17.6500    11.2822
 1186.1250    12.9487    40.2809    -1.3421     1.4349    16.8186    11.2936
 1186.2500    12.9497    40.2752    -1.3337     1.4390    15.9920    11.3049
 1186.3750    12.9508    40.1223    -1.3375     1.4330    15.5767    11.3163
 1186.5000    12.9518    39.7500    -1.3477     1.4260    15.6840    11.3276
 1186.6250    12.9530    38.8818    -1.3611     1.4220    16.2620    11.3390
 1186.7500    12.9549    37.4356    -1.3733     1.4218    17.2344    11.3503
 1186.8750    12.9580    35.9095    -1.3803     1.4248    18.3862    11.3617
 1187.0000    12.9612    34.7049    -1.3789     1.4320    18.8759    11.3730
 1187.1250    12.9644    34.1643    -1.3770     1.4410    18.2108    11.3844
 1187.2500    12.9675    34.5277    -1.3739     1.4508    17.2482    11.3958
 1187.3750    12.9707    35.9544    -1.3600     1.4624    16.2504    11.4071
 1187.5000    12.9739    37.7242    -1.3355     1.4736    15.4628    11.4184
 1187.6250    12.9771    38.9370    -1.3154     1.4779    15.1830    11.4298
 1187.7500    12.9802    39.3634    -1.2956     1.4761    15.6475    11.4412
 1187.8750    12.9834    39.1772    -1.2762     1.4698    16.2867    11.4525
 1188.0000    12.9866    38.9675    -1.2570     1.4598    16.9598    11.4639
