~VERSION INFORMATION
VERS.                                                 2.0:   CWLS Log ASCII Standard-VERSION 2.0
WRAP.                                                  NO:   One line per depth step
~Well Information Block
STRT.M                                          1175.1250:   Top Depth
STOP.M                                          3763.3750:   Bottom Depth
STEP.M                                             .12500:   Depth Increment
NULL.                                            -999.250:   Null Value
FLD .                                            SLEIPNER:   Field Name
WELL.                                              15/6-6:   NAME
WBN .                                              15/6-6:   WELLBORE
NATI.                                                 NOR:   COUNTRY
BHT1.DEGF                                            90.0:   BH TEMP 1
BHT2.DEGF                                           156.0:   BH TEMP 2
BHT3.DEGF                                           240.0:   BH TEMP 3
BS1 .IN                                            12.250:   BIT SIZE 1
CTRY.                                                 NOR:   COUNTRY
CBD1.M                                       196.60000610:   CSG 1 DRILL DEP
CBL1.M                                       196.39999390:   CSG 1 LOG DEP
CS1 .IN                                              30.0:   CSG 1 SIZE
COMP.            ESSO EXPLORATION & PRODUCTION NORWAY INC:   OPERATOR
PDAT.                                                 MSL:   PERM DATUM
PROV.                                           NORTH SEA:   PROVINCE
COUN.                                    GLOMAR BISCAY II:   RIG NAME
SON .                                               20315:   SOURCE OPERATOR NAME
SPUD.                                          1982/04/01:   SPUD DATE
LATI.                                       58 31 14.57 N:   SURF. LATITUDE
LONG.                                        1 44 53.78 E:   SURF. LONGITUDE
BTD1.                                      463.79998779 M:   TOTAL DEPTH 1
BTD2.                                      2775.1000977 M:   TOTAL DEPTH 2
BTD3.                                            3751.0 M:   TOTAL DEPTH 3
PBWE.                                              15/6-6:   PB WELL ID
APIN.                                              15/6-6:   PB WELLBORE ID
PBWS.                                                 all:   PB WELL NAME SET
~PARAMETER INFORMATION (log)
LNAM.                              CDL/CNL/GR  COMPOSITED:   NAME
LTYP.                                         DEPTH MATCH:   LOG TYPE
LSRV.                                             CAL/BGT:   LOG SERVICE
LSOU.                                             SPT/NPD:   LOG SOURCE
LVSN.                                                   1:   LOG VERSION
BHIS.                                                   R:   BRIEF HISTORY
FHIS.                                             RAW-LIS:   FULL HISTORY
LCNM.                                                  DA:   LOGGING CONTRACTOR
TOOL.                             CDL/CNL/GR (COMPOSITED):   TOOL STRING
~Curve Information Block
#MNEM.UNIT                                        API CODE    No Description
#=========                                        ========    == ===========
DEPT.M                                       00 001 00 00:     1  DEPTH
CAL.IN                                                   :     2  Caliper
CN.%                                                     :     3  Neutron Porosity
CORR.G/CC                                                :     4  Density Correction
DEN.G/CC                                                 :     5  Bulk Density
GR.GAPI                                                  :     6  Gamma Ray
TEN.LB                                                   :     7  Cable Tension
~ASCII
# ...
 2033.1250    16.0814    36.8826      .2540     2.1641    48.0881     7.2297
 2033.2500    16.3573    37.4857      .2448     2.1887    46.5688     7.7748
 2033.3750    16.5586    37.5216      .2458     2.2009    45.8005     8.3195
 2033.5000    16.6757    36.3997      .2548     2.1971    45.7944     8.8640
 2033.6250    16.6906    34.6312      .2676     2.1769    46.4602     9.4058
 2033.7500    16.6117    33.1344      .2798     2.1429    47.4796     9.9268
 2033.8750    16.4547    32.4565      .2934     2.1138    48.6615    10.0079
 2034.0000    16.3004    32.8593      .3082     2.0974    49.5209    10.0236
 2034.1250    16.1946    34.2437      .3207     2.0911    50.1479    10.0236
 2034.2500    16.1729    36.0522      .3273     2.0930    50.8055    10.0237
 2034.3750    16.2394    37.5038      .3243     2.1013    51.6262    10.0237
 2034.5000    16.3157    38.1634      .3074     2.1143    52.0251    10.0238
 2034.6250    16.3332    37.8900      .2874     2.1326    51.9038    10.0239
 2034.7500    16.3305    36.8464      .2719     2.1456    51.4588    10.0239
 2034.8750    16.3265    35.7045      .2618     2.1520    50.7048    10.0240
 2035.0000    16.3413    35.0897      .2575     2.1513    49.6190    10.0240
 2035.1250    16.3944    34.8173      .2603     2.1434    48.1849    10.0241
 2035.2500    16.4930    34.6647      .2712     2.1277    46.8370    10.0242
 2035.3750    16.6527    34.4725      .2857     2.1075    45.6640    10.0242
 2035.5000    16.8184    34.2238      .2997     2.0866    44.5250    10.0243
 2035.6250    16.9619    34.2560      .3102     2.0679    43.3853    10.0243
 2035.7500    17.0659    34.6199      .3155     2.0537    42.2499    10.0244
 2035.8750    17.1185    35.0152      .3169     2.0457    41.1363    10.0245
 2036.0000    17.1247    35.2629      .3154     2.0390    40.4320    10.0245
 2036.1250    17.1257    35.3622      .3144     2.0342    39.7200    10.0246
 2036.2500    17.1271    35.7615      .3150     2.0332    38.9855    10.0246
 2036.3750    17.1317    37.0461      .3174     2.0367    38.5055    10.0247
 2036.5000    17.1407    38.6854      .3203     2.0438    38.7722    10.0248
 2036.6250    17.1512    39.8929      .3220     2.0506    40.4642    10.0248
 2036.7500    17.1618    40.0125      .3224     2.0602    41.6477    10.0249
 2036.8750    17.1721    38.7060      .3213     2.0708    42.6072    10.0249
 2037.0000    17.1805    36.3142      .3194     2.0801    43.0197    10.0250
 2037.1250    17.1853    34.3128      .3173     2.0868    42.6119    10.0251
 2037.2500    17.1853    33.2239      .3151     2.0927    41.4913    10.0251
 2037.3750    17.1852    32.9843      .3126     2.0968    40.3086    10.0252
 2037.5000    17.1852    33.2297      .3099     2.1003    39.4999    10.0252
 2037.6250    17.1851    33.5203      .3059     2.1034    39.1809    10.0253
 2037.7500    17.1851    33.7342      .2988     2.1059    39.3545    10.0254
 2037.8750    17.1850    33.8842      .2873     2.1073    39.9650    10.0254
 2038.0000    17.1850    33.9644      .2749     2.1078    41.1132    10.0255
 2038.1250    17.1849    33.9832      .2720     2.1076    42.4126    10.0256
 2038.2500    17.1849    33.9644      .2758     2.1072    42.8323    10.0256
 2038.3750    17.1848    33.9362      .2860     2.1061    42.6239    10.0257
 2038.5000    17.1848    33.9141      .3001     2.1032    42.2114    10.0258
 2038.6250    17.1847    33.9191      .3123     2.0959    41.8720    10.0258
 2038.7500    17.1847    33.9782      .3122     2.0815    41.5553    10.0259
 2038.8750    17.1846    34.1329      .3063     2.0670    40.9906    10.0260
 2039.0000    17.1846    34.4605      .2982     2.0551    39.8133    10.0260
 2039.1250    17.1845    35.1530      .2910     2.0474    38.5742    10.0261
 2039.2500    17.1845    36.0128      .2871     2.0444    38.0413    10.0262
 2039.3750    17.1844    36.7100      .2905     2.0451    38.0266    10.0262
 2039.5000    17.1844    36.9364      .3016     2.0457    37.8185    10.0263
 2039.6250    17.1843    36.4675      .3117     2.0445    37.5744    10.0264
 2039.7500    17.1843    35.2911      .3175     2.0426    37.4685    10.0264
 2039.8750    17.1846    34.0338      .3173     2.0416    37.6915    10.0265
 2040.0000    17.1862    33.0812      .3103     2.0435    38.4039    10.0266
 2040.1250    17.1918    32.4581      .2957     2.0501    39.1944    10.0266
 2040.2500    17.1993    32.0805      .2797     2.0611    39.6216    10.0267
 2040.3750    17.2069    31.8395      .2669     2.0776    39.7769    10.0267
 2040.5000    17.2140    31.9416      .2604     2.0962    39.5297    10.0268
 2040.6250    17.2200    32.5631      .2629     2.1113    38.8813    10.0269
 2040.7500    17.2237    33.8332      .2780     2.1152    38.4608    10.0269
 2040.8750    17.2223    35.5083      .2935     2.1074    38.4404    10.0270
 2041.0000    17.2172    37.0164      .3019     2.0933    38.5162    10.0271
 2041.1250    17.1971    37.1649      .3072     2.0749    38.6845    10.0271
 2041.2500    17.1476    35.6267      .3113     2.0550    38.8785    10.0272
 2041.3750    17.0581    33.3427      .3133     2.0371    38.9596    10.0273
 2041.5000    16.9616    31.0664      .3120     2.0237    38.7854    10.0273
 2041.6250    16.8978    29.5145      .3088     2.0171    38.4573    10.0274
 2041.7500    16.8721    29.2892      .3044     2.0157    38.2009    10.0275
 2041.8750    16.8823    30.8158      .2999     2.0183    38.1628    10.0275
 2042.0000    16.9205    33.1248      .2963     2.0232    38.4285    10.0276
 2042.1250    16.9743    35.6181      .2947     2.0288    39.0049    10.0276
 2042.2500    17.0253    37.7693      .2920     2.0357    39.6092    10.0277
 2042.3750    17.0695    39.2426      .2864     2.0445    40.3627    10.0278
 2042.5000    17.1008    40.1887      .2796     2.0537    41.1644    10.0278
 2042.6250    17.1176    41.2315      .2745     2.0627    41.9400    10.0279
 2042.7500    17.1231    41.8160      .2733     2.0714    42.6015    10.0279
 2042.8750    17.1230    41.4139      .2731     2.0792    42.7080    10.0280
 2043.0000    17.1230    39.9260      .2753     2.0831    42.2603    10.0280
 2043.1250    17.1229    37.7959      .2790     2.0832    41.7383    10.0281
 2043.2500    17.1229    36.2897      .2825     2.0829    41.3336    10.0282
 2043.3750    17.1228    35.8789      .2841     2.0849    41.2577    10.0282
 2043.5000    17.1228    36.2466      .2827     2.0900    41.8302    10.0283
 2043.6250    17.1227    36.9392      .2823     2.0973    42.7046    10.0283
 2043.7500    17.1227    37.4193      .2835     2.1020    43.7914    10.0284
 2043.8750    17.1226    37.0935      .2867     2.1025    45.0821    10.0285
 2044.0000    17.1226    36.1590      .2914     2.0992    46.1715    10.0285
 2044.1250    17.1230    35.4295      .2973     2.0938    46.5157    10.0286
 2044.2500    17.1268    35.3156      .3029     2.0887    45.8676    10.0286
 2044.3750    17.1392    35.9756      .3058     2.0860    44.9887    10.0287
 2044.5000    17.1461    37.2522      .3068     2.0835    44.5593    10.0288
 2044.6250    17.1357    38.0950      .3066     2.0779    44.8966    10.0288
 2044.7500    17.1060    37.6969      .3059     2.0683    45.8888    10.0289
 2044.8750    17.0672    36.5930      .3052     2.0574    46.9257    10.0289
 2045.0000    17.0286    35.2483      .3044     2.0470    46.9702    10.0290
 2045.1250    16.9991    34.0169      .3045     2.0397    46.6219    10.0291
 2045.2500    16.9839    32.9973      .3056     2.0377    46.0047    10.0291
 2045.3750    16.9911    32.1340      .3055     2.0409    45.2673    10.0292
 2045.5000    17.0232    31.6432      .3012     2.0483    44.5409    10.0292
 2045.6250    17.0627    31.8628      .2898     2.0602    43.8514    10.0293
 2045.7500    17.1004    32.9519      .2746     2.0794    43.6076    10.0293
 2045.8750    17.1311    34.8346      .2609     2.1001    43.9984    10.0294
 2046.0000    17.1492    36.9304      .2519     2.1200    44.6968    10.0294
