~VERSION INFORMATION
VERS.                                                 2.0:   CWLS Log ASCII Standard-VERSION 2.0
WRAP.                                                  NO:   One line per depth step
~Well Information Block
STRT.M                                          1175.1250:   Top Depth
STOP.M                                          3763.3750:   Bottom Depth
STEP.M                                             .12500:   Depth Increment
NULL.                                            -999.250:   Null Value
FLD .                                            SLEIPNER:   Field Name
WELL.                                              15/6-6:   NAME
WBN .                                              15/6-6:   WELLBORE
NATI.                                                 NOR:   COUNTRY
BHT1.DEGF                                            90.0:   BH TEMP 1
BHT2.DEGF                                           156.0:   BH TEMP 2
BHT3.DEGF                                           240.0:   BH TEMP 3
BS1 .IN                                            12.250:   BIT SIZE 1
CTRY.                                                 NOR:   COUNTRY
CBD1.M                                       196.60000610:   CSG 1 DRILL DEP
CBL1.M                                       196.39999390:   CSG 1 LOG DEP
CS1 .IN                                              30.0:   CSG 1 SIZE
COMP.            ESSO EXPLORATION & PRODUCTION NORWAY INC:   OPERATOR
PDAT.                                                 MSL:   PERM DATUM
PROV.                                           NORTH SEA:   PROVINCE
COUN.                                    GLOMAR BISCAY II:   RIG NAME
SON .                                               20315:   SOURCE OPERATOR NAME
SPUD.                                          1982/04/01:   SPUD DATE
LATI.                                       58 31 14.57 N:   SURF. LATITUDE
LONG.                                        1 44 53.78 E:   SURF. LONGITUDE
BTD1.                                      463.79998779 M:   TOTAL DEPTH 1
BTD2.                                      2775.1000977 M:   TOTAL DEPTH 2
BTD3.                                            3751.0 M:   TOTAL DEPTH 3
PBWE.                                              15/6-6:   PB WELL ID
APIN.                                              15/6-6:   PB WELLBORE ID
PBWS.                                                 all:   PB WELL NAME SET
~PARAMETER INFORMATION (log)
LNAM.                              CDL/CNL/GR  COMPOSITED:   NAME
LTYP.                                         DEPTH MATCH:   LOG TYPE
LSRV.                                             CAL/BGT:   LOG SERVICE
LSOU.                                             SPT/NPD:   LOG SOURCE
LVSN.                                                   1:   LOG VERSION
BHIS.                                                   R:   BRIEF HISTORY
FHIS.                                             RAW-LIS:   FULL HISTORY
LCNM.                                                  DA:   LOGGING CONTRACTOR
TOOL.                             CDL/CNL/GR (COMPOSITED):   TOOL STRING
~Curve Information Block
#MNEM.UNIT                                        API CODE    No Description
#=========                                        ========    == ===========
DEPT.M                                       00 001 00 00:     1  DEPTH
CAL.IN                                                   :     2  Caliper
CN.%                                                     :     3  Neutron Porosity
CORR.G/CC                                                :     4  Density Correction
DEN.G/CC                                                 :     5  Bulk Density
GR.GAPI                                                  :     6  Gamma Ray
TEN.LB                                                   :     7  Cable Tension
~ASCII
# ...
 2371.1250    12.4946    25.8774      .1634     2.2772    46.0728    19.9990
 2371.2500    12.4970    25.1847      .1578     2.2817    41.6792    19.9990
 2371.3750    12.4994    24.9047      .1583     2.2867    39.6196    19.9990
 2371.5000    12.5018    24.7221      .1623     2.2921    39.5009    19.9990
 2371.6250    12.5042    24.5935      .1669     2.2978    40.0052    19.9990
 2371.7500    12.5066    24.5782      .1696     2.3034    40.9218    19.9990
 2371.8750    12.5090    24.7371      .1737     2.3082    40.8652    19.9991
 2372.0000    12.5114    25.0999      .1816     2.3118    39.9994    19.9991
 2372.1250    12.5138    25.5832      .1914     2.3133    38.7623    19.9991
 2372.2500    12.5162    25.7915      .1990     2.3126    37.6407    19.9992
 2372.3750    12.5186    25.6625      .1988     2.3101    36.9818    19.9992
 2372.5000    12.5203    25.2728      .1921     2.3084    37.2077    19.9992
 2372.6250    12.5210    24.7556      .1845     2.3091    37.2731    19.9992
 2372.7500    12.5211    24.1672      .1782     2.3130    37.2011    19.9993
 2372.8750    12.5211    23.7385      .1737     2.3196    37.0600    19.9993
 2373.0000    12.5210    23.5936      .1703     2.3279    36.9448    19.9993
 2373.1250    12.5210    23.6091      .1649     2.3345    37.2018    19.9994
 2373.2500    12.5210    23.6167      .1575     2.3404    37.8132    19.9994
 2373.3750    12.5209    23.4525      .1518     2.3465    38.6307    19.9994
 2373.5000    12.5209    23.0330      .1479     2.3532    39.3207    19.9994
 2373.6250    12.5209    22.3044      .1451     2.3606    39.5873    19.9995
 2373.7500    12.5208    21.4258      .1433     2.3672    39.3120    19.9995
 2373.8750    12.5216    20.5781      .1423     2.3703    38.8192    19.9995
 2374.0000    12.5267    19.9394      .1425     2.3689    38.4488    19.9996
 2374.1250    12.5329    19.6595      .1435     2.3632    38.3488    19.9996
 2374.2500    12.5343    19.9771      .1445     2.3540    38.4526    19.9996
 2374.3750    12.5259    20.8086      .1449     2.3425    38.5808    19.9996
 2374.5000    12.5136    22.0250      .1441     2.3307    38.6751    19.9997
 2374.6250    12.5052    23.3124      .1408     2.3189    38.6087    19.9997
 2374.7500    12.5015    24.2070      .1350     2.3089    38.0965    19.9997
 2374.8750    12.5027    24.1247      .1273     2.3030    37.2591    19.9998
 2375.0000    12.5080    23.4365      .1190     2.3023    36.3126    19.9998
 2375.1250    12.5154    22.6178      .1126     2.3054    35.4976    19.9998
 2375.2500    12.5326    22.0188      .1104     2.3112    35.8643    19.9998
 2375.3750    12.5563    21.8853      .1127     2.3174    37.6795    19.9999
 2375.5000    12.5826    22.3015      .1192     2.3235    41.1507    19.9999
 2375.6250    12.6093    23.0471      .1274     2.3293    46.4703    19.9999
 2375.7500    12.6328    23.8560      .1334     2.3343    53.4867    20.0000
 2375.8750    12.6394    24.6885      .1319     2.3390    61.0293    20.0000
 2376.0000    12.6399    25.5147      .1281     2.3437    68.1132    20.0002
 2376.1250    12.6369    26.3080      .1308     2.3479    72.9017    20.0004
 2376.2500    12.6285    27.0254      .1402     2.3514    74.2930    20.0006
 2376.3750    12.6151    27.4069      .1541     2.3529    71.6195    20.0009
 2376.5000    12.5999    27.1646      .1684     2.3505    64.8210    20.0011
 2376.6250    12.5847    26.3380      .1664     2.3396    56.3772    20.0014
 2376.7500    12.5694    25.1200      .1564     2.3223    48.5952    20.0016
 2376.8750    12.5520    23.7977      .1445     2.3067    42.3311    20.0018
 2377.0000    12.5329    22.7040      .1325     2.2957    38.5026    20.0021
 2377.1250    12.5132    21.9152      .1207     2.2904    37.3972    20.0023
 2377.2500    12.4935    21.3055      .1088     2.2915    37.7269    20.0026
 2377.3750    12.4820    20.8139      .0980     2.2989    38.4437    20.0028
 2377.5000    12.4755    20.4431      .0905     2.3079    38.6893    20.0030
 2377.6250    12.4711    20.2991      .0883     2.3175    38.3931    20.0033
 2377.7500    12.4672    20.4191      .0929     2.3271    37.9010    20.0035
 2377.8750    12.4634    20.7466      .1042     2.3368    37.8062    20.0038
 2378.0000    12.4595    21.2267      .1158     2.3446    38.2019    20.0040
 2378.1250    12.4556    21.7830      .1258     2.3489    38.2272    20.0042
 2378.2500    12.4518    22.3226      .1351     2.3515    37.9385    20.0045
 2378.3750    12.4479    22.7157      .1409     2.3529    37.4041    20.0047
 2378.5000    12.4441    22.9472      .1407     2.3533    36.7520    20.0050
 2378.6250    12.4402    23.0132      .1342     2.3529    36.2018    20.0052
 2378.7500    12.4363    22.8881      .1321     2.3528    36.0143    20.0054
 2378.8750    12.4325    22.5634      .1316     2.3530    36.1672    20.0057
 2379.0000    12.4286    22.1002      .1316     2.3535    36.4678    20.0059
 2379.1250    12.4248    21.8762      .1316     2.3537    36.8104    20.0061
 2379.2500    12.4209    22.0286      .1317     2.3526    37.1688    20.0062
 2379.3750    12.4170    22.4596      .1333     2.3507    37.5456    20.0064
 2379.5000    12.4132    23.0093      .1373     2.3504    37.9617    20.0066
 2379.6250    12.4093    23.5064      .1427     2.3516    38.5493    20.0067
 2379.7500    12.4054    23.9321      .1471     2.3552    39.5203    20.0069
 2379.8750    12.4020    24.4159      .1497     2.3619    41.0590    20.0071
 2380.0000    12.4000    25.1412      .1529     2.3716    43.2641    20.0072
 2380.1250    12.3996    26.1895      .1573     2.3813    45.4493    20.0074
 2380.2500    12.3995    27.4815      .1635     2.3866    47.3607    20.0076
 2380.3750    12.3995    28.6340      .1683     2.3877    49.2651    20.0077
 2380.5000    12.3995    28.8501      .1689     2.3854    51.3428    20.0079
 2380.6250    12.3994    28.3556      .1630     2.3809    53.5869    20.0081
 2380.7500    12.3994    27.6019      .1508     2.3754    55.4077    20.0082
 2380.8750    12.3994    26.9699      .1421     2.3698    56.6058    20.0084
 2381.0000    12.3993    26.7052      .1383     2.3644    56.7143    20.0086
 2381.1250    12.3993    26.8763      .1386     2.3591    56.0222    20.0087
 2381.2500    12.3993    27.1669      .1413     2.3529    54.7165    20.0089
 2381.3750    12.3993    27.2503      .1444     2.3446    52.6810    20.0091
 2381.5000    12.4005    26.9810      .1438     2.3340    49.5006    20.0092
 2381.6250    12.4040    26.3592      .1366     2.3204    46.5064    20.0094
 2381.7500    12.4083    25.5660      .1252     2.3077    44.1103    20.0096
 2381.8750    12.4130    24.9881      .1129     2.2987    42.3232    20.0098
 2382.0000    12.4158    24.5553      .1028     2.2953    40.9739    20.0100
 2382.1250    12.4084    24.1261      .0974     2.2968    39.9294    20.0103
 2382.2500    12.3958    23.5778      .0980     2.3019    39.3211    20.0106
 2382.3750    12.3825    22.8382      .1003     2.3077    39.2340    20.0108
 2382.5000    12.3702    21.9752      .1031     2.3134    39.5350    20.0111
 2382.6250    12.3614    21.3951      .1059     2.3184    39.9911    20.0114
 2382.7500    12.3590    21.1566      .1087     2.3229    40.3281    20.0117
 2382.8750    12.3590    21.2048      .1135     2.3259    40.4332    20.0119
 2383.0000    12.3590    21.4414      .1190     2.3287    40.3451    20.0121
 2383.1250    12.3552    21.7564      .1248     2.3310    40.0387    20.0123
 2383.2500    12.3488    22.0179      .1304     2.3329    39.4736    20.0125
 2383.3750    12.3430    22.1997      .1356     2.3346    38.7032    20.0127
 2383.5000    12.3427    22.2530      .1406     2.3362    37.9970    20.0129
 2383.6250    12.3445    22.1513      .1413     2.3379    37.7845    20.0131
 2383.7500    12.3463    21.9067      .1398     2.3401    37.9541    20.0133
 2383.8750    12.3481    21.6321      .1369     2.3426    38.1155    20.0135
 2384.0000    12.3499    21.4691      .1335     2.3458    37.9398    20.0137
