~VERSION INFORMATION
VERS.                                                 2.0:   CWLS Log ASCII Standard-VERSION 2.0
WRAP.                                                  NO:   One line per depth step
~Well Information Block
STRT.M                                          1175.1250:   Top Depth
STOP.M                                          3763.3750:   Bottom Depth
STEP.M                                             .12500:   Depth Increment
NULL.                                            -999.250:   Null Value
FLD .                                            SLEIPNER:   Field Name
WELL.                                              15/6-6:   NAME
WBN .                                              15/6-6:   WELLBORE
NATI.                                                 NOR:   COUNTRY
BHT1.DEGF                                            90.0:   BH TEMP 1
BHT2.DEGF                                           156.0:   BH TEMP 2
BHT3.DEGF                                           240.0:   BH TEMP 3
BS1 .IN                                            12.250:   BIT SIZE 1
CTRY.                                                 NOR:   COUNTRY
CBD1.M                                       196.60000610:   CSG 1 DRILL DEP
CBL1.M                                       196.39999390:   CSG 1 LOG DEP
CS1 .IN                                              30.0:   CSG 1 SIZE
COMP.            ESSO EXPLORATION & PRODUCTION NORWAY INC:   OPERATOR
PDAT.                                                 MSL:   PERM DATUM
PROV.                                           NORTH SEA:   PROVINCE
COUN.                                    GLOMAR BISCAY II:   RIG NAME
SON .                                               20315:   SOURCE OPERATOR NAME
SPUD.                                          1982/04/01:   SPUD DATE
LATI.                                       58 31 14.57 N:   SURF. LATITUDE
LONG.                                        1 44 53.78 E:   SURF. LONGITUDE
BTD1.                                      463.79998779 M:   TOTAL DEPTH 1
BTD2.                                      2775.1000977 M:   TOTAL DEPTH 2
BTD3.                                            3751.0 M:   TOTAL DEPTH 3
PBWE.                                              15/6-6:   PB WELL ID
APIN.                                              15/6-6:   PB WELLBORE ID
PBWS.                                                 all:   PB WELL NAME SET
~PARAMETER INFORMATION (log)
LNAM.                              CDL/CNL/GR  COMPOSITED:   NAME
LTYP.                                         DEPTH MATCH:   LOG TYPE
LSRV.                                             CAL/BGT:   LOG SERVICE
LSOU.                                             SPT/NPD:   LOG SOURCE
LVSN.                                                   1:   LOG VERSION
BHIS.                                                   R:   BRIEF HISTORY
FHIS.                                             RAW-LIS:   FULL HISTORY
LCNM.                                                  DA:   LOGGING CONTRACTOR
TOOL.                             CDL/CNL/GR (COMPOSITED):   TOOL STRING
~Curve Information Block
#MNEM.UNIT                                        API CODE    No Description
#=========                                        ========    == ===========
DEPT.M                                       00 001 00 00:     1  DEPTH
CAL.IN                                                   :     2  Caliper
CN.%                                                     :     3  Neutron Porosity
CORR.G/CC                                                :     4  Density Correction
DEN.G/CC                                                 :     5  Bulk Density
GR.GAPI                                                  :     6  Gamma Ray
TEN.LB                                                   :     7  Cable Tension
~ASCII
# ...
 3229.1250     9.2047     8.3661      .0676     2.6928    27.5289     2.4006
 3229.2500     9.2040     8.5358      .0705     2.6914    28.1067     3.1551
 3229.3750     9.2032     8.7290      .0757     2.6880    28.9211     3.9101
 3229.5000     9.2024     8.9602      .0836     2.6826    29.8616     4.6664
 3229.6250     9.2016     9.2533      .0968     2.6750    30.7303     5.4216
 3229.7500     9.2008     9.6012      .1158     2.6599    30.8141     5.8528
 3229.8750     9.2000     9.9785      .1270     2.6380    30.1338     5.9779
 3230.0000     9.1992    10.3597      .1212     2.6137    28.9660     6.0029
 3230.1250     9.1984    10.6171      .0987     2.5937    27.6005     6.0279
 3230.2500     9.1976    10.6515      .0686     2.5851    26.3121     6.0529
 3230.3750     9.1967    10.5625      .0482     2.5921    25.4329     6.0778
 3230.5000     9.1959    10.4708      .0396     2.6022    25.1290     6.1028
 3230.6250     9.1951    10.4707      .0410     2.6098    25.3556     6.1278
 3230.7500     9.1943    10.4670      .0478     2.6138    25.9138     6.1528
 3230.8750     9.1935    10.4101      .0550     2.6150    26.4967     6.1777
 3231.0000     9.1926    10.3031      .0579     2.6158    26.7197     6.2027
 3231.1250     9.1918    10.1437      .0579     2.6180    26.6010     6.2277
 3231.2500     9.1910     9.9353      .0588     2.6203    26.6324     6.2527
 3231.3750     9.1902     9.6979      .0615     2.6211    26.9344     6.1562
 3231.5000     9.1894     9.4610      .0662     2.6193    27.5686     5.6745
 3231.6250     9.1886     9.2035      .0722     2.6146    28.5307     4.6202
 3231.7500     9.1877     9.0412      .0769     2.6078    29.7183     3.5659
 3231.8750     9.1869     9.0151      .0797     2.6014    30.1132     2.5131
 3232.0000     9.1861     9.1099      .0842     2.5953    29.3339     1.4583
 3232.1250     9.1853     9.6881      .0911     2.5898    27.7174      .4031
 3232.2500     9.1845    10.2192      .0981     2.5855    25.8862     -.6512
 3232.3750     9.1837    10.8668      .0998     2.5826    24.6118    -1.7055
 3232.5000     9.1828    11.5140      .0922     2.5782    25.1712    -2.7581
 3232.6250     9.1820    11.9387      .0823     2.5722    26.8791    -3.3048
 3232.7500     9.1811    11.8752      .0720     2.5658    28.7067    -3.4662
 3232.8750     9.1798    11.6179      .0617     2.5600    30.0204    -3.4410
 3233.0000     9.1782    11.7623      .0526     2.5562    30.4934    -3.4157
 3233.1250     9.1761    12.1076      .0491     2.5588    30.0672    -3.3905
 3233.2500     9.1741    12.4851      .0511     2.5674    29.1406    30.2588
 3233.3750     9.1721    12.7827      .0521     2.5774    28.1909   101.6262
 3233.5000     9.1700    12.8434      .0517     2.5869    27.7575   169.5336
 3233.6250     9.1680    12.5581      .0491     2.5946    28.0745   200.3362
 3233.7500     9.1660    12.0417      .0429     2.5995    28.9627   180.6810
 3233.8750     9.1639    11.4047      .0320     2.6034    29.7123   130.9040
 3234.0000     9.1619    10.7370      .0274     2.6096    30.4786    84.1519
 3234.1250     9.1599    10.0733      .0361     2.6217    31.1872    46.6139
 3234.2500     9.1579     9.7572      .0596     2.6360    31.6609    20.6195
 3234.3750     9.1558     9.4807      .0945     2.6455    31.6830     6.8799
 3234.5000     9.1538     9.2547      .1289     2.6423    30.9986     6.9056
 3234.6250     9.1518     9.0631      .1383     2.6266    29.5497     6.9304
 3234.7500     9.1497     8.8843      .1258     2.6056    28.1456     6.9552
 3234.8750     9.1477     8.7458      .1005     2.5863    27.3654     6.9800
 3235.0000     9.1457     8.7333      .0717     2.5734    27.4696     7.0049
 3235.1250     9.1436     9.0404      .0477     2.5684    28.3897     7.0299
 3235.2500     9.1416     9.5576      .0383     2.5683    29.8959     7.0551
 3235.3750     9.1407    10.1546      .0423     2.5697    31.4609     7.0802
 3235.5000     9.1409    10.7575      .0538     2.5741    32.9107     7.1054
 3235.6250     9.1419    11.3651      .0699     2.5815    34.0088     6.3160
 3235.7500     9.1430    11.7663      .0882     2.5906    34.5209     3.7913
 3235.8750     9.1441    12.0758      .1070     2.5979    34.2435    -1.1423
 3236.0000     9.1452    12.1587      .1173     2.6034    32.4332    -2.5001
 3236.1250     9.1464    11.8410      .1180     2.6092    30.2163     9.6959
 3236.2500     9.1475    11.1760      .1127     2.6139    28.4310    45.7517
 3236.3750     9.1486    10.5070      .1033     2.6164    27.1544    79.1403
 3236.5000     9.1498     9.8442      .0899     2.6164    25.9553    70.1342
 3236.6250     9.1509     9.2987      .0724     2.6162    24.7197    50.0408
 3236.7500     9.1520     8.9483      .0606     2.6193    24.0082    20.1211
 3236.8750     9.1531     8.8146      .0630     2.6251    23.9347     3.3858
 3237.0000     9.1543     8.9117      .0806     2.6330    24.5364     -.7478
 3237.1250     9.1554     9.0767      .1095     2.6404    25.6349     1.6403
 3237.2500     9.1565     9.3460      .1420     2.6419    26.7714     4.0254
 3237.3750     9.1577     9.6691      .1612     2.6383    26.8814     6.4159
 3237.5000     9.1590     9.9454      .1615     2.6376    26.1750     7.3079
 3237.6250     9.1607    10.0227      .1499     2.6415    25.0566     7.5311
 3237.7500     9.1625     9.9049      .1331     2.6492    23.9368     7.5562
 3237.8750     9.1643     9.7483      .1162     2.6574    23.1265     7.5813
 3238.0000     9.1661     9.5788      .0992     2.6590    22.6015     7.6064
 3238.1250     9.1679     9.3913      .0848     2.6522    22.1956     7.6315
 3238.2500     9.1698     9.1796      .0818     2.6414    21.8459     7.6566
 3238.3750     9.1716     9.1212      .0915     2.6288    21.6125     7.6816
 3238.5000     9.1734     9.1131      .1100     2.6154    21.5365     7.7065
 3238.6250     9.1752     9.1337      .1287     2.6010    21.6092     7.7315
 3238.7500     9.1769     9.1748      .1350     2.5875    21.7869     7.7565
 3238.8750     9.1778     9.2098      .1327     2.5790    22.0066     7.7815
 3239.0000     9.1781     9.1710      .1275     2.5766    22.1969     7.8065
 3239.1250     9.1780     9.0510      .1203     2.5796    22.3296     7.8315
 3239.2500     9.1779     8.9262      .1100     2.5859    22.4335     7.8565
 3239.3750     9.1777     8.7964      .0961     2.5931    22.6609     7.8816
 3239.5000     9.1768     8.6473      .0819     2.5986    23.2568     7.9067
 3239.6250     9.1757     8.4652      .0698     2.6031    23.8807     7.9317
 3239.7500     9.1744     8.2842      .0599     2.6076    24.1663     7.9568
 3239.8750     9.1732     8.1035      .0529     2.6124    23.9198     7.9819
 3240.0000     9.1719     8.1449      .0496     2.6175    23.1815     8.0070
 3240.1250     9.1707     8.2982      .0535     2.6217    22.5037     8.0321
 3240.2500     9.1694     8.4655      .0625     2.6230    22.6551     8.0572
 3240.3750     9.1681     8.6741      .0733     2.6211    23.5230     8.0822
 3240.5000     9.1669     8.8832      .0844     2.6168    24.7208     8.1073
 3240.6250     9.1656     8.9792      .0940     2.6116    25.7952     8.1323
 3240.7500     9.1644     8.9476      .0984     2.6068    26.3849     8.1574
 3240.8750     9.1631     8.8271      .0924     2.6041    26.3277     8.1824
 3241.0000     9.1619     8.6804      .0830     2.6021    26.2511     8.2074
 3241.1250     9.1606     8.5549      .0749     2.6008    26.4111     8.2324
 3241.2500     9.1593     8.8624      .0715     2.6010    26.7428     8.2574
 3241.3750     9.1582     9.2122      .0739     2.6034    26.9235     8.2825
 3241.5000     9.1580     9.4659      .0816     2.6070    26.4791     8.3075
 3241.6250     9.1591     9.6046      .0890     2.6083    25.8100     8.3326
 3241.7500     9.1605     9.7113      .0947     2.6076    25.6470     8.3576
 3241.8750     9.1620     9.6425      .0986     2.6064    26.0670     8.1221
 3242.0000     9.1635     9.4934      .1010     2.6061    26.7602     7.4767
