~VERSION INFORMATION
VERS.                                                 2.0:   CWLS Log ASCII Standard-VERSION 2.0
WRAP.                                                  NO:   One line per depth step
~Well Information Block
STRT.M                                          1175.1250:   Top Depth
STOP.M                                          3763.3750:   Bottom Depth
STEP.M                                             .12500:   Depth Increment
NULL.                                            -999.250:   Null Value
FLD .                                            SLEIPNER:   Field Name
WELL.                                              15/6-6:   NAME
WBN .                                              15/6-6:   WELLBORE
NATI.                                                 NOR:   COUNTRY
BHT1.DEGF                                            90.0:   BH TEMP 1
BHT2.DEGF                                           156.0:   BH TEMP 2
BHT3.DEGF                                           240.0:   BH TEMP 3
BS1 .IN                                            12.250:   BIT SIZE 1
CTRY.                                                 NOR:   COUNTRY
CBD1.M                                       196.60000610:   CSG 1 DRILL DEP
CBL1.M                                       196.39999390:   CSG 1 LOG DEP
CS1 .IN                                              30.0:   CSG 1 SIZE
COMP.            ESSO EXPLORATION & PRODUCTION NORWAY INC:   OPERATOR
PDAT.                                                 MSL:   PERM DATUM
PROV.                                           NORTH SEA:   PROVINCE
COUN.                                    GLOMAR BISCAY II:   RIG NAME
SON .                                               20315:   SOURCE OPERATOR NAME
SPUD.                                          1982/04/01:   SPUD DATE
LATI.                                       58 31 14.57 N:   SURF. LATITUDE
LONG.                                        1 44 53.78 E:   SURF. LONGITUDE
BTD1.                                      463.79998779 M:   TOTAL DEPTH 1
BTD2.                                      2775.1000977 M:   TOTAL DEPTH 2
BTD3.                                            3751.0 M:   TOTAL DEPTH 3
PBWE.                                              15/6-6:   PB WELL ID
APIN.                                              15/6-6:   PB WELLBORE ID
PBWS.                                                 all:   PB WELL NAME SET
~PARAMETER INFORMATION (log)
LNAM.                              CDL/CNL/GR  COMPOSITED:   NAME
LTYP.                                         DEPTH MATCH:   LOG TYPE
LSRV.                                             CAL/BGT:   LOG SERVICE
LSOU.                                             SPT/NPD:   LOG SOURCE
LVSN.                                                   1:   LOG VERSION
BHIS.                                                   R:   BRIEF HISTORY
FHIS.                                             RAW-LIS:   FULL HISTORY
LCNM.                                                  DA:   LOGGING CONTRACTOR
TOOL.                             CDL/CNL/GR (COMPOSITED):   TOOL STRING
~Curve Information Block
#MNEM.UNIT                                        API CODE    No Description
#=========                                        ========    == ===========
DEPT.M                                       00 001 00 00:     1  DEPTH
CAL.IN                                                   :     2  Caliper
CN.%                                                     :     3  Neutron Porosity
CORR.G/CC                                                :     4  Density Correction
DEN.G/CC                                                 :     5  Bulk Density
GR.GAPI                                                  :     6  Gamma Ray
TEN.LB                                                   :     7  Cable Tension
~ASCII
# ...
 2722.1250    12.7723    24.4193      .1753     2.5017    46.2411     3.0253
 2722.2500    12.7778    24.4344      .1348     2.5212    46.5298     3.1004
 2722.3750    12.7789    24.3595      .1158     2.5291    48.2882     3.1755
 2722.5000    12.7683    24.2851      .1209     2.5237    50.9708     3.2506
 2722.6250    12.7454    24.3089      .1440     2.5067    53.8195     3.3258
 2722.7500    12.7219    24.3988      .1737     2.4827    56.0866     3.4010
 2722.8750    12.6982    24.4243      .1802     2.4694    56.0776     3.4761
 2723.0000    12.6735    24.2484      .1717     2.4734    54.3426     3.5513
 2723.1250    12.6485    23.7814      .1550     2.4880    51.9621     3.6264
 2723.2500    12.6236    22.3719      .1359     2.5106    49.3655     3.7016
 2723.3750    12.5994    20.2724      .1219     2.5387    46.8144     3.7766
 2723.5000    12.5797    17.9556      .1286     2.5616    45.0894     3.8519
 2723.6250    12.5838    15.8766      .1357     2.5607    45.4331     3.9271
 2723.7500    12.5898    14.4578      .1358     2.5465    47.4779     4.0021
 2723.8750    12.5948    14.3512      .1356     2.5216    50.2292     4.0773
 2724.0000    12.5984    15.9013      .1401     2.4866    52.2833     4.1525
 2724.1250    12.6008    18.5386      .1504     2.4404    52.1511     4.2277
 2724.2500    12.6032    21.6281      .1631     2.3985    50.3880     4.3028
 2724.3750    12.6055    24.3929      .1697     2.3713    47.4564     4.3780
 2724.5000    12.6079    25.9633      .1664     2.3470    44.1042     4.4531
 2724.6250    12.6103    25.5149      .1546     2.3246    41.4980     4.5282
 2724.7500    12.6125    24.6409      .1377     2.3087    40.3720     4.6033
 2724.8750    12.6139    23.8175      .1189     2.3093    39.9366     4.6786
 2725.0000    12.6121    23.2227      .1002     2.3092    39.5757     4.7538
 2725.1250    12.6102    22.8266      .0842     2.3066    39.3452     4.8288
 2725.2500    12.6083    22.5045      .0791     2.3017    39.2383     4.9040
 2725.3750    12.6064    22.1855      .0853     2.2959    39.2347     4.9792
 2725.5000    12.6045    21.9162      .0959     2.2919    39.3111     5.0544
 2725.6250    12.6026    21.7793      .1034     2.2896    39.4891     5.1296
 2725.7500    12.6006    21.7960      .1080     2.2895    39.7219     5.2047
 2725.8750    12.5987    21.8896      .1107     2.2907    39.8739     5.2798
 2726.0000    12.5968    21.7161      .1114     2.2931    39.8412     5.3549
 2726.1250    12.5949    21.3404      .1106     2.2966    39.6011     5.4302
 2726.2500    12.5930    21.0310      .1119     2.3002    39.2734     5.5053
 2726.3750    12.5919    20.9459      .1138     2.3031    39.4751     5.5804
 2726.5000    12.5914    21.1373      .1162     2.3060    40.2727     5.6556
 2726.6250    12.5933    21.4899      .1197     2.3090    41.4218     5.7307
 2726.7500    12.5978    21.8274      .1242     2.3124    42.6802     5.8059
 2726.8750    12.6037    22.1342      .1291     2.3166    43.8601     5.8810
 2727.0000    12.6097    22.4205      .1335     2.3225    44.9696     5.9562
 2727.1250    12.6102    22.6943      .1367     2.3285    46.5755     6.0313
 2727.2500    12.6100    22.9501      .1358     2.3338    48.7208     6.1064
 2727.3750    12.6098    23.0750      .1338     2.3382    50.6624     6.1815
 2727.5000    12.6105    22.8860      .1331     2.3413    51.5668     6.2567
 2727.6250    12.6145    22.3103      .1337     2.3441    50.7900     6.3319
 2727.7500    12.6204    21.5480      .1451     2.3470    48.3188     6.4069
 2727.8750    12.6263    20.8906      .1539     2.3553    45.8018     6.4821
 2728.0000    12.6319    20.6027      .1567     2.3664    43.9350     6.5573
 2728.1250    12.6372    20.4512      .1529     2.3761    43.2131     6.6325
 2728.2500    12.6424    20.3406      .1441     2.3815    43.9211     6.7076
 2728.3750    12.6474    20.3979      .1313     2.3875    46.1898     6.7827
 2728.5000    12.6476    20.7564      .1321     2.3946    49.1790     6.8578
 2728.6250    12.6534    21.5129      .1410     2.4047    53.5348     6.9329
 2728.7500    12.6681    22.6334      .1529     2.4206    58.6867     7.0081
 2728.8750    12.7039    23.8722      .1603     2.4433    63.2418     7.0833
 2729.0000    12.7807    25.0731      .1555     2.4720    65.2223     7.1585
 2729.1250    12.8629    25.9054      .1392     2.4991    63.9528     7.2335
 2729.2500    12.9152    26.1035      .1239     2.5175    61.1481     7.3087
 2729.3750    12.9588    25.6164      .1216     2.5250    57.6700     7.3839
 2729.5000    12.9966    25.0772      .1442     2.5225    54.7317     7.4590
 2729.6250    13.0260    24.8509      .1912     2.5131    53.4401     7.5342
 2729.7500    13.0491    25.0835      .2264     2.5025    54.2182     7.6093
 2729.8750    13.0721    25.8021      .2276     2.5118    55.1047     7.6844
 2730.0000    13.0878    26.9033      .2099     2.5287    55.4667     7.7596
 2730.1250    13.0994    28.0343      .1841     2.5480    55.4921     7.8348
 2730.2500    13.1095    28.6041      .1680     2.5647    55.4012     7.9099
 2730.3750    13.1188    28.7072      .1806     2.5736    55.3579     7.9851
 2730.5000    13.1147    28.6215      .1987     2.5636    55.5113     8.0602
 2730.6250    13.1041    28.6013      .2159     2.5461    55.7389     8.1354
 2730.7500    13.0922    28.7690      .2306     2.5207    55.6850     8.2106
 2730.8750    13.0717    28.7962      .2398     2.4915    55.0266     8.2857
 2731.0000    13.0379    28.4049      .2407     2.4637    53.4778     8.3609
 2731.1250    13.0006    27.6435      .2323     2.4417    50.7759     8.4360
 2731.2500    12.9645    26.4798      .2087     2.4344    45.9982     8.5111
 2731.3750    12.9320    24.8929      .1797     2.4369    40.0373     8.5863
 2731.5000    12.9009    23.0191      .1491     2.4446    33.9886     8.6615
 2731.6250    12.8683    21.2459      .1226     2.4573    28.6985     8.7366
 2731.7500    12.8346    19.7411      .1053     2.4774    24.7309     8.8117
 2731.8750    12.8191    18.6243      .0954     2.4992    22.8159     8.8870
 2732.0000    12.8128    17.9494      .0854     2.5104    22.7188     8.9621
 2732.1250    12.8078    17.6968      .0779     2.5171    23.4967     9.0373
 2732.2500    12.8025    17.8805      .0726     2.5209    24.7036     9.1124
 2732.3750    12.7960    18.2224      .0703     2.5236    25.9478     9.1876
 2732.5000    12.7872    18.6981      .0741     2.5278    26.8223     9.2626
 2732.6250    12.7784    19.2844      .0790     2.5337    26.9526     9.3378
 2732.7500    12.7695    19.9434      .0853     2.5398    26.8213     9.4130
 2732.8750    12.7637    20.6044      .0896     2.5459    26.8041     9.4882
 2733.0000    12.7627    21.0847      .0909     2.5517    27.1320     9.5633
 2733.1250    12.7667    21.0998      .0902     2.5557    27.8820     9.6384
 2733.2500    12.7708    20.4931      .0935     2.5515    28.9308     9.7137
 2733.3750    12.7749    19.3174      .0996     2.5410    31.2606     9.7889
 2733.5000    12.7790    17.8597      .1066     2.5268    34.2024     9.8640
 2733.6250    12.7830    16.9829      .1139     2.5067    36.7955     9.9392
 2733.7500    12.7871    16.8254      .1212     2.4800    38.5131    10.0143
 2733.8750    12.7912    17.0704      .1284     2.4488    39.5643    10.0893
 2734.0000    12.7952    17.6781      .1357     2.4159    40.2185    10.1646
 2734.1250    12.7928    18.6340      .1398     2.3868    40.3824    10.2398
 2734.2500    12.7877    19.8431      .1400     2.3613    40.1898    10.3150
 2734.3750    12.7816    21.0962      .1350     2.3427    39.8525    10.3901
 2734.5000    12.7755    22.1386      .1251     2.3346    39.5865    10.4653
 2734.6250    12.7695    22.6789      .1152     2.3373    39.5016    10.5404
 2734.7500    12.7634    22.6826      .1119     2.3402    39.5038    10.6156
 2734.8750    12.7589    22.3434      .1118     2.3419    39.4332    10.6907
 2735.0000    12.7604    22.0443      .1135     2.3423    39.2414    10.7659
