~VERSION INFORMATION
VERS.                                                 2.0:   CWLS Log ASCII Standard-VERSION 2.0
WRAP.                                                  NO:   One line per depth step
~Well Information Block
STRT.M                                          1175.1250:   Top Depth
STOP.M                                          3763.3750:   Bottom Depth
STEP.M                                             .12500:   Depth Increment
NULL.                                            -999.250:   Null Value
FLD .                                            SLEIPNER:   Field Name
WELL.                                              15/6-6:   NAME
WBN .                                              15/6-6:   WELLBORE
NATI.                                                 NOR:   COUNTRY
BHT1.DEGF                                            90.0:   BH TEMP 1
BHT2.DEGF                                           156.0:   BH TEMP 2
BHT3.DEGF                                           240.0:   BH TEMP 3
BS1 .IN                                            12.250:   BIT SIZE 1
CTRY.                                                 NOR:   COUNTRY
CBD1.M                                       196.60000610:   CSG 1 DRILL DEP
CBL1.M                                       196.39999390:   CSG 1 LOG DEP
CS1 .IN                                              30.0:   CSG 1 SIZE
COMP.            ESSO EXPLORATION & PRODUCTION NORWAY INC:   OPERATOR
PDAT.                                                 MSL:   PERM DATUM
PROV.                                           NORTH SEA:   PROVINCE
COUN.                                    GLOMAR BISCAY II:   RIG NAME
SON .                                               20315:   SOURCE OPERATOR NAME
SPUD.                                          1982/04/01:   SPUD DATE
LATI.                                       58 31 14.57 N:   SURF. LATITUDE
LONG.                                        1 44 53.78 E:   SURF. LONGITUDE
BTD1.                                      463.79998779 M:   TOTAL DEPTH 1
BTD2.                                      2775.1000977 M:   TOTAL DEPTH 2
BTD3.                                            3751.0 M:   TOTAL DEPTH 3
PBWE.                                              15/6-6:   PB WELL ID
APIN.                                              15/6-6:   PB WELLBORE ID
PBWS.                                                 all:   PB WELL NAME SET
~PARAMETER INFORMATION (log)
LNAM.                              CDL/CNL/GR  COMPOSITED:   NAME
LTYP.                                         DEPTH MATCH:   LOG TYPE
LSRV.                                             CAL/BGT:   LOG SERVICE
LSOU.                                             SPT/NPD:   LOG SOURCE
LVSN.                                                   1:   LOG VERSION
BHIS.                                                   R:   BRIEF HISTORY
FHIS.                                             RAW-LIS:   FULL HISTORY
LCNM.                                                  DA:   LOGGING CONTRACTOR
TOOL.                             CDL/CNL/GR (COMPOSITED):   TOOL STRING
~Curve Information Block
#MNEM.UNIT                                        API CODE    No Description
#=========                                        ========    == ===========
DEPT.M                                       00 001 00 00:     1  DEPTH
CAL.IN                                                   :     2  Caliper
CN.%                                                     :     3  Neutron Porosity
CORR.G/CC                                                :     4  Density Correction
DEN.G/CC                                                 :     5  Bulk Density
GR.GAPI                                                  :     6  Gamma Ray
TEN.LB                                                   :     7  Cable Tension
~ASCII
# ...
 1864.1250    13.5873    34.0550      .1798     2.2490    56.2194    20.6709
 1864.2500    13.6095    34.6683      .1775     2.2496    57.2943    21.5365
 1864.3750    13.6146    34.8399      .1751     2.2508    58.7748    22.4031
 1864.5000    13.6173    34.4481      .1778     2.2531    60.6143    23.2697
 1864.6250    13.6234    33.7871      .1851     2.2552    62.6201    24.1362
 1864.7500    13.6328    33.0142      .1928     2.2552    64.5595    25.0025
 1864.8750    13.6450    32.3458      .1935     2.2530    66.3823    25.8682
 1865.0000    13.6665    32.1151      .1917     2.2528    67.6591    26.7350
 1865.1250    13.6974    32.7123      .1882     2.2547    68.2295    27.6014
 1865.2500    13.7247    34.4456      .1851     2.2585    67.9577    28.4679
 1865.3750    13.7377    36.5903      .1831     2.2632    67.0156    29.3344
 1865.5000    13.7326    38.5909      .1812     2.2674    65.9548    30.1999
 1865.6250    13.6929    40.1462      .1800     2.2741    65.2157    31.0663
 1865.7500    13.5921    41.1953      .1795     2.2784    64.7159    31.9329
 1865.8750    13.5287    42.0320      .1821     2.2794    64.5540    32.7994
 1866.0000    13.5214    42.6386      .1895     2.2776    64.6484    33.6658
 1866.1250    13.5561    42.3000      .2015     2.2740    64.8374    34.5322
 1866.2500    13.6431    41.1561      .2133     2.2701    64.9861    35.3979
 1866.3750    13.7153    39.4911      .2113     2.2704    65.2901    35.5727
 1866.5000    13.7365    37.6365      .2055     2.2740    65.8701    35.2143
 1866.6250    13.6770    35.7562      .2015     2.2788    66.7455    34.6592
 1866.7500    13.5520    34.6142      .2005     2.2832    67.8583    34.1042
 1866.8750    13.4207    34.4039      .1995     2.2865    69.0849    33.5495
 1867.0000    13.2896    35.1725      .1991     2.2885    70.3133    32.9944
 1867.1250    13.1963    36.7592      .2017     2.2909    71.5516    32.4391
 1867.2500    13.1428    38.7553      .2049     2.2932    72.7626    31.8838
 1867.3750    13.1178    39.6786      .2099     2.2941    73.7656    31.3287
 1867.5000    13.1077    39.4567      .2179     2.2925    74.3053    30.7741
 1867.6250    13.1075    38.6082      .2250     2.2876    74.0363    30.2190
 1867.7500    13.1084    37.5494      .2211     2.2808    73.1576    29.6637
 1867.8750    13.1121    36.5593      .2107     2.2746    72.3377    29.1085
 1868.0000    13.1168    35.6545      .1994     2.2709    71.6412    28.5534
 1868.1250    13.1213    34.7296      .1899     2.2709    71.0173    27.9984
 1868.2500    13.1251    33.7939      .1812     2.2750    70.3568    27.4437
 1868.3750    13.1256    33.0259      .1713     2.2827    69.6437    26.8886
 1868.5000    13.1254    32.5889      .1693     2.2920    68.8812    26.3332
 1868.6250    13.1252    32.5784      .1727     2.2981    68.3154    25.7779
 1868.7500    13.1267    33.0762      .1806     2.3008    68.1831    25.2229
 1868.8750    13.1347    34.1787      .1904     2.3009    68.6045    24.6683
 1869.0000    13.1592    35.6552      .1954     2.2992    69.4865    24.1132
 1869.1250    13.1846    37.1874      .1922     2.2975    70.2449    23.5579
 1869.2500    13.2147    38.4838      .1869     2.2974    70.5264    23.0025
 1869.3750    13.2482    39.4606      .1856     2.2978    70.2918    22.4476
 1869.5000    13.2749    39.4447      .1896     2.2987    69.5513    21.8929
 1869.6250    13.2828    38.5549      .1956     2.3001    68.3942    21.3379
 1869.7500    13.2825    37.2890      .1914     2.2996    67.1759    20.7825
 1869.8750    13.2825    36.0638      .1816     2.2956    66.0834    20.2273
 1870.0000    13.2839    35.1211      .1733     2.2884    65.5951    19.8473
 1870.1250    13.2869    34.6908      .1674     2.2794    66.0567    19.7418
 1870.2500    13.2911    34.5864      .1637     2.2711    67.4172    19.8669
 1870.3750    13.2954    34.7307      .1626     2.2660    69.0853    19.9920
 1870.5000    13.3025    35.2547      .1626     2.2642    70.7781    20.1172
 1870.6250    13.3238    36.3197      .1661     2.2652    72.1689    20.2424
 1870.7500    13.3513    38.0318      .1676     2.2683    72.6356    20.3675
 1870.8750    13.3798    39.9367      .1663     2.2732    72.2003    20.4925
 1871.0000    13.4043    41.6140      .1649     2.2798    71.3106    20.6176
 1871.1250    13.4128    42.9222      .1687     2.2861    70.6894    20.7428
 1871.2500    13.4044    43.7144      .1864     2.2936    70.1547    20.8680
 1871.3750    13.3832    43.8904      .2008     2.3013    69.2588    20.9930
 1871.5000    13.3459    43.7177      .2114     2.3058    67.8932    21.1181
 1871.6250    13.2960    43.6416      .2181     2.3051    66.2648    21.2432
 1871.7500    13.2461    43.4367      .2189     2.2993    64.9034    21.3684
 1871.8750    13.1963    42.8511      .2126     2.2874    64.7418    21.4935
 1872.0000    13.1477    41.7350      .2047     2.2775    65.8209    21.6187
 1872.1250    13.1037    40.1450      .1956     2.2706    67.1775    21.7437
 1872.2500    13.0682    38.2752      .1872     2.2672    68.5074    21.8688
 1872.3750    13.0514    36.3264      .1808     2.2675    69.7016    21.9939
 1872.5000    13.0868    34.5414      .1753     2.2717    70.4165    22.1191
 1872.6250    13.1112    33.0730      .1733     2.2790    70.9180    22.2443
 1872.7500    13.1225    31.9882      .1734     2.2853    71.3993    22.3694
 1872.8750    13.1148    31.3099      .1785     2.2892    71.8079    22.4944
 1873.0000    13.0946    31.1376      .1871     2.2895    71.8396    22.6195
 1873.1250    13.0796    31.6350      .1927     2.2857    71.0885    22.7447
 1873.2500    13.0911    32.7278      .1910     2.2788    70.2653    22.8699
 1873.3750    13.1120    34.1824      .1886     2.2740    69.9801    22.9949
 1873.5000    13.1389    35.6290      .1868     2.2711    70.6473    22.8903
 1873.6250    13.1725    36.5511      .1865     2.2710    71.5119    22.5355
 1873.7500    13.2156    36.8938      .1878     2.2739    71.7278    22.0157
 1873.8750    13.2728    36.8159      .1905     2.2777    71.1118    21.4955
 1874.0000    13.3253    36.4004      .1906     2.2822    70.0891    20.9757
 1874.1250    13.3695    35.7336      .1854     2.2864    69.8615    20.4562
 1874.2500    13.3992    35.0383      .1791     2.2893    70.0662    19.9366
 1874.3750    13.4110    34.8473      .1755     2.2905    70.3936    19.4168
 1874.5000    13.4049    34.9569      .1772     2.2905    70.6546    18.8967
 1874.6250    13.3798    35.0502      .1846     2.2904    70.7108    18.3767
 1874.7500    13.3524    34.9230      .1902     2.2899    70.7178    17.8574
 1874.8750    13.3159    34.5630      .1898     2.2883    70.8655    17.3379
 1875.0000    13.2746    34.3102      .1870     2.2862    71.1456    16.8182
 1875.1250    13.2327    34.2182      .1861     2.2841    71.4975    16.2983
 1875.2500    13.1886    34.1489      .1889     2.2823    71.8566    15.7779
 1875.3750    13.1405    34.0838      .1969     2.2821    72.1995    15.2587
 1875.5000    13.1006    34.0553      .2026     2.2861    72.5295    14.7391
 1875.6250    13.0695    34.1155      .2042     2.2924    73.0337    14.2194
 1875.7500    13.0514    34.1937      .2007     2.2995    73.7794    13.6995
 1875.8750    13.0490    34.2158      .1920     2.3065    74.6682    13.1794
 1876.0000    13.0491    34.2718      .1780     2.3124    75.1629    12.6596
 1876.1250    13.0540    34.4459      .1726     2.3111    75.0156    12.1402
 1876.2500    13.0721    34.7909      .1726     2.3054    74.5856    11.6206
 1876.3750    13.0949    35.2912      .1748     2.2980    74.0385    11.1009
 1876.5000    13.1161    35.9252      .1772     2.2909    73.4705    10.5809
 1876.6250    13.1368    36.6812      .1791     2.2848    72.9029    10.0607
 1876.7500    13.1558    37.3969      .1784     2.2811    72.3669     9.5414
 1876.8750    13.1673    37.7946      .1765     2.2788    71.9040     9.0219
 1877.0000    13.1741    37.4437      .1742     2.2774    71.4720     8.5021
