~VERSION INFORMATION
VERS.                                                 2.0:   CWLS Log ASCII Standard-VERSION 2.0
WRAP.                                                  NO:   One line per depth step
~Well Information Block
STRT.M                                          1175.1250:   Top Depth
STOP.M                                          3763.3750:   Bottom Depth
STEP.M                                             .12500:   Depth Increment
NULL.                                            -999.250:   Null Value
FLD .                                            SLEIPNER:   Field Name
WELL.                                              15/6-6:   NAME
WBN .                                              15/6-6:   WELLBORE
NATI.                                                 NOR:   COUNTRY
BHT1.DEGF                                            90.0:   BH TEMP 1
BHT2.DEGF                                           156.0:   BH TEMP 2
BHT3.DEGF                                           240.0:   BH TEMP 3
BS1 .IN                                            12.250:   BIT SIZE 1
CTRY.                                                 NOR:   COUNTRY
CBD1.M                                       196.60000610:   CSG 1 DRILL DEP
CBL1.M                                       196.39999390:   CSG 1 LOG DEP
CS1 .IN                                              30.0:   CSG 1 SIZE
COMP.            ESSO EXPLORATION & PRODUCTION NORWAY INC:   OPERATOR
PDAT.                                                 MSL:   PERM DATUM
PROV.                                           NORTH SEA:   PROVINCE
COUN.                                    GLOMAR BISCAY II:   RIG NAME
SON .                                               20315:   SOURCE OPERATOR NAME
SPUD.                                          1982/04/01:   SPUD DATE
LATI.                                       58 31 14.57 N:   SURF. LATITUDE
LONG.                                        1 44 53.78 E:   SURF. LONGITUDE
BTD1.                                      463.79998779 M:   TOTAL DEPTH 1
BTD2.                                      2775.1000977 M:   TOTAL DEPTH 2
BTD3.                                            3751.0 M:   TOTAL DEPTH 3
PBWE.                                              15/6-6:   PB WELL ID
APIN.                                              15/6-6:   PB WELLBORE ID
PBWS.                                                 all:   PB WELL NAME SET
~PARAMETER INFORMATION (log)
LNAM.                              CDL/CNL/GR  COMPOSITED:   NAME
LTYP.                                         DEPTH MATCH:   LOG TYPE
LSRV.                                             CAL/BGT:   LOG SERVICE
LSOU.                                             SPT/NPD:   LOG SOURCE
LVSN.                                                   1:   LOG VERSION
BHIS.                                                   R:   BRIEF HISTORY
FHIS.                                             RAW-LIS:   FULL HISTORY
LCNM.                                                  DA:   LOGGING CONTRACTOR
TOOL.                             CDL/CNL/GR (COMPOSITED):   TOOL STRING
~Curve Information Block
#MNEM.UNIT                                        API CODE    No Description
#=========                                        ========    == ===========
DEPT.M                                       00 001 00 00:     1  DEPTH
CAL.IN                                                   :     2  Caliper
CN.%                                                     :     3  Neutron Porosity
CORR.G/CC                                                :     4  Density Correction
DEN.G/CC                                                 :     5  Bulk Density
GR.GAPI                                                  :     6  Gamma Ray
TEN.LB                                                   :     7  Cable Tension
~ASCII
# ...
 1695.1250    12.0062    34.2557      .2423     2.2295    73.7372    -9.7175
 1695.2500    12.0426    35.2959      .2433     2.2288    72.5991   -10.2080
 1695.3750    12.0828    36.3486      .2502     2.2263    71.3446   -10.6989
 1695.5000    12.1302    37.4026      .2535     2.2227    70.0123   -11.1898
 1695.6250    12.1997    38.4376      .2530     2.2182    68.6432   -11.6808
 1695.7500    12.2991    39.2928      .2507     2.2128    67.3091   -12.1718
 1695.8750    12.4184    39.7407      .2481     2.2055    66.1259   -12.6623
 1696.0000    12.5188    39.6296      .2428     2.2034    65.2883   -12.4188
 1696.1250    12.5951    38.8815      .2359     2.2030    64.9620   -11.8275
 1696.2500    12.6543    37.4847      .2284     2.2058    65.0577   -11.1362
 1696.3750    12.6979    35.7321      .2205     2.2111    65.4002   -10.4448
 1696.5000    12.7258    33.9981      .2120     2.2164    65.7979    -9.7539
 1696.6250    12.7446    32.7024      .2036     2.2220    66.2112    -9.0628
 1696.7500    12.7463    32.1165      .2025     2.2250    66.6683    -8.3718
 1696.8750    12.7461    32.2965      .2092     2.2257    66.8635    -7.6803
 1697.0000    12.7459    32.8989      .2192     2.2248    66.8133    -6.9891
 1697.1250    12.7457    33.7064      .2274     2.2234    66.7258    -6.2983
 1697.2500    12.7455    34.5991      .2299     2.2222    66.9721    -5.6075
 1697.3750    12.7453    35.4210      .2288     2.2213    67.5989    -4.9165
 1697.5000    12.7467    35.9431      .2241     2.2206    68.3961    -4.2252
 1697.6250    12.7534    35.8037      .2185     2.2205    69.2093    -3.5340
 1697.7500    12.7658    34.9542      .2165     2.2202    69.9792    -2.8430
 1697.8750    12.7840    33.9699      .2215     2.2189    70.6895    -2.1520
 1698.0000    12.8137    33.1347      .2328     2.2167    71.3028    -1.4609
 1698.1250    12.8442    32.6891      .2430     2.2149    71.6925     -.7698
 1698.2500    12.8292    32.7820      .2483     2.2139    71.7084     -.0784
 1698.3750    12.7797    33.3006      .2482     2.2141    71.4437      .6127
 1698.5000    12.7132    33.8701      .2440     2.2159    70.9322     1.3034
 1698.6250    12.6458    34.3421      .2389     2.2187    70.1512     1.9944
 1698.7500    12.6020    34.6223      .2359     2.2210    69.8559     2.6855
 1698.8750    12.5841    34.6856      .2367     2.2215    70.4175     3.3768
 1699.0000    12.5714    34.6013      .2425     2.2211    71.2726     4.0680
 1699.1250    12.5594    34.4262      .2480     2.2206    71.9068     4.7589
 1699.2500    12.5494    34.0888      .2477     2.2206    72.0016     5.4498
 1699.3750    12.5453    33.5059      .2432     2.2215    71.7205     6.1408
 1699.5000    12.5489    32.7629      .2372     2.2242    71.6023     6.8324
 1699.6250    12.5528    32.1008      .2299     2.2280    71.7829     7.5236
 1699.7500    12.5570    32.0700      .2222     2.2321    72.0636     8.2145
 1699.8750    12.5617    32.8317      .2162     2.2356    72.1402     8.8758
 1700.0000    12.5677    34.0624      .2156     2.2370    71.7029     9.3851
 1700.1250    12.5762    35.4967      .2191     2.2358    70.8096     8.8944
 1700.2500    12.5902    36.7965      .2217     2.2326    70.0222     8.2244
 1700.3750    12.6185    37.5636      .2237     2.2284    69.5847     7.5247
 1700.5000    12.6672    37.3261      .2255     2.2240    69.3106     6.8252
 1700.6250    12.7369    36.6758      .2270     2.2205    68.8840     6.1254
 1700.7500    12.8187    36.1017      .2282     2.2190    67.9885     5.4256
 1700.8750    12.8896    35.8501      .2290     2.2186    66.7314     4.7251
 1701.0000    12.9212    36.0109      .2292     2.2198    65.5005     4.0252
 1701.1250    12.9002    36.5673      .2288     2.2218    64.5244     3.3256
 1701.2500    12.8287    37.3558      .2282     2.2243    64.1608     2.6259
 1701.3750    12.7240    37.9370      .2279     2.2273    64.8053     1.9261
 1701.5000    12.6277    38.0537      .2287     2.2302    66.7740     1.2259
 1701.6250    12.5397    37.5999      .2309     2.2329    69.2597      .5262
 1701.7500    12.4733    36.6691      .2347     2.2345    71.3711     -.1734
 1701.8750    12.4327    36.0779      .2395     2.2339    72.5970     -.8731
 1702.0000    12.4119    36.5628      .2446     2.2307    72.9199    -1.5730
 1702.1250    12.3925    37.7223      .2500     2.2253    72.9827    -2.2728
 1702.2500    12.3736    39.0741      .2503     2.2190    73.0236    -2.9731
 1702.3750    12.3543    40.1684      .2434     2.2129    73.0000    -3.6727
 1702.5000    12.3346    40.7443      .2333     2.2077    72.6682    -4.3724
 1702.6250    12.3189    40.8725      .2226     2.2046    71.9266    -5.0722
 1702.7500    12.3148    40.6264      .2127     2.2044    70.7906    -5.7720
 1702.8750    12.3336    39.9711      .2046     2.2060    69.3741    -6.4723
 1703.0000    12.3636    38.9182      .1999     2.2091    67.7222    -7.1718
 1703.1250    12.4052    37.5321      .1981     2.2142    66.0714    -7.8714
 1703.2500    12.4749    35.9242      .1979     2.2211    64.4830    -8.5005
 1703.3750    12.5767    34.2936      .1988     2.2296    62.9927    -8.9060
 1703.5000    12.6940    32.7380      .2019     2.2391    61.6431    -8.8840
 1703.6250    12.7614    31.4524      .2102     2.2483    60.9361    -8.8337
 1703.7500    12.7891    30.6487      .2232     2.2527    61.3207    -8.7833
 1703.8750    12.7919    30.5199      .2360     2.2514    63.0815    -8.7329
 1704.0000    12.7741    30.9732      .2440     2.2464    65.7701    -8.6825
 1704.1250    12.7352    31.5208      .2442     2.2405    68.4902    -8.6321
 1704.2500    12.6730    32.0288      .2369     2.2336    69.9613    -8.5817
 1704.3750    12.5939    32.3946      .2302     2.2287    70.7518    -8.5314
 1704.5000    12.5261    32.5528      .2276     2.2254    71.8445    -8.4810
 1704.6250    12.5092    32.4840      .2298     2.2225    73.2864    -8.4306
 1704.7500    12.5681    32.5328      .2360     2.2195    74.8616    -8.3803
 1704.8750    12.7072    32.9378      .2439     2.2162    76.2176    -8.3299
 1705.0000    12.9043    33.7391      .2470     2.2134    77.3875    -8.2795
 1705.1250    13.1224    34.8108      .2453     2.2128    78.4803    -8.2292
 1705.2500    13.3491    35.8520      .2419     2.2147    79.3452    -8.1788
 1705.3750    13.5639    36.4180      .2393     2.2183    79.8900    -8.1284
 1705.5000    13.7425    36.7591      .2400     2.2224    80.0129    -8.0780
 1705.6250    13.8557    36.9365      .2461     2.2251    79.5123    -8.0277
 1705.7500    13.8483    36.8715      .2525     2.2252    78.2744    -7.9773
 1705.8750    13.7333    36.4344      .2553     2.2241    76.9910    -7.9269
 1706.0000    13.5272    35.5279      .2551     2.2219    76.0087    -7.8765
 1706.1250    13.2698    34.6193      .2529     2.2191    75.4491    -7.8260
 1706.2500    13.0182    34.1250      .2496     2.2162    75.2092    -7.7756
 1706.3750    12.8563    34.0320      .2468     2.2136    74.8772    -7.7252
 1706.5000    12.7666    34.1855      .2465     2.2124    74.4406    -7.6748
 1706.6250    12.7089    34.3499      .2479     2.2132    74.3042    -7.6244
 1706.7500    12.6696    34.4226      .2507     2.2158    74.3846    -7.5740
 1706.8750    12.6424    34.5562      .2542     2.2194    74.3714    -7.5235
 1707.0000    12.6254    34.7435      .2576     2.2234    73.7797    -7.4731
 1707.1250    12.6142    34.8440      .2587     2.2254    73.0687    -7.4227
 1707.2500    12.6046    34.6575      .2590     2.2252    72.5920    -7.3723
 1707.3750    12.6082    33.9405      .2589     2.2232    72.4998    -7.3219
 1707.5000    12.6291    32.9291      .2598     2.2202    72.8689    -7.2714
 1707.6250    12.6629    32.2780      .2623     2.2169    73.6133    -7.2210
 1707.7500    12.6884    32.3428      .2657     2.2146    74.0635    -7.1707
 1707.8750    12.6963    33.2376      .2646     2.2146    73.2422    -7.1203
 1708.0000    12.6836    34.7922      .2609     2.2161    71.4848    -7.0698
