~VERSION INFORMATION
VERS.                                                 2.0:   CWLS Log ASCII Standard-VERSION 2.0
WRAP.                                                  NO:   One line per depth step
~Well Information Block
STRT.M                                          1175.1250:   Top Depth
STOP.M                                          3763.3750:   Bottom Depth
STEP.M                                             .12500:   Depth Increment
NULL.                                            -999.250:   Null Value
FLD .                                            SLEIPNER:   Field Name
WELL.                                              15/6-6:   NAME
WBN .                                              15/6-6:   WELLBORE
NATI.                                                 NOR:   COUNTRY
BHT1.DEGF                                            90.0:   BH TEMP 1
BHT2.DEGF                                           156.0:   BH TEMP 2
BHT3.DEGF                                           240.0:   BH TEMP 3
BS1 .IN                                            12.250:   BIT SIZE 1
CTRY.                                                 NOR:   COUNTRY
CBD1.M                                       196.60000610:   CSG 1 DRILL DEP
CBL1.M                                       196.39999390:   CSG 1 LOG DEP
CS1 .IN                                              30.0:   CSG 1 SIZE
COMP.            ESSO EXPLORATION & PRODUCTION NORWAY INC:   OPERATOR
PDAT.                                                 MSL:   PERM DATUM
PROV.                                           NORTH SEA:   PROVINCE
COUN.                                    GLOMAR BISCAY II:   RIG NAME
SON .                                               20315:   SOURCE OPERATOR NAME
SPUD.                                          1982/04/01:   SPUD DATE
LATI.                                       58 31 14.57 N:   SURF. LATITUDE
LONG.                                        1 44 53.78 E:   SURF. LONGITUDE
BTD1.                                      463.79998779 M:   TOTAL DEPTH 1
BTD2.                                      2775.1000977 M:   TOTAL DEPTH 2
BTD3.                                            3751.0 M:   TOTAL DEPTH 3
PBWE.                                              15/6-6:   PB WELL ID
APIN.                                              15/6-6:   PB WELLBORE ID
PBWS.                                                 all:   PB WELL NAME SET
~PARAMETER INFORMATION (log)
LNAM.                              CDL/CNL/GR  COMPOSITED:   NAME
LTYP.                                         DEPTH MATCH:   LOG TYPE
LSRV.                                             CAL/BGT:   LOG SERVICE
LSOU.                                             SPT/NPD:   LOG SOURCE
LVSN.                                                   1:   LOG VERSION
BHIS.                                                   R:   BRIEF HISTORY
FHIS.                                             RAW-LIS:   FULL HISTORY
LCNM.                                                  DA:   LOGGING CONTRACTOR
TOOL.                             CDL/CNL/GR (COMPOSITED):   TOOL STRING
~Curve Information Block
#MNEM.UNIT                                        API CODE    No Description
#=========                                        ========    == ===========
DEPT.M                                       00 001 00 00:     1  DEPTH
CAL.IN                                                   :     2  Caliper
CN.%                                                     :     3  Neutron Porosity
CORR.G/CC                                                :     4  Density Correction
DEN.G/CC                                                 :     5  Bulk Density
GR.GAPI                                                  :     6  Gamma Ray
TEN.LB                                                   :     7  Cable Tension
~ASCII
# ...
 3060.1250     9.9729    12.5394      .0737     2.6110    19.4450    -1.4970
 3060.2500     9.9698    12.5724      .0724     2.6122    20.8181    22.5076
 3060.3750     9.9668    12.6145      .0751     2.6117    22.0512    46.1165
 3060.5000     9.9644    12.6615      .0784     2.6090    22.8398    47.1574
 3060.6250     9.9631    12.6883      .0743     2.6037    23.0127    17.5188
 3060.7500     9.9629    12.6763      .0586     2.5982    22.8612    -5.2782
 3060.8750     9.9627    12.6239      .0420     2.5977    23.0191    -8.6509
 3061.0000     9.9625    12.5530      .0288     2.6015    23.4287    -6.7291
 3061.1250     9.9623    12.4479      .0259     2.6080    23.8386    -3.8640
 3061.2500     9.9621    12.2776      .0374     2.6144    23.9643    -1.5763
 3061.3750     9.9619    12.0624      .0593     2.6166    23.5973    -1.9119
 3061.5000     9.9596    11.8446      .0779     2.6094    23.1369    -2.7313
 3061.6250     9.9555    11.6897      .0884     2.5981    22.9031    -3.5703
 3061.7500     9.9506    11.7298      .0915     2.5858    22.9989    -4.4094
 3061.8750     9.9463    11.7701      .0899     2.5750    23.4210    -5.2485
 3062.0000     9.9437    11.8867      .0874     2.5674    24.0514    -6.0875
 3062.1250     9.9452    12.0884      .0833     2.5678    24.4828    -6.9266
 3062.2500     9.9488    12.3388      .0785     2.5746    24.4728    -7.7657
 3062.3750     9.9528    12.5629      .0745     2.5833    24.2785    -8.6047
 3062.5000     9.9570    12.7332      .0719     2.5908    24.0849    -9.3995
 3062.6250     9.9618    12.7814      .0704     2.5948    23.9987    -9.9621
 3062.7500     9.9675    12.8022      .0690     2.5941    23.9967    -9.8619
 3062.8750     9.9740    12.8905      .0666     2.5915    23.8713    -9.7619
 3063.0000     9.9804    13.0865      .0623     2.5879    23.7000    -9.6618
 3063.1250     9.9868    13.2661      .0570     2.5842    23.5814    -9.5619
 3063.2500     9.9923    13.4115      .0520     2.5814    23.5435    -9.4619
 3063.3750     9.9954    13.5144      .0488     2.5805    23.5456    -9.3618
 3063.5000     9.9937    13.5867      .0500     2.5818    23.4327    -9.2617
 3063.6250     9.9899    13.6280      .0561     2.5862    23.1993    -9.1615
 3063.7500     9.9858    13.6143      .0633     2.5933    22.9864    -9.0609
 3063.8750     9.9817    13.3971      .0698     2.6016    22.7949    -1.2396
 3064.0000     9.9776    13.0977      .0738     2.6095    22.6131    14.9933
 3064.1250     9.9735    12.7902      .0741     2.6162    22.4499    28.1228
 3064.2500     9.9694    12.4883      .0716     2.6225    22.4683    17.2301
 3064.3750     9.9653    12.2643      .0703     2.6283    22.7517     6.1860
 3064.5000     9.9613    12.3735      .0705     2.6336    23.0013     1.5683
 3064.6250     9.9582    12.6340      .0721     2.6389    22.9513     1.6684
 3064.7500     9.9565    12.8764      .0748     2.6444    22.4649     1.7688
 3064.8750     9.9563    12.9175      .0793     2.6493    21.7885     1.8691
 3065.0000     9.9561    12.7867      .0846     2.6527    21.5361     1.9695
 3065.1250     9.9559    12.6587      .0906     2.6559    21.5882     2.0697
 3065.2500     9.9557    12.5543      .0975     2.6590    21.7063     2.1701
 3065.3750     9.9555    12.4329      .1028     2.6610    21.7119     2.2706
 3065.5000     9.9553    12.2057      .1024     2.6610    21.5536     2.3710
 3065.6250     9.9551    11.8778      .0953     2.6584    21.5549     2.4714
 3065.7500     9.9549    11.4893      .0884     2.6567    22.1039     2.5717
 3065.8750     9.9547    11.1003      .0835     2.6571    23.0192     2.6720
 3066.0000     9.9545    10.7134      .0826     2.6595    24.1680     2.7722
 3066.1250     9.9543    10.6782      .0871     2.6632    25.3321     2.8724
 3066.2500     9.9541    10.8683      .0977     2.6664    26.0032     2.9726
 3066.3750     9.9539    11.1578      .1107     2.6662    25.7087     3.0728
 3066.5000     9.9542    11.4432      .1173     2.6644    25.1873     3.1729
 3066.6250     9.9551    11.6920      .1168     2.6625    24.7174     3.2732
 3066.7500     9.9564    11.7805      .1109     2.6616    24.4563     3.3735
 3066.8750     9.9577    11.9167      .1033     2.6620    24.4641     3.4737
 3067.0000     9.9591    12.2447      .0946     2.6632    24.8998     3.5739
 3067.1250     9.9604    12.7636      .0865     2.6654    25.4953     2.8470
 3067.2500     9.9618    13.2857      .0809     2.6696    26.0608     1.7152
 3067.3750     9.9631    13.8128      .0797     2.6753    26.5952      .4316
 3067.5000     9.9645    14.3386      .0843     2.6811    27.1155     -.8508
 3067.6250     9.9658    14.7781      .0944     2.6839    27.5610    -2.1332
 3067.7500     9.9672    14.9873      .1098     2.6815    27.7113    -3.4156
 3067.8750     9.9685    14.8955      .1210     2.6767    27.5324    -4.6964
 3068.0000     9.9699    14.7738      .1251     2.6705    27.0520    -4.2997
 3068.1250     9.9713    14.6623      .1238     2.6629    26.2845    -2.1258
 3068.2500     9.9726    14.6163      .1213     2.6528    25.2792      .7404
 3068.3750     9.9740    14.5973      .1184     2.6415    24.3843     3.6065
 3068.5000     9.9754    14.5657      .1184     2.6324    23.8010     1.4641
 3068.6250     9.9768    14.4985      .1206     2.6246    23.1189    -2.3690
 3068.7500     9.9782    14.4198      .1230     2.6178    22.2374    13.6728
 3068.8750     9.9797    14.1875      .1227     2.6116    21.1897    48.0518
 3069.0000     9.9811    13.9225      .1169     2.6063    20.1243    55.3092
 3069.1250     9.9825    13.6767      .1046     2.6047    19.3349    22.8106
 3069.2500     9.9839    13.4641      .0915     2.6070    18.9126     2.6904
 3069.3750     9.9853    13.2600      .0817     2.6115    18.9351    -4.5472
 3069.5000     9.9866    13.0918      .0786     2.6169    19.4908    -4.4471
 3069.6250     9.9875    12.9503      .0833     2.6222    20.6143    -4.3469
 3069.7500     9.9862    12.8192      .0926     2.6265    22.1442    -4.2467
 3069.8750     9.9830    12.6998      .1025     2.6287    23.3232    -4.1465
 3070.0000     9.9795    12.6072      .1124     2.6295    23.8140    -4.0463
 3070.1250     9.9761    12.5308      .1180     2.6297    23.8152    -3.9462
 3070.2500     9.9726    12.6407      .1158     2.6300    23.6763    -3.8461
 3070.3750     9.9692    12.7600      .1053     2.6312    23.7862    -3.7459
 3070.5000     9.9657    12.8620      .0957     2.6335    24.3466    -3.6460
 3070.6250     9.9623    12.9552      .0888     2.6351    25.0180    -3.5457
 3070.7500     9.9588    13.0401      .0828     2.6355    25.5273    -3.4455
 3070.8750     9.9553    13.1217      .0776     2.6352    25.8297    -3.3454
 3071.0000     9.9519    13.0950      .0740     2.6347    25.8816    -3.2453
 3071.1250     9.9485    12.9415      .0740     2.6352    25.2576    -3.1453
 3071.2500     9.9470    12.7820      .0793     2.6378    24.0469    -3.0448
 3071.3750     9.9473    12.7881      .0865     2.6428    22.9468    -2.9444
 3071.5000     9.9481    12.9089      .0944     2.6489    21.8153    -2.8440
 3071.6250     9.9490    13.0297      .1023     2.6547    20.5730    -2.7436
 3071.7500     9.9499    13.1506      .1101     2.6588    19.3317    -2.6433
 3071.8750     9.9507    13.2316      .1110     2.6616    18.7747    -2.5431
 3072.0000     9.9516    13.2235      .1051     2.6652    19.1593    -2.4426
 3072.1250     9.9524    13.0808      .0979     2.6701    20.1198    -2.3422
 3072.2500     9.9533    12.9244      .0920     2.6752    21.1564    -2.2418
 3072.3750     9.9541    12.4566      .0887     2.6790    21.7773    -2.1415
 3072.5000     9.9550    11.9077      .0883     2.6794    21.6483    -2.0413
 3072.6250     9.9559    11.3627      .0942     2.6754    20.9093    -1.9409
 3072.7500     9.9567    10.8864      .1045     2.6692    20.1749    -1.8406
 3072.8750     9.9576    10.8473      .1161     2.6624    19.6829    -1.7403
 3073.0000     9.9584    11.0069      .1252     2.6551    19.7294    -1.6400
