~VERSION INFORMATION
VERS.                                                 2.0:   CWLS Log ASCII Standard-VERSION 2.0
WRAP.                                                  NO:   One line per depth step
~Well Information Block
STRT.M                                          1175.1250:   Top Depth
STOP.M                                          3763.3750:   Bottom Depth
STEP.M                                             .12500:   Depth Increment
NULL.                                            -999.250:   Null Value
FLD .                                            SLEIPNER:   Field Name
WELL.                                              15/6-6:   NAME
WBN .                                              15/6-6:   WELLBORE
NATI.                                                 NOR:   COUNTRY
BHT1.DEGF                                            90.0:   BH TEMP 1
BHT2.DEGF                                           156.0:   BH TEMP 2
BHT3.DEGF                                           240.0:   BH TEMP 3
BS1 .IN                                            12.250:   BIT SIZE 1
CTRY.                                                 NOR:   COUNTRY
CBD1.M                                       196.60000610:   CSG 1 DRILL DEP
CBL1.M                                       196.39999390:   CSG 1 LOG DEP
CS1 .IN                                              30.0:   CSG 1 SIZE
COMP.            ESSO EXPLORATION & PRODUCTION NORWAY INC:   OPERATOR
PDAT.                                                 MSL:   PERM DATUM
PROV.                                           NORTH SEA:   PROVINCE
COUN.                                    GLOMAR BISCAY II:   RIG NAME
SON .                                               20315:   SOURCE OPERATOR NAME
SPUD.                                          1982/04/01:   SPUD DATE
LATI.                                       58 31 14.57 N:   SURF. LATITUDE
LONG.                                        1 44 53.78 E:   SURF. LONGITUDE
BTD1.                                      463.79998779 M:   TOTAL DEPTH 1
BTD2.                                      2775.1000977 M:   TOTAL DEPTH 2
BTD3.                                            3751.0 M:   TOTAL DEPTH 3
PBWE.                                              15/6-6:   PB WELL ID
APIN.                                              15/6-6:   PB WELLBORE ID
PBWS.                                                 all:   PB WELL NAME SET
~PARAMETER INFORMATION (log)
LNAM.                              CDL/CNL/GR  COMPOSITED:   NAME
LTYP.                                         DEPTH MATCH:   LOG TYPE
LSRV.                                             CAL/BGT:   LOG SERVICE
LSOU.                                             SPT/NPD:   LOG SOURCE
LVSN.                                                   1:   LOG VERSION
BHIS.                                                   R:   BRIEF HISTORY
FHIS.                                             RAW-LIS:   FULL HISTORY
LCNM.                                                  DA:   LOGGING CONTRACTOR
TOOL.                             CDL/CNL/GR (COMPOSITED):   TOOL STRING
~Curve Information Block
#MNEM.UNIT                                        API CODE    No Description
#=========                                        ========    == ===========
DEPT.M                                       00 001 00 00:     1  DEPTH
CAL.IN                                                   :     2  Caliper
CN.%                                                     :     3  Neutron Porosity
CORR.G/CC                                                :     4  Density Correction
DEN.G/CC                                                 :     5  Bulk Density
GR.GAPI                                                  :     6  Gamma Ray
TEN.LB                                                   :     7  Cable Tension
~ASCII
# ...
 2202.1250    15.9610    32.8317      .2239     2.2618    56.4628    10.4259
 2202.2500    15.8503    32.7612      .2291     2.2555    56.6291    10.4452
 2202.3750    15.7320    32.5806      .2249     2.2565    56.9848    10.4645
 2202.5000    15.6295    32.2660      .2107     2.2601    57.6208    10.4839
 2202.6250    15.5824    31.9598      .1902     2.2606    58.5358    10.5032
 2202.7500    15.6931    31.8037      .1791     2.2522    59.6431    10.5225
 2202.8750    15.9198    31.9416      .1928     2.2389    60.7392    10.5418
 2203.0000    16.1014    32.4849      .2155     2.2221    61.9856    10.5612
 2203.1250    16.2226    33.4545      .2369     2.2043    64.0564    10.5805
 2203.2500    16.2949    34.2879      .2519     2.1873    67.2699    10.5998
 2203.3750    16.3422    34.6684      .2607     2.1724    71.4159    10.6194
 2203.5000    16.3746    34.6248      .2679     2.1627    75.1905    10.6425
 2203.6250    16.3855    34.3277      .2746     2.1587    78.5246    10.6672
 2203.7500    16.3520    34.0358      .2814     2.1609    81.6979    10.6922
 2203.8750    16.2763    34.0095      .2877     2.1703    84.6890    10.7172
 2204.0000    16.1789    33.9383      .2923     2.1876    87.4819    10.7422
 2204.1250    16.0998    33.6017      .2927     2.2117    90.2985    10.7672
 2204.2500    16.0391    32.9456      .2838     2.2385    94.3007    10.7922
 2204.3750    15.9714    32.0646      .2660     2.2728    99.1929    10.8172
 2204.5000    15.9058    31.2625      .2410     2.3145   104.5525    10.8422
 2204.6250    15.8533    31.1007      .2149     2.3616   109.5635    10.8672
 2204.7500    15.8253    31.4973      .1961     2.4103   113.0067    10.8922
 2204.8750    15.8412    32.1183      .1918     2.4511   111.9944    10.9173
 2205.0000    15.8858    32.5567      .1956     2.4791   107.4883    10.9423
 2205.1250    15.9234    32.4069      .2006     2.4997    99.8334    10.9673
 2205.2500    15.9367    31.1221      .2014     2.5164    89.8339    10.9923
 2205.3750    15.9195    29.3542      .1943     2.5308    78.9671    11.0173
 2205.5000    15.8764    27.8389      .1793     2.5411    69.4941    11.0423
 2205.6250    15.7980    26.8335      .1716     2.5377    61.7335    11.0673
 2205.7500    15.6845    26.3061      .1758     2.5184    56.1243    11.0923
 2205.8750    15.6043    25.9973      .1844     2.4857    53.6560    11.1173
 2206.0000    15.6089    25.9925      .1914     2.4457    54.3679    11.1423
 2206.1250    15.7195    26.4094      .1928     2.4065    57.4567    11.1673
 2206.2500    15.8893    27.1847      .1880     2.3744    61.2249    11.1924
 2206.3750    16.1137    28.1354      .1803     2.3547    64.7335    11.2174
 2206.5000    16.2612    29.0237      .1718     2.3445    67.5063    11.2424
 2206.6250    16.2750    29.9538      .1591     2.3419    69.3212    11.2674
 2206.7500    16.1279    31.2996      .1395     2.3457    70.0872    11.2924
 2206.8750    15.8177    32.8232      .1126     2.3559    69.8180    11.3174
 2207.0000    15.4018    34.1618      .0980     2.3680    68.1524    11.3424
 2207.1250    15.0858    34.9685      .0973     2.3725    65.3715    11.3674
 2207.2500    14.9428    35.0162      .1106     2.3699    62.1802    11.3924
 2207.3750    14.9695    34.7279      .1315     2.3627    59.4889    11.4174
 2207.5000    15.1113    34.9044      .1489     2.3549    58.0255    11.4425
 2207.6250    15.2751    35.8520      .1470     2.3522    57.5770    11.4675
 2207.7500    15.4080    37.4994      .1311     2.3597    57.0411    11.4925
 2207.8750    15.5328    39.4117      .1144     2.3676    56.1884    11.5175
 2208.0000    15.6714    40.4450      .1059     2.3711    55.2414    11.5426
 2208.1250    15.8239    40.0256      .1118     2.3689    54.5599    11.5676
 2208.2500    15.9652    38.8135      .1343     2.3634    54.5454    11.5927
 2208.3750    16.0581    37.4802      .1596     2.3574    55.2336    11.6177
 2208.5000    16.0702    36.5858      .1723     2.3558    55.6436    11.6427
 2208.6250    16.0144    36.4051      .1741     2.3604    55.6322    11.6678
 2208.7500    15.9326    36.4412      .1721     2.3673    55.3995    11.6928
 2208.8750    15.8799    36.0057      .1747     2.3708    55.2142    11.7179
 2209.0000    15.9177    35.1729      .1870     2.3653    55.1482    11.7429
 2209.1250    16.0411    34.2603      .2027     2.3538    55.2251    11.7679
 2209.2500    16.1907    33.6709      .2129     2.3410    55.3778    11.7930
 2209.3750    16.3349    33.6176      .2132     2.3291    55.6052    11.8180
 2209.5000    16.4432    33.4263      .2037     2.3203    55.9315    11.8430
 2209.6250    16.4870    32.8171      .1893     2.3168    56.3924    11.8681
 2209.7500    16.4195    32.0053      .1783     2.3202    56.9776    11.8931
 2209.8750    16.2901    31.2933      .1761     2.3259    57.5992    11.9181
 2210.0000    16.1416    30.9588      .1825     2.3303    58.3090    11.9432
 2210.1250    16.0311    31.2565      .1953     2.3305    59.1904    11.9682
 2210.2500    16.0114    31.9882      .2123     2.3236    60.2650    11.9933
 2210.3750    16.1162    32.8719      .2319     2.3065    61.4075    12.0183
 2210.5000    16.2582    33.7337      .2472     2.2859    61.8719    12.0433
 2210.6250    16.3871    34.4486      .2518     2.2709    61.9126    12.0684
 2210.7500    16.4900    34.8594      .2496     2.2634    62.1006    12.0934
 2210.8750    16.5595    34.6111      .2456     2.2620    62.7085    12.1184
 2211.0000    16.5943    34.0248      .2447     2.2626    63.6569    12.1435
 2211.1250    16.6013    33.5397      .2489     2.2592    64.1947    12.1685
 2211.2500    16.5874    33.4973      .2526     2.2532    63.9685    12.1935
 2211.3750    16.5644    34.0511      .2529     2.2460    63.2629    12.2186
 2211.5000    16.5403    34.9582      .2511     2.2404    62.3426    12.2437
 2211.6250    16.5224    35.3290      .2499     2.2385    61.4921    12.2687
 2211.7500    16.5170    34.9892      .2515     2.2412    60.9814    12.2936
 2211.8750    16.5278    34.3200      .2566     2.2431    60.7958    12.3188
 2212.0000    16.5425    33.8826      .2555     2.2428    60.6432    12.3438
 2212.1250    16.5566    34.1417      .2477     2.2430    60.6312    12.3689
 2212.2500    16.5627    34.6704      .2357     2.2449    60.8326    12.3939
 2212.3750    16.5537    34.6780      .2232     2.2494    61.2218    12.4189
 2212.5000    16.5275    33.8249      .2110     2.2612    61.4408    12.4440
 2212.6250    16.4960    32.2188      .2000     2.2818    61.0452    12.4690
 2212.7500    16.4624    30.3808      .1949     2.3075    60.3281    12.4941
 2212.8750    16.4278    29.2983      .1979     2.3358    59.5380    12.5192
 2213.0000    16.3869    29.0316      .2070     2.3631    58.9074    12.5442
 2213.1250    16.3271    29.2261      .2160     2.3845    58.6205    12.5692
 2213.2500    16.2320    29.6713      .2178     2.3937    58.8840    12.5942
 2213.3750    16.1056    30.2086      .2152     2.3992    59.6100    12.6193
 2213.5000    15.9779    30.7526      .2109     2.4026    60.6538    12.6444
 2213.6250    15.8675    31.3017      .2079     2.4040    61.6331    12.6694
 2213.7500    15.7835    31.8536      .2077     2.4032    62.1429    12.6945
 2213.8750    15.7217    32.2995      .2086     2.4018    62.0150    12.7195
 2214.0000    15.6805    32.4467      .2040     2.4004    61.9520    12.7446
 2214.1250    15.6534    32.0755      .1996     2.3995    62.3032    12.7696
 2214.2500    15.6394    31.0061      .1986     2.3986    63.1025    12.7947
 2214.3750    15.6339    29.6472      .2022     2.3968    64.1461    12.8197
 2214.5000    15.6290    28.5696      .2094     2.3934    65.0161    12.8448
 2214.6250    15.6195    28.1934      .2190     2.3896    64.9959    12.8698
 2214.7500    15.6092    28.7107      .2241     2.3879    64.4303    12.8949
 2214.8750    15.6035    29.9832      .2222     2.3886    63.6447    12.9199
 2215.0000    15.6033    31.3482      .2145     2.3912    62.9975    12.9449
