~VERSION INFORMATION
VERS.                                                 2.0:   CWLS Log ASCII Standard-VERSION 2.0
WRAP.                                                  NO:   One line per depth step
~Well Information Block
STRT.M                                          1175.1250:   Top Depth
STOP.M                                          3763.3750:   Bottom Depth
STEP.M                                             .12500:   Depth Increment
NULL.                                            -999.250:   Null Value
FLD .                                            SLEIPNER:   Field Name
WELL.                                              15/6-6:   NAME
WBN .                                              15/6-6:   WELLBORE
NATI.                                                 NOR:   COUNTRY
BHT1.DEGF                                            90.0:   BH TEMP 1
BHT2.DEGF                                           156.0:   BH TEMP 2
BHT3.DEGF                                           240.0:   BH TEMP 3
BS1 .IN                                            12.250:   BIT SIZE 1
CTRY.                                                 NOR:   COUNTRY
CBD1.M                                       196.60000610:   CSG 1 DRILL DEP
CBL1.M                                       196.39999390:   CSG 1 LOG DEP
CS1 .IN                                              30.0:   CSG 1 SIZE
COMP.            ESSO EXPLORATION & PRODUCTION NORWAY INC:   OPERATOR
PDAT.                                                 MSL:   PERM DATUM
PROV.                                           NORTH SEA:   PROVINCE
COUN.                                    GLOMAR BISCAY II:   RIG NAME
SON .                                               20315:   SOURCE OPERATOR NAME
SPUD.                                          1982/04/01:   SPUD DATE
LATI.                                       58 31 14.57 N:   SURF. LATITUDE
LONG.                                        1 44 53.78 E:   SURF. LONGITUDE
BTD1.                                      463.79998779 M:   TOTAL DEPTH 1
BTD2.                                      2775.1000977 M:   TOTAL DEPTH 2
BTD3.                                            3751.0 M:   TOTAL DEPTH 3
PBWE.                                              15/6-6:   PB WELL ID
APIN.                                              15/6-6:   PB WELLBORE ID
PBWS.                                                 all:   PB WELL NAME SET
~PARAMETER INFORMATION (log)
LNAM.                              CDL/CNL/GR  COMPOSITED:   NAME
LTYP.                                         DEPTH MATCH:   LOG TYPE
LSRV.                                             CAL/BGT:   LOG SERVICE
LSOU.                                             SPT/NPD:   LOG SOURCE
LVSN.                                                   1:   LOG VERSION
BHIS.                                                   R:   BRIEF HISTORY
FHIS.                                             RAW-LIS:   FULL HISTORY
LCNM.                                                  DA:   LOGGING CONTRACTOR
TOOL.                             CDL/CNL/GR (COMPOSITED):   TOOL STRING
~Curve Information Block
#MNEM.UNIT                                        API CODE    No Description
#=========                                        ========    == ===========
DEPT.M                                       00 001 00 00:     1  DEPTH
CAL.IN                                                   :     2  Caliper
CN.%                                                     :     3  Neutron Porosity
CORR.G/CC                                                :     4  Density Correction
DEN.G/CC                                                 :     5  Bulk Density
GR.GAPI                                                  :     6  Gamma Ray
TEN.LB                                                   :     7  Cable Tension
~ASCII
# ...
 1344.1250    14.3839    33.5966      .1359     2.1435    76.6685     6.6769
 1344.2500    14.4069    32.0176      .1382     2.1433    76.2962     6.7324
 1344.3750    14.4468    31.5472      .1400     2.1419    75.5735     6.7881
 1344.5000    14.4984    32.7420      .1404     2.1393    74.5485     6.8437
 1344.6250    14.5537    34.5828      .1408     2.1360    73.4104     6.8993
 1344.7500    14.6040    36.2222      .1448     2.1332    72.5028     6.9548
 1344.8750    14.6361    37.2414      .1524     2.1332    72.7821     7.0104
 1345.0000    14.6512    37.5795      .1587     2.1329    73.6671     7.0660
 1345.1250    14.6584    37.6579      .1630     2.1320    74.9574     7.1216
 1345.2500    14.6690    38.0814      .1660     2.1299    76.5565     7.1773
 1345.3750    14.6924    38.6753      .1691     2.1259    78.2742     7.2329
 1345.5000    14.7296    39.1804      .1729     2.1194    79.4744     7.2884
 1345.6250    14.7823    39.3140      .1776     2.1128    79.6344     7.3440
 1345.7500    14.8418    38.8305      .1798     2.1071    78.9119     7.3996
 1345.8750    14.8958    37.5877      .1771     2.1018    77.7505     7.4553
 1346.0000    14.9350    36.3069      .1703     2.0964    76.4932     7.5108
 1346.1250    14.9552    35.6126      .1629     2.0909    75.3516     7.5664
 1346.2500    14.9628    35.4622      .1600     2.0847    75.1648     7.6220
 1346.3750    14.9629    35.5174      .1600     2.0781    75.9591     7.6776
 1346.5000    14.9617    35.2288      .1592     2.0721    77.3127     7.7231
 1346.6250    14.9605    34.5469      .1536     2.0678    78.6689     7.7414
 1346.7500    14.9594    34.2826      .1419     2.0670    79.5022     7.7276
 1346.8750    14.9586    34.6346      .1295     2.0711    79.4959     7.7107
 1347.0000    14.9599    35.4837      .1175     2.0790    78.8870     7.6937
 1347.1250    14.9635    36.5083      .1103     2.0865    78.4883     7.6767
 1347.2500    14.9678    37.2585      .1119     2.0916    78.4084     7.6598
 1347.3750    14.9721    37.4097      .1219     2.0935    78.4758     7.6428
 1347.5000    14.9763    37.3038      .1359     2.0926    78.3510     7.6259
 1347.6250    14.9806    37.2291      .1496     2.0880    77.8610     7.6089
 1347.7500    14.9863    37.2472      .1603     2.0823    77.3176     7.5920
 1347.8750    14.9978    37.1230      .1668     2.0764    77.3593     7.5750
 1348.0000    15.0165    36.2702      .1690     2.0707    77.8892     7.5581
 1348.1250    15.0411    35.1137      .1676     2.0652    78.7704     7.5411
 1348.2500    15.0656    34.2598      .1648     2.0608    80.1518     7.5242
 1348.3750    15.0865    34.0105      .1653     2.0595    81.3131     7.5072
 1348.5000    15.0980    34.4431      .1648     2.0594    82.2962     7.4903
 1348.6250    15.1012    35.3936      .1606     2.0593    83.2142     7.4733
 1348.7500    15.0993    36.5917      .1534     2.0586    84.0881     7.4564
 1348.8750    15.0961    37.7182      .1464     2.0575    84.8860     7.4394
 1349.0000    15.0908    38.5163      .1432     2.0574    85.6249     7.4225
 1349.1250    15.0855    38.7675      .1426     2.0596    85.7890     7.4055
 1349.2500    15.0803    38.3395      .1429     2.0625    85.3575     7.3886
 1349.3750    15.0770    37.3998      .1429     2.0653    84.5861     7.3716
 1349.5000    15.0768    37.2603      .1417     2.0669    83.7641     7.3547
 1349.6250    15.0805    38.2193      .1383     2.0670    83.1234     7.3377
 1349.7500    15.0843    39.5587      .1339     2.0653    83.3266     7.3208
 1349.8750    15.0894    40.4639      .1300     2.0647    83.3625     7.3038
 1350.0000    15.0968    40.6897      .1268     2.0664    83.1697     7.2869
 1350.1250    15.1058    41.0038      .1249     2.0707    82.9427     7.2699
 1350.2500    15.1150    41.0759      .1250     2.0764    83.0677     7.2565
 1350.3750    15.1242    41.0168      .1279     2.0800    84.2373     7.2646
 1350.5000    15.1300    40.9469      .1321     2.0820    86.4638     7.2882
 1350.6250    15.1215    40.9216      .1342     2.0846    89.0385     7.3131
 1350.7500    15.0984    40.6085      .1320     2.0882    91.5442     7.3380
 1350.8750    15.0676    40.0564      .1250     2.0931    93.5356     7.3629
 1351.0000    15.0421    39.4652      .1154     2.0995    94.5734     7.3879
 1351.1250    15.0248    38.9538      .1148     2.1073    94.5330     7.4128
 1351.2500    15.0120    38.5535      .1219     2.1138    94.1267     7.4377
 1351.3750    15.0022    38.1670      .1314     2.1164    93.0007     7.4626
 1351.5000    14.9937    37.4170      .1386     2.1149    91.3935     7.4875
 1351.6250    14.9853    36.3592      .1402     2.1109    89.6659     7.5124
 1351.7500    14.9768    35.2276      .1353     2.1069    87.8230     7.5374
 1351.8750    14.9706    34.3107      .1290     2.1039    85.8730     7.5623
 1352.0000    14.9676    33.8748      .1252     2.1030    84.3300     7.5872
 1352.1250    14.9659    34.0548      .1249     2.1046    83.3952     7.6121
 1352.2500    14.9654    34.5044      .1277     2.1081    83.3106     7.6370
 1352.3750    14.9670    34.8617      .1326     2.1122    84.2603     7.6619
 1352.5000    14.9727    34.9387      .1359     2.1159    85.5380     7.6869
 1352.6250    14.9792    34.7052      .1362     2.1185    86.6245     7.7118
 1352.7500    14.9864    34.3242      .1341     2.1207    87.6332     7.7367
 1352.8750    14.9949    34.3316      .1292     2.1233    88.6488     7.7616
 1353.0000    15.0057    34.7296      .1217     2.1269    89.8037     7.7865
 1353.1250    15.0197    35.2329      .1134     2.1318    91.3453     7.8114
 1353.2500    15.0339    35.5661      .1110     2.1388    93.3469     7.8363
 1353.3750    15.0461    35.5228      .1112     2.1448    94.9273     7.8612
 1353.5000    15.0547    35.0733      .1135     2.1489    95.7216     7.8861
 1353.6250    15.0603    34.7076      .1167     2.1517    95.6763     7.9111
 1353.7500    15.0642    34.7166      .1197     2.1549    94.9788     7.9360
 1353.8750    15.0638    35.0586      .1218     2.1586    93.8629     7.9609
 1354.0000    15.0582    35.6192      .1252     2.1634    93.1812     7.9897
 1354.1250    15.0519    36.2623      .1306     2.1677    92.7546     8.0365
 1354.2500    15.0463    36.9399      .1382     2.1692    92.2132     8.0932
 1354.3750    15.0422    37.6114      .1475     2.1668    91.2679     8.1512
 1354.5000    15.0403    38.2075      .1565     2.1613    89.8616     8.2091
 1354.6250    15.0340    38.6197      .1591     2.1549    87.5357     8.2670
 1354.7500    15.0142    38.7454      .1571     2.1484    85.0585     8.3249
 1354.8750    14.9919    38.5192      .1526     2.1417    82.6079     8.3828
 1355.0000    14.9791    38.0463      .1463     2.1337    80.2709     8.4407
 1355.1250    14.9827    37.5969      .1383     2.1234    78.1434     8.4987
 1355.2500    14.9863    37.3111      .1311     2.1104    76.6753     8.5566
 1355.3750    14.9899    37.2127      .1269     2.0981    75.9744     8.6145
 1355.5000    14.9935    37.2115      .1248     2.0870    75.5862     8.6724
 1355.6250    14.9971    37.0642      .1251     2.0778    75.4095     8.7303
 1355.7500    15.0005    36.7712      .1280     2.0718    75.3232     8.7882
 1355.8750    15.0033    36.5489      .1341     2.0711    75.1469     8.8462
 1356.0000    15.0037    36.5356      .1416     2.0754    75.0226     8.9040
 1356.1250    15.0027    36.7947      .1468     2.0815    75.7902     8.9619
 1356.2500    15.0014    37.2819      .1491     2.0885    76.7052     9.0199
 1356.3750    14.9997    37.7956      .1480     2.0965    77.3779     9.0779
 1356.5000    14.9969    38.0094      .1434     2.1063    77.5823     9.1358
 1356.6250    14.9909    37.7372      .1362     2.1182    77.0572     9.1936
 1356.7500    14.9816    36.9651      .1292     2.1297    77.0096     9.2515
 1356.8750    14.9719    35.8652      .1230     2.1398    77.5303     9.3095
 1357.0000    14.9631    34.9862      .1193     2.1474    78.5038     9.3674
