~VERSION INFORMATION
VERS.                                                 2.0:   CWLS Log ASCII Standard-VERSION 2.0
WRAP.                                                  NO:   One line per depth step
~Well Information Block
STRT.M                                          1175.1250:   Top Depth
STOP.M                                          3763.3750:   Bottom Depth
STEP.M                                             .12500:   Depth Increment
NULL.                                            -999.250:   Null Value
FLD .                                            SLEIPNER:   Field Name
WELL.                                              15/6-6:   NAME
WBN .                                              15/6-6:   WELLBORE
NATI.                                                 NOR:   COUNTRY
BHT1.DEGF                                            90.0:   BH TEMP 1
BHT2.DEGF                                           156.0:   BH TEMP 2
BHT3.DEGF                                           240.0:   BH TEMP 3
BS1 .IN                                            12.250:   BIT SIZE 1
CTRY.                                                 NOR:   COUNTRY
CBD1.M                                       196.60000610:   CSG 1 DRILL DEP
CBL1.M                                       196.39999390:   CSG 1 LOG DEP
CS1 .IN                                              30.0:   CSG 1 SIZE
COMP.            ESSO EXPLORATION & PRODUCTION NORWAY INC:   OPERATOR
PDAT.                                                 MSL:   PERM DATUM
PROV.                                           NORTH SEA:   PROVINCE
COUN.                                    GLOMAR BISCAY II:   RIG NAME
SON .                                               20315:   SOURCE OPERATOR NAME
SPUD.                                          1982/04/01:   SPUD DATE
LATI.                                       58 31 14.57 N:   SURF. LATITUDE
LONG.                                        1 44 53.78 E:   SURF. LONGITUDE
BTD1.                                      463.79998779 M:   TOTAL DEPTH 1
BTD2.                                      2775.1000977 M:   TOTAL DEPTH 2
BTD3.                                            3751.0 M:   TOTAL DEPTH 3
PBWE.                                              15/6-6:   PB WELL ID
APIN.                                              15/6-6:   PB WELLBORE ID
PBWS.                                                 all:   PB WELL NAME SET
~PARAMETER INFORMATION (log)
LNAM.                              CDL/CNL/GR  COMPOSITED:   NAME
LTYP.                                         DEPTH MATCH:   LOG TYPE
LSRV.                                             CAL/BGT:   LOG SERVICE
LSOU.                                             SPT/NPD:   LOG SOURCE
LVSN.                                                   1:   LOG VERSION
BHIS.                                                   R:   BRIEF HISTORY
FHIS.                                             RAW-LIS:   FULL HISTORY
LCNM.                                                  DA:   LOGGING CONTRACTOR
TOOL.                             CDL/CNL/GR (COMPOSITED):   TOOL STRING
~Curve Information Block
#MNEM.UNIT                                        API CODE    No Description
#=========                                        ========    == ===========
DEPT.M                                       00 001 00 00:     1  DEPTH
CAL.IN                                                   :     2  Caliper
CN.%                                                     :     3  Neutron Porosity
CORR.G/CC                                                :     4  Density Correction
DEN.G/CC                                                 :     5  Bulk Density
GR.GAPI                                                  :     6  Gamma Ray
TEN.LB                                                   :     7  Cable Tension
~ASCII
# ...
 2891.1250     9.0360     9.5941      .0626     2.5679    12.8259    -5.9681
 2891.2500     9.0380     9.7498      .0599     2.5723    12.8757    -7.3464
 2891.3750     9.0439    10.1026      .0609     2.5757    12.7688    -8.9082
 2891.5000     9.0583    10.2998      .0632     2.5774    12.6227   -10.4701
 2891.6250     9.0855    10.3099      .0638     2.5780    12.5472   -11.9747
 2891.7500     9.1252    10.1987      .0619     2.5792    12.6212   -13.1564
 2891.8750     9.1648    10.0437      .0640     2.5815    12.8458   -12.9105
 2892.0000     9.2013     9.9188      .0708     2.5824    13.1108    -4.5853
 2892.1250     9.2311     9.8703      .0782     2.5807    13.3295    28.7930
 2892.2500     9.2522     9.9249      .0820     2.5763    13.4318    77.0885
 2892.3750     9.2646    10.0772      .0797     2.5711    13.3802   102.6828
 2892.5000     9.2697    10.2395      .0740     2.5685    13.2479    84.2924
 2892.6250     9.2721    10.3242      .0731     2.5692    13.1548    36.2080
 2892.7500     9.2739    10.2827      .0787     2.5716    13.1919     2.4878
 2892.8750     9.2757    10.0426      .0874     2.5744    13.3199   -10.1026
 2893.0000     9.2776     9.9037      .0933     2.5764    13.4204    -9.7520
 2893.1250     9.2794     9.7987      .0901     2.5772    13.2928    -9.4011
 2893.2500     9.2812     9.7131      .0808     2.5781    13.1117    -9.0508
 2893.3750     9.2831     9.6675      .0723     2.5795    12.7497    -8.6997
 2893.5000     9.2851     9.7063      .0697     2.5800    12.2187    -8.3486
 2893.6250     9.2871     9.9145      .0748     2.5781    11.6555    -7.9976
 2893.7500     9.2890    10.1972      .0860     2.5729    11.2693    -7.6467
 2893.8750     9.2910    10.4505      .0907     2.5662    11.1568    -7.2963
 2894.0000     9.2930    10.6417      .0853     2.5605    11.1908    -6.9450
 2894.1250     9.2964    10.8279      .0757     2.5580    11.4075    -6.5938
 2894.2500     9.3025    10.8516      .0655     2.5611    11.8526    -6.2428
 2894.3750     9.3106    10.7108      .0575     2.5712    12.4936    -5.8919
 2894.5000     9.3164    10.5042      .0539     2.5884    13.1566    -5.5408
 2894.6250     9.3174    10.2898      .0589     2.6055    13.4698    -5.1897
 2894.7500     9.3183    10.1107      .0712     2.6165    13.2664    -4.8387
 2894.8750     9.3193    10.0214      .0870     2.6215    12.6752    -4.4876
 2895.0000     9.3202    10.0881      .1027     2.6203    12.0199    -4.1365
 2895.1250     9.3211    10.2290      .1153     2.6126    11.6743    -3.7855
 2895.2500     9.3220    10.3765      .1216     2.6016    11.7242    -3.4350
 2895.3750     9.3230    10.4995      .1171     2.5929    11.7226    -3.0835
 2895.5000     9.3239    10.6018      .1066     2.5871    11.5863    -2.7323
 2895.6250     9.3248    10.6183      .0938     2.5847    11.2326    -2.6386
 2895.7500     9.3252    10.5569      .0819     2.5852    10.7179    -2.9059
 2895.8750     9.3240    10.4733      .0726     2.5868    10.2986    -3.3315
 2896.0000     9.3199    10.3624      .0682     2.5891    10.5453    -3.7584
 2896.1250     9.3152    10.2180      .0678     2.5918    10.9488    -4.1847
 2896.2500     9.3104    10.0754      .0719     2.5935    11.3637    -4.6110
 2896.3750     9.3055    10.0115      .0783     2.5927    11.7606    -5.0372
 2896.5000     9.3007     9.9509      .0830     2.5884    12.1322    -5.4634
 2896.6250     9.2959     9.9499      .0815     2.5816    12.3013    -5.8896
 2896.7500     9.2910    10.0194      .0772     2.5755    12.3585    -6.3158
 2896.8750     9.2862    10.1248      .0737     2.5716    12.3168    -6.7420
 2897.0000     9.2820    10.2071      .0719     2.5705    12.2321    -7.1683
 2897.1250     9.2790    10.2830      .0717     2.5717    12.1683    -7.5405
 2897.2500     9.2775    10.3353      .0714     2.5735    12.1717    -7.7127
 2897.3750     9.2767    10.3534      .0699     2.5732    12.0151    -6.7460
 2897.5000     9.2760    10.3424      .0676     2.5704    11.8458    -5.7806
 2897.6250     9.2752    10.3314      .0641     2.5668    11.8053    -4.8155
 2897.7500     9.2744    10.3203      .0602     2.5642    11.9684    -3.8509
 2897.8750     9.2736    10.2598      .0573     2.5634    12.3295    -2.8868
 2898.0000     9.2728    10.2291      .0588     2.5646    12.7434    -1.9202
 2898.1250     9.2720    10.3084      .0672     2.5662    12.8851     -.9549
 2898.2500     9.2712    10.5352      .0751     2.5672    12.8544      .0102
 2898.3750     9.2705    10.7578      .0767     2.5678    12.7230      .9753
 2898.5000     9.2697    10.9754      .0707     2.5686    12.5979     1.9405
 2898.6250     9.2689    10.9654      .0597     2.5702    12.5887     2.9056
 2898.7500     9.2681    10.8437      .0496     2.5730    12.5810     3.8707
 2898.8750     9.2673    10.7438      .0492     2.5750    12.4341     4.8359
 2899.0000     9.2665    10.7244      .0568     2.5758    12.3135     5.8010
 2899.1250     9.2658    10.7265      .0678     2.5754    12.3290     6.7655
 2899.2500     9.2650    10.6363      .0782     2.5739    12.5735     7.5309
 2899.3750     9.2642    10.4570      .0881     2.5711    13.1475     7.4482
 2899.5000     9.2639    10.2318      .0888     2.5674    13.7349     7.0360
 2899.6250     9.2644    10.0219      .0819     2.5643    13.9182     6.6139
 2899.7500     9.2656     9.8882      .0741     2.5622    13.5946     6.1921
 2899.8750     9.2670     9.7550      .0695     2.5615    12.7946     5.7703
 2900.0000     9.2684     9.6220      .0689     2.5618    11.6956     5.3475
 2900.1250     9.2699     9.6397      .0695     2.5634    10.8847     4.9254
 2900.2500     9.2713     9.8272      .0684     2.5660    10.7083     4.5032
 2900.3750     9.2727    10.0326      .0645     2.5693    10.8923     4.0811
 2900.5000     9.2742    10.0733      .0583     2.5731    11.2762     3.6590
 2900.6250     9.2756     9.9943      .0520     2.5778    11.7365     3.2368
 2900.7500     9.2770     9.8235      .0493     2.5836    12.2012     2.8139
 2900.8750     9.2785     9.5766      .0529     2.5902    12.3761     2.3926
 2901.0000     9.2799     9.2987      .0593     2.5970    12.3152     1.9875
 2901.1250     9.2813     9.1294      .0669     2.6055    12.2731     1.5989
 2901.2500     9.2828     8.9572      .0748     2.6154    12.3962     1.2190
 2901.3750     9.2842     8.7821      .0828     2.6243    12.7170      .8383
 2901.5000     9.2856     8.6133      .0915     2.6274    13.0919      .4582
 2901.6250     9.2871     8.4572      .0956     2.6251    13.1913      .0781
 2901.7500     9.2885     8.3331      .0942     2.6172    12.9882     -.3016
 2901.8750     9.2899     8.4440      .0887     2.6058    12.5897     -.6817
 2902.0000     9.2915     8.7008      .0811     2.5943    12.1105    -1.0623
 2902.1250     9.2936     9.0076      .0732     2.5868    11.6353    -1.4424
 2902.2500     9.2961     9.2370      .0701     2.5848    11.3832    -1.8225
 2902.3750     9.2986     9.3339      .0704     2.5855    11.5156    -2.2027
 2902.5000     9.3012     9.4185      .0715     2.5862    11.8968    -2.5824
 2902.6250     9.3037     9.4748      .0695     2.5858    12.3786    -2.9624
 2902.7500     9.3062     9.5348      .0612     2.5841    12.8105    -3.3430
 2902.8750     9.3088     9.5975      .0459     2.5829    13.0470    -3.7232
 2903.0000     9.3113     9.6155      .0335     2.5839    12.8246    -4.1032
 2903.1250     9.3138     9.5232      .0273     2.5885    12.3778    -4.4829
 2903.2500     9.3164     9.3163      .0275     2.5948    11.9591    -4.8629
 2903.3750     9.3189     9.1004      .0331     2.5998    11.7321    -5.2435
 2903.5000     9.3214     9.0064      .0420     2.6004    11.7205    -5.6235
 2903.6250     9.3238     9.1026      .0512     2.5978    11.6151    -6.0036
 2903.7500     9.3255     9.3609      .0604     2.5945    11.3833    -6.3832
 2903.8750     9.3269     9.6216      .0716     2.5909    11.3361    -6.7634
 2904.0000     9.3282     9.6770      .0803     2.5875    11.5375    -7.1438
