~VERSION INFORMATION
VERS.                                                 2.0:   CWLS Log ASCII Standard-VERSION 2.0
WRAP.                                                  NO:   One line per depth step
~Well Information Block
STRT.M                                          1175.1250:   Top Depth
STOP.M                                          3763.3750:   Bottom Depth
STEP.M                                             .12500:   Depth Increment
NULL.                                            -999.250:   Null Value
FLD .                                            SLEIPNER:   Field Name
WELL.                                              15/6-6:   NAME
WBN .                                              15/6-6:   WELLBORE
NATI.                                                 NOR:   COUNTRY
BHT1.DEGF                                            90.0:   BH TEMP 1
BHT2.DEGF                                           156.0:   BH TEMP 2
BHT3.DEGF                                           240.0:   BH TEMP 3
BS1 .IN                                            12.250:   BIT SIZE 1
CTRY.                                                 NOR:   COUNTRY
CBD1.M                                       196.60000610:   CSG 1 DRILL DEP
CBL1.M                                       196.39999390:   CSG 1 LOG DEP
CS1 .IN                                              30.0:   CSG 1 SIZE
COMP.            ESSO EXPLORATION & PRODUCTION NORWAY INC:   OPERATOR
PDAT.                                                 MSL:   PERM DATUM
PROV.                                           NORTH SEA:   PROVINCE
COUN.                                    GLOMAR BISCAY II:   RIG NAME
SON .                                               20315:   SOURCE OPERATOR NAME
SPUD.                                          1982/04/01:   SPUD DATE
LATI.                                       58 31 14.57 N:   SURF. LATITUDE
LONG.                                        1 44 53.78 E:   SURF. LONGITUDE
BTD1.                                      463.79998779 M:   TOTAL DEPTH 1
BTD2.                                      2775.1000977 M:   TOTAL DEPTH 2
BTD3.                                            3751.0 M:   TOTAL DEPTH 3
PBWE.                                              15/6-6:   PB WELL ID
APIN.                                              15/6-6:   PB WELLBORE ID
PBWS.                                                 all:   PB WELL NAME SET
~PARAMETER INFORMATION (log)
LNAM.                              CDL/CNL/GR  COMPOSITED:   NAME
LTYP.                                         DEPTH MATCH:   LOG TYPE
LSRV.                                             CAL/BGT:   LOG SERVICE
LSOU.                                             SPT/NPD:   LOG SOURCE
LVSN.                                                   1:   LOG VERSION
BHIS.                                                   R:   BRIEF HISTORY
FHIS.                                             RAW-LIS:   FULL HISTORY
LCNM.                                                  DA:   LOGGING CONTRACTOR
TOOL.                             CDL/CNL/GR (COMPOSITED):   TOOL STRING
~Curve Information Block
#MNEM.UNIT                                        API CODE    No Description
#=========                                        ========    == ===========
DEPT.M                                       00 001 00 00:     1  DEPTH
CAL.IN                                                   :     2  Caliper
CN.%                                                     :     3  Neutron Porosity
CORR.G/CC                                                :     4  Density Correction
DEN.G/CC                                                 :     5  Bulk Density
GR.GAPI                                                  :     6  Gamma Ray
TEN.LB                                                   :     7  Cable Tension
~ASCII
# ...
 3580.1250     8.9426    10.3140     -.0275     2.5705    45.0746    11.9803
 3580.2500     8.9464     9.1743     -.0361     2.6174    42.0823    11.9050
 3580.3750     8.9501     8.0542     -.0421     2.6497    39.3780    11.8298
 3580.5000     8.9539     6.4306     -.0446     2.6662    37.5359    11.7545
 3580.6250     8.9577     5.5949     -.0432     2.6698    36.8348    11.6793
 3580.7500     8.9614     5.1032     -.0385     2.6662    37.2555    11.6040
 3580.8750     8.9652     4.8280     -.0340     2.6556    38.0944    11.5288
 3581.0000     8.9690     4.8696     -.0311     2.6360    38.4696    11.4535
 3581.1250     8.9727     4.9809     -.0265     2.6084    38.2055    11.3784
 3581.2500     8.9765     5.1135     -.0154     2.5747    37.5842    11.3032
 3581.3750     8.9802     5.2746      .0083     2.5366    37.2591    11.2278
 3581.5000     8.9834     5.4552      .0454     2.5016    37.6259    11.1527
 3581.6250     8.9844     5.6596      .0684     2.4815    38.2422    11.0775
 3581.7500     8.9838     5.9185      .0654     2.4801    38.6379    11.0023
 3581.8750     8.9825     6.2795      .0413     2.4979    38.6202    10.9272
 3582.0000     8.9811     6.5443      .0070     2.5320    38.1961    10.8520
 3582.1250     8.9797     6.3583     -.0268     2.5751    37.6252    10.7768
 3582.2500     8.9783     5.7848     -.0446     2.6112    37.3205    10.7017
 3582.3750     8.9770     5.1108     -.0478     2.6258    37.2978    10.6266
 3582.5000     8.9756     4.5339     -.0440     2.6182    37.3764    10.5515
 3582.6250     8.9742     4.4500     -.0379     2.5919    37.4126    10.4763
 3582.7500     8.9729     4.6232     -.0315     2.5527    37.3209    10.4010
 3582.8750     8.9715     5.0600     -.0303     2.5002    37.0367    10.3258
 3583.0000     8.9701     5.8750     -.0329     2.4456    36.5416    10.2506
 3583.1250     8.9688     7.2668     -.0358     2.3951    35.9857    10.1755
 3583.2500     8.9674     9.2767     -.0374     2.3525    35.6099    10.1003
 3583.3750     8.9660    11.3165     -.0361     2.3220    35.7177    10.0251
 3583.5000     8.9646    12.8796     -.0298     2.3090    36.6767     9.9499
 3583.6250     8.9632    13.7305     -.0175     2.3105    38.0733     9.8746
 3583.7500     8.9618    13.9488     -.0033     2.3138    39.2161     9.7995
 3583.8750     8.9604    14.1942      .0116     2.3160    40.0368     9.7243
 3584.0000     8.9590    14.4545      .0255     2.3169    40.5489     9.6490
 3584.1250     8.9576    14.8124      .0362     2.3180    40.8754     9.5738
 3584.2500     8.9562    15.1132      .0426     2.3206    41.4948     9.4986
 3584.3750     8.9548    15.2278      .0467     2.3249    43.0437     9.4235
 3584.5000     8.9534    15.1067      .0470     2.3293    45.3417     9.3482
 3584.6250     8.9521    14.9387      .0427     2.3322    47.3640     9.2729
 3584.7500     8.9510    14.7772      .0338     2.3329    48.1645     9.1977
 3584.8750     8.9513    14.6038      .0214     2.3323    47.3024     9.1225
 3585.0000     8.9533    14.4691      .0104     2.3319    45.6943     9.0473
 3585.1250     8.9555    14.4338      .0042     2.3323    44.1137     8.9722
 3585.2500     8.9577    14.5287      .0030     2.3334    42.9852     8.8970
 3585.3750     8.9600    14.5785      .0058     2.3350    42.5294     8.8217
 3585.5000     8.9622    14.5905      .0109     2.3366    42.7637     8.7465
 3585.6250     8.9645    14.5900      .0164     2.3364    43.4394     8.6714
 3585.7500     8.9667    14.5666      .0195     2.3324    44.0069     8.5962
 3585.8750     8.9688    14.4846      .0176     2.3265    44.2399     8.5210
 3586.0000     8.9694    14.3388      .0122     2.3197    44.1579     8.4458
 3586.1250     8.9680    14.0837      .0065     2.3130    43.7894     8.3706
 3586.2500     8.9648    13.8835      .0050     2.3070    43.1190     8.2955
 3586.3750     8.9615    13.7664      .0088     2.3028    41.8963     8.2204
 3586.5000     8.9583    13.6951      .0133     2.3017    40.3362     8.1452
 3586.6250     8.9550    13.5737      .0155     2.3020    38.6382     8.0700
 3586.7500     8.9518    13.3527      .0121     2.3022    36.9780     7.9947
 3586.8750     8.9485    13.0325      .0018     2.3013    35.5220     7.9196
 3587.0000     8.9452    12.7817     -.0111     2.3003    34.4533     7.8444
 3587.1250     8.9420    12.7146     -.0118     2.3016    34.0013     7.7692
 3587.2500     8.9387    12.8626     -.0050     2.3045    34.3677     7.6940
 3587.3750     8.9372    13.0707      .0035     2.3080    35.3490     7.6187
 3587.5000     8.9392    13.1641      .0110     2.3109    36.4542     7.5435
 3587.6250     8.9461    13.1898      .0172     2.3118    37.0128     7.4683
 3587.7500     8.9561    13.1056      .0217     2.3099    36.4734     7.3932
 3587.8750     8.9661    13.0063      .0250     2.3076    35.3890     7.3179
 3588.0000     8.9762    13.1945      .0273     2.3059    34.6152     7.2426
 3588.1250     8.9848    13.8297      .0281     2.3053    34.6413     7.1673
 3588.2500     8.9904    14.4753      .0276     2.3061    35.6550     7.0921
 3588.3750     8.9908    15.1269      .0266     2.3074    37.4473     7.0170
 3588.5000     8.9886    15.6863      .0277     2.3075    38.8561     6.9419
 3588.6250     8.9863    15.9853      .0309     2.3053    39.3161     6.8668
 3588.7500     8.9839    15.7240      .0340     2.3013    39.0427     6.7918
 3588.8750     8.9816    15.2542      .0346     2.2962    38.2363     6.7167
 3589.0000     8.9792    14.9573      .0308     2.2909    37.0801     6.6416
 3589.1250     8.9769    14.8736      .0230     2.2857    35.9964     6.5667
 3589.2500     8.9746    14.9572      .0119     2.2804    35.5225     6.4915
 3589.3750     8.9722    15.1140     -.0004     2.2756    35.5602     6.4163
 3589.5000     8.9699    15.2789     -.0106     2.2719    35.9942     6.3412
 3589.6250     8.9675    15.4068     -.0158     2.2699    36.6446     6.2662
 3589.7500     8.9652    15.4207     -.0155     2.2700    37.2653     6.1913
 3589.8750     8.9629    15.2881     -.0092     2.2716    37.5609     6.5116
 3590.0000     8.9605    15.0087      .0003     2.2763    37.4682     7.0196
 3590.1250     8.9582    14.6073      .0105     2.2841    37.0381     7.5808
 3590.2500     8.9559    14.8579      .0189     2.2941    36.5409     8.1392
 3590.3750     8.9536    15.0687      .0241     2.3056    36.3265     8.6929
 3590.5000     8.9512    15.2302      .0262     2.3198    36.6628     9.2467
 3590.6250     8.9489    15.3111      .0267     2.3348    37.4198     9.8019
 3590.7500     8.9466    15.3564      .0258     2.3485    38.3312    10.3568
 3590.8750     8.9443    15.3683      .0230     2.3596    39.1170    10.9114
 3591.0000     8.9420    15.3445      .0177     2.3669    39.5410    11.4658
 3591.1250     8.9397    15.2913      .0095     2.3690    39.4959    12.0195
 3591.2500     8.9391    15.2065      .0017     2.3648    39.2485    12.5741
 3591.3750     8.9402    15.0753     -.0041     2.3586    38.9515    13.1286
 3591.5000     8.9421    14.8773     -.0081     2.3525    38.7763    13.6828
 3591.6250     8.9442    14.6112     -.0109     2.3489    38.8615    14.2365
 3591.7500     8.9463    14.3036     -.0137     2.3499    39.2914    14.7902
 3591.8750     8.9484    14.0509     -.0160     2.3553    39.7783    14.9021
 3592.0000     8.9505    14.0142     -.0168     2.3611    40.0979    14.8730
 3592.1250     8.9526    14.1549     -.0162     2.3670    40.3799    14.7988
 3592.2500     8.9547    14.3645     -.0136     2.3732    40.7953    14.7246
 3592.3750     8.9567    14.4885     -.0077     2.3802    41.5291    14.6504
 3592.5000     8.9579    14.5831      .0032     2.3898    42.6650    14.5762
 3592.6250     8.9577    14.1682      .0119     2.4040    43.7598    14.5021
 3592.7500     8.9568    13.1663      .0142     2.4256    44.2868    14.4280
 3592.8750     8.9555    11.8234      .0071     2.4569    43.8922    14.3538
 3593.0000     8.9543    10.5203     -.0112     2.4989    42.3736    14.2796
