~VERSION INFORMATION
VERS.                                                 2.0:   CWLS Log ASCII Standard-VERSION 2.0
WRAP.                                                  NO:   One line per depth step
~Well Information Block
STRT.M                                          1175.1250:   Top Depth
STOP.M                                          3763.3750:   Bottom Depth
STEP.M                                             .12500:   Depth Increment
NULL.                                            -999.250:   Null Value
FLD .                                            SLEIPNER:   Field Name
WELL.                                              15/6-6:   NAME
WBN .                                              15/6-6:   WELLBORE
NATI.                                                 NOR:   COUNTRY
BHT1.DEGF                                            90.0:   BH TEMP 1
BHT2.DEGF                                           156.0:   BH TEMP 2
BHT3.DEGF                                           240.0:   BH TEMP 3
BS1 .IN                                            12.250:   BIT SIZE 1
CTRY.                                                 NOR:   COUNTRY
CBD1.M                                       196.60000610:   CSG 1 DRILL DEP
CBL1.M                                       196.39999390:   CSG 1 LOG DEP
CS1 .IN                                              30.0:   CSG 1 SIZE
COMP.            ESSO EXPLORATION & PRODUCTION NORWAY INC:   OPERATOR
PDAT.                                                 MSL:   PERM DATUM
PROV.                                           NORTH SEA:   PROVINCE
COUN.                                    GLOMAR BISCAY II:   RIG NAME
SON .                                               20315:   SOURCE OPERATOR NAME
SPUD.                                          1982/04/01:   SPUD DATE
LATI.                                       58 31 14.57 N:   SURF. LATITUDE
LONG.                                        1 44 53.78 E:   SURF. LONGITUDE
BTD1.                                      463.79998779 M:   TOTAL DEPTH 1
BTD2.                                      2775.1000977 M:   TOTAL DEPTH 2
BTD3.                                            3751.0 M:   TOTAL DEPTH 3
PBWE.                                              15/6-6:   PB WELL ID
APIN.                                              15/6-6:   PB WELLBORE ID
PBWS.                                                 all:   PB WELL NAME SET
~PARAMETER INFORMATION (log)
LNAM.                              CDL/CNL/GR  COMPOSITED:   NAME
LTYP.                                         DEPTH MATCH:   LOG TYPE
LSRV.                                             CAL/BGT:   LOG SERVICE
LSOU.                                             SPT/NPD:   LOG SOURCE
LVSN.                                                   1:   LOG VERSION
BHIS.                                                   R:   BRIEF HISTORY
FHIS.                                             RAW-LIS:   FULL HISTORY
LCNM.                                                  DA:   LOGGING CONTRACTOR
TOOL.                             CDL/CNL/GR (COMPOSITED):   TOOL STRING
~Curve Information Block
#MNEM.UNIT                                        API CODE    No Description
#=========                                        ========    == ===========
DEPT.M                                       00 001 00 00:     1  DEPTH
CAL.IN                                                   :     2  Caliper
CN.%                                                     :     3  Neutron Porosity
CORR.G/CC                                                :     4  Density Correction
DEN.G/CC                                                 :     5  Bulk Density
GR.GAPI                                                  :     6  Gamma Ray
TEN.LB                                                   :     7  Cable Tension
~ASCII
# ...
 3749.1250     8.8829    14.4680      .0627     2.5152    67.4727   363.5518
 3749.2500     8.8555    14.3909      .0613     2.5115    67.9035   354.1893
 3749.3750     8.8281    14.2797      .0602     2.5078    67.2762   346.9906
 3749.5000     8.8006    14.1904      .0613     2.5040    65.9538   344.9418
 3749.6250     8.7731    14.2647      .0675     2.5007    64.3584   349.6835
 3749.7500     8.7434    14.4443      .0803     2.4988    62.8691   343.7312
 3749.8750     8.7116    14.6353      .0948     2.4977    61.7560   324.2120
 3750.0000     8.6792    14.7637      .1067     2.4958    61.0210   308.0745
 3750.1250     8.6398    14.6684      .1149     2.4919    60.6618   305.6379
 3750.2500     8.5742    14.4600      .1193     2.4858    60.6096   324.5906
 3750.3750     8.4354    14.2247      .1189     2.4793    60.6660   372.8004
 3750.5000     8.2117    14.0526      .1125     2.4734    60.1837   529.3822
 3750.6250     8.0008    14.0184      .1004     2.4677    59.2865   666.2079
 3750.7500     7.8363    14.1521      .0824     2.4634    58.3329   806.6134
 3750.8750     7.7479    14.6408      .0606     2.4613    57.6875   916.6089
 3751.0000     7.7596    15.1760      .0390     2.4616    57.7424   927.8992
 3751.1250     7.8886    15.7194      .0263     2.4651    59.6023   919.8628
 3751.2500     8.0231    16.1436      .0286     2.4706    62.2583   909.1738
 3751.3750     8.1214    16.1890      .0380     2.4758    64.3652   903.3582
 3751.5000     8.1884    15.8584      .0489     2.4810    65.4845   900.7948
 3751.6250     8.2402    15.7345      .0581     2.4877    65.5520   898.0593
 3751.7500     8.2905    15.7551      .0660     2.4985    64.7621   893.0542
 3751.8750     8.3210    15.7821      .0760     2.5132    64.3115   866.0787
 3752.0000     8.3370    15.7058      .0877     2.5282    64.5047   833.3065
 3752.1250     8.3487    15.6117      .1000     2.5402    65.1093   797.7312
 3752.2500     8.3605    15.5507      .1126     2.5474    65.7534   763.4537
 3752.3750     8.3717    15.6716      .1249     2.5497    66.0410   734.4778
 3752.5000     8.3789    15.8036      .1341     2.5510    65.7519   711.3486
 3752.6250     8.3810    15.8346      .1342     2.5530    65.4764   687.5712
 3752.7500     8.3817    15.7612      .1286     2.5557    65.2220   662.9082
 3752.8750     8.3820    15.7090      .1222     2.5584    64.9039   637.8363
 3753.0000     8.3749    15.8016      .1196     2.5605    64.4185   617.1514
 3753.1250     8.3427    15.9781      .1232     2.5610    63.6778   611.1580
 3753.2500     8.2653    16.1428      .1361     2.5551    63.1596   618.0231
 3753.3750     8.1767    16.2212      .1525     2.5474    63.1625   639.2070
 3753.5000     8.0857    16.2201      .1643     2.5404    63.3230   669.9740
 3753.6250     7.9963    16.1633      .1681     2.5353    63.3740   702.9954
 3753.7500     7.9095    16.0785      .1642     2.5325    63.2401   731.1376
 3753.8750     7.8249    16.0233      .1577     2.5337    63.3775   752.2776
 3754.0000     7.7583    16.0025      .1509     2.5376    64.2899   753.3627
 3754.1250     7.7105    15.9737      .1498     2.5408    65.4888   726.7565
 3754.2500     7.6724    15.8608      .1548     2.5423    66.6507   688.0839
 3754.3750     7.6376    15.6614      .1633     2.5419    67.4726   645.0261
 3754.5000     7.6055    15.4331      .1706     2.5407    67.7045   592.6443
 3754.6250     7.5906    15.1932      .1734     2.5395    67.2977   553.9833
 3754.7500     7.5881    14.9443      .1719     2.5379    66.8924   532.6570
 3754.8750     7.5884    14.6782      .1685     2.5355    66.7271   507.9338
 3755.0000     7.5887    14.5292      .1638     2.5320    66.9475   480.9366
 3755.1250     7.5890    14.6277      .1582     2.5279    67.5855   457.8777
 3755.2500     7.5893    15.0432      .1519     2.5245    68.4899   434.4175
 3755.3750     7.5896    15.6578      .1466     2.5225    69.3897   391.2853
 3755.5000     7.5899    16.2104      .1422     2.5212    70.0724   346.9719
 3755.6250     7.5902    16.2501      .1387     2.5206    70.5628   304.3269
 3755.7500     7.5905    15.9472      .1361     2.5206    70.9731   265.0187
 3755.8750     7.5908    15.5893      .1342     2.5210    71.4242   229.9065
 3756.0000     7.5912    15.2634      .1325     2.5217    71.4924   194.1931
 3756.1250     7.5923    15.0927      .1310     2.5239    70.6058   168.9058
 3756.2500     7.5943    15.2738      .1301     2.5275    69.0072   153.5714
 3756.3750     7.5965    15.4763      .1301     2.5321    66.9214   145.0367
 3756.5000     7.5988    15.6120      .1314     2.5371    64.8407   136.0188
 3756.6250     7.6011    15.6815      .1346     2.5420    63.8180   112.4286
 3756.7500     7.6034    15.6850      .1406     2.5453    64.7789    99.7028
 3756.8750     7.6056    15.6305      .1484     2.5466    66.3786    90.4938
 3757.0000     7.6079    15.5514      .1575     2.5463    68.1125    96.9887
 3757.1250     7.6102    15.6982      .1675     2.5441    69.4957   114.7370
 3757.2500     7.6122    15.7913      .1777     2.5400    70.1277   129.2099
 3757.3750     7.6116    15.7647      .1835     2.5365    69.9055   145.4862
 3757.5000     7.6078    15.5716      .1820     2.5355    68.6249   144.0363
 3757.6250     7.6029    15.1846      .1771     2.5358    67.0341   139.2008
 3757.7500     7.5977    14.9403      .1710     2.5372    65.8964   134.2398
 3757.8750     7.5926    15.1072      .1650     2.5391    65.6705   129.4936
 3758.0000     7.5874    15.4607      .1593     2.5411    66.2494   124.0186
 3758.1250     7.5822    15.8847      .1543     2.5418    67.9428   110.0764
 3758.2500     7.5770    16.2113      .1500     2.5412    69.7870    90.4709
 3758.3750     7.5718    16.0081      .1467     2.5400    71.2534    85.1436
 3758.5000     7.5666    15.5207      .1450     2.5384    72.2262    92.9099
 3758.6250     7.5618    14.9849      .1452     2.5366    72.8242   102.0865
 3758.7500     7.5593    14.5572      .1470     2.5345    73.0244   112.3583
 3758.8750     7.5598    14.3270      .1519     2.5322    73.0608   128.3642
 3759.0000     7.5611    14.3281      .1580     2.5299    73.0688   142.7954
 3759.1250     7.5626    14.7094      .1619     2.5276    73.0718   146.2714
 3759.2500     7.5641    15.1271      .1619     2.5253    73.0748   140.1812
 3759.3750     7.5656    15.5531      .1591     2.5229    73.0778   140.4107
 3759.5000     7.5671    15.9387      .1578     2.5208    73.0807   149.5134
 3759.6250     7.5686    16.2540      .1580     2.5197    73.0838   163.3519
 3759.7500     7.5701    16.5218      .1602     2.5191    73.0867   177.0976
 3759.8750     7.5717    16.8281      .1642     2.5179    73.0897   185.2028
 3760.0000     7.5732    17.1441      .1686     2.5150    73.0927   184.4969
 3760.1250     7.5747    17.4454      .1695     2.5095    73.0957   180.5015
 3760.2500     7.5762    17.6799      .1654     2.5020    73.0987   181.7149
 3760.3750     7.5777    17.7893      .1576     2.4938    73.1017   186.1118
 3760.5000     7.5792    17.7706      .1469     2.4868    73.1047   185.4742
 3760.6250     7.5806    17.7519      .1346     2.4830    73.1077   178.3894
 3760.7500     7.5820    17.7332      .1225     2.4850    73.1107   171.5344
 3760.8750     7.5827    17.7145      .1133     2.4918    73.1137   170.3887
 3761.0000     7.5831    17.6958      .1072     2.4986    73.1167   177.0365
 3761.1250     7.5834    17.6773      .1051     2.5049    73.1197   180.1876
 3761.2500     7.5837    17.6888      .1094     2.5097    73.1227   171.4704
 3761.3750     7.5840    17.7048      .1211     2.5119    73.1257   150.0567
 3761.5000     7.5843    17.7220      .1376     2.5103    73.1287   131.6074
 3761.6250     7.5846    17.7392      .1501     2.5053    73.1317   137.6357
 3761.7500     7.5849    17.7564      .1551     2.4992    73.1346   153.5128
 3761.8750     7.5852    17.7736      .1543     2.4934    73.1376   171.5511
 3762.0000     7.5855    17.7908      .1499     2.4884    73.1406   185.2076
