~VERSION INFORMATION
VERS.                                                 2.0:   CWLS Log ASCII Standard-VERSION 2.0
WRAP.                                                  NO:   One line per depth step
~Well Information Block
STRT.M                                          1175.1250:   Top Depth
STOP.M                                          3763.3750:   Bottom Depth
STEP.M                                             .12500:   Depth Increment
NULL.                                            -999.250:   Null Value
FLD .                                            SLEIPNER:   Field Name
WELL.                                              15/6-6:   NAME
WBN .                                              15/6-6:   WELLBORE
NATI.                                                 NOR:   COUNTRY
BHT1.DEGF                                            90.0:   BH TEMP 1
BHT2.DEGF                                           156.0:   BH TEMP 2
BHT3.DEGF                                           240.0:   BH TEMP 3
BS1 .IN                                            12.250:   BIT SIZE 1
CTRY.                                                 NOR:   COUNTRY
CBD1.M                                       196.60000610:   CSG 1 DRILL DEP
CBL1.M                                       196.39999390:   CSG 1 LOG DEP
CS1 .IN                                              30.0:   CSG 1 SIZE
COMP.            ESSO EXPLORATION & PRODUCTION NORWAY INC:   OPERATOR
PDAT.                                                 MSL:   PERM DATUM
PROV.                                           NORTH SEA:   PROVINCE
COUN.                                    GLOMAR BISCAY II:   RIG NAME
SON .                                               20315:   SOURCE OPERATOR NAME
SPUD.                                          1982/04/01:   SPUD DATE
LATI.                                       58 31 14.57 N:   SURF. LATITUDE
LONG.                                        1 44 53.78 E:   SURF. LONGITUDE
BTD1.                                      463.79998779 M:   TOTAL DEPTH 1
BTD2.                                      2775.1000977 M:   TOTAL DEPTH 2
BTD3.                                            3751.0 M:   TOTAL DEPTH 3
PBWE.                                              15/6-6:   PB WELL ID
APIN.                                              15/6-6:   PB WELLBORE ID
PBWS.                                                 all:   PB WELL NAME SET
~PARAMETER INFORMATION (log)
LNAM.                              CDL/CNL/GR  COMPOSITED:   NAME
LTYP.                                         DEPTH MATCH:   LOG TYPE
LSRV.                                             CAL/BGT:   LOG SERVICE
LSOU.                                             SPT/NPD:   LOG SOURCE
LVSN.                                                   1:   LOG VERSION
BHIS.                                                   R:   BRIEF HISTORY
FHIS.                                             RAW-LIS:   FULL HISTORY
LCNM.                                                  DA:   LOGGING CONTRACTOR
TOOL.                             CDL/CNL/GR (COMPOSITED):   TOOL STRING
~Curve Information Block
#MNEM.UNIT                                        API CODE    No Description
#=========                                        ========    == ===========
DEPT.M                                       00 001 00 00:     1  DEPTH
CAL.IN                                                   :     2  Caliper
CN.%                                                     :     3  Neutron Porosity
CORR.G/CC                                                :     4  Density Correction
DEN.G/CC                                                 :     5  Bulk Density
GR.GAPI                                                  :     6  Gamma Ray
TEN.LB                                                   :     7  Cable Tension
~ASCII
# ...
 1513.1250    13.7630    33.5461      .2160     2.2448    74.5137     7.7111
 1513.2500    13.8345    32.9165      .2160     2.2509    74.2253     7.3293
 1513.3750    13.8911    32.4367      .2141     2.2566    74.0174     6.9473
 1513.5000    13.9287    32.3450      .2115     2.2607    74.0445     6.5650
 1513.6250    13.9506    32.2512      .2085     2.2624    74.4540     6.1828
 1513.7500    13.9652    32.0469      .2050     2.2613    75.3174     5.8008
 1513.8750    13.9716    31.7320      .2034     2.2598    76.2720     5.4190
 1514.0000    13.9738    31.3775      .2039     2.2593    77.0428     5.0369
 1514.1250    13.9742    31.0508      .2052     2.2595    77.6117     4.6548
 1514.2500    13.9739    30.8266      .2052     2.2596    77.9822     4.2727
 1514.3750    13.9737    30.7853      .2023     2.2592    78.1532     3.8904
 1514.5000    13.9734    30.9568      .1979     2.2590    78.0287     3.5084
 1514.6250    13.9746    31.3568      .1950     2.2607    77.1941     3.1264
 1514.7500    13.9783    31.9981      .1933     2.2648    75.3853     2.7444
 1514.8750    13.9847    33.0041      .1915     2.2720    72.6398     2.3622
 1515.0000    13.9948    34.1105      .1883     2.2825    69.2169     1.9797
 1515.1250    14.0121    34.9661      .1833     2.2965    65.5835     1.5977
 1515.2500    14.0373    35.3461      .1809     2.3153    61.8239     1.2160
 1515.3750    14.0640    35.1860      .1869     2.3306    58.1621      .8341
 1515.5000    14.0960    34.7103      .2019     2.3357    55.5251      .4505
 1515.6250    14.1187    34.2332      .2205     2.3272    54.5770      .0645
 1515.7500    14.1035    33.8319      .2333     2.3055    55.5905     -.3234
 1515.8750    14.0131    33.5596      .2279     2.2764    58.3159     -.7110
 1516.0000    13.8922    33.4624      .2149     2.2500    61.7453    -1.0986
 1516.1250    13.7764    33.5778      .2030     2.2319    65.4639    -1.4864
 1516.2500    13.6938    33.9678      .1954     2.2238    69.0208    -1.8743
 1516.3750    13.6612    34.5092      .1934     2.2239    71.8493    -2.2621
 1516.5000    13.6770    35.1189      .1968     2.2265    73.2428    -2.6497
 1516.6250    13.7093    35.7544      .2004     2.2273    74.1071    -3.0373
 1516.7500    13.7295    36.3856      .2022     2.2265    74.5229    -3.4251
 1516.8750    13.7129    36.9709      .2037     2.2252    74.7978    -3.6346
 1517.0000    13.6575    37.1399      .2066     2.2239    75.0054    -3.6359
 1517.1250    13.5873    36.7599      .2114     2.2225    74.9962    -3.5088
 1517.2500    13.5868    36.0489      .2108     2.2211    74.2268    -3.3818
 1517.3750    13.6294    35.3054      .2038     2.2213    72.1904    -3.2546
 1517.5000    13.6855    34.8269      .1940     2.2231    68.7735    -3.1275
 1517.6250    13.7355    34.6912      .1841     2.2255    65.2154    -3.0003
 1517.7500    13.7674    34.6390      .1790     2.2266    62.3249    -2.8731
 1517.8750    13.7802    34.6203      .1856     2.2237    59.9181    -2.7461
 1518.0000    13.7955    34.7074      .2013     2.2178    59.6432    -2.6190
 1518.1250    13.8031    34.9548      .2183     2.2110    60.9523    -2.4918
 1518.2500    13.7775    35.3001      .2300     2.2068    63.0268    -2.3646
 1518.3750    13.7185    35.3512      .2329     2.2066    65.2393    -2.2375
 1518.5000    13.6384    35.0307      .2264     2.2100    67.1557    -2.1105
 1518.6250    13.5489    34.4821      .2135     2.2159    68.6527    -1.9833
 1518.7500    13.4910    33.9877      .2017     2.2217    68.7840    -1.8562
 1518.8750    13.4947    33.8871      .1934     2.2243    68.2409    -1.7290
 1519.0000    13.5433    34.4255      .1885     2.2246    67.5031    -1.6019
 1519.1250    13.6149    35.2160      .1868     2.2231    67.0231    -1.4748
 1519.2500    13.6897    35.7873      .1888     2.2203    67.1801    -1.3477
 1519.3750    13.7319    35.8915      .1945     2.2170    68.2371    -1.2206
 1519.5000    13.7548    35.4609      .2013     2.2154    70.1870    -1.0934
 1519.6250    13.7628    34.6552      .2079     2.2155    71.7594     -.9662
 1519.7500    13.7645    34.0030      .2119     2.2179    72.6060     -.8391
 1519.8750    13.7721    33.7539      .2111     2.2224    72.7328     -.7121
 1520.0000    13.8044    33.8282      .2046     2.2270    72.1289     -.5850
 1520.1250    13.8416    34.1197      .1968     2.2325    70.9943     -.4577
 1520.2500    13.8674    34.5171      .1901     2.2379    69.6171     -.3306
 1520.3750    13.8862    34.9453      .1873     2.2431    68.2326     -.2035
 1520.5000    13.8987    35.5840      .1871     2.2476    67.1124     -.0764
 1520.6250    13.9016    36.6282      .1852     2.2508    66.5127      .0507
 1520.7500    13.9013    37.7552      .1816     2.2562    66.5142      .1778
 1520.8750    13.9021    38.4771      .1830     2.2618    66.3382      .3050
 1521.0000    13.9139    38.2510      .1897     2.2692    65.4849      .4321
 1521.1250    13.9344    36.6182      .2009     2.2761    63.9417      .5592
 1521.2500    13.9615    34.6747      .2133     2.2798    62.1007      .6863
 1521.3750    14.0012    33.2496      .2200     2.2799    60.8650      .8135
 1521.5000    14.0131    32.5384      .2234     2.2785    59.7706      .9407
 1521.6250    14.0087    32.3781      .2244     2.2778    59.2531     1.0678
 1521.7500    13.9977    32.4671      .2230     2.2776    59.6469     1.1949
 1521.8750    13.9860    32.6172      .2189     2.2773    60.8198     1.3219
 1522.0000    13.9768    32.6628      .2125     2.2761    62.3627     1.4491
 1522.1250    13.9728    32.6181      .2057     2.2726    64.2555     1.5763
 1522.2500    13.9688    32.5431      .2042     2.2670    65.3704     1.7034
 1522.3750    13.9649    32.5171      .2044     2.2610    65.8654     1.8305
 1522.5000    13.9615    32.5419      .2041     2.2555    66.0506     1.9576
 1522.6250    13.9600    32.5783      .2024     2.2510    66.3709     2.0847
 1522.7500    13.9624    32.7290      .1999     2.2474    67.3706     2.2119
 1522.8750    13.9664    33.1485      .1954     2.2447    69.9466     2.3390
 1523.0000    13.9703    33.9399      .1915     2.2423    72.1842     2.4661
 1523.1250    13.9740    35.0514      .1893     2.2401    73.6337     2.5932
 1523.2500    13.9770    35.9110      .1878     2.2386    74.0404     2.7204
 1523.3750    13.9792    36.0310      .1858     2.2390    73.4673     2.8475
 1523.5000    13.9810    35.5224      .1851     2.2425    72.7745     2.9747
 1523.6250    13.9829    34.6980      .1918     2.2480    73.0083     3.1018
 1523.7500    13.9847    33.9730      .2015     2.2533    74.0101     3.2289
 1523.8750    13.9866    33.6631      .2099     2.2563    75.3943     3.3560
 1524.0000    13.9884    33.8816      .2146     2.2562    76.6697     3.4831
 1524.1250    13.9903    34.3934      .2156     2.2536    77.3239     3.6104
 1524.2500    13.9921    34.8666      .2106     2.2520    76.9487     3.7374
 1524.3750    13.9997    34.9822      .1989     2.2531    75.7952     3.8645
 1524.5000    14.0154    34.5263      .1839     2.2564    74.2954     3.9916
 1524.6250    14.0363    33.8678      .1708     2.2605    72.6637     4.1187
 1524.7500    14.0562    33.5213      .1649     2.2632    70.9508     4.2460
 1524.8750    14.0636    33.4999      .1707     2.2609    68.9584     4.3731
 1525.0000    14.0530    33.7033      .1911     2.2548    66.7761     4.5001
 1525.1250    14.0432    33.9746      .2128     2.2486    65.2118     4.6272
 1525.2500    14.0396    34.2106      .2270     2.2431    64.6232     4.7543
 1525.3750    14.0429    34.3822      .2305     2.2386    65.2294     4.8815
 1525.5000    14.0511    34.4249      .2255     2.2358    67.0433     5.0087
 1525.6250    14.0729    34.3156      .2150     2.2364    68.9818     5.1357
 1525.7500    14.1026    34.0858      .2047     2.2372    70.6457     5.2627
 1525.8750    14.1160    33.8338      .1960     2.2368    72.3820     5.3898
 1526.0000    14.1105    33.7922      .1921     2.2353    74.2792     5.5170
