~VERSION INFORMATION
VERS.                                                 2.0:   CWLS Log ASCII Standard-VERSION 2.0
WRAP.                                                  NO:   One line per depth step
~Well Information Block
STRT.M                                           449.1716:   Top Depth
STOP.M                                          3296.7656:   Bottom Depth
STEP.M                                             .15240:   Depth Increment
NULL.                                            -999.250:   Null Value
FLD .                                             WILDCAT:   Field Name
WELL.                                             15/9-10:   NAME
WBN .                                             15/9-10:   WELLBORE
NATI.                                                 NOR:   COUNTRY
BHT1.DEGF                                            85.0:   BH TEMP 1
BHT2.DEGF                                           105.0:   BH TEMP 2
BHT3.DEGF                                           144.0:   BH TEMP 3
BS1 .IN                                            12.250:   BIT SIZE 1
CTRY.                                                 NOR:   COUNTRY
CBD1.M                                              172.0:   CSG 1 DRILL DEP
CBL1.M                                              172.0:   CSG 1 LOG DEP
CS1 .IN                                              30.0:   CSG 1 SIZE
COMP.                                             STATOIL:   OPERATOR
PDAT.                                                 MSL:   PERM DATUM
PROV.                                           NORTH SEA:   PROVINCE
COUN.                                    NEPTUNO NORDRAUG:   RIG NAME
SPUD.                                          1981/09/15:   SPUD DATE
LATI.                                       58 19 42.92 N:   SURF. LATITUDE
LONG.                                        1 46 20.61 E:   SURF. LONGITUDE
BTD1.                                             484.0 M:   TOTAL DEPTH 1
BTD2.                                            1179.0 M:   TOTAL DEPTH 2
BTD3.                                           2718.50 M:   TOTAL DEPTH 3
PBWE.                                             15/9-10:   PB WELL ID
APIN.                                             15/9-10:   PB WELLBORE ID
PBWS.                                                 all:   PB WELL NAME SET
~PARAMETER INFORMATION (log)
LNAM.                              FDC/CNL/GR  COMPOSITED:   NAME
LTYP.                                         DEPTH MATCH:   LOG TYPE
LSRV.                                            DEN/NEUT:   LOG SERVICE
LSOU.                                             SPT/NPD:   LOG SOURCE
LVSN.                                                   1:   LOG VERSION
BHIS.                                                   R:   BRIEF HISTORY
FHIS.                                             RAW-LIS:   FULL HISTORY
LCNM.                                        SCHLUMBERGER:   LOGGING CONTRACTOR
TOOL.                             FDC/CNL/GR (COMPOSITED):   TOOL STRING
~Curve Information Block
#MNEM.UNIT                                        API CODE    No Description
#=========                                        ========    == ===========
DEPT.M                                       00 001 00 00:     1  DEPTH
CALI.IN                                                  :     2  Caliper
CS.                                                      :     3  Cable Speed
DRHO.G/CC                                                :     4  Bulk density correction
GR.GAPI                                                  :     5  Gamma Ray
NPHI.%                                                   :     6  Neutron porosity
RHOB.G/CC                                                :     7  Bulk density
TENS.LB                                                  :     8  Cable Tension
~ASCII
# ...
  823.6184    19.9531  2052.0000      .0078    89.5000  -999.2500     2.1406  1260.0000
  823.7708    19.9844  2052.0000      .0254    92.0625  -999.2500     2.1621  1300.0000
  823.9232    19.9844  2054.0000      .0220    94.1250  -999.2500     2.1621  1265.0000
  824.0756    19.9531  2056.0000      .0210    90.4375  -999.2500     2.1504  1290.0000
  824.2280    20.0625  2058.0000      .0283    91.4375  -999.2500     2.1484  1260.0000
  824.3804    20.0469  2060.0000      .0264    91.3125  -999.2500     2.1367  1270.0000
  824.5328    20.0156  2062.0000      .0308    95.3750  -999.2500     2.1406  1270.0000
  824.6852    20.1094  2060.0000      .0098    97.6250  -999.2500     2.1133  1260.0000
  824.8376    20.1875  2058.0000      .0151   100.3750  -999.2500     2.1113  1300.0000
  824.9900    20.1094  2056.0000      .0049   101.3125  -999.2500     2.0898  1305.0000
  825.1424    20.1563  2054.0000      .0205   100.6250  -999.2500     2.0977  1270.0000
  825.2948    20.1875  2054.0000      .0200    99.6250  -999.2500     2.0879  1305.0000
  825.4472    20.3906  2052.0000      .0259   104.8750  -999.2500     2.0820  1260.0000
  825.5996    20.5156  2054.0000      .0205   108.8750  -999.2500     2.0859  1275.0000
  825.7520    20.3281  2054.0000      .0176   109.8750  -999.2500     2.0859  1265.0000
  825.9044    20.4063  2056.0000      .0220   104.8125  -999.2500     2.1211  1275.0000
  826.0568    20.3906  2058.0000      .0244    99.0625  -999.2500     2.1484  1290.0000
  826.2092    20.3906  2058.0000      .0332    94.5000  -999.2500     2.1875  1265.0000
  826.3616    20.5000  2062.0000      .0244    92.6875  -999.2500     2.1797  1290.0000
  826.5140    20.4531  2064.0000      .0146    89.3750  -999.2500     2.1562  1260.0000
  826.6664    20.3438  2062.0000      .0024    88.5000  -999.2500     2.1406  1290.0000
  826.8188    20.5625  2058.0000      .0059    88.5625  -999.2500     2.1348  1285.0000
  826.9712    20.5156  2056.0000      .0229    88.0625  -999.2500     2.1504  1295.0000
  827.1236    20.3906  2054.0000      .0239    89.3125  -999.2500     2.1406  1275.0000
  827.2760    20.1719  2056.0000      .0176    87.1875  -999.2500     2.1484  1295.0000
  827.4284    20.3594  2058.0000      .0005    89.1250  -999.2500     2.1406  1260.0000
  827.5808    20.2969  2060.0000     -.0015    85.1875  -999.2500     2.1504  1275.0000
  827.7332    20.2656  2062.0000      .0029    83.2500  -999.2500     2.1602  1275.0000
  827.8856    20.2656  2064.0000      .0015    82.5625  -999.2500     2.1543  1275.0000
  828.0380    20.2188  2064.0000      .0220    83.3125  -999.2500     2.1738  1270.0000
  828.1904    20.2969  2060.0000      .0229    83.6875  -999.2500     2.1641  1290.0000
  828.3428    20.0938  2058.0000      .0405    80.1250  -999.2500     2.1621  1295.0000
  828.4952    20.2188  2054.0000      .0303    81.9375  -999.2500     2.1387  1275.0000
  828.6476    19.5313  2050.0000      .0400    84.6875  -999.2500     2.1523  1295.0000
  828.8000    19.7656  2047.0000      .0308    88.0625  -999.2500     2.1523  1270.0000
  828.9524    19.7656  2047.0000      .0303    89.0625  -999.2500     2.1660  1280.0000
  829.1048    19.7188  2047.0000      .0142    84.0000  -999.2500     2.1484  1265.0000
  829.2572    19.5313  2046.0000      .0234    82.8125  -999.2500     2.1621  1290.0000
  829.4096    19.4063  2047.0000      .0210    79.7500  -999.2500     2.1582  1270.0000
  829.5620    19.2813  2048.0000      .0269    89.0625  -999.2500     2.1562  1285.0000
  829.7144    19.2813  2048.0000      .0161    92.8750  -999.2500     2.1445  1275.0000
  829.8668    19.3594  2050.0000      .0137    98.6875  -999.2500     2.1484  1300.0000
  830.0192    19.4844  2050.0000      .0151    93.6875  -999.2500     2.1602  1275.0000
  830.1716    19.5781  2048.0000      .0278    90.3750  -999.2500     2.1738  1285.0000
  830.3240    19.3594  2048.0000      .0254    88.1250  -999.2500     2.1660  1290.0000
  830.4764    19.2344  2045.0000      .0366    93.5000  -999.2500     2.1680  1275.0000
  830.6288    19.3125  2048.0000      .0479    97.9375  -999.2500     2.1758  1290.0000
  830.7812    19.4063  2050.0000      .0469    96.7500  -999.2500     2.1621  1275.0000
  830.9336    19.5156  2054.0000      .0400    91.2500  -999.2500     2.1543  1275.0000
  831.0860    19.4375  2058.0000      .0220    89.0000  -999.2500     2.1309  1275.0000
  831.2384    19.3594  2058.0000      .0347    90.6250  -999.2500     2.1367  1290.0000
  831.3908    19.1719  2058.0000      .0259    92.0000  -999.2500     2.1152  1275.0000
  831.5432    18.8281  2058.0000      .0156    90.3750  -999.2500     2.0977  1310.0000
  831.6956    18.7969  2054.0000      .0210    89.6250  -999.2500     2.0996  1290.0000
  831.8480    18.8281  2052.0000      .0381    86.4375  -999.2500     2.1113  1300.0000
  832.0004    18.8438  2045.0000      .0581    87.1250  -999.2500     2.1230  1270.0000
  832.1528    18.8750  2039.0000      .0566    90.7500  -999.2500     2.1230  1305.0000
  832.3052    18.5313  2038.0000      .0439    91.2500  -999.2500     2.1152  1265.0000
  832.4576    18.4531  2035.0000      .0298    88.9375  -999.2500     2.0996  1320.0000
  832.6100    18.3281  2033.0000      .0376    82.5625  -999.2500     2.0937  1255.0000
  832.7624    18.4531  2030.0000      .0327    82.2500  -999.2500     2.0840  1310.0000
  832.9148    18.4531  2029.0000      .0522    84.5625  -999.2500     2.1055  1290.0000
  833.0672    18.5313  2027.0000      .0425    82.0000  -999.2500     2.1074  1275.0000
  833.2196    18.5000  2025.0000      .0425    80.5000  -999.2500     2.1055  1290.0000
  833.3720    18.3906  2023.0000      .0347    77.1250  -999.2500     2.0977  1275.0000
  833.5244    18.3594  2019.0000      .0303    78.5625  -999.2500     2.0937  1300.0000
  833.6768    18.3906  2014.0000      .0420    80.5000  -999.2500     2.1094  1290.0000
  833.8292    18.5000  2014.0000      .0352    84.3125  -999.2500     2.1133  1290.0000
  833.9816    18.4375  2012.0000      .0317    83.5000  -999.2500     2.1152  1310.0000
  834.1340    18.3594  2013.0000      .0234    79.8750  -999.2500     2.1250  1300.0000
  834.2864    18.2969  2014.0000      .0415    78.3125  -999.2500     2.1582  1310.0000
  834.4388    18.4688  2016.0000      .0439    82.7500  -999.2500     2.1543  1290.0000
  834.5912    18.3594  2017.0000      .0317    87.1250  -999.2500     2.1289  1275.0000
  834.7436    18.5313  2019.0000      .0273    90.4375  -999.2500     2.1133  1290.0000
  834.8960    18.5313  2020.0000      .0288    93.6250  -999.2500     2.1270  1295.0000
  835.0484    18.7344  2021.0000      .0361    92.5000  -999.2500     2.1387  1275.0000
  835.2008    18.5781  2019.0000      .0278    89.9375  -999.2500     2.1426  1325.0000
  835.3532    18.3438  2019.0000      .0234    85.7500  -999.2500     2.1484  1300.0000
  835.5056    18.3906  2016.0000      .0234    89.5625  -999.2500     2.1504  1320.0000
  835.6580    18.5313  2013.0000      .0215    89.3750  -999.2500     2.1484  1275.0000
  835.8104    18.3438  2012.0000      .0244    87.6875  -999.2500     2.1426  1290.0000
  835.9628    18.3281  2012.0000      .0181    84.8125  -999.2500     2.1289  1295.0000
  836.1152    18.3281  2012.0000      .0200    83.8125  -999.2500     2.1172  1275.0000
  836.2676    18.2656  2012.0000      .0161    84.5625  -999.2500     2.0977  1290.0000
  836.4200    18.2188  2013.0000      .0283    82.5625  -999.2500     2.1094  1290.0000
  836.5724    18.2344  2014.0000      .0234    81.3750  -999.2500     2.1094  1310.0000
  836.7248    18.2188  2016.0000      .0278    83.0625  -999.2500     2.1406  1265.0000
  836.8772    18.3594  2017.0000      .0244    87.1875  -999.2500     2.1602  1300.0000
  837.0296    18.5781  2018.0000      .0269    86.5625  -999.2500     2.1738  1275.0000
  837.1820    18.2969  2015.0000      .0151    87.2500  -999.2500     2.1621  1290.0000
  837.3344    18.3906  2013.0000      .0078    85.8750  -999.2500     2.1406  1300.0000
