~VERSION INFORMATION
VERS.                                                 2.0:   CWLS Log ASCII Standard-VERSION 2.0
WRAP.                                                  NO:   One line per depth step
~Well Information Block
STRT.M                                           449.1716:   Top Depth
STOP.M                                          3296.7656:   Bottom Depth
STEP.M                                             .15240:   Depth Increment
NULL.                                            -999.250:   Null Value
FLD .                                             WILDCAT:   Field Name
WELL.                                             15/9-10:   NAME
WBN .                                             15/9-10:   WELLBORE
NATI.                                                 NOR:   COUNTRY
BHT1.DEGF                                            85.0:   BH TEMP 1
BHT2.DEGF                                           105.0:   BH TEMP 2
BHT3.DEGF                                           144.0:   BH TEMP 3
BS1 .IN                                            12.250:   BIT SIZE 1
CTRY.                                                 NOR:   COUNTRY
CBD1.M                                              172.0:   CSG 1 DRILL DEP
CBL1.M                                              172.0:   CSG 1 LOG DEP
CS1 .IN                                              30.0:   CSG 1 SIZE
COMP.                                             STATOIL:   OPERATOR
PDAT.                                                 MSL:   PERM DATUM
PROV.                                           NORTH SEA:   PROVINCE
COUN.                                    NEPTUNO NORDRAUG:   RIG NAME
SPUD.                                          1981/09/15:   SPUD DATE
LATI.                                       58 19 42.92 N:   SURF. LATITUDE
LONG.                                        1 46 20.61 E:   SURF. LONGITUDE
BTD1.                                             484.0 M:   TOTAL DEPTH 1
BTD2.                                            1179.0 M:   TOTAL DEPTH 2
BTD3.                                           2718.50 M:   TOTAL DEPTH 3
PBWE.                                             15/9-10:   PB WELL ID
APIN.                                             15/9-10:   PB WELLBORE ID
PBWS.                                                 all:   PB WELL NAME SET
~PARAMETER INFORMATION (log)
LNAM.                              FDC/CNL/GR  COMPOSITED:   NAME
LTYP.                                         DEPTH MATCH:   LOG TYPE
LSRV.                                            DEN/NEUT:   LOG SERVICE
LSOU.                                             SPT/NPD:   LOG SOURCE
LVSN.                                                   1:   LOG VERSION
BHIS.                                                   R:   BRIEF HISTORY
FHIS.                                             RAW-LIS:   FULL HISTORY
LCNM.                                        SCHLUMBERGER:   LOGGING CONTRACTOR
TOOL.                             FDC/CNL/GR (COMPOSITED):   TOOL STRING
~Curve Information Block
#MNEM.UNIT                                        API CODE    No Description
#=========                                        ========    == ===========
DEPT.M                                       00 001 00 00:     1  DEPTH
CALI.IN                                                  :     2  Caliper
CS.                                                      :     3  Cable Speed
DRHO.G/CC                                                :     4  Bulk density correction
GR.GAPI                                                  :     5  Gamma Ray
NPHI.%                                                   :     6  Neutron porosity
RHOB.G/CC                                                :     7  Bulk density
TENS.LB                                                  :     8  Cable Tension
~ASCII
# ...
 2709.7208    12.0306  2031.0000      .0280    12.7951     8.9675     2.5793  2892.3359
 2709.8732    12.2591  2031.0000      .0040    14.5371     8.9355     2.5728  2917.8330
 2710.0256    12.3099  2030.0833      .0136    16.0911     8.0839     2.5741  2956.6665
 2710.1780    12.3913  2030.0000      .0643    15.6960     5.7666     2.6136  2987.5000
 2710.3304    12.1549  2028.1633      .1073    14.6800     3.1900     2.6297  2953.2690
 2710.4828    12.1686  2027.0833      .0612    12.9177     4.8614     2.6165  2940.8320
 2710.6352    12.2116  2027.9165      .0271    11.6055     7.8084     2.5776  2903.3330
 2710.7876    12.3177  2028.0000      .0173    11.5430    10.2530     2.5653  2912.8330
 2710.9400    12.2707  2029.8364      .0332    12.0562    10.3147     2.5501  2956.2402
 2711.0924    12.3372  2031.8335      .0327    13.3263    10.6614     2.5524  2950.8320
 2711.2448    12.2005  2032.0000      .0450    13.2227    12.8001     2.5348  2904.1665
 2711.3972    12.1875  2032.0000      .0620    12.9883    15.1399     2.5529  2890.8330
 2711.5496    12.1875  2031.0818      .0433    12.9472    15.7804     2.5403  2908.3652
 2711.7020    12.2018  2030.0818      .0150    11.9553    14.0717     2.4350  2900.8174
 2711.8544    12.3321  2028.1663      .0015    11.8099    11.9883     2.4150  2885.3311
 2712.0068    13.7474  2027.0833      .0014    11.2962    11.5026     2.4087  2907.8330
 2712.1592    13.9967  2027.0000      .0091    13.8066    13.4469     2.4977  2932.0000
 2712.3116    13.9935  2027.9182      .0116    14.2830    18.6448     2.5130  2893.5962
 2712.4640    13.9993  2028.9167      .0077    14.8132    22.2300     2.5101  2807.4878
 2712.6164    14.0000  2029.9165     -.0021    13.4987    23.7649     2.5008  2757.8330
 2712.7688    14.0000  2030.0000     -.0025    14.1413    22.6667     2.4928  2869.5000
 2712.9212    13.9785  2029.0818     -.0029    13.7375    22.1999     2.5101  3348.3174
 2713.0736    13.9193  2028.0833      .0011    14.3757    21.7197     2.5063  3329.4912
 2713.2260    13.6849  2028.0000      .0127    14.3730    21.5900     2.5184  3265.3330
 2713.3784    13.3776  2026.1665      .0016    15.5345    20.8200     2.4927  3199.5000
 2713.5308    13.9972  2025.0818     -.0040    14.4426    20.1682     2.5010  3120.5386
 2713.6832    13.4592  2025.0000     -.0111    14.3431    19.3549     2.5002  3077.2690
 2713.8356    13.4349  2025.9167     -.0077    14.5873    18.7043     2.5179  2978.6528
 2713.9880    13.6738  2027.8333      .0151    15.8268    18.7868     2.5231  2970.0000
 2714.1404    13.3587  2029.8333      .0162    13.3665    18.1713     2.5342  2951.6665
 2714.2928    14.2320  2030.9182      .0116    11.7482    18.4291     2.5208  2913.2690
 2714.4452    13.3527  2031.0000      .0041    11.1738    18.2329     2.5321  2900.8320
 2714.5976    13.2656  2031.9165      .0016    12.2930    19.3335     2.5278  2900.0000
 2714.7500    13.4303  2031.0833      .0261    12.3483    18.7612     2.5399  2894.5000
 2714.9024    13.0794  2029.1633      .0225    11.5761    18.4770     2.5374  2949.0962
 2715.0548    13.0182  2029.0000      .0533    12.2026    17.9639     2.5622  2968.6685
 2715.2072    12.9225  2029.0000      .0548    12.9818    17.4717     2.5698  2951.6665
 2715.3596    13.1361  2030.8333      .0632    13.0612    18.1488     2.5273  2926.1665
 2715.5120    13.1634  2031.9182      .0214    12.8545    17.4046     2.4678  2929.5093
 2715.6644    12.8484  2032.9182      .0279    12.8575    18.2307     2.4521  2887.7593
 2715.8168    13.0996  2033.0000      .0145    11.7134    17.4588     2.4351  2935.3408
 2715.9692    13.4186  2033.0000      .0172    11.6237    17.1139     2.4354  2930.8330
 2716.1216    14.4336  2032.0833      .0162    11.3672    17.0898     2.4427  2948.3330
 2716.2740    12.5649  2032.0000      .0269    12.7068    16.5966     2.4810  2931.6343
 2716.4264    12.6843  2029.2495      .0493    12.0832    15.2526     2.4593  2893.3276
 2716.5788    12.5104  2028.0833      .0056    11.7721    14.7333     2.3872  2893.6665
 2716.7312    12.6927  2026.1665     -.0079    12.2441    15.1903     2.3701  2936.1665
 2716.8836    12.4240  2027.8364     -.0191    12.7769    14.9205     2.4355  2916.1250
 2717.0360    12.5706  2028.9182     -.0084    14.2838    13.2336     2.4827  2937.8750
 2717.1884    12.5215  2029.9167     -.0069    13.9700    13.2204     2.5186  2976.6719
 2717.3408    12.4941  2030.0000     -.0118    14.4453    13.8600     2.5233  2943.3330
 2717.4932    12.5281  2030.9182     -.0162    13.0861    13.3772     2.5593  2912.4517
 2717.6456    12.5026  2031.0000     -.0067    13.3986    12.6575     2.5643  2910.0000
 2717.7980    12.7077  2031.0000      .0138    11.2673    12.3287     2.5448  2891.6641
 2717.9504    12.5762  2029.1665      .0192    11.4928    13.2012     2.4946  2908.3330
 2718.1028    12.5195  2029.0000      .0074    10.8151    13.5502     2.4813  2910.0000
 2718.2552    12.4869  2029.0000     -.0049    12.6368    13.2604     2.5002  2922.8555
 2718.4076    12.7995  2030.8335      .0192    11.1645    11.7978     2.5754  2951.5039
 2718.5600    12.4987  2031.9165      .0237    10.0918    10.3252     2.5802  2904.5000
 2718.7124    12.7194  2033.8333      .0239    10.2441    10.3844     2.5461  2912.8330
 2718.8648    12.9574  2035.8364      .0248    11.2413    10.5349     2.4694  2891.9614
 2719.0172    12.7470  2036.0000      .0200    12.0455    10.9504     2.3517  2926.7305
 2719.1696    12.8268  2035.0833      .0173    12.3386     9.9552     2.2326  2948.3359
 2719.3220    13.8529  2033.1665     -.0129    11.8581    10.0874     2.1510  2931.6665
 2719.4744    14.3542  2030.2451     -.0309    12.5012    13.5201     2.1840  2911.6343
 2719.6268    12.8052  2028.1633     -.0412    11.8451    16.1051     2.3148  2864.0864
 2719.7792    12.9506  2027.0833     -.0196    12.2540    14.4257     2.5124  2882.0029
 2719.9316    12.6686  2027.0000     -.0028    13.9655     9.7305     2.5830  2957.3330
 2720.0840    12.7266  2027.9165      .0035    12.9642     6.7263     2.5646  3006.1665
 2720.2364    12.7415  2029.8364      .0079    13.3472     7.3012     2.5464  2967.7593
 2720.3888    12.9356  2031.8335      .0213    10.8121     8.5387     2.5378  2941.9966
 2720.5412    12.8027  2032.9165      .0166    11.7884    10.4356     2.5425  2949.1665
 2720.6936    12.8177  2033.0000      .0121    11.4258    10.7750     2.5555  2904.1665
 2720.8460    12.7629  2032.0818     -.0004    11.5837    10.0736     2.5817  2900.0000
 2720.9984    12.6574  2030.1633     -.0001    11.7881     8.9337     2.6234  2918.3652
 2721.1508    12.7774  2029.0833      .0085    11.7689     7.8964     2.6216  2932.8350
 2721.3032    12.5384  2029.0000      .0155    13.6276     8.7090     2.5817  2893.6665
 2721.4556    12.4295  2029.9182      .0134    13.1010    10.9444     2.5530  2893.6729
 2721.6080    12.3430  2030.0000      .0096    13.0606    12.7918     2.5615  2908.6924
 2721.7604    12.4434  2031.8335      .0052    11.6801    13.4326     2.5983  2913.6670
 2721.9128    12.3529  2032.9165      .0134    12.7865    12.2663     2.6177  2904.8330
 2722.0652    12.3294  2033.0000      .0092    12.9199    12.2479     2.5762  2904.0000
 2722.2176    12.2205  2033.0000      .0119    13.3810    12.4800     2.5615  2904.0000
 2722.3700    12.0172  2032.0818      .0059    11.9440    12.5000     2.5588  2940.7305
 2722.5224    11.3124  2029.2495      .0027    11.5475    11.5137     2.5872  2967.8369
 2722.6748    10.7773  2027.1665     -.0061    11.0436     9.5880     2.6060  2937.0000
 2722.8272    10.6196  2027.0000     -.0059    11.9470     8.0339     2.5985  2902.7788
 2722.9796    10.7170  2027.9182      .0013    12.5191     6.7892     2.6012  2894.4902
 2723.1320    10.5045  2029.8335      .0087    11.8749     6.4653     2.5980  2912.3359
 2723.2844    10.7064  2030.9165      .0138    11.6191     5.9522     2.6156  2914.0000
 2723.4368    10.4473  2031.9165      .0168    11.6374     5.7737     2.6136  2932.3330
