~VERSION INFORMATION
VERS.                                                 2.0:   CWLS Log ASCII Standard-VERSION 2.0
WRAP.                                                  NO:   One line per depth step
~Well Information Block
STRT.M                                           449.1716:   Top Depth
STOP.M                                          3296.7656:   Bottom Depth
STEP.M                                             .15240:   Depth Increment
NULL.                                            -999.250:   Null Value
FLD .                                             WILDCAT:   Field Name
WELL.                                             15/9-10:   NAME
WBN .                                             15/9-10:   WELLBORE
NATI.                                                 NOR:   COUNTRY
BHT1.DEGF                                            85.0:   BH TEMP 1
BHT2.DEGF                                           105.0:   BH TEMP 2
BHT3.DEGF                                           144.0:   BH TEMP 3
BS1 .IN                                            12.250:   BIT SIZE 1
CTRY.                                                 NOR:   COUNTRY
CBD1.M                                              172.0:   CSG 1 DRILL DEP
CBL1.M                                              172.0:   CSG 1 LOG DEP
CS1 .IN                                              30.0:   CSG 1 SIZE
COMP.                                             STATOIL:   OPERATOR
PDAT.                                                 MSL:   PERM DATUM
PROV.                                           NORTH SEA:   PROVINCE
COUN.                                    NEPTUNO NORDRAUG:   RIG NAME
SPUD.                                          1981/09/15:   SPUD DATE
LATI.                                       58 19 42.92 N:   SURF. LATITUDE
LONG.                                        1 46 20.61 E:   SURF. LONGITUDE
BTD1.                                             484.0 M:   TOTAL DEPTH 1
BTD2.                                            1179.0 M:   TOTAL DEPTH 2
BTD3.                                           2718.50 M:   TOTAL DEPTH 3
PBWE.                                             15/9-10:   PB WELL ID
APIN.                                             15/9-10:   PB WELLBORE ID
PBWS.                                                 all:   PB WELL NAME SET
~PARAMETER INFORMATION (log)
LNAM.                              FDC/CNL/GR  COMPOSITED:   NAME
LTYP.                                         DEPTH MATCH:   LOG TYPE
LSRV.                                            DEN/NEUT:   LOG SERVICE
LSOU.                                             SPT/NPD:   LOG SOURCE
LVSN.                                                   1:   LOG VERSION
BHIS.                                                   R:   BRIEF HISTORY
FHIS.                                             RAW-LIS:   FULL HISTORY
LCNM.                                        SCHLUMBERGER:   LOGGING CONTRACTOR
TOOL.                             FDC/CNL/GR (COMPOSITED):   TOOL STRING
~Curve Information Block
#MNEM.UNIT                                        API CODE    No Description
#=========                                        ========    == ===========
DEPT.M                                       00 001 00 00:     1  DEPTH
CALI.IN                                                  :     2  Caliper
CS.                                                      :     3  Cable Speed
DRHO.G/CC                                                :     4  Bulk density correction
GR.GAPI                                                  :     5  Gamma Ray
NPHI.%                                                   :     6  Neutron porosity
RHOB.G/CC                                                :     7  Bulk density
TENS.LB                                                  :     8  Cable Tension
~ASCII
# ...
 1017.7760    20.7031  2014.0000      .0376    28.9844  -999.2500     2.1035  1480.0000
 1017.9284    20.0469  2015.0000      .0352    31.6719  -999.2500     2.1016  1460.0000
 1018.0808    19.8750  2016.0000      .0059    29.8594  -999.2500     2.0605  1455.0000
 1018.2332    19.3750  2018.0000     -.0078    28.5781  -999.2500     2.0430  1450.0000
 1018.3856    18.5625  2019.0000     -.0083    29.1719  -999.2500     2.0488  1450.0000
 1018.5380    18.0938  2020.0000     -.0063    28.6875  -999.2500     2.0645  1465.0000
 1018.6904    18.0938  2022.0000     -.0054    27.3594  -999.2500     2.0742  1445.0000
 1018.8428    18.0781  2022.0000      .0039    24.5781  -999.2500     2.0723  1435.0000
 1018.9952    18.0625  2021.0000      .0293    24.4531  -999.2500     2.0566  1455.0000
 1019.1476    18.1563  2018.0000      .1035    25.1719  -999.2500     2.0742  1435.0000
 1019.3000    18.4531  2016.0000      .1592    27.8125  -999.2500     2.0527  1430.0000
 1019.4524    18.6719  2016.0000      .1372    29.9531  -999.2500     1.9814  1435.0000
 1019.6048    18.5938  2017.0000      .0493    29.7344  -999.2500     1.9131  1430.0000
 1019.7572    18.4219  2018.0000     -.0112    27.9063  -999.2500     1.9355  1450.0000
 1019.9096    18.2188  2019.0000     -.0156    26.9375  -999.2500     2.0371  1450.0000
 1020.0620    18.1563  2021.0000      .0171    28.6719  -999.2500     2.1074  1450.0000
 1020.2144    18.0938  2022.0000      .0435    29.5469  -999.2500     2.1211  1485.0000
 1020.3668    18.1563  2023.0000      .0430    29.5156  -999.2500     2.1094  1440.0000
 1020.5192    18.2969  2022.0000      .0068    28.7813  -999.2500     2.0742  1460.0000
 1020.6716    18.6250  2021.0000      .0103    29.4688  -999.2500     2.0898  1460.0000
 1020.8240    19.0781  2020.0000      .0122    28.0781  -999.2500     2.0684  1465.0000
 1020.9764    19.3594  2017.0000      .0830    27.8281  -999.2500     2.0918  1460.0000
 1021.1288    19.4844  2015.0000      .1338    26.7656  -999.2500     2.0742  1445.0000
 1021.2812    19.7188  2014.0000      .1265    28.9219  -999.2500     2.0234  1470.0000
 1021.4336    19.2813  2014.0000      .0312    29.5156  -999.2500     1.9395  1435.0000
 1021.5860    18.7969  2015.0000     -.0112    29.0781  -999.2500     1.9570  1490.0000
 1021.7384    18.7344  2016.0000     -.0083    28.8594  -999.2500     2.0430  1465.0000
 1021.8908    18.8125  2018.0000     -.0020    30.8438  -999.2500     2.0801  1435.0000
 1022.0432    18.9375  2020.0000      .0181    30.0781  -999.2500     2.0820  1500.0000
 1022.1956    19.1094  2020.0000      .0381    30.0313  -999.2500     2.0625  1440.0000
 1022.3480    19.4844  2020.0000      .0371    26.6719  -999.2500     2.0254  1450.0000
 1022.5004    20.4219  2019.0000      .0767    27.0938  -999.2500     2.0254  1450.0000
 1022.6528    21.4063  2018.0000      .1021    27.2969  -999.2500     1.9990  1450.0000
 1022.8052    22.0156  2016.0000      .1494    29.3906  -999.2500     1.9561  1450.0000
 1022.9576    22.2500  2017.0000      .1025    30.7344  -999.2500     1.8428  1445.0000
 1023.1100    22.2500  2018.0000      .0620    31.3438  -999.2500     1.7930  1460.0000
 1023.2624    22.2500  2019.0000      .0474    31.4063  -999.2500     1.8359  1445.0000
 1023.4148    22.2188  2020.0000      .0640    28.5781  -999.2500     1.9365  1480.0000
 1023.5672    22.2500  2021.0000      .0620    28.6406  -999.2500     1.9678  1465.0000
 1023.7196    22.2500  2022.0000      .0825    25.4531  -999.2500     1.9561  1450.0000
 1023.8720    22.2500  2022.0000      .0732    26.7188  -999.2500     1.8779  1460.0000
 1024.0244    22.2500  2021.0000      .0732    25.2500  -999.2500     1.8613  1420.0000
 1024.1768    22.2500  2020.0000      .0293    27.0625  -999.2500     1.8770  1460.0000
 1024.3292    22.2188  2019.0000      .0146    25.4375  -999.2500     1.9697  1465.0000
 1024.4816    22.1250  2016.0000      .0176    25.1875  -999.2500     2.0371  1450.0000
 1024.6340    22.2500  2015.0000      .0352    24.1563  -999.2500     2.0352  1460.0000
 1024.7864    22.2500  2015.0000      .0557    23.9531  -999.2500     1.9668  1440.0000
 1024.9388    22.2500  2017.0000      .0781    23.4688  -999.2500     1.8457  1445.0000
 1025.0912    22.2500  2018.0000      .0869    22.1562  -999.2500     1.7275  1450.0000
 1025.2436    22.2500  2019.0000      .0854    24.3281  -999.2500     1.6514  1455.0000
 1025.3960    22.2500  2021.0000      .0645    22.5156  -999.2500     1.5967  1445.0000
 1025.5484    22.2500  2021.0000      .0454    24.6719  -999.2500     1.5693  1435.0000
 1025.7008    22.2500  2022.0000      .0352    24.3125  -999.2500     1.5781  1440.0000
 1025.8532    22.2500  2021.0000      .0361    26.3125  -999.2500     1.6475  1435.0000
 1026.0056    22.2500  2018.0000      .0464    22.7656  -999.2500     1.7646  1430.0000
 1026.1580    22.2500  2016.0000      .0527    21.1719  -999.2500     1.8857  1435.0000
 1026.3104    22.2500  2015.0000      .0732    19.0625  -999.2500     1.9639  1450.0000
 1026.4628    22.2500  2016.0000      .0903    21.2031  -999.2500     1.9775  1430.0000
 1026.6152    22.2500  2017.0000      .1040    22.8438  -999.2500     1.9434  1445.0000
 1026.7676    22.2500  2018.0000      .0898    24.2344  -999.2500     1.8613  1435.0000
 1026.9200    22.2500  2020.0000      .0820    24.6094  -999.2500     1.7646  1435.0000
 1027.0724    22.2500  2021.0000      .0684    22.7969  -999.2500     1.6641  1435.0000
 1027.2248    22.2500  2022.0000      .0791    21.4375  -999.2500     1.6104  1440.0000
 1027.3772    22.2500  2022.0000      .0669    19.9844  -999.2500     1.5654  1430.0000
 1027.5296    22.2656  2022.0000      .0693    22.2813  -999.2500     1.5586  1430.0000
 1027.6820    22.2500  2021.0000      .0483    24.4063  -999.2500     1.5342  1440.0000
 1027.8344    22.2500  2018.0000      .0513    26.5312  -999.2500     1.5557  1440.0000
 1027.9868    22.2500  2015.0000      .0493    26.5469  -999.2500     1.5879  1435.0000
 1028.1392    22.2500  2015.0000      .0430    27.6250  -999.2500     1.6436  1435.0000
 1028.2916    22.2500  2016.0000      .0400    27.6563  -999.2500     1.6953  1435.0000
 1028.4440    22.2500  2017.0000      .0317    30.6875  -999.2500     1.7324  1440.0000
 1028.5964    22.2500  2018.0000      .0405    34.7500  -999.2500     1.7539  1440.0000
 1028.7488    22.2500  2020.0000      .0415    39.7188  -999.2500     1.7393  1435.0000
 1028.9012    22.2500  2021.0000      .0537    42.1562  -999.2500     1.6963  1435.0000
 1029.0536    22.2500  2021.0000      .0591    43.9688  -999.2500     1.6689  1435.0000
 1029.2060    22.2500  2021.0000      .0342    47.1875  -999.2500     1.6455  1435.0000
 1029.3584    22.2500  2019.0000      .0166    47.5625  -999.2500     1.6855  1445.0000
 1029.5108    22.2500  2016.0000      .0049    46.6563  -999.2500     1.7500  1435.0000
 1029.6632    22.2500  2015.0000      .0049    41.0625  -999.2500     1.8447  1435.0000
 1029.8156    22.2500  2016.0000      .0059    35.9688  -999.2500     1.9355  1435.0000
 1029.9680    21.8906  2017.0000      .0122    30.4531  -999.2500     2.0137  1440.0000
 1030.1204    20.7969  2018.0000      .0112    28.1406  -999.2500     2.0488  1435.0000
 1030.2728    20.7031  2020.0000     -.0020    25.8281  -999.2500     2.0625  1435.0000
 1030.4252    20.6875  2021.0000     -.0059    27.3438  -999.2500     2.0742  1435.0000
 1030.5776    20.7344  2021.0000      .0010    27.6563  -999.2500     2.0820  1435.0000
 1030.7300    20.7656  2021.0000      .0220    28.6875  -999.2500     2.0898  1435.0000
 1030.8824    21.5781  2021.0000      .0488    26.1406  -999.2500     2.0918  1465.0000
 1031.0348    22.2500  2020.0000      .0869    26.3281  -999.2500     2.0352  1495.0000
 1031.1872    22.2500  2018.0000      .1069    27.0938  -999.2500     1.9209  1470.0000
 1031.3396    22.2500  2015.0000      .0972    26.8125  -999.2500     1.7871  1460.0000
 1031.4920    22.2500  2013.0000      .0674    25.2500  -999.2500     1.6738  1480.0000
