~VERSION INFORMATION
VERS.                                                 2.0:   CWLS Log ASCII Standard-VERSION 2.0
WRAP.                                                  NO:   One line per depth step
~Well Information Block
STRT.M                                           449.1716:   Top Depth
STOP.M                                          3296.7656:   Bottom Depth
STEP.M                                             .15240:   Depth Increment
NULL.                                            -999.250:   Null Value
FLD .                                             WILDCAT:   Field Name
WELL.                                             15/9-10:   NAME
WBN .                                             15/9-10:   WELLBORE
NATI.                                                 NOR:   COUNTRY
BHT1.DEGF                                            85.0:   BH TEMP 1
BHT2.DEGF                                           105.0:   BH TEMP 2
BHT3.DEGF                                           144.0:   BH TEMP 3
BS1 .IN                                            12.250:   BIT SIZE 1
CTRY.                                                 NOR:   COUNTRY
CBD1.M                                              172.0:   CSG 1 DRILL DEP
CBL1.M                                              172.0:   CSG 1 LOG DEP
CS1 .IN                                              30.0:   CSG 1 SIZE
COMP.                                             STATOIL:   OPERATOR
PDAT.                                                 MSL:   PERM DATUM
PROV.                                           NORTH SEA:   PROVINCE
COUN.                                    NEPTUNO NORDRAUG:   RIG NAME
SPUD.                                          1981/09/15:   SPUD DATE
LATI.                                       58 19 42.92 N:   SURF. LATITUDE
LONG.                                        1 46 20.61 E:   SURF. LONGITUDE
BTD1.                                             484.0 M:   TOTAL DEPTH 1
BTD2.                                            1179.0 M:   TOTAL DEPTH 2
BTD3.                                           2718.50 M:   TOTAL DEPTH 3
PBWE.                                             15/9-10:   PB WELL ID
APIN.                                             15/9-10:   PB WELLBORE ID
PBWS.                                                 all:   PB WELL NAME SET
~PARAMETER INFORMATION (log)
LNAM.                              FDC/CNL/GR  COMPOSITED:   NAME
LTYP.                                         DEPTH MATCH:   LOG TYPE
LSRV.                                            DEN/NEUT:   LOG SERVICE
LSOU.                                             SPT/NPD:   LOG SOURCE
LVSN.                                                   1:   LOG VERSION
BHIS.                                                   R:   BRIEF HISTORY
FHIS.                                             RAW-LIS:   FULL HISTORY
LCNM.                                        SCHLUMBERGER:   LOGGING CONTRACTOR
TOOL.                             FDC/CNL/GR (COMPOSITED):   TOOL STRING
~Curve Information Block
#MNEM.UNIT                                        API CODE    No Description
#=========                                        ========    == ===========
DEPT.M                                       00 001 00 00:     1  DEPTH
CALI.IN                                                  :     2  Caliper
CS.                                                      :     3  Cable Speed
DRHO.G/CC                                                :     4  Bulk density correction
GR.GAPI                                                  :     5  Gamma Ray
NPHI.%                                                   :     6  Neutron porosity
RHOB.G/CC                                                :     7  Bulk density
TENS.LB                                                  :     8  Cable Tension
~ASCII
# ...
 1586.3804    16.2539  2013.0000      .0034    68.5573  -999.2500     2.0627  2007.5020
 1586.5328    16.1927  2012.0833      .0084    66.2187  -999.2500     2.0716  1982.5000
 1586.6852    16.2161  2012.0000      .0079    60.6715  -999.2500     2.0615  1989.1672
 1586.8376    16.2331  2010.1665      .0145    54.2865  -999.2500     2.0498  1985.4165
 1586.9900    15.8190  2008.1665      .0295    53.1197  -999.2500     2.0614  1998.7510
 1587.1424    15.7884  2008.9165      .0290    57.3021  -999.2500     2.0661  2000.0000
 1587.2948    15.8177  2009.9167      .0328    60.9247  -999.2500     2.0789  1977.0815
 1587.4472    15.8919  2011.8333      .0171    61.1328  -999.2500     2.0747  1988.7500
 1587.5996    16.0776  2012.9175      .0161    61.4117  -999.2500     2.0742  1990.0000
 1587.7520    15.8932  2013.9167      .0130    62.6980  -999.2500     2.0778  1994.5835
 1587.9044    16.3620  2014.0000      .0082    68.0833  -999.2500     2.0745  1967.5000
 1588.0568    17.1941  2014.9167      .0096    63.9215  -999.2500     2.0814  1974.1672
 1588.2092    15.9408  2014.0833      .0044    65.3906  -999.2500     2.0749  1993.3333
 1588.3616    16.0853  2012.1665      .0106    62.2393  -999.2500     2.0778  2027.0857
 1588.5140    16.5247  2008.3333      .0063    63.1979  -999.2500     2.0692  1965.8333
 1588.6664    16.8633  2008.0000      .0063    63.2839  -999.2500     2.0666  1960.0000
 1588.8188    15.7448  2008.9165     -.0004    62.4505  -999.2500     2.0575  2042.5000
 1588.9712    16.0703  2010.8335      .0089    65.4117  -999.2500     2.0692  1976.6614
 1589.1236    16.5104  2011.9165     -.0001    68.8385  -999.2500     2.0632  1965.4165
 1589.2760    15.7662  2012.9167      .0039    71.5314  -999.2500     2.0715  2033.7549
 1589.4284    15.5378  2013.9165      .0013    68.4271  -999.2500     2.0705  1989.5833
 1589.5808    15.7600  2014.9175      .0140    59.4951  -999.2500     2.0775  1971.2380
 1589.7332    15.7884  2015.9167      .0156    57.4009  -999.2500     2.0853  1974.5835
 1589.8856    15.8249  2016.0000      .0134    59.4583  -999.2500     2.0841  1979.5833
 1590.0380    15.9212  2014.1665      .0109    60.6589  -999.2500     2.1019  2030.4202
 1590.1904    16.1374  2010.3333      .0125    56.2240  -999.2500     2.1214  2035.0000
 1590.3428    15.7122  2010.0000      .0140    50.5413  -999.2500     2.1535  1984.5796
 1590.4952    15.5716  2010.9165      .0083    46.7396  -999.2500     2.1473  1984.5833
 1590.6476    15.5124  2011.0000      .0136    46.7526  -999.2500     2.1375  1971.2490
 1590.8000    15.7370  2011.9165      .0115    53.1120  -999.2500     2.1117  1965.4165
 1590.9524    15.6719  2012.9167      .0112    57.5263  -999.2500     2.1004  1978.7510
 1591.1048    15.6927  2015.7500     -.0017    62.2005  -999.2500     2.0907  1989.1665
 1591.2572    15.7526  2016.9167     -.0020    57.4658  -999.2500     2.0863  1971.6653
 1591.4096    15.6576  2017.0000      .0034    58.6042  -999.2500     2.0859  1960.8333
 1591.5620    15.6914  2016.0825      .0124    60.5276  -999.2500     2.0824  2001.2859
 1591.7144    15.6810  2013.2498      .0181    68.4224  -999.2500     2.0820  1968.3306
 1591.8668    15.5651  2010.2500      .0212    69.4688  -999.2500     2.0856  1969.5833
 1592.0192    15.9056  2010.9167      .0273    67.4373  -999.2500     2.0806  1974.5835
 1592.1716    15.8014  2011.0000      .0238    62.5521  -999.2500     2.0729  1997.9165
 1592.3240    15.6888  2011.0000      .0185    62.5261  -999.2500     2.0597  1990.8325
 1592.4764    15.5651  2011.9165      .0055    65.0833  -999.2500     2.0461  1971.6665
 1592.6288    15.7624  2012.0000      .0066    66.8022  -999.2500     2.0449  1960.8325
 1592.7812    15.7884  2012.0000     -.0003    67.6823  -999.2500     2.0467  1992.0833
 1592.9336    15.6530  2012.9167      .0044    66.7760  -999.2500     2.0702  1995.0000
 1593.0860    16.1992  2011.1665     -.0005    67.5469  -999.2500     2.0758  1985.8333
 1593.2384    16.0924  2010.0833      .0151    69.1720  -999.2500     2.0941  1980.4163
 1593.3908    16.1927  2007.2500      .0175    68.6823  -999.2500     2.0903  2012.0833
 1593.5432    16.5615  2005.1650      .0135    67.7075  -999.2500     2.0916  1996.6506
 1593.6956    15.9850  2005.0000      .0195    65.5051  -999.2500     2.0990  1990.4163
 1593.8480    16.0371  2006.8333      .0227    68.8646  -999.2500     2.0978  1985.4165
 1594.0004    15.9609  2008.8350      .0386    70.2770  -999.2500     2.1174  1989.5872
 1594.1528    16.4401  2010.8335      .0297    65.9632  -999.2500     2.1084  2035.8367
 1594.3052    16.7998  2011.9175      .0243    64.4157  -999.2500     2.1074  2026.2380
 1594.4576    16.7995  2012.9167      .0136    64.5990  -999.2500     2.0895  1974.5796
 1594.6100    16.2808  2013.0000     -.0016    69.0403  -999.2500     2.0682  1988.3494
 1594.7624    16.8360  2012.0833     -.0052    66.5154  -999.2500     2.0682  1990.0000
 1594.9148    16.9193  2012.0000     -.0004    63.6696  -999.2500     2.0881  2026.6987
 1595.0672    16.6497  2009.2498      .0215    61.6613  -999.2500     2.1149  2002.4980
 1595.2196    16.5533  2008.0825      .0378    62.9622  -999.2500     2.1279  1977.0632
 1595.3720    16.6471  2008.9167      .0368    64.4402  -999.2500     2.1217  1993.3347
 1595.5244    17.0290  2010.8350      .0142    70.1246  -999.2500     2.0906  2013.3494
 1595.6768    17.0339  2011.9167      .0068    72.0574  -999.2500     2.0861  2001.2490
 1595.8292    16.9740  2013.8333      .0037    71.3854  -999.2500     2.0824  1990.8333
 1595.9816    17.2841  2014.9175      .0209    65.7504  -999.2500     2.1053  1994.5872
 1596.1340    17.4844  2015.9167      .0122    61.9841  -999.2500     2.0877  1990.4163
 1596.2864    17.8727  2016.9175      .0153    63.2931  -999.2500     2.0841  1990.0000
 1596.4388    17.4479  2017.0000      .0134    64.8126  -999.2500     2.0858  2003.7510
 1596.5912    17.2486  2017.0000      .0239    65.9123  -999.2500     2.1146  2000.4126
 1596.7436    17.1771  2014.2498      .0245    62.3904  -999.2500     2.1154  1995.4163
 1596.8960    16.9568  2011.2476      .0231    63.8114  -999.2500     2.0955  1972.0632
 1597.0484    17.5248  2011.0000      .0229    63.4244  -999.2500     2.0776  2002.0857
 1597.2008    18.6533  2011.9175      .0104    66.9302  -999.2500     2.0600  2009.5872
 1597.3532    17.0741  2013.8335      .0129    65.3592  -999.2500     2.0801  1927.4939
 1597.5056    17.5234  2015.8333      .0123    66.6771  -999.2500     2.0892  2002.5000
 1597.6580    18.2227  2017.8335      .0171    66.0104  -999.2500     2.0934  1996.2490
 1597.8104    17.3503  2018.9165      .0122    65.2500  -999.2500     2.0687  1999.5833
 1597.9628    16.8642  2019.9175      .0131    65.8183  -999.2500     2.0574  2018.3494
 1598.1152    17.9740  2020.0000      .0168    67.7085  -999.2500     2.0584  1974.1633
 1598.2676    16.8309  2020.0000      .0131    67.8177  -999.2500     2.0586  1988.3494
 1598.4200    16.4752  2017.2498     -.0021    66.7239  -999.2500     2.0532  2012.9182
 1598.5724    17.2846  2016.0825     -.0012    66.9117  -999.2500     2.0689  1973.7139
 1598.7248    17.6602  2015.0833     -.0019    69.5158  -999.2500     2.0811  1974.5835
 1598.8772    17.7448  2014.0825      .0231    69.9794  -999.2500     2.1071  2052.9849
 1599.0296    17.7500  2014.0000      .0138    65.6455  -999.2500     2.0915  1977.4939
 1599.1820    17.9650  2014.9175      .0149    63.9025  -999.2500     2.0970  1983.7620
 1599.3344    17.5690  2015.9167      .0120    61.3462  -999.2500     2.0905  1971.2490
 1599.4868    16.9297  2016.0000      .0234    65.5937  -999.2500     2.1024  2020.4165
 1599.6392    17.1472  2016.0000      .0293    66.1146  -999.2500     2.1017  1992.9143
 1599.7916    16.7565  2015.0833      .0119    68.5313  -999.2500     2.0783  2012.9165
 1599.9440    17.4355  2013.1650     -.0005    66.7430  -999.2500     2.0654  1987.4758
 1600.0964    17.4427  2010.2498      .0003    65.1301  -999.2500     2.0645  1998.7510
