~VERSION INFORMATION
VERS.                                                 2.0:   CWLS Log ASCII Standard-VERSION 2.0
WRAP.                                                  NO:   One line per depth step
~Well Information Block
STRT.M                                           449.1716:   Top Depth
STOP.M                                          3296.7656:   Bottom Depth
STEP.M                                             .15240:   Depth Increment
NULL.                                            -999.250:   Null Value
FLD .                                             WILDCAT:   Field Name
WELL.                                             15/9-10:   NAME
WBN .                                             15/9-10:   WELLBORE
NATI.                                                 NOR:   COUNTRY
BHT1.DEGF                                            85.0:   BH TEMP 1
BHT2.DEGF                                           105.0:   BH TEMP 2
BHT3.DEGF                                           144.0:   BH TEMP 3
BS1 .IN                                            12.250:   BIT SIZE 1
CTRY.                                                 NOR:   COUNTRY
CBD1.M                                              172.0:   CSG 1 DRILL DEP
CBL1.M                                              172.0:   CSG 1 LOG DEP
CS1 .IN                                              30.0:   CSG 1 SIZE
COMP.                                             STATOIL:   OPERATOR
PDAT.                                                 MSL:   PERM DATUM
PROV.                                           NORTH SEA:   PROVINCE
COUN.                                    NEPTUNO NORDRAUG:   RIG NAME
SPUD.                                          1981/09/15:   SPUD DATE
LATI.                                       58 19 42.92 N:   SURF. LATITUDE
LONG.                                        1 46 20.61 E:   SURF. LONGITUDE
BTD1.                                             484.0 M:   TOTAL DEPTH 1
BTD2.                                            1179.0 M:   TOTAL DEPTH 2
BTD3.                                           2718.50 M:   TOTAL DEPTH 3
PBWE.                                             15/9-10:   PB WELL ID
APIN.                                             15/9-10:   PB WELLBORE ID
PBWS.                                                 all:   PB WELL NAME SET
~PARAMETER INFORMATION (log)
LNAM.                              FDC/CNL/GR  COMPOSITED:   NAME
LTYP.                                         DEPTH MATCH:   LOG TYPE
LSRV.                                            DEN/NEUT:   LOG SERVICE
LSOU.                                             SPT/NPD:   LOG SOURCE
LVSN.                                                   1:   LOG VERSION
BHIS.                                                   R:   BRIEF HISTORY
FHIS.                                             RAW-LIS:   FULL HISTORY
LCNM.                                        SCHLUMBERGER:   LOGGING CONTRACTOR
TOOL.                             FDC/CNL/GR (COMPOSITED):   TOOL STRING
~Curve Information Block
#MNEM.UNIT                                        API CODE    No Description
#=========                                        ========    == ===========
DEPT.M                                       00 001 00 00:     1  DEPTH
CALI.IN                                                  :     2  Caliper
CS.                                                      :     3  Cable Speed
DRHO.G/CC                                                :     4  Bulk density correction
GR.GAPI                                                  :     5  Gamma Ray
NPHI.%                                                   :     6  Neutron porosity
RHOB.G/CC                                                :     7  Bulk density
TENS.LB                                                  :     8  Cable Tension
~ASCII
# ...
 1960.8272    12.4824  1962.2498     -.0061    66.9896  -999.2500     2.0653  2342.8311
 1960.9796    12.3690  1962.9175      .0008    66.7184  -999.2500     2.0913  2321.6504
 1961.1320    12.1302  1963.9167      .0046    62.6195  -999.2500     2.0991  2329.1670
 1961.2844    12.1523  1964.9165      .0138    61.3047  -999.2500     2.1139  2366.6665
 1961.4368    12.2923  1966.8335      .0151    61.1042  -999.2500     2.0991  2346.1650
 1961.5892    12.3190  1968.8333      .0107    67.6536  -999.2500     2.0726  2325.6665
 1961.7416    12.0983  1969.9167      .0062    69.2813  -999.2500     2.0399  2320.3330
 1961.8940    12.1283  1970.0000      .0000    71.2083  -999.2500     2.0085  2314.5000
 1962.0464    12.1400  1969.0833      .0138    68.1091  -999.2500     2.0166  2328.6675
 1962.1988    12.0547  1967.1665      .0048    66.0365  -999.2500     2.0050  2330.0000
 1962.3512    12.3192  1963.3301     -.0015    65.0149  -999.2500     2.0075  2311.6504
 1962.5036    12.5085  1963.0000     -.0114    66.3699  -999.2500     1.9998  2328.3345
 1962.6560    12.9678  1962.0825     -.0041    67.0734  -999.2500     2.0107  2339.1743
 1962.8084    13.0867  1963.8350      .0064    66.2649  -999.2500     2.0117  2376.6987
 1962.9608    12.4199  1964.0000      .0024    66.7610  -999.2500     2.0117  2392.8452
 1963.1132    12.2590  1965.8350     -.0061    64.6335  -999.2500     2.0081  2417.8540
 1963.2656    12.3359  1967.8335     -.0059    65.9845  -999.2500     2.0239  2355.8286
 1963.4180    12.6878  1968.9175     -.0068    64.9208  -999.2500     2.0236  2340.8252
 1963.5704    13.0124  1969.0000      .0039    65.6719  -999.2500     2.0306  2340.0000
 1963.7228    13.0319  1969.0000     -.0000    65.1766  -999.2500     2.0223  2334.4951
 1963.8752    12.6445  1967.1665      .0156    66.2709  -999.2500     2.0340  2361.5020
 1964.0276    12.6739  1964.2476      .0256    68.2099  -999.2500     2.0369  2397.0288
 1964.1800    12.4290  1964.9167      .0367    68.0312  -999.2500     2.0317  2363.3306
 1964.3324    12.1769  1965.9175      .0286    68.9175  -999.2500     2.0205  2336.1455
 1964.4848    12.2207  1966.9167      .0068    67.6822  -999.2500     2.0124  2330.3330
 1964.6372    12.3126  1967.9175     -.0014    68.0212  -999.2500     2.0243  2330.0000
 1964.7896    12.4278  1968.9175     -.0020    67.0303  -999.2500     2.0343  2333.6699
 1964.9420    12.2655  1969.9175      .0021    66.9948  -999.2500     2.0423  2357.8560
 1965.0944    12.4077  1970.0000      .0038    67.2294  -999.2500     2.0466  2369.1743
 1965.2468    12.8588  1968.1665      .0012    70.1721  -999.2500     2.0451  2370.0000
 1965.3992    12.6189  1967.0825      .0041    69.6920  -999.2500     2.0378  2370.0000
 1965.5516    12.9160  1963.3330      .0008    70.4844  -999.2500     2.0282  2333.3306
 1965.7040    12.2644  1962.0825      .0063    68.9569  -999.2500     2.0291  2320.8252
 1965.8564    12.3464  1962.0000     -.0012    70.4741  -999.2500     2.0186  2347.5020
 1966.0088    12.5099  1962.0000     -.0033    70.1089  -999.2500     2.0104  2350.0000
 1966.1612    12.5234  1963.8335     -.0043    66.1664  -999.2500     2.0098  2331.6650
 1966.3136    12.5736  1964.9175     -.0048    62.6014  -999.2500     2.0098  2357.5239
 1966.4660    12.3346  1967.7502      .0090    63.4011  -999.2500     2.0295  2341.6650
 1966.6184    12.3913  1969.8350      .0004    66.7685  -999.2500     2.0223  2312.4761
 1966.7708    12.1834  1970.9175     -.0027    67.6359  -999.2500     2.0394  2313.6699
 1966.9232    12.0565  1969.1648     -.0079    61.1214  -999.2500     2.0589  2365.3818
 1967.0756    12.0827  1968.0825     -.0056    57.1481  -999.2500     2.0928  2364.4951
 1967.2280    12.0859  1965.2498     -.0013    58.5913  -999.2500     2.1047  2332.8311
 1967.3804    12.1003  1964.0825     -.0028    63.3373  -999.2500     2.0947  2339.1743
 1967.5328    12.1589  1966.7502     -.0043    64.5521  -999.2500     2.0776  2340.0000
 1967.6852    12.3863  1968.8350     -.0048    61.1845  -999.2500     2.0600  2330.8252
 1967.8376    12.8431  1969.9167     -.0049    64.1409  -999.2500     2.0532  2333.6670
 1967.9900    13.0262  1971.8350      .0050    65.4123  -999.2500     2.0635  2343.1743
 1968.1424    12.6452  1973.8335      .0027    67.4481  -999.2500     2.0555  2325.6650
 1968.2948    12.8172  1974.9175      .0033    61.5754  -999.2500     2.0493  2320.3301
 1968.4472    12.5423  1974.0833      .0083    60.8880  -999.2500     2.0452  2338.3345
 1968.5996    12.5945  1971.2476      .0303    60.2156  -999.2500     2.0664  2367.5239
 1968.7520    12.4510  1967.3301      .0466    64.6576  -999.2500     2.0809  2370.0000
 1968.9044    12.3013  1963.3298      .0420    63.5428  -999.2500     2.0910  2318.6182
 1969.0568    12.2819  1963.0000      .0191    65.4419  -999.2500     2.0757  2319.5049
 1969.2092    12.3385  1963.0000      .0122    60.8981  -999.2500     2.0760  2387.8384
 1969.3616    12.2291  1963.0000      .0041    62.6191  -999.2500     2.0618  2353.6313
 1969.5140    12.1185  1963.0000      .0066    61.3801  -999.2500     2.0785  2331.6650
 1969.6664    12.1094  1963.9175     -.0196    60.8486  -999.2500     2.1535  2330.0000
 1969.8188    12.1380  1964.9167     -.0153    53.1349  -999.2500     2.3249  2379.5034
 1969.9712    12.1980  1966.8350      .0552    45.4131  -999.2500     2.5961  2361.9805
 1970.1236    12.2461  1967.0000      .0785    43.0337  -999.2500     2.4831  2323.3306
 1970.2760    12.3575  1965.1650      .0514    49.6987  -999.2500     2.2987  2320.0000
 1970.4284    12.2025  1963.1665     -.0013    53.5211  -999.2500     2.1489  2375.0039
 1970.5808    11.9868  1961.1650      .0035    56.2495  -999.2500     2.1439  2337.7964
 1970.7332    11.8899  1962.8350      .0053    53.2863  -999.2500     2.1553  2339.5049
 1970.8856    11.8828  1965.7502      .0251    55.1486  -999.2500     2.1742  2376.6694
 1971.0380    12.0620  1967.8350      .0098    57.6661  -999.2500     2.1614  2352.4761
 1971.1904    12.0208  1969.8350      .0204    60.4554  -999.2500     2.1727  2350.0000
 1971.3428    12.1877  1970.9175      .0107    60.5441  -999.2500     2.1720  2368.3506
 1971.4952    12.3106  1971.9175      .0004    59.8145  -999.2500     2.1540  2324.1265
 1971.6476    12.3920  1971.0825     -.0036    60.8969  -999.2500     2.1308  2356.7012
 1971.8000    12.4773  1970.0825      .0055    61.2580  -999.2500     2.1182  2360.0000
 1971.9524    12.4844  1968.1648      .0158    61.9981  -999.2500     2.1064  2308.6182
 1972.1048    12.4844  1964.3301      .0063    60.9443  -999.2500     2.0858  2364.5527
 1972.2572    12.4629  1963.0825     -.0018    63.7971  -999.2500     2.0643  2379.1753
 1972.4096    12.4609  1963.9175     -.0033    61.8548  -999.2500     2.0643  2374.4951
 1972.5620    12.4108  1964.0000      .0163    62.4304  -999.2500     2.0895  2370.3296
 1972.7144    12.2414  1964.9175      .0360    61.2098  -999.2500     2.1223  2388.3491
 1972.8668    12.1621  1965.9167      .0322    67.5968  -999.2500     2.1178  2399.1670
 1973.0192    12.2638  1966.0000      .0120    68.8183  -999.2500     2.0975  2354.1265
 1973.1716    12.3021  1966.9175     -.0050    70.9966  -999.2500     2.0814  2350.0000
 1973.3240    12.1542  1966.0825     -.0010    65.4529  -999.2500     2.0944  2340.8247
 1973.4764    12.1120  1966.0000     -.0009    64.3641  -999.2500     2.0939  2340.0000
 1973.6288    12.4821  1964.1648      .0156    65.5168  -999.2500     2.1135  2358.3506
 1973.7812    12.3723  1961.2476      .0180    67.4026  -999.2500     2.1099  2400.3687
 1973.9336    12.3450  1962.8350      .0221    70.1431  -999.2500     2.1112  2367.2983
 1974.0860    12.2864  1963.9175      .0054    66.1890  -999.2500     2.0791  2327.3013
 1974.2384    12.4748  1965.8350      .0079    68.6798  -999.2500     2.0780  2360.7012
 1974.3908    12.4062  1966.9175      .0119    66.5865  -999.2500     2.0871  2391.5239
 1974.5432    12.5346  1967.9175      .0104    68.7262  -999.2500     2.1022  2353.6284
