~VERSION INFORMATION
VERS.                                                 2.0:   CWLS Log ASCII Standard-VERSION 2.0
WRAP.                                                  NO:   One line per depth step
~Well Information Block
STRT.M                                           449.1716:   Top Depth
STOP.M                                          3296.7656:   Bottom Depth
STEP.M                                             .15240:   Depth Increment
NULL.                                            -999.250:   Null Value
FLD .                                             WILDCAT:   Field Name
WELL.                                             15/9-10:   NAME
WBN .                                             15/9-10:   WELLBORE
NATI.                                                 NOR:   COUNTRY
BHT1.DEGF                                            85.0:   BH TEMP 1
BHT2.DEGF                                           105.0:   BH TEMP 2
BHT3.DEGF                                           144.0:   BH TEMP 3
BS1 .IN                                            12.250:   BIT SIZE 1
CTRY.                                                 NOR:   COUNTRY
CBD1.M                                              172.0:   CSG 1 DRILL DEP
CBL1.M                                              172.0:   CSG 1 LOG DEP
CS1 .IN                                              30.0:   CSG 1 SIZE
COMP.                                             STATOIL:   OPERATOR
PDAT.                                                 MSL:   PERM DATUM
PROV.                                           NORTH SEA:   PROVINCE
COUN.                                    NEPTUNO NORDRAUG:   RIG NAME
SPUD.                                          1981/09/15:   SPUD DATE
LATI.                                       58 19 42.92 N:   SURF. LATITUDE
LONG.                                        1 46 20.61 E:   SURF. LONGITUDE
BTD1.                                             484.0 M:   TOTAL DEPTH 1
BTD2.                                            1179.0 M:   TOTAL DEPTH 2
BTD3.                                           2718.50 M:   TOTAL DEPTH 3
PBWE.                                             15/9-10:   PB WELL ID
APIN.                                             15/9-10:   PB WELLBORE ID
PBWS.                                                 all:   PB WELL NAME SET
~PARAMETER INFORMATION (log)
LNAM.                              FDC/CNL/GR  COMPOSITED:   NAME
LTYP.                                         DEPTH MATCH:   LOG TYPE
LSRV.                                            DEN/NEUT:   LOG SERVICE
LSOU.                                             SPT/NPD:   LOG SOURCE
LVSN.                                                   1:   LOG VERSION
BHIS.                                                   R:   BRIEF HISTORY
FHIS.                                             RAW-LIS:   FULL HISTORY
LCNM.                                        SCHLUMBERGER:   LOGGING CONTRACTOR
TOOL.                             FDC/CNL/GR (COMPOSITED):   TOOL STRING
~Curve Information Block
#MNEM.UNIT                                        API CODE    No Description
#=========                                        ========    == ===========
DEPT.M                                       00 001 00 00:     1  DEPTH
CALI.IN                                                  :     2  Caliper
CS.                                                      :     3  Cable Speed
DRHO.G/CC                                                :     4  Bulk density correction
GR.GAPI                                                  :     5  Gamma Ray
NPHI.%                                                   :     6  Neutron porosity
RHOB.G/CC                                                :     7  Bulk density
TENS.LB                                                  :     8  Cable Tension
~ASCII
# ...
 3084.1676     8.4894  2020.6404     -.0228    29.7853    18.2056     2.5115  3146.4053
 3084.3200     8.5902  2020.3398     -.0190    25.9245    14.5765     2.6416  3139.4380
 3084.4724     8.6247  2018.6404      .0222    24.3420    14.8528     2.7385  3167.9868
 3084.6248     8.4477  2016.6003      .0445    26.6432    17.0275     2.6436  3190.9980
 3084.7772     8.3806  2016.0000      .0220    32.8818    19.1133     2.4856  3179.6206
 3084.9296     8.3944  2015.2615      .0021    39.9146    21.4428     2.3986  3181.3857
 3085.0820     8.4991  2015.0000     -.0078    45.7153    24.8070     2.3976  3188.5488
 3085.2344     8.6467  2015.0000     -.0082    51.5694    28.0360     2.4464  3177.5557
 3085.3868     8.6797  2015.7976     -.0125    55.8664    30.8879     2.4808  3166.0229
 3085.5392     8.6222  2016.8169     -.0093    56.6761    34.6743     2.4879  3185.2417
 3085.6916     8.4917  2017.8364      .0027    55.9555    38.0131     2.4409  3181.6338
 3085.8440     8.4286  2017.1438      .0061    58.1938    39.4864     2.3714  3222.8105
 3085.9964     8.4013  2015.2478      .0128    64.9175    39.7765     2.3545  3203.7192
 3086.1488     8.3984  2015.0000      .0106    70.1777    39.4453     2.3430  3244.7710
 3086.3012     8.3984  2015.9150      .0094    75.8917    41.4143     2.3096  3176.7974
 3086.4536     8.3984  2016.0000      .0155    74.6780    41.4249     2.2607  3188.1011
 3086.6060     8.4473  2016.8926     -.0057    74.2211    42.6679     2.2576  3193.5703
 3086.7584     8.4325  2017.8796     -.0092    68.0843    42.1782     2.3386  3225.6709
 3086.9108     8.4229  2018.8669     -.0101    63.5107    41.7090     2.4377  3216.1265
 3087.0632     8.5153  2019.8542      .0056    60.3742    38.3563     2.4812  3231.0884
 3087.2156     8.3732  2020.0000      .0034    55.8274    34.0890     2.4682  3180.0410
 3087.3680     8.3308  2018.3379      .0102    53.8161    30.6043     2.4648  3181.6333
 3087.5204     8.3281  2016.3638      .0125    48.0919    29.2709     2.4585  3213.4492
 3087.6728     8.3092  2015.1946      .0162    42.3447    27.9620     2.4397  3223.2212
 3087.8252     8.2985  2015.0000      .0159    37.0882    26.2933     2.4061  3247.7817
 3087.9776     8.2969  2015.0000      .0175    34.9269    30.3008     2.2292  3282.0947
 3088.1300     8.3029  2016.5347      .0068    37.4788    38.6555     1.9148  3243.9556
 3088.2824     8.3342  2017.0000      .0056    38.9570    48.1464     1.6534  3199.8101
 3088.4348     8.3785  2018.4841     -.0042    37.0227    52.6726     1.4860  3148.4429
 3088.5872     8.3963  2019.0000     -.0114    40.4551    53.3113     1.4119  3145.6777
 3088.7396     8.3928  2017.5642     -.0187    49.0669    53.2365     1.3893  3157.1792
 3088.8920     8.4127  2016.2942     -.0207    60.9957    54.2206     1.3926  3152.9429
 3089.0444     8.4002  2015.3069     -.0459    67.6280    54.6049     1.4314  3184.6519
 3089.1968     8.3906  2015.6804     -.0744    67.8970    54.7557     1.5576  3213.6074
 3089.3492     8.3958  2016.0000     -.0861    68.2310    51.2209     1.8456  3222.6729
 3089.5016     8.3984  2017.3101     -.0450    64.7970    44.4008     2.2124  3201.7275
 3089.6540     8.3984  2018.6423     -.0099    63.8051    36.1433     2.4002  3170.7275
 3089.8064     8.3984  2019.6296     -.0002    64.8080    30.0001     2.4341  3156.2212
 3089.9588     8.3984  2020.6177      .0057    68.1124    29.1552     2.4404  3184.8848
 3090.1112     8.3984  2021.0000     -.0026    70.0000    31.1794     2.4257  3207.6265
 3090.2636     8.4123  2020.4082     -.0034    69.7041    33.5128     2.4106  3224.2026
 3090.4160     8.4264  2018.2598     -.0081    69.0650    34.0766     2.4071  3237.4800
 3090.5684     8.4252  2016.4304     -.0238    67.3259    34.1775     2.4318  3242.2783
 3090.7208     8.4219  2015.4438     -.0297    64.6860    35.3122     2.5109  3221.7568
 3090.8732     8.4261  2015.0000     -.0201    63.6241    36.8056     2.5936  3212.6836
 3091.0256     8.4421  2015.0000     -.0008    63.3506    36.6225     2.6086  3211.5190
 3091.1780     8.4410  2015.5173      .0019    61.7561    34.6056     2.5543  3191.5820
 3091.3304     8.4455  2016.5054     -.0051    60.2775    31.1344     2.4870  3205.2764
 3091.4828     8.4456  2017.4919     -.0006    59.9836    27.5882     2.4523  3220.1582
 3091.6352     8.4110  2018.4792      .0030    60.1361    24.9161     2.4369  3214.7939
 3091.7876     8.3943  2018.0664      .0008    59.3602    23.3012     2.4314  3210.6646
 3091.9400     8.3984  2016.5442     -.0005    58.9134    23.3438     2.4418  3195.4429
 3092.0924     8.3950  2016.0000     -.0011    60.3691    23.7995     2.4475  3191.7720
 3092.2448     8.3940  2016.0000      .0012    59.4339    23.9466     2.4588  3205.1899
 3092.3972     8.3984  2016.4177     -.0010    56.7888    23.4540     2.4880  3220.0000
 3092.5496     8.3953  2017.4065     -.0159    53.9818    22.9387     2.5349  3221.6265
 3092.7020     8.3937  2018.3933     -.0186    50.1619    23.1770     2.6154  3218.4927
 3092.8544     8.3984  2019.7595     -.0004    49.3524    23.8665     2.6640  3206.2026
 3093.0068     8.4300  2021.0000      .0223    48.7405    24.1878     2.6256  3196.3291
 3093.1592     8.4761  2020.2910      .0315    49.6820    24.2533     2.5429  3182.9111
 3093.3116     8.4609  2018.6572      .0202    47.6002    24.7002     2.4757  3176.8560
 3093.4640     8.4609  2017.6709      .0287    45.9996    25.7270     2.4738  3201.1899
 3093.6164     8.4609  2017.0000      .0397    50.7893    26.4111     2.4955  3225.9019
 3093.7688     8.4609  2017.3054      .0214    59.4580    26.5965     2.4918  3230.0000
 3093.9212     8.4609  2018.2937     -.0041    64.4005    26.9486     2.4955  3227.0615
 3094.0736     8.4609  2019.2800     -.0076    63.0845    29.0541     2.5263  3222.8003
 3094.2260     8.4609  2020.0000      .0006    57.4401    33.0953     2.5514  3219.3037
 3094.3784     8.4609  2020.2546      .0009    55.9381    36.5954     2.5511  3193.5664
 3094.5308     8.4533  2020.7563     -.0336    56.2140    38.6244     2.5469  3204.0000
 3094.6832     8.4297  2019.5386     -.0354    56.8966    38.4092     2.6344  3205.3838
 3094.8356     8.4297  2017.5664      .0191    57.8638    37.5611     2.7848  3210.0000
 3094.9880     8.4313  2016.0000      .1367    61.1870    34.9848     2.9265  3204.6929
 3095.1404     8.4375  2016.1917      .1533    67.0161    33.3861     2.8905  3183.2329
 3095.2928     8.4375  2016.8184      .1086    71.3354    31.9290     2.8054  3181.8164
 3095.4452     8.4375  2016.1677      .0596    69.4949    32.1695     2.7079  3193.3545
 3095.5976     8.4363  2017.1550      .0267    64.3569    32.4334     2.6342  3213.1011
 3095.7500     8.4263  2018.1423      .0021    57.6900    33.1102     2.5717  3227.7212
 3095.9024     8.4011  2019.1313     -.0166    52.6470    35.1348     2.5322  3206.1201
 3096.0548     8.3644  2019.7629     -.0304    50.9456    34.8064     2.5254  3145.7061
 3096.2072     8.3446  2017.6868     -.0385    56.6385    35.8043     2.5280  3077.3164
 3096.3596     8.3516  2014.8164     -.0377    65.7221    36.1859     2.5517  3009.9048
 3096.5120     8.3516  2012.6772     -.0344    71.9625    43.1668     2.5594  2923.2339
 3096.6644     8.3516  2008.7961     -.0415    68.3160    45.0582     2.5478  3119.9209
 3096.8168     8.3516  2005.9460     -.0341    63.0925    47.4189     2.5602  3769.9365
 3096.9692     8.3512  2005.0854     -.0324    60.9965    44.1833     2.5554  4117.1797
 3097.1216     8.3437  2007.0601     -.0259    63.6924    46.1715     2.5704  4052.1963
 3097.2740     8.3437  2009.0378     -.0275    62.7288    43.8318     2.5723  3992.7866
 3097.4264     8.3438  2011.0095     -.0337    56.7456    37.9136     2.5722  3929.6865
 3097.5788     8.3515  2012.9841     -.0405    49.3406    30.8671     2.5626  3864.5220
 3097.7312     8.3516  2013.0000     -.0391    51.4850    27.1284     2.5529  3811.1108
 3097.8836     8.3516  2012.0315     -.0381    59.1268    29.6038     2.5452  3746.0884
