~VERSION INFORMATION
VERS.                                                 2.0:   CWLS Log ASCII Standard-VERSION 2.0
WRAP.                                                  NO:   One line per depth step
~Well Information Block
STRT.M                                           449.1716:   Top Depth
STOP.M                                          3296.7656:   Bottom Depth
STEP.M                                             .15240:   Depth Increment
NULL.                                            -999.250:   Null Value
FLD .                                             WILDCAT:   Field Name
WELL.                                             15/9-10:   NAME
WBN .                                             15/9-10:   WELLBORE
NATI.                                                 NOR:   COUNTRY
BHT1.DEGF                                            85.0:   BH TEMP 1
BHT2.DEGF                                           105.0:   BH TEMP 2
BHT3.DEGF                                           144.0:   BH TEMP 3
BS1 .IN                                            12.250:   BIT SIZE 1
CTRY.                                                 NOR:   COUNTRY
CBD1.M                                              172.0:   CSG 1 DRILL DEP
CBL1.M                                              172.0:   CSG 1 LOG DEP
CS1 .IN                                              30.0:   CSG 1 SIZE
COMP.                                             STATOIL:   OPERATOR
PDAT.                                                 MSL:   PERM DATUM
PROV.                                           NORTH SEA:   PROVINCE
COUN.                                    NEPTUNO NORDRAUG:   RIG NAME
SPUD.                                          1981/09/15:   SPUD DATE
LATI.                                       58 19 42.92 N:   SURF. LATITUDE
LONG.                                        1 46 20.61 E:   SURF. LONGITUDE
BTD1.                                             484.0 M:   TOTAL DEPTH 1
BTD2.                                            1179.0 M:   TOTAL DEPTH 2
BTD3.                                           2718.50 M:   TOTAL DEPTH 3
PBWE.                                             15/9-10:   PB WELL ID
APIN.                                             15/9-10:   PB WELLBORE ID
PBWS.                                                 all:   PB WELL NAME SET
~PARAMETER INFORMATION (log)
LNAM.                              FDC/CNL/GR  COMPOSITED:   NAME
LTYP.                                         DEPTH MATCH:   LOG TYPE
LSRV.                                            DEN/NEUT:   LOG SERVICE
LSOU.                                             SPT/NPD:   LOG SOURCE
LVSN.                                                   1:   LOG VERSION
BHIS.                                                   R:   BRIEF HISTORY
FHIS.                                             RAW-LIS:   FULL HISTORY
LCNM.                                        SCHLUMBERGER:   LOGGING CONTRACTOR
TOOL.                             FDC/CNL/GR (COMPOSITED):   TOOL STRING
~Curve Information Block
#MNEM.UNIT                                        API CODE    No Description
#=========                                        ========    == ===========
DEPT.M                                       00 001 00 00:     1  DEPTH
CALI.IN                                                  :     2  Caliper
CS.                                                      :     3  Cable Speed
DRHO.G/CC                                                :     4  Bulk density correction
GR.GAPI                                                  :     5  Gamma Ray
NPHI.%                                                   :     6  Neutron porosity
RHOB.G/CC                                                :     7  Bulk density
TENS.LB                                                  :     8  Cable Tension
~ASCII
# ...
 2141.1164    12.8867  1930.1663      .0097    41.8983  -999.2500     2.0506  2457.8271
 2141.2688    12.9460  1928.1665      .0120    38.8359  -999.2500     2.0418  2459.5000
 2141.4212    12.8957  1928.0000      .0140    41.5182  -999.2500     2.0356  2460.0000
 2141.5736    12.8906  1928.0000      .0155    43.7326  -999.2500     2.0334  2487.5479
 2141.7260    12.7832  1928.0000      .0071    47.2869  -999.2500     2.0260  2526.6719
 2141.8784    12.8236  1929.8333     -.0022    47.0208  -999.2500     2.0272  2502.5000
 2142.0308    12.6204  1930.9165     -.0056    44.2760  -999.2500     2.0345  2500.0000
 2142.1832    12.4868  1932.8364     -.0090    44.1173  -999.2500     2.0352  2494.4902
 2142.3356    12.4837  1933.0000     -.0106    44.9845  -999.2500     2.0459  2484.8320
 2142.4880    12.7565  1933.0000     -.0152    44.3177  -999.2500     2.0576  2480.3330
 2142.6404    12.7812  1931.1665     -.0103    45.1667  -999.2500     2.0693  2480.0000
 2142.7928    12.5947  1929.1633     -.0111    43.9013  -999.2500     2.0578  2489.1826
 2142.9452    12.5207  1929.0000     -.0130    45.2734  -999.2500     2.0423  2484.4902
 2143.0976    12.4798  1929.9167     -.0177    42.7418  -999.2500     2.0553  2502.3359
 2143.2500    12.5697  1930.0000     -.0100    44.0469  -999.2500     2.0907  2522.3330
 2143.4024    12.2983  1930.9182      .0051    44.8188  -999.2500     2.1099  2511.1440
 2143.5548    12.2304  1931.9182      .0131    48.6916  -999.2500     2.0952  2500.8174
 2143.7072    12.3483  1932.9167      .0029    44.0175  -999.2500     2.0633  2490.8320
 2143.8596    12.5742  1932.0833     -.0052    43.8203  -999.2500     2.0462  2490.0000
 2144.0120    12.7513  1931.0833     -.0072    41.7526  -999.2500     2.0378  2502.8330
 2144.1644    12.9091  1929.1633     -.0019    45.5225  -999.2500     2.0389  2485.6343
 2144.3168    12.8144  1927.1663     -.0019    47.3648  -999.2500     2.0444  2502.3359
 2144.4692    12.9121  1924.2500      .0007    46.9271  -999.2500     2.0539  2527.8330
 2144.6216    12.9792  1923.0833     -.0057    45.8724  -999.2500     2.0493  2506.1665
 2144.7740    14.0748  1923.0000     -.0046    42.3090  -999.2500     2.0506  2491.1440
 2144.9264    13.1316  1923.0000     -.0030    40.3930  -999.2500     2.0544  2517.5479
 2145.0788    13.3256  1923.0000     -.0052    41.5392  -999.2500     2.0475  2496.1631
 2145.2312    13.6738  1923.9165     -.0054    43.4036  -999.2500     2.0415  2494.0000
 2145.3836    14.5353  1924.9182     -.0054    45.0834  -999.2500     2.0338  2508.6924
 2145.5360    14.3583  1925.9182     -.0103    46.1083  -999.2500     2.0440  2510.0000
 2145.6884    13.2257  1926.0000     -.0340    46.8751  -999.2500     2.0861  2482.4961
 2145.8408    12.8887  1924.1665     -.0214    46.7370  -999.2500     2.1812  2447.0000
 2145.9932    13.3470  1922.1665     -.0066    42.8229  -999.2500     2.2038  2499.0000
 2146.1456    14.8972  1922.0000      .0121    40.0296  -999.2500     2.1244  2549.9136
 2146.2980    13.5558  1922.9167     -.0051    39.2395  -999.2500     2.0169  2495.3247
 2146.4504    13.4434  1923.9165     -.0033    38.3568  -999.2500     1.9810  2490.0000
 2146.6028    13.5456  1925.8333      .0060    39.3125  -999.2500     1.9749  2512.0000
 2146.7552    13.6048  1926.9167      .0225    38.0883  -999.2500     1.9639  2501.1646
 2146.9076    13.2513  1927.9165      .0145    40.5182  -999.2500     1.9298  2545.8330
 2147.0600    12.7891  1928.0000      .0087    38.6589  -999.2500     1.9151  2562.8330
 2147.2124    12.5065  1928.0000     -.0002    39.3568  -999.2500     1.9320  2514.5000
 2147.3648    12.1902  1927.0818     -.0019    37.8879  -999.2500     1.9659  2537.5479
 2147.5172    12.2787  1925.1663     -.0037    40.3285  -999.2500     2.0010  2525.3311
 2147.6696    12.2533  1924.0833     -.0133    41.6224  -999.2500     2.0146  2511.1665
 2147.8220    12.6224  1923.0833     -.0106    46.7318  -999.2500     2.0532  2541.1665
 2147.9744    12.8997  1923.0000     -.0031    46.1563  -999.2500     2.1336  2567.8330
 2148.1268    12.9147  1923.9167      .0392    45.3749  -999.2500     2.2373  2518.6592
 2148.2792    12.8854  1924.9165      .0304    40.9583  -999.2500     2.2121  2514.0000
 2148.4316    12.9473  1926.8333      .0181    40.1615  -999.2500     2.1445  2523.1665
 2148.5840    12.8743  1927.9165      .0005    42.0156  -999.2500     2.0939  2538.6665
 2148.7364    12.9102  1928.9167     -.0014    42.7032  -999.2500     2.0970  2503.3276
 2148.8888    13.0573  1929.0000      .0017    43.6667  -999.2500     2.0833  2490.8330
 2149.0412    13.0918  1928.0833      .0109    42.0026  -999.2500     2.0731  2535.8330
 2149.1936    13.7526  1926.1665      .0055    43.0469  -999.2500     2.0687  2552.8330
 2149.3460    13.0521  1926.9182     -.0005    43.5293  -999.2500     2.0863  2550.3267
 2149.4984    13.2637  1927.9167     -.0032    44.3360  -999.2500     2.1076  2522.4961
 2149.6508    13.2246  1928.9165      .0122    41.8854  -999.2500     2.1219  2487.0000
 2149.8032    13.2402  1929.9165      .0061    40.1953  -999.2500     2.0980  2498.6665
 2149.9556    13.5573  1931.8333     -.0027    40.6354  -999.2500     2.0724  2527.5000
 2150.1080    13.2636  1932.9167     -.0057    42.0054  -999.2500     2.0703  2506.1631
 2150.2604    13.1771  1933.0000     -.0041    43.2708  -999.2500     2.0775  2491.1665
 2150.4128    13.1862  1933.0000     -.0035    43.8906  -999.2500     2.0835  2521.1665
 2150.5652    13.1230  1931.1665     -.0048    45.5703  -999.2500     2.0697  2560.6665
 2150.7176    13.2246  1929.1663      .0045    46.7215  -999.2500     2.0737  2545.6641
 2150.8700    13.5638  1928.0833      .0072    44.3203  -999.2500     2.0724  2503.6665
 2151.0224    13.8301  1928.0000      .0082    43.0339  -999.2500     2.0776  2522.0000
 2151.1748    13.5866  1928.0000     -.0020    40.8750  -999.2500     2.0620  2529.5000
 2151.3272    13.8495  1928.9182     -.0038    43.0406  -999.2500     2.0677  2515.3076
 2151.4796    13.5097  1929.9167     -.0075    42.9348  -999.2500     2.0863  2491.9966
 2151.6320    13.6771  1930.9165     -.0002    43.9375  -999.2500     2.1255  2517.5000
 2151.7844    13.5521  1931.9165      .0027    41.8255  -999.2500     2.1307  2538.3330
 2151.9368    14.2695  1932.0000      .0110    41.5677  -999.2500     2.1112  2543.6665
 2152.0892    14.3717  1930.1663     -.0026    41.1041  -999.2500     2.0718  2571.5039
 2152.2416    13.2793  1928.1665     -.0026    42.9531  -999.2500     2.0684  2506.1665
 2152.3940    13.1009  1924.3333     -.0078    42.5234  -999.2500     2.0809  2490.8330
 2152.5464    13.2227  1924.0000     -.0056    43.0130  -999.2500     2.0910  2517.5000
 2152.6988    13.3275  1924.9167     -.0009    42.0597  -999.2500     2.0882  2578.6753
 2152.8512    13.4362  1925.9165      .0004    42.2839  -999.2500     2.0771  2507.0000
 2153.0036    13.5456  1926.9165      .0166    41.7396  -999.2500     2.0833  2494.5000
 2153.1560    13.7409  1927.9165      .0127    40.3698  -999.2500     2.0840  2545.3330
 2153.3084    13.7004  1928.9182      .0136    42.0005  -999.2500     2.0840  2550.0000
 2153.4608    13.6165  1929.9167      .0020    42.8725  -999.2500     2.0732  2494.9917
 2153.6132    13.4375  1929.0833      .0028    41.5052  -999.2500     2.0669  2526.6665
 2153.7656    13.4362  1928.0833     -.0002    40.2578  -999.2500     2.0592  2524.5000
 2153.9180    13.6595  1926.1665     -.0027    40.6432  -999.2500     2.0550  2502.0000
 2154.0704    13.9662  1923.2495     -.0047    40.7734  -999.2500     2.0565  2531.1709
 2154.2228    14.0924  1924.8333      .0009    40.8958  -999.2500     2.0799  2543.1665
 2154.3752    13.8079  1925.9165     -.0017    40.9922  -999.2500     2.0928  2498.1665
 2154.5276    13.9818  1926.9165      .0043    42.4323  -999.2500     2.1045  2512.3330
 2154.6800    13.8926  1927.9167      .0004    41.7030  -999.2500     2.1037  2537.8369
 2154.8324    14.0905  1929.8333      .0063    38.7031  -999.2500     2.1053  2525.3330
