~VERSION INFORMATION
VERS.                                                 2.0:   CWLS Log ASCII Standard-VERSION 2.0
WRAP.                                                  NO:   One line per depth step
~Well Information Block
STRT.M                                           449.1716:   Top Depth
STOP.M                                          3296.7656:   Bottom Depth
STEP.M                                             .15240:   Depth Increment
NULL.                                            -999.250:   Null Value
FLD .                                             WILDCAT:   Field Name
WELL.                                             15/9-10:   NAME
WBN .                                             15/9-10:   WELLBORE
NATI.                                                 NOR:   COUNTRY
BHT1.DEGF                                            85.0:   BH TEMP 1
BHT2.DEGF                                           105.0:   BH TEMP 2
BHT3.DEGF                                           144.0:   BH TEMP 3
BS1 .IN                                            12.250:   BIT SIZE 1
CTRY.                                                 NOR:   COUNTRY
CBD1.M                                              172.0:   CSG 1 DRILL DEP
CBL1.M                                              172.0:   CSG 1 LOG DEP
CS1 .IN                                              30.0:   CSG 1 SIZE
COMP.                                             STATOIL:   OPERATOR
PDAT.                                                 MSL:   PERM DATUM
PROV.                                           NORTH SEA:   PROVINCE
COUN.                                    NEPTUNO NORDRAUG:   RIG NAME
SPUD.                                          1981/09/15:   SPUD DATE
LATI.                                       58 19 42.92 N:   SURF. LATITUDE
LONG.                                        1 46 20.61 E:   SURF. LONGITUDE
BTD1.                                             484.0 M:   TOTAL DEPTH 1
BTD2.                                            1179.0 M:   TOTAL DEPTH 2
BTD3.                                           2718.50 M:   TOTAL DEPTH 3
PBWE.                                             15/9-10:   PB WELL ID
APIN.                                             15/9-10:   PB WELLBORE ID
PBWS.                                                 all:   PB WELL NAME SET
~PARAMETER INFORMATION (log)
LNAM.                              FDC/CNL/GR  COMPOSITED:   NAME
LTYP.                                         DEPTH MATCH:   LOG TYPE
LSRV.                                            DEN/NEUT:   LOG SERVICE
LSOU.                                             SPT/NPD:   LOG SOURCE
LVSN.                                                   1:   LOG VERSION
BHIS.                                                   R:   BRIEF HISTORY
FHIS.                                             RAW-LIS:   FULL HISTORY
LCNM.                                        SCHLUMBERGER:   LOGGING CONTRACTOR
TOOL.                             FDC/CNL/GR (COMPOSITED):   TOOL STRING
~Curve Information Block
#MNEM.UNIT                                        API CODE    No Description
#=========                                        ========    == ===========
DEPT.M                                       00 001 00 00:     1  DEPTH
CALI.IN                                                  :     2  Caliper
CS.                                                      :     3  Cable Speed
DRHO.G/CC                                                :     4  Bulk density correction
GR.GAPI                                                  :     5  Gamma Ray
NPHI.%                                                   :     6  Neutron porosity
RHOB.G/CC                                                :     7  Bulk density
TENS.LB                                                  :     8  Cable Tension
~ASCII
# ...
 2335.2740    12.6940  1885.0833      .0168    65.1745  -999.2500     2.3110  2670.3330
 2335.4264    12.6882  1885.0000      .0109    66.3125  -999.2500     2.3000  2642.5000
 2335.5788    12.7591  1883.1665      .0156    66.4323  -999.2500     2.3024  2649.1665
 2335.7312    12.7656  1882.0833      .0116    71.8229  -999.2500     2.2992  2681.1665
 2335.8836    12.8014  1882.0000      .0170    73.5731  -999.2500     2.3078  2684.0000
 2336.0360    12.8047  1882.0000      .0292    78.2708  -999.2500     2.3068  2671.1665
 2336.1884    12.8262  1882.9165      .0177    76.7396  -999.2500     2.2816  2670.0000
 2336.3408    12.8066  1883.9165      .0045    79.8854  -999.2500     2.2596  2651.6665
 2336.4932    12.6903  1885.8303     -.0011    75.6115  -999.2500     2.2632  2671.9648
 2336.6456    12.6582  1887.8333      .0066    73.3542  -999.2500     2.2816  2652.0000
 2336.7980    12.6921  1888.9165      .0328    69.4063  -999.2500     2.3154  2681.1665
 2336.9504    12.7096  1889.0000      .0311    71.8698  -999.2500     2.3094  2689.5000
 2337.1028    12.8253  1889.0000      .0384    78.0738  -999.2500     2.3229  2662.5439
 2337.2552    12.8574  1888.0833      .0409    86.1302  -999.2500     2.3278  2650.8330
 2337.4076    12.8952  1886.1665      .0307    87.2708  -999.2500     2.3120  2659.1665
 2337.5600    12.8913  1886.9165      .0253    80.5521  -999.2500     2.2998  2654.5000
 2337.7124    12.8691  1887.0000      .0410    68.2500  -999.2500     2.3024  2681.5000
 2337.8648    12.9245  1887.0000      .0738    62.8614  -999.2500     2.3242  2717.0049
 2338.0172    12.8652  1888.8333      .0820    65.3620  -999.2500     2.2886  2692.5000
 2338.1696    12.8092  1890.8333      .0498    68.5469  -999.2500     2.2529  2680.8330
 2338.3220    12.8477  1891.9165      .0115    69.7865  -999.2500     2.2249  2643.3330
 2338.4744    12.9088  1891.0847      .0132    64.1550  -999.2500     2.2530  2643.6606
 2338.6268    12.8926  1890.0833      .0298    62.9661  -999.2500     2.2576  2658.6665
 2338.7792    12.9193  1889.0833      .0384    59.8125  -999.2500     2.2292  2663.6665
 2338.9316    12.9505  1888.0833      .0256    58.4714  -999.2500     2.1764  2678.6665
 2339.0840    13.1033  1888.9150      .0123    58.2606  -999.2500     2.1540  2656.2046
 2339.2364    13.0169  1889.9165      .0054    66.5573  -999.2500     2.1344  2635.6665
 2339.3888    13.4232  1890.0000      .0022    74.6458  -999.2500     2.1632  2657.8330
 2339.5412    13.0456  1890.9165      .0078    79.1510  -999.2500     2.1947  2660.0000
 2339.6936    12.9577  1892.8333      .0173    76.2344  -999.2500     2.2653  2682.0000
 2339.8460    12.9531  1893.9182      .0333    73.1253  -999.2500     2.3056  2671.1440
 2339.9984    12.8742  1893.0818      .0342    69.8906  -999.2500     2.3122  2646.1250
 2340.1508    12.8815  1893.0000      .0521    69.0511  -999.2500     2.3251  2689.9136
 2340.3032    12.8685  1891.1663      .0452    71.4066  -999.2500     2.3101  2648.1597
 2340.4556    12.7812  1889.1665      .0216    71.1667  -999.2500     2.2746  2640.3330
 2340.6080    12.8021  1888.0818      .0083    70.8954  -999.2500     2.2500  2667.5479
 2340.7604    12.7760  1888.0000      .0073    66.8576  -999.2500     2.2642  2706.7305
 2340.9128    12.7734  1888.0000      .0181    63.2626  -999.2500     2.2961  2654.9917
 2341.0652    12.7734  1888.9165      .0159    58.3568  -999.2500     2.3078  2650.0000
 2341.2176    12.7232  1889.9182      .0102    57.2775  -999.2500     2.2889  2622.4517
 2341.3700    12.6614  1890.0000      .0120    55.1239  -999.2500     2.2746  2675.0962
 2341.5224    12.5560  1890.0000      .0364    55.9689  -999.2500     2.2931  2735.0078
 2341.6748    12.5254  1890.0000      .0381    57.2656  -999.2500     2.2842  2712.5000
 2341.8272    12.3728  1888.1633      .0717    61.9950  -999.2500     2.3119  2686.1250
 2341.9796    12.3665  1886.1633      .0496    65.3045  -999.2500     2.2858  2628.9038
 2342.1320    12.3744  1886.0000      .0474    69.1208  -999.2500     2.2832  2629.5093
 2342.2844    12.3750  1885.0833      .0236    72.4171  -999.2500     2.2546  2642.8350
 2342.4368    12.4967  1885.0000      .0197    73.0885  -999.2500     2.2448  2680.6665
 2342.5892    12.5365  1885.0000      .0294    72.1493  -999.2500     2.2513  2665.6343
 2342.7416    12.5247  1885.9182      .0258    68.9633  -999.2500     2.2537  2660.3267
 2342.8940    12.5951  1885.0833      .0411    66.8539  -999.2500     2.2897  2650.8320
 2343.0464    12.6732  1885.0000      .0259    62.8203  -999.2500     2.2912  2708.6665
 2343.1988    12.6582  1883.1633      .0204    58.9678  -999.2500     2.2928  2682.7788
 2343.3512    12.7423  1883.0000      .0133    55.9875  -999.2500     2.2679  2665.3076
 2343.5036    12.8861  1880.2495      .0176    54.2602  -999.2500     2.2746  2682.3359
 2343.6560    13.2852  1878.1665      .0230    55.2708  -999.2500     2.2826  2689.5000
 2343.8084    13.1984  1877.0818      .0136    60.1385  -999.2500     2.2850  2671.6343
 2343.9608    13.0440  1877.9182      .0167    65.8999  -999.2500     2.2654  2664.4902
 2344.1132    13.0169  1878.9182      .0189    70.5072  -999.2500     2.2744  2651.1440
 2344.2656    13.0371  1879.9167      .0271    66.5775  -999.2500     2.2808  2650.0000
 2344.4180    12.9603  1881.8333      .0260    63.9818  -999.2500     2.3027  2714.1665
 2344.5704    12.9460  1882.9182      .0263    62.1456  -999.2500     2.2885  2710.8174
 2344.7228    12.8951  1883.9182      .0071    64.6400  -999.2500     2.2746  2686.1250
 2344.8752    13.1485  1884.9167      .0081    67.3389  -999.2500     2.2878  2661.9966
 2345.0276    12.8424  1885.0000      .0025    75.0104  -999.2500     2.3070  2645.3330
 2345.1800    12.8125  1885.0000      .0284    79.2458  -999.2500     2.3427  2640.3267
 2345.3324    12.8340  1885.9182      .0312    83.1208  -999.2500     2.3403  2667.5479
 2345.4848    12.8503  1886.0000      .0402    85.0992  -999.2500     2.3184  2642.4961
 2345.6372    12.9661  1886.9165      .0374    88.8594  -999.2500     2.2734  2676.6665
 2345.7896    12.9837  1888.8364      .0237    86.7770  -999.2500     2.2121  2683.6729
 2345.9420    13.0776  1889.9182     -.0040    82.1433  -999.2500     2.1568  2671.1440
 2346.0944    13.3514  1890.0000     -.0059    75.4369  -999.2500     2.1667  2670.0000
 2346.2468    13.1888  1890.0000      .0120    69.2023  -999.2500     2.2199  2664.4990
 2346.3992    13.2578  1890.0000      .0683    60.4948  -999.2500     2.3105  2642.0000
 2346.5516    13.5669  1889.0818      .0679    57.3682  -999.2500     2.3130  2634.4902
 2346.7040    13.6224  1888.0818      .0813    55.2049  -999.2500     2.3233  2689.0962
 2346.8564    13.7468  1887.0833      .0731    57.2659  -999.2500     2.2920  2694.0000
 2347.0088    13.7936  1887.0000      .0933    58.2708  -999.2500     2.2855  2675.6665
 2347.1612    13.8614  1887.9182      .0741    64.3412  -999.2500     2.2385  2651.9614
 2347.3136    13.6878  1888.0000      .0723    68.0889  -999.2500     2.2433  2653.6729
 2347.4660    13.6289  1889.8335      .0669    67.8020  -999.2500     2.2406  2659.5005
 2347.6184    13.5605  1890.9165      .0539    60.5026  -999.2500     2.2420  2650.8330
 2347.7708    13.4543  1891.0000      .0545    55.4533  -999.2500     2.2386  2686.7305
 2347.9232    13.4596  1890.0833      .0363    53.2002  -999.2500     2.2454  2699.1680
 2348.0756    13.1745  1890.0000      .0530    55.6094  -999.2500     2.2604  2681.6665
 2348.2280    13.2272  1889.0833      .0627    58.9375  -999.2500     2.2832  2661.6665
 2348.3804    13.3633  1889.0000      .0774    63.4583  -999.2500     2.2869  2641.6665
 2348.5328    13.2961  1889.9182      .0638    66.6846  -999.2500     2.2817  2625.3076
 2348.6852    13.4108  1890.0000      .0397    67.1094  -999.2500     2.2401  2638.6685
 2348.8376    13.4863  1890.9165      .0439    62.9427  -999.2500     2.2524  2671.1665
 2348.9900    13.4134  1891.0000      .0516    57.1198  -999.2500     2.2664  2655.6665
