~VERSION INFORMATION
VERS.                                                 2.0:   CWLS Log ASCII Standard-VERSION 2.0
WRAP.                                                  NO:   One line per depth step
~Well Information Block
STRT.M                                           449.1716:   Top Depth
STOP.M                                          3296.7656:   Bottom Depth
STEP.M                                             .15240:   Depth Increment
NULL.                                            -999.250:   Null Value
FLD .                                             WILDCAT:   Field Name
WELL.                                             15/9-10:   NAME
WBN .                                             15/9-10:   WELLBORE
NATI.                                                 NOR:   COUNTRY
BHT1.DEGF                                            85.0:   BH TEMP 1
BHT2.DEGF                                           105.0:   BH TEMP 2
BHT3.DEGF                                           144.0:   BH TEMP 3
BS1 .IN                                            12.250:   BIT SIZE 1
CTRY.                                                 NOR:   COUNTRY
CBD1.M                                              172.0:   CSG 1 DRILL DEP
CBL1.M                                              172.0:   CSG 1 LOG DEP
CS1 .IN                                              30.0:   CSG 1 SIZE
COMP.                                             STATOIL:   OPERATOR
PDAT.                                                 MSL:   PERM DATUM
PROV.                                           NORTH SEA:   PROVINCE
COUN.                                    NEPTUNO NORDRAUG:   RIG NAME
SPUD.                                          1981/09/15:   SPUD DATE
LATI.                                       58 19 42.92 N:   SURF. LATITUDE
LONG.                                        1 46 20.61 E:   SURF. LONGITUDE
BTD1.                                             484.0 M:   TOTAL DEPTH 1
BTD2.                                            1179.0 M:   TOTAL DEPTH 2
BTD3.                                           2718.50 M:   TOTAL DEPTH 3
PBWE.                                             15/9-10:   PB WELL ID
APIN.                                             15/9-10:   PB WELLBORE ID
PBWS.                                                 all:   PB WELL NAME SET
~PARAMETER INFORMATION (log)
LNAM.                              FDC/CNL/GR  COMPOSITED:   NAME
LTYP.                                         DEPTH MATCH:   LOG TYPE
LSRV.                                            DEN/NEUT:   LOG SERVICE
LSOU.                                             SPT/NPD:   LOG SOURCE
LVSN.                                                   1:   LOG VERSION
BHIS.                                                   R:   BRIEF HISTORY
FHIS.                                             RAW-LIS:   FULL HISTORY
LCNM.                                        SCHLUMBERGER:   LOGGING CONTRACTOR
TOOL.                             FDC/CNL/GR (COMPOSITED):   TOOL STRING
~Curve Information Block
#MNEM.UNIT                                        API CODE    No Description
#=========                                        ========    == ===========
DEPT.M                                       00 001 00 00:     1  DEPTH
CALI.IN                                                  :     2  Caliper
CS.                                                      :     3  Cable Speed
DRHO.G/CC                                                :     4  Bulk density correction
GR.GAPI                                                  :     5  Gamma Ray
NPHI.%                                                   :     6  Neutron porosity
RHOB.G/CC                                                :     7  Bulk density
TENS.LB                                                  :     8  Cable Tension
~ASCII
# ...
 2903.8784     8.9609  1871.0000      .0066    35.4010    27.1525     2.5339  3382.0000
 2904.0308     9.0112  1872.8364      .0132    37.4902    27.7313     2.5063  3340.2114
 2904.1832     9.2663  1873.9167      .0329    37.7422    28.5902     2.4788  3284.4927
 2904.3356     9.3105  1874.9165      .0262    39.0677    27.5431     2.4587  3225.0000
 2904.4880     9.2695  1875.9165      .0352    39.1016    26.1881     2.4445  3128.3330
 2904.6404     9.2799  1876.0000      .0420    40.4401    22.9411     2.4595  3083.3330
 2904.7928     9.2956  1874.1633      .0501    41.7964    21.3113     2.4645  2942.2593
 2904.9452     9.3112  1871.2451      .0467    44.2306    19.3984     2.4666  3040.1924
 2905.0976     9.2695  1869.1633      .0522    43.9784    20.9839     2.4632  3389.7593
 2905.2500     9.3374  1869.9182      .0352    42.8757    22.6644     2.4485  3432.8555
 2905.4024     9.3796  1871.8367      .0238    40.4566    23.6994     2.4544  3375.2222
 2905.5548     9.0241  1873.8364      .0028    39.7335    22.0760     2.4676  3296.5386
 2905.7072     9.0065  1874.9182      .0014    39.9745    19.4173     2.4974  3238.5767
 2905.8596     8.9863  1876.8364      .0001    40.4017    17.6229     2.5018  3184.4136
 2906.0120     8.9844  1877.9199      .0085    38.4253    16.8079     2.5091  3115.6089
 2906.1644     8.9916  1877.0815      .0259    35.9540    16.9722     2.5277  3027.3438
 2906.3168     8.9850  1875.1633      .0323    34.2004    17.6188     2.5275  3010.8174
 2906.4692     9.0202  1871.3269      .0359    36.2147    19.2871     2.5489  3096.3174
 2906.6216     8.9804  1871.0000      .0191    38.3576    20.4631     2.5580  3287.6538
 2906.7740     8.8761  1871.9185      .0144    38.1581    20.3325     2.5783  3239.7119
 2906.9264     8.8600  1872.9182      .0030    35.3702    18.5195     2.5675  3166.0479
 2907.0788     8.8522  1873.0000      .0028    32.8293    15.3605     2.5664  3081.0288
 2907.2312     8.8516  1873.9182      .0065    29.1958    12.6709     2.5772  3051.9614
 2907.3836     8.8516  1874.9185      .0230    26.2502    11.5994     2.6050  3086.7358
 2907.5360     8.8085  1875.0000      .0491    23.3039    11.4786     2.6236  3185.5000
 2907.6884     8.8477  1875.0000      .0692    25.1716    11.8774     2.5963  3162.7788
 2907.8408     9.2246  1873.1633      .0829    25.7468    11.2874     2.5561  3126.9424
 2907.9932     9.2650  1872.0801      .0750    26.6293    10.8718     2.5042  3055.9292
 2908.1456     9.2369  1872.9185      .0626    26.2726    11.1985     2.4785  2985.7119
 2908.2980     9.1698  1873.0000      .0535    27.5687    11.3201     2.4658  2836.7500
 2908.4504     9.1354  1873.9182      .0554    28.8784    11.7310     2.4684  2948.8843
 2908.6028     9.1328  1873.0818      .0615    30.8353    11.7228     2.4831  3566.0576
 2908.7552     9.1400  1873.9185      .0746    34.7310    11.3601     2.4862  3610.8159
 2908.9076     9.1621  1874.0000      .0734    41.0886    12.7625     2.4630  3536.5386
 2909.0600     9.2143  1874.9182      .0383    43.6624    16.5161     2.4035  3465.7212
 2909.2124     9.1470  1874.0818      .0190    44.3890    22.0825     2.3805  3395.7212
 2909.3648     9.1406  1872.1602      .0032    41.7929    24.4866     2.3735  3334.8076
 2909.5172     9.2195  1872.0000      .0248    42.4522    23.9409     2.4107  3274.8960
 2909.6696     9.3198  1872.0000      .0233    42.5599    21.3704     2.4105  3205.7212
 2909.8220     9.2062  1872.0000      .0485    42.0173    21.5902     2.4550  3126.5386
 2909.9744     9.1163  1872.9199      .0301    40.7614    22.3483     2.4608  3096.0830
 2910.1268     9.1309  1873.9185      .0158    40.3692    23.2191     2.4896  3066.4478
 2910.2792     8.9032  1874.9182      .0012    39.6837    21.4084     2.5191  3060.3267
 2910.4316     8.8685  1876.8364      .0112    37.6163    19.4051     2.5538  3072.8555
 2910.5840     8.8815  1876.0818      .0162    37.0645    17.9403     2.5746  3079.5093
 2910.7364     8.8685  1875.0815      .0135    37.6052    17.8671     2.5636  3098.3677
 2910.8888     8.8887  1873.1633      .0042    40.8415    17.5125     2.5607  3122.0386
 2911.0412     8.9265  1873.0000      .0075    39.5754    17.4805     2.5480  3065.2305
 2911.1936     8.9153  1873.0000     -.0012    38.5479    17.6147     2.5576  3063.6729
 2911.3460     8.9141  1874.8396      .0030    35.0767    17.1337     2.5604  3054.8013
 2911.4984     8.9141  1875.9185      .0079    35.1256    16.2829     2.5570  3072.3677
 2911.6508     8.9212  1876.0000      .0298    36.9928    15.3158     2.5620  3070.3267
 2911.8032     8.9290  1877.8364      .0501    38.0171    15.0106     2.5822  3106.7305
 2911.9556     8.9441  1878.0000      .0360    37.1451    15.8870     2.5660  3073.2051
 2912.1080     8.9453  1877.0815      .0253    34.1064    17.7152     2.5286  3064.4893
 2912.2604     8.9597  1876.0818      .0186    34.2742    18.9917     2.4895  3027.2690
 2912.4128     9.0040  1873.2451      .0320    36.6656    20.1660     2.4738  3042.3652
 2912.5652     9.2302  1872.0818      .0314    38.3672    20.4427     2.4852  3150.5190
 2912.7176     9.0921  1872.0000      .0088    39.8776    21.8039     2.4827  3224.2881
 2912.8700     8.9346  1872.0000     -.0075    38.1922    22.8651     2.4986  3128.9902
 2913.0224     8.9577  1872.9182     -.0164    37.7443    21.7407     2.5018  3105.3076
 2913.1748     8.8605  1873.9182     -.0081    36.0544    19.9300     2.5253  3039.7212
 2913.3272     8.8516  1874.9199     -.0024    37.0561    16.7713     2.5381  3061.5962
 2913.4796     8.8516  1875.9185      .0007    37.0127    16.1901     2.5462  3115.4302
 2913.6320     8.8516  1876.0000     -.0062    37.7461    15.9383     2.5361  3206.3174
 2913.7844     8.8516  1874.1633     -.0037    37.6116    17.0369     2.5423  3149.7212
 2913.9368     8.8516  1873.0801     -.0034    38.3986    17.6319     2.5358  3066.7305
 2914.0892     8.8587  1873.0000     -.0021    38.2678    18.5724     2.5280  3078.3677
 2914.2416     8.8594  1873.0000      .0021    41.9805    18.9213     2.5273  3056.1250
 2914.3940     8.8665  1873.9182      .0101    42.6282    18.2739     2.5435  3044.8174
 2914.5464     8.8600  1874.9182      .0121    43.4023    17.0939     2.5575  3058.6924
 2914.6988     8.8953  1875.9199      .0118    38.9844    16.9473     2.5514  3082.0767
 2914.8512     8.9128  1876.9185      .0256    37.0153    18.8263     2.5239  3098.6943
 2915.0036     8.9715  1877.0000      .0219    35.8706    20.4264     2.5035  3109.1826
 2915.1560     8.9335  1877.0000      .0233    37.4456    20.0643     2.5091  3091.6343
 2915.3084     8.9009  1875.1602      .0122    36.3002    18.6296     2.5170  3066.0830
 2915.4608     8.8913  1873.1631      .0175    39.2010    16.6230     2.5230  3069.5103
 2915.6132     8.8906  1872.0818      .0275    39.8705    17.1265     2.5216  3046.1250
 2915.7656     8.9552  1872.0000      .0283    41.1976    17.6798     2.4982  3025.6343
 2915.9180     9.0687  1872.9199      .0436    38.6104    18.4420     2.4853  3069.9937
 2916.0704     9.0853  1873.9185      .0355    37.0548    17.1161     2.4682  3162.1665
 2916.2228     9.1218  1874.9182      .0230    39.2045    16.1405     2.4883  3243.4614
 2916.3752     9.0317  1875.9182      .0135    40.4393    15.9749     2.4974  3204.0864
 2916.5276     8.9660  1876.9182     -.0048    41.2773    16.1458     2.5052  3098.9902
 2916.6800     9.0759  1875.1602     -.0050    39.7627    16.1621     2.5023  3145.1924
 2916.8324     8.9997  1873.1602     -.0022    38.2452    16.2069     2.5307  3195.9937
 2916.9848     9.1790  1872.0801      .0236    36.9752    15.9424     2.5619  3126.4102
 2917.1372     9.0085  1872.0000      .0263    35.9839    15.3809     2.5842  3077.6855
 2917.2896     9.0426  1872.9214      .0196    36.3958    14.5250     2.5787  3061.0991
 2917.4420     8.9678  1873.9199      .0199    39.0250    14.4531     2.5691  3118.8799
 2917.5944     8.9825  1874.9199      .0357    41.3197    14.2293     2.5522  3114.8013
