~VERSION INFORMATION
VERS.                                                 2.0:   CWLS Log ASCII Standard-VERSION 2.0
WRAP.                                                  NO:   One line per depth step
~Well Information Block
STRT.M                                           449.1716:   Top Depth
STOP.M                                          3296.7656:   Bottom Depth
STEP.M                                             .15240:   Depth Increment
NULL.                                            -999.250:   Null Value
FLD .                                             WILDCAT:   Field Name
WELL.                                             15/9-10:   NAME
WBN .                                             15/9-10:   WELLBORE
NATI.                                                 NOR:   COUNTRY
BHT1.DEGF                                            85.0:   BH TEMP 1
BHT2.DEGF                                           105.0:   BH TEMP 2
BHT3.DEGF                                           144.0:   BH TEMP 3
BS1 .IN                                            12.250:   BIT SIZE 1
CTRY.                                                 NOR:   COUNTRY
CBD1.M                                              172.0:   CSG 1 DRILL DEP
CBL1.M                                              172.0:   CSG 1 LOG DEP
CS1 .IN                                              30.0:   CSG 1 SIZE
COMP.                                             STATOIL:   OPERATOR
PDAT.                                                 MSL:   PERM DATUM
PROV.                                           NORTH SEA:   PROVINCE
COUN.                                    NEPTUNO NORDRAUG:   RIG NAME
SPUD.                                          1981/09/15:   SPUD DATE
LATI.                                       58 19 42.92 N:   SURF. LATITUDE
LONG.                                        1 46 20.61 E:   SURF. LONGITUDE
BTD1.                                             484.0 M:   TOTAL DEPTH 1
BTD2.                                            1179.0 M:   TOTAL DEPTH 2
BTD3.                                           2718.50 M:   TOTAL DEPTH 3
PBWE.                                             15/9-10:   PB WELL ID
APIN.                                             15/9-10:   PB WELLBORE ID
PBWS.                                                 all:   PB WELL NAME SET
~PARAMETER INFORMATION (log)
LNAM.                              FDC/CNL/GR  COMPOSITED:   NAME
LTYP.                                         DEPTH MATCH:   LOG TYPE
LSRV.                                            DEN/NEUT:   LOG SERVICE
LSOU.                                             SPT/NPD:   LOG SOURCE
LVSN.                                                   1:   LOG VERSION
BHIS.                                                   R:   BRIEF HISTORY
FHIS.                                             RAW-LIS:   FULL HISTORY
LCNM.                                        SCHLUMBERGER:   LOGGING CONTRACTOR
TOOL.                             FDC/CNL/GR (COMPOSITED):   TOOL STRING
~Curve Information Block
#MNEM.UNIT                                        API CODE    No Description
#=========                                        ========    == ===========
DEPT.M                                       00 001 00 00:     1  DEPTH
CALI.IN                                                  :     2  Caliper
CS.                                                      :     3  Cable Speed
DRHO.G/CC                                                :     4  Bulk density correction
GR.GAPI                                                  :     5  Gamma Ray
NPHI.%                                                   :     6  Neutron porosity
RHOB.G/CC                                                :     7  Bulk density
TENS.LB                                                  :     8  Cable Tension
~ASCII
# ...
  643.3292    18.5938  2060.0000      .0249    76.8750  -999.2500     2.0801  1140.0000
  643.4816    18.7344  2060.0000      .0239    75.3750  -999.2500     2.0918  1100.0000
  643.6340    18.7500  2058.0000      .0156    78.1875  -999.2500     2.0859  1130.0000
  643.7864    18.9063  2056.0000      .0078    77.6250  -999.2500     2.0781  1110.0000
  643.9388    18.7969  2056.0000     -.0029    78.1875  -999.2500     2.0645  1080.0000
  644.0912    18.8125  2056.0000     -.0044    79.6875  -999.2500     2.0723  1110.0000
  644.2436    18.7969  2058.0000     -.0078    81.3750  -999.2500     2.0723  1115.0000
  644.3960    18.7813  2058.0000      .0039    80.6250  -999.2500     2.0840  1110.0000
  644.5484    18.7656  2060.0000      .0308    81.5625  -999.2500     2.1113  1120.0000
  644.7008    18.9063  2062.0000      .0381    79.9375  -999.2500     2.1191  1110.0000
  644.8532    18.9688  2062.0000      .0537    81.0625  -999.2500     2.1406  1115.0000
  645.0056    19.1719  2062.0000      .0195    76.3125  -999.2500     2.0957  1125.0000
  645.1580    18.7969  2060.0000      .0049    75.2500  -999.2500     2.0801  1120.0000
  645.3104    18.8906  2058.0000      .0000    73.1875  -999.2500     2.0703  1130.0000
  645.4628    18.9219  2056.0000      .0146    74.3125  -999.2500     2.0918  1130.0000
  645.6152    18.9688  2056.0000      .0322    77.5625  -999.2500     2.1113  1110.0000
  645.7676    18.8750  2056.0000      .0137    79.8125  -999.2500     2.0898  1115.0000
  645.9200    18.7969  2058.0000      .0059    81.8750  -999.2500     2.0840  1095.0000
  646.0724    19.1250  2060.0000     -.0010    81.1875  -999.2500     2.0742  1090.0000
  646.2248    18.9375  2060.0000     -.0059    79.3125  -999.2500     2.0801  1125.0000
  646.3772    18.9844  2062.0000     -.0073    77.6250  -999.2500     2.0801  1130.0000
  646.5296    18.9688  2062.0000      .0029    77.8750  -999.2500     2.0977  1125.0000
  646.6820    18.9375  2062.0000      .0190    80.0000  -999.2500     2.1094  1115.0000
  646.8344    18.9531  2060.0000      .0190    85.3125  -999.2500     2.1094  1135.0000
  646.9868    18.9844  2060.0000      .0039    83.8125  -999.2500     2.0937  1100.0000
  647.1392    18.7656  2056.0000      .0127    83.3125  -999.2500     2.0859  1105.0000
  647.2916    18.9063  2054.0000      .0063    80.5625  -999.2500     2.0547  1115.0000
  647.4440    17.8906  2054.0000     -.0010    83.3125  -999.2500     2.0293  1100.0000
  647.5964    17.6406  2054.0000     -.0034    89.0625  -999.2500     2.0234  1110.0000
  647.7488    17.5156  2056.0000     -.0010    87.4375  -999.2500     2.0273  1115.0000
  647.9012    17.5469  2056.0000      .0127    86.4375  -999.2500     2.0391  1100.0000
  648.0536    17.7031  2058.0000      .0132    83.8125  -999.2500     2.0449  1135.0000
  648.2060    17.7500  2060.0000      .0234    87.5625  -999.2500     2.0625  1120.0000
  648.3584    17.8750  2060.0000      .0205    85.5000  -999.2500     2.0586  1115.0000
  648.5108    17.7188  2060.0000      .0132    82.4375  -999.2500     2.0508  1110.0000
  648.6632    17.5938  2060.0000      .0049    76.7500  -999.2500     2.0430  1110.0000
  648.8156    17.5313  2058.0000      .0054    76.3750  -999.2500     2.0566  1110.0000
  648.9680    17.5469  2056.0000      .0078    76.8750  -999.2500     2.0664  1120.0000
  649.1204    17.6094  2056.0000      .0220    80.7500  -999.2500     2.0879  1110.0000
  649.2728    17.5313  2058.0000      .0176    76.6875  -999.2500     2.0801  1110.0000
  649.4252    17.5938  2058.0000      .0166    77.3125  -999.2500     2.0859  1120.0000
  649.5776    17.6406  2060.0000      .0068    75.3125  -999.2500     2.0723  1110.0000
  649.7300    17.6406  2060.0000      .0117    75.7500  -999.2500     2.0801  1120.0000
  649.8824    17.6563  2062.0000      .0103    73.2500  -999.2500     2.0684  1125.0000
  650.0348    17.7344  2062.0000      .0093    71.1250  -999.2500     2.0645  1115.0000
  650.1872    17.7344  2062.0000      .0225    70.4375  -999.2500     2.0703  1115.0000
  650.3396    17.6250  2062.0000      .0195    70.7500  -999.2500     2.0625  1120.0000
  650.4920    17.7188  2060.0000      .0229    70.7500  -999.2500     2.0723  1110.0000
  650.6444    17.5938  2056.0000      .0020    70.5000  -999.2500     2.0664  1110.0000
  650.7968    17.7188  2054.0000      .0166    71.3125  -999.2500     2.0918  1115.0000
  650.9492    17.7656  2056.0000      .0098    69.3125  -999.2500     2.0840  1110.0000
  651.1016    17.5469  2056.0000      .0083    74.0000  -999.2500     2.0723  1115.0000
  651.2540    17.6719  2058.0000     -.0015    70.3750  -999.2500     2.0566  1130.0000
  651.4064    17.6094  2058.0000      .0210    72.5625  -999.2500     2.0723  1115.0000
  651.5588    17.5781  2060.0000      .0347    72.3125  -999.2500     2.0898  1130.0000
  651.7112    17.6563  2060.0000      .0308    72.6250  -999.2500     2.0820  1105.0000
  651.8636    17.7969  2060.0000      .0078    72.6250  -999.2500     2.0566  1115.0000
  652.0160    17.7500  2060.0000     -.0005    73.0625  -999.2500     2.0469  1130.0000
  652.1684    17.7344  2058.0000      .0044    77.4375  -999.2500     2.0586  1105.0000
  652.3208    17.7188  2056.0000      .0088    78.3125  -999.2500     2.0664  1115.0000
  652.4732    17.7500  2054.0000      .0146    76.3750  -999.2500     2.0742  1115.0000
  652.6256    17.6875  2056.0000      .0068    76.0625  -999.2500     2.0605  1110.0000
  652.7780    17.5313  2056.0000      .0059    76.0625  -999.2500     2.0625  1115.0000
  652.9304    17.5781  2058.0000      .0049    74.0625  -999.2500     2.0586  1130.0000
  653.0828    17.7344  2058.0000      .0186    72.9375  -999.2500     2.0801  1115.0000
  653.2352    17.7500  2060.0000      .0166    74.1875  -999.2500     2.0723  1115.0000
  653.3876    17.8438  2062.0000      .0161    76.8125  -999.2500     2.0645  1110.0000
  653.5400    17.6875  2062.0000      .0215    78.0000  -999.2500     2.0684  1120.0000
  653.6924    17.5625  2062.0000      .0132    77.0625  -999.2500     2.0586  1105.0000
  653.8448    17.6875  2062.0000      .0166    72.6875  -999.2500     2.0684  1125.0000
  653.9972    17.6094  2060.0000     -.0005    70.3750  -999.2500     2.0566  1125.0000
  654.1496    17.8438  2058.0000      .0176    68.9375  -999.2500     2.0840  1130.0000
  654.3020    17.7188  2054.0000      .0195    73.2500  -999.2500     2.0918  1110.0000
  654.4544    17.7500  2054.0000      .0273    73.0000  -999.2500     2.1016  1125.0000
  654.6068    17.8750  2054.0000      .0020    69.3750  -999.2500     2.0645  1115.0000
  654.7592    17.8125  2056.0000     -.0063    67.0625  -999.2500     2.0508  1110.0000
  654.9116    17.8125  2056.0000     -.0034    67.0000  -999.2500     2.0488  1120.0000
  655.0640    17.8125  2058.0000      .0049    69.3750  -999.2500     2.0664  1115.0000
  655.2164    17.7188  2060.0000      .0107    69.1875  -999.2500     2.0762  1130.0000
  655.3688    17.7656  2060.0000      .0088    71.3125  -999.2500     2.0703  1115.0000
  655.5212    17.6406  2060.0000      .0137    72.0000  -999.2500     2.0762  1110.0000
  655.6736    17.5469  2058.0000      .0225    73.2500  -999.2500     2.0742  1135.0000
  655.8260    17.6250  2056.0000      .0298    71.1875  -999.2500     2.0781  1110.0000
  655.9784    17.5469  2054.0000      .0312    68.0000  -999.2500     2.0801  1130.0000
  656.1308    17.5781  2054.0000      .0244    68.3750  -999.2500     2.0820  1130.0000
  656.2832    17.4531  2054.0000      .0254    70.2500  -999.2500     2.0840  1125.0000
  656.4356    17.5469  2056.0000      .0366    74.3125  -999.2500     2.0879  1110.0000
  656.5880    17.5313  2058.0000      .0347    76.1875  -999.2500     2.0645  1115.0000
  656.7404    17.5156  2058.0000      .0303    71.6875  -999.2500     2.0527  1120.0000
  656.8928    17.5000  2060.0000      .0044    70.8125  -999.2500     2.0117  1120.0000
  657.0452    17.5000  2060.0000      .0010    69.8750  -999.2500     2.0137  1120.0000
