~VERSION INFORMATION
VERS.                                                 2.0:   CWLS Log ASCII Standard-VERSION 2.0
WRAP.                                                  NO:   One line per depth step
~Well Information Block
STRT.M                                           449.1716:   Top Depth
STOP.M                                          3296.7656:   Bottom Depth
STEP.M                                             .15240:   Depth Increment
NULL.                                            -999.250:   Null Value
FLD .                                             WILDCAT:   Field Name
WELL.                                             15/9-10:   NAME
WBN .                                             15/9-10:   WELLBORE
NATI.                                                 NOR:   COUNTRY
BHT1.DEGF                                            85.0:   BH TEMP 1
BHT2.DEGF                                           105.0:   BH TEMP 2
BHT3.DEGF                                           144.0:   BH TEMP 3
BS1 .IN                                            12.250:   BIT SIZE 1
CTRY.                                                 NOR:   COUNTRY
CBD1.M                                              172.0:   CSG 1 DRILL DEP
CBL1.M                                              172.0:   CSG 1 LOG DEP
CS1 .IN                                              30.0:   CSG 1 SIZE
COMP.                                             STATOIL:   OPERATOR
PDAT.                                                 MSL:   PERM DATUM
PROV.                                           NORTH SEA:   PROVINCE
COUN.                                    NEPTUNO NORDRAUG:   RIG NAME
SPUD.                                          1981/09/15:   SPUD DATE
LATI.                                       58 19 42.92 N:   SURF. LATITUDE
LONG.                                        1 46 20.61 E:   SURF. LONGITUDE
BTD1.                                             484.0 M:   TOTAL DEPTH 1
BTD2.                                            1179.0 M:   TOTAL DEPTH 2
BTD3.                                           2718.50 M:   TOTAL DEPTH 3
PBWE.                                             15/9-10:   PB WELL ID
APIN.                                             15/9-10:   PB WELLBORE ID
PBWS.                                                 all:   PB WELL NAME SET
~PARAMETER INFORMATION (log)
LNAM.                              FDC/CNL/GR  COMPOSITED:   NAME
LTYP.                                         DEPTH MATCH:   LOG TYPE
LSRV.                                            DEN/NEUT:   LOG SERVICE
LSOU.                                             SPT/NPD:   LOG SOURCE
LVSN.                                                   1:   LOG VERSION
BHIS.                                                   R:   BRIEF HISTORY
FHIS.                                             RAW-LIS:   FULL HISTORY
LCNM.                                        SCHLUMBERGER:   LOGGING CONTRACTOR
TOOL.                             FDC/CNL/GR (COMPOSITED):   TOOL STRING
~Curve Information Block
#MNEM.UNIT                                        API CODE    No Description
#=========                                        ========    == ===========
DEPT.M                                       00 001 00 00:     1  DEPTH
CALI.IN                                                  :     2  Caliper
CS.                                                      :     3  Cable Speed
DRHO.G/CC                                                :     4  Bulk density correction
GR.GAPI                                                  :     5  Gamma Ray
NPHI.%                                                   :     6  Neutron porosity
RHOB.G/CC                                                :     7  Bulk density
TENS.LB                                                  :     8  Cable Tension
~ASCII
  449.1716    18.8750  2104.0000  -999.2500    38.0000  -999.2500     1.8174   950.0000
  449.3240    18.8750  2106.0000     -.7217    38.6563  -999.2500     1.7979   940.0000
  449.4764    18.8750  2106.0000     -.7134    37.0313  -999.2500     1.8037   915.0000
  449.6288    18.8906  2106.0000     -.6782    37.5313  -999.2500     1.8525   935.0000
  449.7812    18.8750  2106.0000     -.6694    35.1563  -999.2500     1.8643   935.0000
  449.9336    18.8594  2102.0000     -.6851    35.0625  -999.2500     1.8457   945.0000
  450.0860    18.9063  2098.0000     -.7163    32.0000  -999.2500     1.8086   945.0000
  450.2384    18.9219  2096.0000     -.6880    34.4375  -999.2500     1.8447   940.0000
  450.3908    18.8750  2094.0000     -.7036    35.2500  -999.2500     1.8408   920.0000
  450.5432    18.8906  2096.0000     -.6816    37.5000  -999.2500     1.8604   920.0000
  450.6956    18.9063  2098.0000     -.7046    40.4375  -999.2500     1.8203   925.0000
  450.8480    18.8750  2098.0000     -.6904    40.8125  -999.2500     1.8076   930.0000
  451.0004    18.8906  2100.0000     -.6431    39.0000  -999.2500     1.8525   950.0000
  451.1528    18.9063  2102.0000     -.6436    36.0313  -999.2500     1.8271   935.0000
  451.3052    18.9063  2104.0000     -.5869    37.0625  -999.2500     1.8643   940.0000
  451.4576    18.9063  2104.0000     -.6562    36.1875  -999.2500     1.7471   920.0000
  451.6100    18.9063  2102.0000     -.6338    34.6562  -999.2500     1.7510   940.0000
  451.7624    18.9063  2102.0000     -.7466    32.4063  -999.2500     1.6143   940.0000
  451.9148    18.9844  2100.0000     -.7349    33.3750  -999.2500     1.6328   950.0000
  452.0672    18.9688  2100.0000     -.7627    34.1563  -999.2500     1.6172   945.0000
  452.2196    18.9063  2102.0000     -.7012    34.9687  -999.2500     1.6953   930.0000
  452.3720    18.9375  2104.0000     -.7329    37.5000  -999.2500     1.6504   940.0000
  452.5244    18.9844  2104.0000     -.6865    35.5937  -999.2500     1.7041   950.0000
  452.6768    18.9844  2106.0000     -.7109    34.5313  -999.2500     1.6953   950.0000
  452.8292    18.9844  2108.0000     -.6919    33.6250  -999.2500     1.7324   940.0000
  452.9816    18.9688  2108.0000     -.7246    37.6563  -999.2500     1.7012   940.0000
  453.1340    18.9375  2108.0000     -.7163    38.7187  -999.2500     1.7148   940.0000
  453.2864    19.0000  2106.0000     -.7788    37.1562  -999.2500     1.6455   930.0000
  453.4388    19.0625  2104.0000     -.8042    35.0938  -999.2500     1.6260   925.0000
  453.5912    18.9375  2100.0000     -.7612    36.1563  -999.2500     1.6553   930.0000
  453.7436    18.9219  2096.0000     -.6489    36.3750  -999.2500     1.7822   955.0000
  453.8960    18.9219  2094.0000     -.6436    37.1875  -999.2500     1.7549   950.0000
  454.0484    18.9688  2096.0000     -.6431    33.6250  -999.2500     1.7617   920.0000
  454.2008    18.9531  2098.0000     -.6768    34.5313  -999.2500     1.7402   920.0000
  454.3532    18.9688  2098.0000     -.6685    34.3125  -999.2500     1.7822   920.0000
  454.5056    19.0313  2100.0000     -.6372    34.4375  -999.2500     1.8213   920.0000
  454.6580    19.0313  2102.0000     -.6035    32.6563  -999.2500     1.8389   975.0000
  454.8104    19.0313  2102.0000     -.5767    31.9844  -999.2500     1.8398   955.0000
  454.9628    19.0625  2102.0000     -.6323    35.9375  -999.2500     1.7842   940.0000
  455.1152    19.0313  2102.0000     -.6929    37.1250  -999.2500     1.7246   930.0000
  455.2676    19.0313  2098.0000     -.7212    37.1250  -999.2500     1.7119   920.0000
  455.4200    19.0313  2098.0000     -.7476    35.5313  -999.2500     1.6719   950.0000
  455.5724    19.0625  2098.0000     -.7222    38.5625  -999.2500     1.7012   925.0000
  455.7248    18.9844  2098.0000     -.7080    36.0938  -999.2500     1.7100   930.0000
  455.8772    19.0000  2100.0000     -.6455    34.1875  -999.2500     1.7783   930.0000
  456.0296    18.9375  2100.0000     -.6157    30.9375  -999.2500     1.8018   925.0000
  456.1820    19.0000  2104.0000     -.6177    32.3438  -999.2500     1.8086   940.0000
  456.3344    19.0000  2106.0000     -.6489    32.4375  -999.2500     1.7891   940.0000
  456.4868    18.9844  2106.0000     -.6670    31.1563  -999.2500     1.7822   910.0000
  456.6392    18.9844  2106.0000     -.6479    30.1250  -999.2500     1.7891   910.0000
  456.7916    18.9063  2106.0000     -.6206    28.9375  -999.2500     1.8057   950.0000
  456.9440    18.9063  2104.0000     -.6367    29.3281  -999.2500     1.7832   950.0000
  457.0964    18.9063  2102.0000     -.6616    29.7656  -999.2500     1.7832   940.0000
  457.2488    18.9219  2098.0000     -.7812    30.2812  -999.2500     1.6582   935.0000
  457.4012    18.8750  2096.0000     -.7471    27.8125  -999.2500     1.7070   945.0000
  457.5536    18.8750  2094.0000     -.6685    27.5781  -999.2500     1.7939   945.0000
  457.7060    18.8438  2096.0000     -.5996    28.5000  -999.2500     1.8896   940.0000
  457.8584    18.7969  2096.0000     -.7646    30.4531  -999.2500     1.8076   930.0000
  458.0108    18.8125  2098.0000    -1.0547    30.8125  -999.2500     1.5645   915.0000
  458.1632    18.8125  2100.0000    -1.0381    32.3438  -999.2500     1.7090   935.0000
  458.3156    18.9063  2100.0000     -.8081    31.3594  -999.2500     1.8281   955.0000
  458.4680    18.9375  2102.0000     -.7773    31.9844  -999.2500     1.7705   970.0000
  458.6204    18.9688  2102.0000     -.7930    29.4063  -999.2500     1.6650   950.0000
  458.7728    18.9844  2100.0000     -.8784    29.2656  -999.2500     1.5645   950.0000
  458.9252    19.0781  2096.0000     -.8862    29.0938  -999.2500     1.5674   935.0000
  459.0776    19.0156  2096.0000     -.8838    31.1719  -999.2500     1.5820   950.0000
  459.2300    18.9688  2098.0000     -.8818    30.2812  -999.2500     1.5947   940.0000
  459.3824    18.9688  2098.0000     -.8701    30.5469  -999.2500     1.6162   930.0000
  459.5348    18.9531  2100.0000     -.8242    31.4063  -999.2500     1.6563   930.0000
  459.6872    18.9063  2102.0000     -.8071    32.2813  -999.2500     1.6729   920.0000
  459.8396    18.9219  2104.0000     -.7734    31.2500  -999.2500     1.7266   920.0000
  459.9920    18.9531  2104.0000     -.8164    32.7500  -999.2500     1.6934   925.0000
  460.1444    18.9375  2106.0000     -.7690    35.0313  -999.2500     1.7578   920.0000
  460.2968    18.9531  2106.0000     -.7661    36.4063  -999.2500     1.7539   930.0000
  460.4492    18.9531  2106.0000     -.8257    36.0313  -999.2500     1.7021   935.0000
  460.6016    18.9688  2102.0000     -.8423    37.0625  -999.2500     1.6865   930.0000
  460.7540    18.9844  2098.0000     -.8354    36.1563  -999.2500     1.6865   925.0000
  460.9064    19.0000  2094.0000     -.8467    33.6875  -999.2500     1.6709   940.0000
  461.0588    19.0625  2094.0000     -.8262    34.5313  -999.2500     1.7031   945.0000
  461.2112    19.1250  2096.0000     -.8164    36.1875  -999.2500     1.7217   935.0000
  461.3636    19.1094  2096.0000     -.7930    39.0312  -999.2500     1.7393   950.0000
  461.5160    18.9844  2098.0000     -.8682    38.8438  -999.2500     1.6484   955.0000
  461.6684    18.9844  2100.0000     -.9165    42.3437  -999.2500     1.5957   915.0000
  461.8208    18.9844  2102.0000     -.8896    38.5625  -999.2500     1.6504   950.0000
  461.9732    18.9844  2100.0000     -.8740    37.5313  -999.2500     1.6641   925.0000
  462.1256    19.0781  2102.0000     -.8359    34.4688  -999.2500     1.7275   925.0000
  462.2780    19.1094  2102.0000     -.8237    37.9688  -999.2500     1.7295   940.0000
  462.4304    19.0313  2098.0000     -.7959    39.6250  -999.2500     1.7686   920.0000
  462.5828    19.1094  2096.0000     -.7808    41.6250  -999.2500     1.7676   930.0000
  462.7352    19.1250  2096.0000     -.7993    41.2813  -999.2500     1.7197   935.0000
  462.8876    18.9688  2098.0000     -.7891    39.4375  -999.2500     1.7266   940.0000
