~VERSION INFORMATION
VERS.                                                 2.0:   CWLS Log ASCII Standard-VERSION 2.0
WRAP.                                                  NO:   One line per depth step
~Well Information Block
STRT.M                                           449.1716:   Top Depth
STOP.M                                          3296.7656:   Bottom Depth
STEP.M                                             .15240:   Depth Increment
NULL.                                            -999.250:   Null Value
FLD .                                             WILDCAT:   Field Name
WELL.                                             15/9-10:   NAME
WBN .                                             15/9-10:   WELLBORE
NATI.                                                 NOR:   COUNTRY
BHT1.DEGF                                            85.0:   BH TEMP 1
BHT2.DEGF                                           105.0:   BH TEMP 2
BHT3.DEGF                                           144.0:   BH TEMP 3
BS1 .IN                                            12.250:   BIT SIZE 1
CTRY.                                                 NOR:   COUNTRY
CBD1.M                                              172.0:   CSG 1 DRILL DEP
CBL1.M                                              172.0:   CSG 1 LOG DEP
CS1 .IN                                              30.0:   CSG 1 SIZE
COMP.                                             STATOIL:   OPERATOR
PDAT.                                                 MSL:   PERM DATUM
PROV.                                           NORTH SEA:   PROVINCE
COUN.                                    NEPTUNO NORDRAUG:   RIG NAME
SPUD.                                          1981/09/15:   SPUD DATE
LATI.                                       58 19 42.92 N:   SURF. LATITUDE
LONG.                                        1 46 20.61 E:   SURF. LONGITUDE
BTD1.                                             484.0 M:   TOTAL DEPTH 1
BTD2.                                            1179.0 M:   TOTAL DEPTH 2
BTD3.                                           2718.50 M:   TOTAL DEPTH 3
PBWE.                                             15/9-10:   PB WELL ID
APIN.                                             15/9-10:   PB WELLBORE ID
PBWS.                                                 all:   PB WELL NAME SET
~PARAMETER INFORMATION (log)
LNAM.                              FDC/CNL/GR  COMPOSITED:   NAME
LTYP.                                         DEPTH MATCH:   LOG TYPE
LSRV.                                            DEN/NEUT:   LOG SERVICE
LSOU.                                             SPT/NPD:   LOG SOURCE
LVSN.                                                   1:   LOG VERSION
BHIS.                                                   R:   BRIEF HISTORY
FHIS.                                             RAW-LIS:   FULL HISTORY
LCNM.                                        SCHLUMBERGER:   LOGGING CONTRACTOR
TOOL.                             FDC/CNL/GR (COMPOSITED):   TOOL STRING
~Curve Information Block
#MNEM.UNIT                                        API CODE    No Description
#=========                                        ========    == ===========
DEPT.M                                       00 001 00 00:     1  DEPTH
CALI.IN                                                  :     2  Caliper
CS.                                                      :     3  Cable Speed
DRHO.G/CC                                                :     4  Bulk density correction
GR.GAPI                                                  :     5  Gamma Ray
NPHI.%                                                   :     6  Neutron porosity
RHOB.G/CC                                                :     7  Bulk density
TENS.LB                                                  :     8  Cable Tension
~ASCII
# ...
 2529.4316    12.4746  1882.0000      .0083    40.4089  -999.2500     2.0887  2848.6665
 2529.5840    12.2982  1883.8333      .0173    41.7005  -999.2500     2.0392  2831.6665
 2529.7364    12.4176  1884.0000     -.0048    41.8412  -999.2500     2.0621  2888.7690
 2529.8888    12.2363  1885.8335      .0142    40.3826  -999.2500     2.1755  2890.3325
 2530.0412    12.3477  1886.9165      .0564    39.5911  -999.2500     2.1927  2853.3330
 2530.1936    13.5840  1887.0000      .0350    42.9401  -999.2500     2.0340  2859.1665
 2530.3460    15.3740  1885.1633      .0233    43.7665  -999.2500     1.9191  2869.1826
 2530.4984    15.7745  1881.3269     -.0197    42.5212  -999.2500     1.8743  2925.0962
 2530.6508    14.7798  1878.2495     -.0355    38.5385  -999.2500     1.9785  2878.6592
 2530.8032    13.1979  1877.0833     -.0317    38.1302  -999.2500     2.1834  2888.6665
 2530.9556    12.6185  1877.0000      .0068    37.2370  -999.2500     2.4124  2921.1665
 2531.1080    12.5781  1877.9182      .0273    37.5293  -999.2500     2.4711  2960.7305
 2531.2604    12.6211  1878.0000      .0319    35.3851  -999.2500     2.4674  2932.8286
 2531.4128    12.5964  1878.9165      .0304    33.9557  -999.2500     2.4650  2865.8330
 2531.5652    12.6009  1880.8333      .0177    33.5859  -999.2500     2.4666  2832.5000
 2531.7176    12.6087  1881.0000     -.0009    33.7060  -999.2500     2.4578  2848.3652
 2531.8700    12.6094  1880.0833      .0056    32.3149  -999.2500     2.4731  2877.5039
 2532.0224    12.6022  1879.0833      .0140    34.2786  -999.2500     2.4871  2907.5000
 2532.1748    12.6230  1876.2500      .0281    34.1250  -999.2500     2.5080  2873.3330
 2532.3272    12.6035  1876.9167      .0369    35.4976  -999.2500     2.5295  2860.8320
 2532.4796    12.5801  1877.9165      .0269    32.4740  -999.2500     2.5151  2850.8330
 2532.6320    12.6712  1878.9165      .0205    32.5885  -999.2500     2.4868  2859.1665
 2532.7844    12.5221  1880.8333      .0334    33.2266  -999.2500     2.4701  2850.8330
 2532.9368    12.2715  1882.8333      .0638    34.5417  -999.2500     2.4401  2859.1665
 2533.0892    12.0709  1884.8335      .0700    35.8022  -999.2500     2.4124  2887.5039
 2533.2416    12.4557  1885.0000      .0439    37.3099  -999.2500     2.3833  2890.0000
 2533.3940    12.1341  1885.0000      .0236    36.5495  -999.2500     2.4202  2902.8330
 2533.5464    12.4238  1882.2500      .0282    33.1172  -999.2500     2.4847  2854.5000
 2533.6988    12.4746  1879.2495      .0270    30.3629  -999.2500     2.5207  2831.6641
 2533.8512    12.4408  1879.9165      .0179    28.6797  -999.2500     2.5360  2866.6665
 2534.0036    12.4733  1880.0000      .0050    27.9310  -999.2500     2.5407  2879.1665
 2534.1560    12.5052  1880.9165      .0017    26.6719  -999.2500     2.5446  2874.5000
 2534.3084    12.5150  1881.9167      .0010    26.4049  -999.2500     2.5324  2901.5039
 2534.4608    12.5371  1883.8333      .0104    27.3789  -999.2500     2.5312  2867.3330
 2534.6132    12.5391  1884.9165      .0032    29.6458  -999.2500     2.5026  2878.6665
 2534.7656    12.5391  1885.9165      .0109    31.6484  -999.2500     2.4964  2889.1665
 2534.9180    12.5247  1885.0833      .0180    36.0521  -999.2500     2.4818  2871.6665
 2535.0704    12.5234  1884.0833      .0311    35.8358  -999.2500     2.4715  2855.3311
 2535.2228    12.4590  1882.1665      .0398    37.4427  -999.2500     2.3382  2877.8330
 2535.3752    12.4030  1881.0833      .0195    35.6745  -999.2500     2.1077  2865.3330
 2535.5276    13.7878  1881.9165      .0328    39.4531  -999.2500     1.9751  2864.0000
 2535.6800    15.3895  1883.8335      .0243    42.1045  -999.2500     1.8950  2873.1680
 2535.8324    16.3613  1884.9165      .0221    44.4609  -999.2500     1.8654  2855.6665
 2535.9848    17.1536  1886.8333     -.0044    43.8255  -999.2500     1.8132  2844.8330
 2536.1372    16.5456  1888.8333     -.0234    43.2057  -999.2500     1.8247  2849.5000
 2536.2896    15.8469  1889.9167     -.0424    38.6582  -999.2500     1.9139  2899.5068
 2536.4420    12.5306  1890.0000     -.0319    33.9818  -999.2500     2.1045  3019.5000
 2536.5944    12.0697  1888.1665     -.0133    30.0417  -999.2500     2.2590  2942.0000
 2536.7468    11.9687  1885.2500      .0017    32.1250  -999.2500     2.3073  2902.8330
 2536.8992    11.9323  1884.0833      .0271    34.3203  -999.2500     2.2282  2830.3330
 2537.0516    12.3379  1884.0000      .0266    38.3391  -999.2500     2.0739  2805.6641
 2537.2040    15.1035  1883.0833      .0443    40.7500  -999.2500     2.0068  2837.0000
 2537.3564    16.2181  1882.0833      .0329    43.3438  -999.2500     2.0055  2812.5000
 2537.5088    16.6836  1882.9165      .0358    44.7370  -999.2500     2.0524  2813.6665
 2537.6612    17.4923  1883.9167      .0339    44.7005  -999.2500     2.0369  2810.3325
 2537.8136    16.8607  1884.9165      .0019    44.4010  -999.2500     1.8803  2855.8330
 2537.9660    16.5104  1885.0000     -.0126    41.7969  -999.2500     1.8367  2924.1665
 2538.1184    14.6725  1884.0833     -.0275    41.3047  -999.2500     1.8644  3012.5000
 2538.2708    14.7012  1883.0833     -.0082    41.3672  -999.2500     2.0498  2941.1553
 2538.4232    12.2122  1881.1665      .0142    39.6562  -999.2500     2.1792  2893.6665
 2538.5756    11.7839  1881.9165      .0143    34.6302  -999.2500     2.1859  2871.6665
 2538.7280    11.8587  1882.9165     -.0028    31.4948  -999.2500     2.1712  2855.3330
 2538.8804    11.9460  1883.9165     -.0013    28.6576  -999.2500     2.1735  2832.0000
 2539.0328    11.8385  1884.9167      .0013    29.0235  -999.2500     2.1989  2866.6719
 2539.1852    11.7995  1885.0000      .0055    27.6315  -999.2500     2.1940  2873.6665
 2539.3376    11.8112  1885.9165      .0148    28.8750  -999.2500     2.1934  2855.6665
 2539.4900    11.9701  1885.0833      .0299    32.2083  -999.2500     2.2041  2868.6665
 2539.6424    12.6648  1884.0833      .0375    33.6746  -999.2500     2.2104  2842.4961
 2539.7948    12.2611  1880.3333      .0282    38.0495  -999.2500     2.2056  2825.3330
 2539.9472    12.0970  1876.3333      .0206    38.7240  -999.2500     2.2015  2824.0000
 2540.0996    11.9928  1876.0000      .0276    43.9635  -999.2500     2.2209  2820.3330
 2540.2520    11.9056  1876.0000      .0404    42.8617  -999.2500     2.1815  2838.3359
 2540.4044    12.6790  1876.0000      .0496    46.3281  -999.2500     2.1240  2880.3330
 2540.5568    13.0078  1877.8333      .0396    48.5469  -999.2500     2.0726  2871.1665
 2540.7092    12.8451  1879.8333      .0090    51.8698  -999.2500     2.0701  2851.6665
 2540.8616    12.6777  1881.8333     -.0053    48.0313  -999.2500     2.1312  2813.3330
 2541.0140    12.3412  1882.0000     -.0041    43.8397  -999.2500     2.2103  2828.3652
 2541.1664    11.9466  1882.0000      .0167    37.4739  -999.2500     2.2957  2866.7305
 2541.3188    11.8351  1882.0000      .0513    35.3305  -999.2500     2.3368  2915.9136
 2541.4712    11.8210  1880.1663      .0555    33.0101  -999.2500     2.3309  2920.0000
 2541.6236    11.7916  1880.0000      .0288    36.7438  -999.2500     2.2852  2874.0864
 2541.7760    11.7891  1881.8364      .0143    41.3120  -999.2500     2.2759  2814.9038
 2541.9284    11.8967  1883.8364      .0087    40.7118  -999.2500     2.2682  2819.1826
 2542.0808    11.9850  1885.8335      .0262    37.3016  -999.2500     2.2801  2842.0029
 2542.2332    11.9850  1887.8364      .0301    34.3026  -999.2500     2.2759  2867.8750
 2542.3856    11.9700  1889.8364      .0482    33.9764  -999.2500     2.3005  2882.8555
 2542.5380    11.9687  1890.9182      .0606    35.8340  -999.2500     2.3225  2847.2690
 2542.6904    11.9687  1890.0833      .0575    36.1719  -999.2500     2.3296  2825.6641
 2542.8428    12.1048  1888.1665      .0535    38.1354  -999.2500     2.2227  2824.0000
 2542.9952    12.0239  1885.2451      .0030    37.1647  -999.2500     1.9645  2833.1826
 2543.1476    13.3285  1883.1633     -.0140    40.3338  -999.2500     1.7971  2824.8174
