~VERSION INFORMATION
VERS.                                                 2.0:   CWLS Log ASCII Standard-VERSION 2.0
WRAP.                                                  NO:   One line per depth step
~Well Information Block
STRT.M                                           449.1716:   Top Depth
STOP.M                                          3296.7656:   Bottom Depth
STEP.M                                             .15240:   Depth Increment
NULL.                                            -999.250:   Null Value
FLD .                                             WILDCAT:   Field Name
WELL.                                             15/9-10:   NAME
WBN .                                             15/9-10:   WELLBORE
NATI.                                                 NOR:   COUNTRY
BHT1.DEGF                                            85.0:   BH TEMP 1
BHT2.DEGF                                           105.0:   BH TEMP 2
BHT3.DEGF                                           144.0:   BH TEMP 3
BS1 .IN                                            12.250:   BIT SIZE 1
CTRY.                                                 NOR:   COUNTRY
CBD1.M                                              172.0:   CSG 1 DRILL DEP
CBL1.M                                              172.0:   CSG 1 LOG DEP
CS1 .IN                                              30.0:   CSG 1 SIZE
COMP.                                             STATOIL:   OPERATOR
PDAT.                                                 MSL:   PERM DATUM
PROV.                                           NORTH SEA:   PROVINCE
COUN.                                    NEPTUNO NORDRAUG:   RIG NAME
SPUD.                                          1981/09/15:   SPUD DATE
LATI.                                       58 19 42.92 N:   SURF. LATITUDE
LONG.                                        1 46 20.61 E:   SURF. LONGITUDE
BTD1.                                             484.0 M:   TOTAL DEPTH 1
BTD2.                                            1179.0 M:   TOTAL DEPTH 2
BTD3.                                           2718.50 M:   TOTAL DEPTH 3
PBWE.                                             15/9-10:   PB WELL ID
APIN.                                             15/9-10:   PB WELLBORE ID
PBWS.                                                 all:   PB WELL NAME SET
~PARAMETER INFORMATION (log)
LNAM.                              FDC/CNL/GR  COMPOSITED:   NAME
LTYP.                                         DEPTH MATCH:   LOG TYPE
LSRV.                                            DEN/NEUT:   LOG SERVICE
LSOU.                                             SPT/NPD:   LOG SOURCE
LVSN.                                                   1:   LOG VERSION
BHIS.                                                   R:   BRIEF HISTORY
FHIS.                                             RAW-LIS:   FULL HISTORY
LCNM.                                        SCHLUMBERGER:   LOGGING CONTRACTOR
TOOL.                             FDC/CNL/GR (COMPOSITED):   TOOL STRING
~Curve Information Block
#MNEM.UNIT                                        API CODE    No Description
#=========                                        ========    == ===========
DEPT.M                                       00 001 00 00:     1  DEPTH
CALI.IN                                                  :     2  Caliper
CS.                                                      :     3  Cable Speed
DRHO.G/CC                                                :     4  Bulk density correction
GR.GAPI                                                  :     5  Gamma Ray
NPHI.%                                                   :     6  Neutron porosity
RHOB.G/CC                                                :     7  Bulk density
TENS.LB                                                  :     8  Cable Tension
~ASCII
# ...
 1766.6696    14.0898  1972.0000      .0148    58.5756  -999.2500     1.9792  2157.8350
 1766.8220    13.9271  1972.9165      .0128    56.9974  -999.2500     2.0002  2150.8330
 1766.9744    13.9141  1973.0000      .0221    55.0103  -999.2500     2.0288  2150.0000
 1767.1268    14.0215  1973.9165      .0332    53.0964  -999.2500     2.0545  2172.0000
 1767.2792    14.2604  1974.0000      .0440    51.6197  -999.2500     2.0763  2142.8311
 1767.4316    14.2741  1973.0833      .0319    53.6484  -999.2500     2.0638  2121.6665
 1767.5840    14.2089  1971.1650      .0240    53.7577  -999.2500     2.0374  2129.1743
 1767.7364    14.2533  1969.1665      .0024    53.0624  -999.2500     2.0002  2157.5020
 1767.8888    14.3080  1966.2476     -.0018    54.7203  -999.2500     1.9908  2160.0000
 1768.0412    14.2122  1966.0000      .0025    53.5858  -999.2500     1.9974  2160.0000
 1768.1936    14.1171  1966.0000      .0141    54.2715  -999.2500     2.0106  2145.3203
 1768.3460    14.0521  1966.0000      .0250    51.1352  -999.2500     2.0135  2140.3330
 1768.4984    14.0182  1966.9175      .0214    53.4815  -999.2500     2.0011  2130.8252
 1768.6508    14.0801  1967.9167      .0183    54.8933  -999.2500     1.9910  2111.6650
 1768.8032    14.0788  1968.0000      .0279    56.6042  -999.2500     2.0010  2155.8330
 1768.9556    13.8848  1968.9167      .0190    52.8825  -999.2500     1.9984  2141.6650
 1769.1080    13.8457  1968.0833      .0181    51.2708  -999.2500     1.9980  2149.1665
 1769.2604    13.9583  1968.0000      .0114    51.7292  -999.2500     1.9873  2168.3345
 1769.4128    14.1836  1967.0833      .0367    51.7813  -999.2500     1.9872  2164.5000
 1769.5652    14.0454  1967.0000      .0332    52.3833  -999.2500     1.9246  2160.3301
 1769.7176    14.4395  1967.9167      .0157    50.5181  -999.2500     1.8536  2154.4995
 1769.8700    14.3977  1968.0000     -.0078    49.6843  -999.2500     1.8226  2126.4761
 1770.0224    14.3189  1968.9175     -.0021    52.2914  -999.2500     1.8777  2157.0288
 1770.1748    14.1476  1970.8350      .0196    54.5384  -999.2500     1.9527  2178.3506
 1770.3272    14.2977  1971.0000      .0340    59.2201  -999.2500     1.9877  2152.4761
 1770.4796    14.1548  1971.0000      .0338    55.6681  -999.2500     1.9795  2159.1753
 1770.6320    14.0259  1971.0000      .0149    54.3950  -999.2500     1.9606  2160.0000
 1770.7844    14.0228  1971.0000      .0360    53.7968  -999.2500     1.9867  2114.1631
 1770.9368    13.9088  1970.0825      .0296    55.6423  -999.2500     1.9982  2113.6699
 1771.0892    13.9128  1968.1665      .0333    58.4481  -999.2500     2.0125  2174.5044
 1771.2416    13.9571  1966.1650      .0301    55.9064  -999.2500     2.0190  2146.9712
 1771.3940    13.9896  1966.0000      .0392    56.7162  -999.2500     2.0124  2144.0000
 1771.5464    14.0710  1966.9175      .0414    56.2391  -999.2500     1.9920  2125.6504
 1771.6988    14.0280  1967.9167      .0205    57.1902  -999.2500     1.9464  2111.1655
 1771.8512    13.8012  1968.9175      .0051    58.0840  -999.2500     1.9352  2155.8730
 1772.0036    13.7024  1969.9175      .0066    56.0346  -999.2500     1.9552  2150.8252
 1772.1560    13.5448  1970.0000      .0131    56.5606  -999.2500     1.9857  2162.8452
 1772.3084    13.5814  1969.0825      .0285    56.7970  -999.2500     2.0062  2145.6504
 1772.4608    13.7006  1967.1648      .0383    59.1637  -999.2500     2.0239  2158.6807
 1772.6132    13.9761  1966.0825      .0323    61.1239  -999.2500     2.0218  2114.1265
 1772.7656    14.1218  1965.0833      .0362    58.0727  -999.2500     2.0251  2119.1670
 1772.9180    14.6059  1965.9175      .0362    54.5988  -999.2500     2.0164  2138.3491
 1773.0704    14.3834  1966.0000      .0482    52.2785  -999.2500     2.0264  2140.0000
 1773.2228    14.0727  1966.9175      .0404    50.9756  -999.2500     2.0202  2149.1743
 1773.3752    14.0755  1967.9167      .0324    51.3047  -999.2500     1.9998  2168.3345
 1773.5276    14.4795  1969.8350      .0138    48.8207  -999.2500     1.9461  2155.3203
 1773.6800    14.0573  1970.9167     -.0026    50.2840  -999.2500     1.9119  2177.8350
 1773.8324    14.8686  1971.9175     -.0093    48.7746  -999.2500     1.9208  2146.9712
 1773.9848    14.4937  1972.0000      .0059    48.8830  -999.2500     1.9577  2140.3301
 1774.1372    14.1090  1972.0000      .0194    48.7629  -999.2500     1.9905  2143.6699
 1774.2896    14.2860  1970.1650      .0375    48.8073  -999.2500     2.0156  2140.3301
 1774.4420    14.2903  1970.0000      .0332    47.6656  -999.2500     2.0319  2149.1753
 1774.5944    14.2819  1970.0000      .0376    46.9604  -999.2500     2.0404  2177.5239
 1774.7468    13.9661  1969.0833      .0291    49.1121  -999.2500     2.0231  2137.8301
 1774.8992    13.8587  1969.9175      .0252    51.2621  -999.2500     2.0071  2157.8540
 1775.0516    13.6940  1970.9167      .0155    54.1304  -999.2500     1.9951  2187.5020
 1775.2040    13.7084  1972.8350      .0138    55.6652  -999.2500     1.9923  2162.4761
 1775.3564    14.0189  1973.9167      .0110    58.4455  -999.2500     1.9904  2160.0000
 1775.5088    13.8390  1973.0825      .0219    58.9742  -999.2500     1.9938  2163.6699
 1775.6612    13.7988  1971.1665      .0355    56.5363  -999.2500     1.9870  2141.9980
 1775.8136    13.8184  1971.0000      .0227    54.8790  -999.2500     1.9603  2097.7964
 1775.9660    13.9565  1969.1650      .0197    52.7430  -999.2500     1.9401  2149.0479
 1776.1184    13.8541  1969.0000      .0236    53.3653  -999.2500     1.9313  2168.6807
 1776.2708    13.9226  1969.0000      .0324    53.0648  -999.2500     1.9253  2142.4761
 1776.4232    14.1374  1969.9167      .0314    52.2291  -999.2500     1.9248  2140.0000
 1776.5756    14.1993  1970.0000      .0192    50.7227  -999.2500     1.9185  2149.1743
 1776.7280    14.3464  1970.0000      .0315    51.7683  -999.2500     1.9430  2159.1670
 1776.8804    13.7358  1970.9175      .0255    54.1973  -999.2500     1.9534  2178.3491
 1777.0328    14.7898  1971.0000      .0267    55.0365  -999.2500     1.9801  2165.3320
 1777.1852    13.8011  1970.0825      .0228    55.0651  -999.2500     2.0039  2169.5049
 1777.3376    13.9180  1969.0833      .0395    51.2237  -999.2500     2.0220  2155.3320
 1777.4900    14.2242  1966.2476      .0482    52.1365  -999.2500     2.0216  2154.0000
 1777.6424    14.8659  1964.1665      .0381    50.6457  -999.2500     1.9902  2150.3330
 1777.7948    15.2086  1964.0000      .0380    54.0265  -999.2500     1.9819  2181.1938
 1777.9472    14.3606  1964.9167      .0175    53.0259  -999.2500     1.9600  2125.3291
 1778.0996    13.8873  1965.9167      .0161    53.7370  -999.2500     1.9500  2142.0015
 1778.2520    13.7656  1966.9165      .0022    53.7552  -999.2500     1.9438  2140.3330
 1778.4044    13.6003  1968.8333      .0055    52.9193  -999.2500     1.9586  2149.1665
 1778.5568    13.5143  1969.0000      .0072    51.7838  -999.2500     1.9823  2159.1670
 1778.7092    13.5794  1969.0000      .0230    52.7188  -999.2500     2.0005  2187.5000
 1778.8616    13.5573  1969.0000      .0396    56.0784  -999.2500     2.0109  2175.3320
 1779.0140    13.6406  1968.0833      .0441    57.8073  -999.2500     2.0010  2164.8330
 1779.1664    13.7845  1965.2498      .0417    57.3359  -999.2500     1.9866  2151.1655
 1779.3188    14.6706  1965.0000      .0348    54.3307  -999.2500     1.9755  2162.8330
 1779.4712    14.3131  1965.9167      .0360    55.3517  -999.2500     1.9827  2164.0000
 1779.6236    14.1660  1966.9165      .0464    55.5260  -999.2500     1.9968  2123.6665
 1779.7760    14.3568  1967.0000      .0612    56.2761  -999.2500     2.0016  2147.5020
 1779.9284    14.9264  1967.9165      .0737    52.4479  -999.2500     2.0020  2168.3330
 1780.0808    14.9264  1968.0000      .0752    51.4921  -999.2500     1.9930  2219.5034
 1780.2332    14.5280  1968.0000      .0707    52.9844  -999.2500     1.9806  2178.1665
 1780.3856    14.2917  1967.0833      .0421    55.8750  -999.2500     1.9285  2146.5000
