~VERSION INFORMATION
VERS.                                                 2.0:   CWLS Log ASCII Standard-VERSION 2.0
WRAP.                                                  NO:   One line per depth step
~Well Information Block
STRT.M                                           449.1716:   Top Depth
STOP.M                                          3296.7656:   Bottom Depth
STEP.M                                             .15240:   Depth Increment
NULL.                                            -999.250:   Null Value
FLD .                                             WILDCAT:   Field Name
WELL.                                             15/9-10:   NAME
WBN .                                             15/9-10:   WELLBORE
NATI.                                                 NOR:   COUNTRY
BHT1.DEGF                                            85.0:   BH TEMP 1
BHT2.DEGF                                           105.0:   BH TEMP 2
BHT3.DEGF                                           144.0:   BH TEMP 3
BS1 .IN                                            12.250:   BIT SIZE 1
CTRY.                                                 NOR:   COUNTRY
CBD1.M                                              172.0:   CSG 1 DRILL DEP
CBL1.M                                              172.0:   CSG 1 LOG DEP
CS1 .IN                                              30.0:   CSG 1 SIZE
COMP.                                             STATOIL:   OPERATOR
PDAT.                                                 MSL:   PERM DATUM
PROV.                                           NORTH SEA:   PROVINCE
COUN.                                    NEPTUNO NORDRAUG:   RIG NAME
SPUD.                                          1981/09/15:   SPUD DATE
LATI.                                       58 19 42.92 N:   SURF. LATITUDE
LONG.                                        1 46 20.61 E:   SURF. LONGITUDE
BTD1.                                             484.0 M:   TOTAL DEPTH 1
BTD2.                                            1179.0 M:   TOTAL DEPTH 2
BTD3.                                           2718.50 M:   TOTAL DEPTH 3
PBWE.                                             15/9-10:   PB WELL ID
APIN.                                             15/9-10:   PB WELLBORE ID
PBWS.                                                 all:   PB WELL NAME SET
~PARAMETER INFORMATION (log)
LNAM.                              FDC/CNL/GR  COMPOSITED:   NAME
LTYP.                                         DEPTH MATCH:   LOG TYPE
LSRV.                                            DEN/NEUT:   LOG SERVICE
LSOU.                                             SPT/NPD:   LOG SOURCE
LVSN.                                                   1:   LOG VERSION
BHIS.                                                   R:   BRIEF HISTORY
FHIS.                                             RAW-LIS:   FULL HISTORY
LCNM.                                        SCHLUMBERGER:   LOGGING CONTRACTOR
TOOL.                             FDC/CNL/GR (COMPOSITED):   TOOL STRING
~Curve Information Block
#MNEM.UNIT                                        API CODE    No Description
#=========                                        ========    == ===========
DEPT.M                                       00 001 00 00:     1  DEPTH
CALI.IN                                                  :     2  Caliper
CS.                                                      :     3  Cable Speed
DRHO.G/CC                                                :     4  Bulk density correction
GR.GAPI                                                  :     5  Gamma Ray
NPHI.%                                                   :     6  Neutron porosity
RHOB.G/CC                                                :     7  Bulk density
TENS.LB                                                  :     8  Cable Tension
~ASCII
# ...
 1198.0652    12.4278  2475.8350     -.0112    51.7822  -999.2500     1.8122  1605.3601
 1198.2176    12.6304  2476.0000     -.0108    57.8878  -999.2500     1.8241  1595.4126
 1198.3700    12.7058  2476.0000     -.0018    58.3776  -999.2500     1.8440  1608.7629
 1198.5224    12.4457  2477.8350      .0120    56.6834  -999.2500     1.8627  1610.0000
 1198.6748    12.4219  2476.1650      .0141    53.9794  -999.2500     1.8634  1591.6492
 1198.8272    12.5151  2474.1650      .0025    53.4346  -999.2500     1.8436  1612.9365
 1198.9796    12.7455  2474.0000     -.0017    54.5522  -999.2500     1.8355  1633.3347
 1199.1320    12.6223  2470.3301     -.0011    55.9464  -999.2500     1.8457  1598.3013
 1199.2844    12.7096  2468.1665      .0022    56.0911  -999.2500     1.8700  1590.4163
 1199.4368    12.8048  2468.0000      .0011    59.3622  -999.2500     1.8989  1622.1113
 1199.5892    12.7552  2469.8335      .0046    57.8514  -999.2500     1.9139  1611.2490
 1199.7416    12.7428  2471.8335      .0125    58.0886  -999.2500     1.9106  1637.5020
 1199.8940    12.9499  2472.0000      .0145    56.3203  -999.2500     1.8931  1621.6665
 1200.0464    13.0476  2473.8350      .0008    60.4569  -999.2500     1.8656  1647.5239
 1200.1988    13.2552  2475.8335      .0044    61.5026  -999.2500     1.8695  1627.0815
 1200.3512    14.0977  2476.0000     -.0023    57.4339  -999.2500     1.8441  1611.2380
 1200.5036    13.1764  2476.0000     -.0096    54.1691  -999.2500     1.8078  1651.2529
 1200.6560    12.9928  2474.1650     -.0210    53.6482  -999.2500     1.7680  1645.8252
 1200.8084    12.7194  2472.1665     -.0197    56.0314  -999.2500     1.7638  1576.2449
 1200.9608    12.7240  2472.0000     -.0097    53.6432  -999.2500     1.7780  1661.6665
 1201.1132    12.8770  2472.0000     -.0088    55.0105  -999.2500     1.7891  1642.4980
 1201.2656    12.9694  2473.8330     -.0061    54.6120  -999.2500     1.7999  1612.5000
 1201.4180    13.0267  2475.8335     -.0090    59.1175  -999.2500     1.8232  1614.5835
 1201.5704    13.1602  2476.0000     -.0017    59.3594  -999.2500     1.8503  1605.8333
 1201.7228    13.1003  2477.8335     -.0005    57.8827  -999.2500     1.8704  1609.5835
 1201.8752    13.2585  2478.0000      .0053    54.5703  -999.2500     1.8721  1614.5833
 1202.0276    13.1588  2478.0000     -.0031    54.6540  -999.2500     1.8622  1628.7620
 1202.1800    13.1986  2478.0000     -.0048    55.2318  -999.2500     1.8551  1639.1672
 1202.3324    13.4970  2476.1650     -.0076    56.3134  -999.2500     1.8527  1635.4126
 1202.4848    13.3444  2472.3330     -.0051    50.7626  -999.2500     1.8543  1630.4163
 1202.6372    13.3066  2470.1650     -.0085    50.8234  -999.2500     1.8536  1648.3494
 1202.7896    13.3047  2471.8335     -.0025    51.2188  -999.2500     1.8669  1631.6653
 1202.9420    13.3548  2470.1665      .0034    56.0911  -999.2500     1.8780  1652.9165
 1203.0944    13.3737  2471.8335      .0155    56.3880  -999.2500     1.8923  1627.4980
 1203.2468    13.1243  2473.8330      .0121    58.2943  -999.2500     1.8855  1638.7500
 1203.3992    13.1230  2475.8335      .0041    59.4714  -999.2500     1.8758  1630.8325
 1203.5516    13.3900  2477.8330     -.0011    60.1927  -999.2500     1.8831  1611.6665
 1203.7040    13.1491  2478.0000     -.0028    57.0414  -999.2500     1.8793  1596.2490
 1203.8564    13.2109  2478.0000     -.0056    56.4922  -999.2500     1.8780  1613.3333
 1204.0088    12.4876  2474.3301     -.0112    57.9310  -999.2500     1.8457  1619.5872
 1204.1612    12.2357  2474.0000     -.0153    60.7268  -999.2500     1.8338  1629.1672
 1204.3136    12.2474  2474.0000     -.0138    60.9688  -999.2500     1.8339  1666.6987
 1204.4660    12.2572  2474.0000     -.0119    60.2525  -999.2500     1.8564  1601.2449
 1204.6184    12.1001  2475.8350     -.0158    61.4777  -999.2500     1.8709  1650.0481
 1204.7708    12.1790  2476.0000     -.0143    61.5078  -999.2500     1.8927  1650.4163
 1204.9232    12.1947  2477.8330     -.0160    58.8932  -999.2500     1.8927  1608.7500
 1205.0756    12.2311  2478.0000     -.0121    54.4737  -999.2500     1.8917  1641.6692
 1205.2280    12.3060  2478.0000     -.0081    51.6302  -999.2500     1.8791  1635.8333
 1205.3804    12.3411  2476.1665     -.0020    55.9613  -999.2500     1.8824  1644.1672
 1205.5328    12.2793  2476.0000      .0070    58.3516  -999.2500     1.8837  1658.7500
 1205.6852    12.1803  2474.1665     -.0025    58.7318  -999.2500     1.8659  1637.0815
 1205.8376    12.1862  2472.1665     -.0074    58.8073  -999.2500     1.8464  1621.2500
 1205.9900    12.2018  2468.3301     -.0060    60.6761  -999.2500     1.8546  1647.5239
 1206.1424    12.2676  2469.8335     -.0050    63.0210  -999.2500     1.8716  1613.3306
 1206.2948    12.2376  2471.8350     -.0067    65.4264  -999.2500     1.8919  1600.8252
 1206.4472    12.1771  2473.8335     -.0104    62.4451  -999.2500     1.8944  1636.6692
 1206.5996    12.1432  2474.0000     -.0098    61.0954  -999.2500     1.8811  1589.5393
 1206.7520    11.9974  2475.8335     -.0057    55.0126  -999.2500     1.8656  1635.4202
 1206.9044    11.8626  2476.0000     -.0085    57.0755  -999.2500     1.8437  1621.6665
 1207.0568    11.9447  2476.0000     -.0101    60.6930  -999.2500     1.8391  1601.6653
 1207.2092    11.9889  2476.0000     -.0080    64.6667  -999.2500     1.8433  1595.4165
 1207.3616    12.0280  2476.0000     -.0051    62.4503  -999.2500     1.8545  1627.0857
 1207.5140    11.9668  2472.3330     -.0013    57.4063  -999.2500     1.8582  1620.8333
 1207.6664    12.1758  2470.1665     -.0068    60.0627  -999.2500     1.8512  1620.0000
 1207.8188    12.4388  2471.8330     -.0145    62.5208  -999.2500     1.8470  1629.1665
 1207.9712    12.1026  2473.8350     -.0138    65.4425  -999.2500     1.8458  1671.2859
 1208.1236    12.1921  2474.0000     -.0164    63.2524  -999.2500     1.8332  1652.0815
 1208.2760    12.2318  2474.0000     -.0090    60.7949  -999.2500     1.8329  1613.3013
 1208.4284    12.2272  2475.8350     -.0110    60.9378  -999.2500     1.8348  1674.2227
 1208.5808    12.4557  2476.0000     -.0059    60.9401  -999.2500     1.8547  1661.6653
 1208.7332    12.2974  2476.0000     -.0072    61.6829  -999.2500     1.8547  1650.8252
 1208.8856    12.3314  2474.1665     -.0096    59.3436  -999.2500     1.8455  1631.6653
 1209.0380    12.6226  2472.1650     -.0080    59.0963  -999.2500     1.8322  1630.0000
 1209.1904    12.3620  2468.3330     -.0087    62.0445  -999.2500     1.8221  1634.5835
 1209.3428    12.3431  2466.1650     -.0043    67.7600  -999.2500     1.8285  1630.4126
 1209.4952    12.2865  2466.0000     -.0093    67.1614  -999.2500     1.8318  1602.4980
 1209.6476    12.3601  2467.8350     -.0084    66.0877  -999.2500     1.8383  1632.1113
 1209.8000    12.4675  2468.0000     -.0061    63.7655  -999.2500     1.8326  1621.2490
 1209.9524    12.3977  2469.8350     -.0009    61.6415  -999.2500     1.8249  1620.0000
 1210.1048    12.3906  2471.8335     -.0027    61.5260  -999.2500     1.8171  1656.6692
 1210.2572    12.4265  2473.8350     -.0065    60.8145  -999.2500     1.8209  1600.3645
 1210.4096    12.4799  2474.0000     -.0064    63.5311  -999.2500     1.8428  1640.8733
 1210.5620    12.4271  2474.0000      .0017    63.8958  -999.2500     1.8635  1649.5835
 1210.7144    12.8161  2474.0000     -.0038    67.6048  -999.2500     1.8634  1627.0632
 1210.8668    12.7513  2470.3330     -.0080    65.7030  -999.2500     1.8525  1620.4163
 1211.0192    12.3695  2468.1650     -.0079    63.3497  -999.2500     1.8408  1642.9365
 1211.1716    12.3145  2468.0000     -.0007    61.8671  -999.2500     1.8309  1622.0815
 1211.3240    12.3197  2468.0000      .0054    63.4703  -999.2500     1.8256  1620.0000
 1211.4764    12.2845  2469.8335     -.0044    62.2785  -999.2500     1.8082  1606.2490
 1211.6288    12.3028  2471.8350     -.0112    58.4004  -999.2500     1.8022  1646.2859
 1211.7812    12.3333  2472.0000     -.0099    54.5102  -999.2500     1.8080  1627.0815
