~VERSION INFORMATION
VERS.                                                 2.0:   CWLS Log ASCII Standard-VERSION 2.0
WRAP.                                                  NO:   One line per depth step
~Well Information Block
STRT.M                                           449.1716:   Top Depth
STOP.M                                          3296.7656:   Bottom Depth
STEP.M                                             .15240:   Depth Increment
NULL.                                            -999.250:   Null Value
FLD .                                             WILDCAT:   Field Name
WELL.                                             15/9-10:   NAME
WBN .                                             15/9-10:   WELLBORE
NATI.                                                 NOR:   COUNTRY
BHT1.DEGF                                            85.0:   BH TEMP 1
BHT2.DEGF                                           105.0:   BH TEMP 2
BHT3.DEGF                                           144.0:   BH TEMP 3
BS1 .IN                                            12.250:   BIT SIZE 1
CTRY.                                                 NOR:   COUNTRY
CBD1.M                                              172.0:   CSG 1 DRILL DEP
CBL1.M                                              172.0:   CSG 1 LOG DEP
CS1 .IN                                              30.0:   CSG 1 SIZE
COMP.                                             STATOIL:   OPERATOR
PDAT.                                                 MSL:   PERM DATUM
PROV.                                           NORTH SEA:   PROVINCE
COUN.                                    NEPTUNO NORDRAUG:   RIG NAME
SPUD.                                          1981/09/15:   SPUD DATE
LATI.                                       58 19 42.92 N:   SURF. LATITUDE
LONG.                                        1 46 20.61 E:   SURF. LONGITUDE
BTD1.                                             484.0 M:   TOTAL DEPTH 1
BTD2.                                            1179.0 M:   TOTAL DEPTH 2
BTD3.                                           2718.50 M:   TOTAL DEPTH 3
PBWE.                                             15/9-10:   PB WELL ID
APIN.                                             15/9-10:   PB WELLBORE ID
PBWS.                                                 all:   PB WELL NAME SET
~PARAMETER INFORMATION (log)
LNAM.                              FDC/CNL/GR  COMPOSITED:   NAME
LTYP.                                         DEPTH MATCH:   LOG TYPE
LSRV.                                            DEN/NEUT:   LOG SERVICE
LSOU.                                             SPT/NPD:   LOG SOURCE
LVSN.                                                   1:   LOG VERSION
BHIS.                                                   R:   BRIEF HISTORY
FHIS.                                             RAW-LIS:   FULL HISTORY
LCNM.                                        SCHLUMBERGER:   LOGGING CONTRACTOR
TOOL.                             FDC/CNL/GR (COMPOSITED):   TOOL STRING
~Curve Information Block
#MNEM.UNIT                                        API CODE    No Description
#=========                                        ========    == ===========
DEPT.M                                       00 001 00 00:     1  DEPTH
CALI.IN                                                  :     2  Caliper
CS.                                                      :     3  Cable Speed
DRHO.G/CC                                                :     4  Bulk density correction
GR.GAPI                                                  :     5  Gamma Ray
NPHI.%                                                   :     6  Neutron porosity
RHOB.G/CC                                                :     7  Bulk density
TENS.LB                                                  :     8  Cable Tension
~ASCII
# ...
 1392.2228    14.1362  2473.8350      .0110    75.9244  -999.2500     1.9597  1834.1746
 1392.3752    14.6159  2474.0000     -.0057    75.5572  -999.2500     1.9448  1812.0815
 1392.5276    14.6354  2470.3330     -.0015    72.9790  -999.2500     1.9523  1810.0000
 1392.6800    14.9408  2468.1665     -.0028    68.3385  -999.2500     1.9433  1828.3333
 1392.8324    14.9544  2466.1650      .0083    65.6438  -999.2500     1.9558  1811.6506
 1392.9848    13.8573  2467.8335     -.0010    64.9218  -999.2500     1.9615  1800.8325
 1393.1372    13.3421  2468.0000     -.0011    69.0609  -999.2500     1.9718  1845.8733
 1393.2896    13.7272  2468.0000     -.0028    72.8179  -999.2500     1.9628  1822.4980
 1393.4420    13.8086  2469.8330      .0056    74.5000  -999.2500     1.9404  1815.4165
 1393.5944    13.7552  2471.8335     -.0022    70.3278  -999.2500     1.9036  1810.4163
 1393.7468    13.8073  2473.8330     -.0038    65.0104  -999.2500     1.8879  1814.5833
 1393.8992    14.3425  2474.0000     -.0044    65.0209  -999.2500     1.8957  1810.4163
 1394.0516    14.3620  2472.1665     -.0071    67.4115  -999.2500     1.9144  1828.3333
 1394.2040    14.4811  2468.3330     -.0037    69.8022  -999.2500     1.9268  1852.9182
 1394.3564    14.1699  2464.3330     -.0133    66.3333  -999.2500     1.8758  1832.0833
 1394.5088    13.8255  2460.3330     -.0249    63.8514  -999.2500     1.8084  1802.4980
 1394.6612    13.9186  2460.0000     -.0268    65.3463  -999.2500     1.7983  1818.3333
 1394.8136    14.4458  2461.8350     -.0174    68.7685  -999.2500     1.8570  1824.5872
 1394.9660    14.8288  2463.8335     -.0027    71.1252  -999.2500     1.9474  1825.0000
 1395.1184    14.0709  2464.0000     -.0055    73.0327  -999.2500     1.9703  1811.2380
 1395.2708    13.9212  2465.8335     -.0054    74.3907  -999.2500     1.9699  1837.5020
 1395.4232    14.4655  2467.8330     -.0027    73.6406  -999.2500     1.9733  1840.0000
 1395.5756    14.6445  2469.8335      .0020    68.9215  -999.2500     1.9701  1849.1672
 1395.7280    14.4199  2468.1665     -.0002    66.8385  -999.2500     1.9581  1822.5000
 1395.8804    14.3268  2466.1665      .0049    67.7761  -999.2500     1.9454  1783.3306
 1396.0328    14.2773  2462.3330      .0045    67.7031  -999.2500     1.9470  1770.8333
 1396.1852    14.1947  2460.1665      .0044    67.9740  -999.2500     1.9607  1774.5835
 1396.3376    14.1732  2460.0000      .0031    70.0625  -999.2500     1.9691  1784.1665
 1396.4900    14.6732  2461.8335      .0065    75.8077  -999.2500     1.9715  1812.5020
 1396.6424    14.7259  2465.6665      .0082    77.4583  -999.2500     1.9493  1796.6665
 1396.7948    15.1781  2469.6699      .0038    74.2940  -999.2500     1.9401  1785.8252
 1396.9472    15.2116  2470.0000      .0079    72.5676  -999.2500     1.9368  1817.0857
 1397.0996    14.7880  2473.6699      .0061    69.6277  -999.2500     1.9544  1792.4758
 1397.2520    14.8216  2474.0000      .0153    70.1771  -999.2500     1.9650  1780.8325
 1397.4044    14.4271  2474.0000      .0081    70.3073  -999.2500     1.9622  1816.6665
 1397.5568    14.2689  2470.3330      .0042    71.3438  -999.2500     1.9521  1833.7510
 1397.7092    14.3509  2464.5000     -.0033    73.9583  -999.2500     1.9476  1798.3333
 1397.8616    14.3737  2462.1665     -.0039    74.9896  -999.2500     1.9535  1831.6692
 1398.0140    14.4824  2462.0000      .0015    77.9271  -999.2500     1.9532  1825.8333
 1398.1664    14.6426  2463.8335      .0060    80.7085  -999.2500     1.9451  1788.3306
 1398.3188    14.6276  2464.0000      .0005    76.8698  -999.2500     1.9202  1803.3333
 1398.4712    15.4486  2465.8335     -.0040    78.5627  -999.2500     1.8929  1800.4163
 1398.6236    14.7214  2467.8330     -.0039    78.8073  -999.2500     1.8888  1822.9165
 1398.7760    14.4692  2469.8350     -.0017    78.2391  -999.2500     1.9084  1806.6506
 1398.9284    14.6107  2470.0000     -.0046    76.5832  -999.2500     1.9343  1800.4163
 1399.0808    15.4278  2471.8350     -.0098    71.8502  -999.2500     1.9491  1868.8101
 1399.2332    15.3639  2468.3330     -.0071    73.7293  -999.2500     1.9538  1875.0000
 1399.3856    14.8932  2466.1665     -.0064    72.6771  -999.2500     1.9478  1778.7500
 1399.5380    15.2025  2464.1665     -.0055    78.4640  -999.2500     1.9356  1802.0857
 1399.6904    15.8789  2465.8330     -.0054    76.5365  -999.2500     1.9274  1846.2500
 1399.8428    15.3287  2466.0000      .0054    72.5310  -999.2500     1.9429  1854.5835
 1399.9952    16.2259  2469.6665      .0256    66.5156  -999.2500     1.9596  1832.0833
 1400.1476    15.0806  2470.0000      .0247    64.3957  -999.2500     1.9421  1774.9958
 1400.3000    15.2695  2473.6665      .0087    67.9740  -999.2500     1.9163  1806.6665
 1400.4524    14.4160  2474.0000     -.0021    68.3698  -999.2500     1.9167  1828.3347
 1400.6048    14.1712  2477.6665      .0101    72.2708  -999.2500     1.9546  1820.8333
 1400.7572    14.4143  2476.1650      .0144    70.9621  -999.2500     1.9670  1861.2859
 1400.9096    14.8171  2472.3330      .0115    70.5260  -999.2500     1.9391  1860.4163
 1401.0620    14.8659  2466.4951     -.0085    69.2385  -999.2500     1.8917  1837.0632
 1401.2144    14.5733  2464.1650     -.0053    68.7809  -999.2500     1.8922  1807.4758
 1401.3668    15.0482  2464.0000      .0112    68.5781  -999.2500     1.9141  1850.8367
 1401.5192    15.0579  2464.0000      .0154    65.4087  -999.2500     1.9124  1868.7620
 1401.6716    14.4029  2464.0000      .0004    64.3802  -999.2500     1.8817  1819.5796
 1401.8240    14.5086  2464.0000     -.0090    64.5419  -999.2500     1.8753  1819.5872
 1401.9764    14.5592  2467.6670     -.0026    66.5106  -999.2500     1.8929  1852.0857
 1402.1288    14.9424  2469.8350      .0155    68.1784  -999.2500     1.9286  1841.2380
 1402.2812    14.1458  2471.8335      .0296    67.3958  -999.2500     1.9469  1849.1672
 1402.4336    14.3785  2472.0000      .0254    65.1909  -999.2500     1.9563  1831.6506
 1402.5860    15.6166  2470.1665      .0186    64.8854  -999.2500     1.9588  1820.8325
 1402.7384    15.3897  2466.3301      .0140    68.8889  -999.2500     1.9635  1792.4758
 1402.8908    15.0944  2464.1665      .0213    73.7764  -999.2500     1.9612  1845.0039
 1403.0432    14.1536  2464.0000      .0202    75.9635  -999.2500     1.9484  1817.9165
 1403.1956    14.2925  2465.8350      .0102    70.3908  -999.2500     1.9293  1828.7620
 1403.3480    14.1263  2467.8335      .0003    68.3280  -999.2500     1.9322  1857.5020
 1403.5004    14.6756  2469.8350     -.0009    66.2379  -999.2500     1.9505  1873.7620
 1403.6528    14.6836  2471.8335     -.0023    72.7088  -999.2500     1.9665  1852.0815
 1403.8052    15.0022  2473.8350      .0074    74.3447  -999.2500     1.9669  1822.4758
 1403.9576    15.2819  2474.0000      .0096    76.7293  -999.2500     1.9534  1824.5835
 1404.1100    14.7169  2475.8350      .0120    72.6942  -999.2500     1.9459  1802.0632
 1404.2624    14.0553  2472.3330     -.0008    72.1406  -999.2500     1.9417  1809.1672
 1404.4148    14.5519  2468.3301     -.0069    74.1893  -999.2500     1.9396  1819.1746
 1404.5672    13.8352  2462.4995     -.0020    74.7188  -999.2500     1.9430  1833.7510
 1404.7196    14.2602  2462.0000      .0066    71.8256  -999.2500     1.9452  1839.5872
 1404.8720    15.1928  2462.0000      .0131    67.3226  -999.2500     1.9373  1844.5835
 1405.0244    15.5384  2463.8330      .0011    64.3021  -999.2500     1.9150  1845.0000
 1405.1768    16.0356  2464.0000     -.0004    65.7827  -999.2500     1.9032  1817.4758
 1405.3292    15.0182  2465.8335      .0004    66.0521  -999.2500     1.8997  1815.0000
 1405.4816    13.5672  2467.8350     -.0009    66.4065  -999.2500     1.8905  1865.4607
 1405.6340    14.4766  2469.8335     -.0028    64.2603  -999.2500     1.8932  1824.1633
 1405.7864    14.1474  2471.8350      .0011    66.2988  -999.2500     1.9106  1824.5872
 1405.9388    13.8730  2470.1665      .0180    70.9118  -999.2500     1.9291  1866.2529
