~VERSION INFORMATION
VERS.                                                 2.0:   CWLS Log ASCII Standard-VERSION 2.0
WRAP.                                                  NO:   One line per depth step
~Well Information Block
STRT.M                                           449.1716:   Top Depth
STOP.M                                          3296.7656:   Bottom Depth
STEP.M                                             .15240:   Depth Increment
NULL.                                            -999.250:   Null Value
FLD .                                             WILDCAT:   Field Name
WELL.                                             15/9-10:   NAME
WBN .                                             15/9-10:   WELLBORE
NATI.                                                 NOR:   COUNTRY
BHT1.DEGF                                            85.0:   BH TEMP 1
BHT2.DEGF                                           105.0:   BH TEMP 2
BHT3.DEGF                                           144.0:   BH TEMP 3
BS1 .IN                                            12.250:   BIT SIZE 1
CTRY.                                                 NOR:   COUNTRY
CBD1.M                                              172.0:   CSG 1 DRILL DEP
CBL1.M                                              172.0:   CSG 1 LOG DEP
CS1 .IN                                              30.0:   CSG 1 SIZE
COMP.                                             STATOIL:   OPERATOR
PDAT.                                                 MSL:   PERM DATUM
PROV.                                           NORTH SEA:   PROVINCE
COUN.                                    NEPTUNO NORDRAUG:   RIG NAME
SPUD.                                          1981/09/15:   SPUD DATE
LATI.                                       58 19 42.92 N:   SURF. LATITUDE
LONG.                                        1 46 20.61 E:   SURF. LONGITUDE
BTD1.                                             484.0 M:   TOTAL DEPTH 1
BTD2.                                            1179.0 M:   TOTAL DEPTH 2
BTD3.                                           2718.50 M:   TOTAL DEPTH 3
PBWE.                                             15/9-10:   PB WELL ID
APIN.                                             15/9-10:   PB WELLBORE ID
PBWS.                                                 all:   PB WELL NAME SET
~PARAMETER INFORMATION (log)
LNAM.                              FDC/CNL/GR  COMPOSITED:   NAME
LTYP.                                         DEPTH MATCH:   LOG TYPE
LSRV.                                            DEN/NEUT:   LOG SERVICE
LSOU.                                             SPT/NPD:   LOG SOURCE
LVSN.                                                   1:   LOG VERSION
BHIS.                                                   R:   BRIEF HISTORY
FHIS.                                             RAW-LIS:   FULL HISTORY
LCNM.                                        SCHLUMBERGER:   LOGGING CONTRACTOR
TOOL.                             FDC/CNL/GR (COMPOSITED):   TOOL STRING
~Curve Information Block
#MNEM.UNIT                                        API CODE    No Description
#=========                                        ========    == ===========
DEPT.M                                       00 001 00 00:     1  DEPTH
CALI.IN                                                  :     2  Caliper
CS.                                                      :     3  Cable Speed
DRHO.G/CC                                                :     4  Bulk density correction
GR.GAPI                                                  :     5  Gamma Ray
NPHI.%                                                   :     6  Neutron porosity
RHOB.G/CC                                                :     7  Bulk density
TENS.LB                                                  :     8  Cable Tension
~ASCII
# ...
 3278.3252     9.2559  2008.0000      .0435    64.2187    21.1145     2.5514  3398.1665
 3278.4776     9.2865  2007.0833      .0187    67.8807    21.3867     2.5347  3366.4961
 3278.6300     8.9525  2007.9165     -.0013    74.6042    22.9108     2.5422  3382.3330
 3278.7824     9.0150  2008.9165     -.0007    80.7448    23.0917     2.5430  3407.8330
 3278.9348     9.1165  2009.9165      .0277    87.1510    23.5888     2.5734  3419.1665
 3279.0872     9.1824  2010.9182      .0253    90.7867    23.4535     2.5744  3438.3652
 3279.2396     9.0299  2011.0000      .0271    91.4636    24.2893     2.5814  3394.1597
 3279.3920     9.1230  2009.1665      .0090    89.3802    24.1411     2.5623  3384.5000
 3279.5444     9.1257  2008.0833      .0136    89.2448    23.8073     2.5677  3407.8330
 3279.6968     9.1250  2008.0000     -.0006    87.0156    23.1069     2.5558  3437.5000
 3279.8492     9.1537  2008.0000      .0039    88.4169    23.4055     2.5601  3452.8350
 3280.0016     9.2135  2008.9165     -.0001    87.8177    24.4685     2.5444  3422.8330
 3280.1540     9.2259  2010.8333      .0268    90.2708    25.4570     2.5716  3429.1665
 3280.3064     9.0332  2011.9165      .0320    88.3229    24.4165     2.5635  3424.5000
 3280.4588     9.0085  2012.0000      .0304    86.0049    24.7199     2.5732  3401.9966
 3280.6112     8.9863  2011.0833      .0133    86.8438    23.9490     2.5599  3431.1665
 3280.7636     8.9844  2011.0000      .0122    88.0833    24.8631     2.5675  3393.6665
 3280.9160     9.0703  2009.1665      .0077    85.4375    23.2927     2.5379  3421.1665
 3281.0684     9.0853  2007.1633      .0163    84.3840    22.8307     2.5352  3411.1440
 3281.2208     9.0430  2007.0000      .0090    83.8541    22.8476     2.5244  3437.5039
 3281.3732     8.8815  2007.0000      .0114    87.2500    23.7032     2.5378  3449.1665
 3281.5256     8.9961  2007.9165      .0063    85.6146    23.4655     2.5391  3468.3330
 3281.6780     9.0221  2010.7500      .0287    82.4583    23.3927     2.5695  3396.6665
 3281.8304     9.0664  2011.0000      .0276    84.7087    23.1645     2.5741  3399.1680
 3281.9828     9.0775  2011.0000      .0260    90.0938    24.6237     2.5635  3409.1665
 3282.1352     9.2070  2010.0833      .0048    93.1406    26.2351     2.5446  3432.0000
 3282.2876     9.2044  2008.1665      .0047    88.7917    26.9499     2.5483  3457.8330
 3282.4400     9.3107  2006.1633      .0085    86.6532    25.8362     2.5847  3423.2690
 3282.5924     9.1484  2005.0833      .0101    88.7920    23.4012     2.5915  3420.0000
 3282.7448     9.2187  2005.9165      .0183    95.9896    22.1624     2.5846  3420.0000
 3282.8972     9.2266  2006.0000      .0199   100.9792    22.4737     2.5553  3442.0000
 3283.0496     9.1620  2007.8364      .0312   102.7524    22.5546     2.5474  3434.8174
 3283.2020     9.1562  2008.9167      .0179   102.6458    22.3344     2.5379  3421.1646
 3283.3544     9.1849  2009.0000      .0162    97.6979    21.9110     2.5371  3392.5000
 3283.5068     9.3164  2009.0000      .0161    96.0469    23.3094     2.5425  3417.5000
 3283.6592     9.2350  2009.0000      .0295    95.7656    24.3340     2.5555  3493.3330
 3283.8116     9.3125  2007.1663      .0254    94.7759    25.5797     2.5405  3610.0161
 3283.9640     9.3275  2004.2500      .0365    92.9115    25.0560     2.5516  3583.3330
 3284.1164     9.5716  2004.0000      .0228    90.4583    24.8207     2.5384  3528.6665
 3284.2688     9.9017  2004.9165      .0264    91.1667    23.7289     2.5604  3447.0000
 3284.4212    10.0445  2005.0000      .0147    94.7509    24.0812     2.5661  3476.7305
 3284.5736    10.1478  2006.8335      .0419    94.2030    23.8073     2.6058  3452.4961
 3284.7260    10.2279  2008.8333      .0426    98.1927    24.9896     2.6147  3431.6665
 3284.8784    10.2487  2009.9165      .0528    93.5781    26.0390     2.6224  3457.5000
 3285.0308    10.3074  2010.0000      .0268    92.4363    26.6163     2.5710  3491.2212
 3285.1832    10.4199  2008.1663      .0352    88.9370    25.6290     2.5557  3481.1646
 3285.3356    10.2793  2006.1665      .0263    89.5417    25.9405     2.5386  3480.0000
 3285.4880    10.3587  2006.0000      .0428    89.0521    25.2594     2.5550  3511.1665
 3285.6404    10.4245  2006.0000      .0346    87.5104    25.4643     2.5566  3528.6665
 3285.7928    10.4583  2006.9167      .0346    86.8593    23.2467     2.5477  3465.8237
 3285.9452    10.3965  2007.9165      .0168    93.7448    24.0330     2.5236  3450.8330
 3286.0976    10.3477  2008.9165     -.0001    95.1198    22.5074     2.4928  3450.0000
 3286.2500    10.3008  2009.9165     -.0024    97.7656    23.3942     2.5010  3453.6665
 3286.4024    10.3399  2010.0000      .0092    95.1878    23.2173     2.5253  3468.6924
 3286.5548    10.4512  2010.0000      .0291    97.2868    23.6417     2.5560  3442.4961
 3286.7072    10.2103  2010.0000      .0232    97.5000    23.6816     2.5443  3440.0000
 3286.8596    10.2878  2007.2500      .0238    95.8958    23.2782     2.5537  3443.6665
 3287.0120    10.1677  2006.0818      .0311    96.1517    24.3631     2.5601  3431.1440
 3287.1644     9.8697  2006.9167      .0241    94.6977    24.8664     2.5462  3442.8350
 3287.3168     9.9225  2007.0000      .0078    93.0156    24.5886     2.5181  3449.5000
 3287.4692     9.8724  2007.9165      .0041    91.9583    23.8434     2.5120  3450.0000
 3287.6216    10.0104  2008.9165      .0312    92.6771    23.3311     2.5511  3453.6665
 3287.7740    10.1454  2009.0000      .0619    91.5448    22.7978     2.6013  3431.9614
 3287.9264    10.2279  2009.0000      .0698    90.3488    22.3953     2.6341  3430.0000
 3288.0788    10.2344  2008.0833      .0466    91.1094    22.9012     2.6170  3420.8330
 3288.2312    10.3490  2004.3333      .0301    93.0781    23.9802     2.5955  3423.6665
 3288.3836    10.4239  2004.0000      .0346    93.1352    23.8929     2.5866  3405.6343
 3288.5360    10.2793  2004.9167      .0405    95.8181    24.5046     2.5913  3427.8369
 3288.6884    10.2943  2006.8333      .0500    63.9792    24.3812     2.5846  3433.6665
 3288.8408    10.1966  2007.9165      .0320    30.0534    24.6790     2.5571  3476.1665
 3288.9932    10.2090  2009.8364      .0401    -7.9970    24.8415     2.5780  3520.4038
 3289.1456    10.1608  2010.0000      .0231   -11.1328    23.9569     2.5658  3474.4927
 3289.2980    10.0703  2010.9165      .0322   -11.1328    25.0872     2.5788  3492.0000
 3289.4504    10.0697  2011.0000      .0211   -11.1328    25.5987     2.5443  3466.5000
 3289.6028     9.9414  2010.0833      .0312   -11.1328    26.3520     2.5446  3423.6665
 3289.7552    10.0229  2006.3269      .0116   -11.1328    26.2367     2.5126  3420.0000
 3289.9076    10.0384  2004.1663      .0183   -11.1328    25.0999     2.5241  3420.0000
 3290.0600    10.0247  2003.0833      .0020   -11.1328    25.1793     2.5164  3456.6665
 3290.2124    10.0234  2003.0000      .0023   -11.1328    24.4333     2.5353  3399.5000
 3290.3648    10.0234  2003.9182     -.0038   -11.1328    25.0378     2.5317  3403.1826
 3290.5172    10.0234  2004.0000     -.0013   -11.1328    23.9320     2.5384  3413.1680
 3290.6696    10.0091  2004.9165      .0048   -11.1328    24.5005     2.5444  3419.5000
 3290.8220    10.0293  2004.0833      .0121   -11.1328    23.8882     2.5557  3451.1665
 3290.9744    10.0313  2000.3269      .0105   -11.1328    23.6039     2.5566  3408.0864
 3291.1268    10.0098  1997.2495      .0009   -11.1328    23.0012     2.5459  3372.8286
 3291.2792     9.9792  1995.1665     -.0013   -11.1328    23.3078     2.5431  3327.8330
 3291.4316     9.9336  1994.0833      .0026   -11.1328    24.6846     2.5519  3265.3330
 3291.5840     9.9154  1992.1665      .0137   -11.1328    25.2529     2.5653  3217.8330
 3291.7364     9.9356  1990.1633     -.0001   -11.1328    25.2481     2.5467  3149.7212
 3291.8888     9.9303  1990.0000     -.0024   -11.1328    25.2441     2.5324  3088.9917
 3292.0412     9.9297  1988.1665     -.0002   -11.1328    25.2441     2.5295  3025.3330
