~VERSION INFORMATION
VERS.                                                 2.0:   CWLS Log ASCII Standard-VERSION 2.0
WRAP.                                                  NO:   One line per depth step
~Well Information Block
STRT.M                                           485.1380:   Top Depth
STOP.M                                          3208.5260:   Bottom Depth
STEP.M                                             .15240:   Depth Increment
NULL.                                            -999.250:   Null Value
FLD .                                            SLEIPNER:   Field Name
WELL.                                             15/9-15:   NAME
WBN .                                             15/9-15:   WELLBORE
NATI.                                                 NOR:   COUNTRY
BHT1.DEGF                                           100.0:   BH TEMP 1
BHT2.DEGF                                           100.0:   BH TEMP 2
BHT3.DEGF                                            99.0:   BH TEMP 3
BS1 .IN                                            12.250:   BIT SIZE 1
CTRY.                                                 NOR:   COUNTRY
CBD1.M                                             171.50:   CSG 1 DRILL DEP
CBL1.M                                             171.50:   CSG 1 LOG DEP
CS1 .IN                                              30.0:   CSG 1 SIZE
COMP.                                             STATOIL:   OPERATOR
PDAT.                                                 MSL:   PERM DATUM
PROV.                                                   ?:   PROVINCE
COUN.                                            ROSS RIG:   RIG NAME
SPUD.                                          1982/05/28:   SPUD DATE
LATI.                                        58 18 7.35 N:   SURF. LATITUDE
LONG.                                        1 55 19.28 E:   SURF. LONGITUDE
BTD1.                                            514.50 M:   TOTAL DEPTH 1
BTD2.                                           1192.50 M:   TOTAL DEPTH 2
BTD3.                                           1192.50 M:   TOTAL DEPTH 3
PBWE.                                             15/9-15:   PB WELL ID
APIN.                                             15/9-15:   PB WELLBORE ID
PBWS.                                                 all:   PB WELL NAME SET
~PARAMETER INFORMATION (log)
LNAM.                              LDT/CNL/GR  COMPOSITED:   NAME
LTYP.                                         DEPTH MATCH:   LOG TYPE
LSRV.                                           LATEROLOG:   LOG SERVICE
LSOU.                                             SPT/NPD:   LOG SOURCE
LVSN.                                                   1:   LOG VERSION
BHIS.                                                   R:   BRIEF HISTORY
FHIS.                                             RAW-LIS:   FULL HISTORY
LCNM.                                                 SCH:   LOGGING CONTRACTOR
TOOL.                             LDT/CNL/GR (COMPOSITED):   TOOL STRING
~Curve Information Block
#MNEM.UNIT                                        API CODE    No Description
#=========                                        ========    == ===========
DEPT.M                                       00 001 00 00:     1  DEPTH
CALI.IN                                                  :     2  Caliper
CS.                                                      :     3  Cable Speed
DRHO.G/CC                                                :     4  Bulk density correction
GR.GAPI                                                  :     5  Gamma Ray
NPHI.%                                                   :     6  Neutron porosity
PEF.B/E                                                  :     7  Photo-electric factor
RHOB.G/CC                                                :     8  Bulk density
TENS.LB                                                  :     9  Cable Tension
~ASCII
# ...
 2114.5988    20.0945  2380.0713      .0728    45.9911    45.7582     3.2379     2.0701  2743.7651
 2114.7512    20.9272  2360.1108      .0763    45.9497    45.4574     3.1602     2.0608  2733.7158
 2114.9036    21.3281  2343.8184      .0821    43.2780    46.9598     3.0307     2.0596  2748.6113
 2115.0560    20.7171  2380.1440      .0836    41.6394    49.7002     2.8809     2.0712  2743.4624
 2115.2084    20.9833  2430.4756      .0771    39.1895    48.7512     2.7721     2.0808  2748.3315
 2115.3608    20.9753  2483.9580      .0620    38.8700    46.7895     2.7626     2.0761  2752.0205
 2115.5132    20.7426  2520.0000      .0652    39.1354    43.5212     2.7668     2.0810  2759.2158
 2115.6656    20.7236  2520.3188      .0624    38.5800    44.0441     2.8987     2.0685  2747.6040
 2115.8180    21.0682  2521.6836      .0649    40.3524    46.7606     2.8957     2.0662  2736.4814
 2115.9704    21.0197  2521.5278      .0697    42.4741    50.4598     2.9255     2.0715  2743.2119
 2116.1228    20.0933  2520.1553      .0728    44.6716    51.7413     2.9705     2.0728  2747.0356
 2116.2752    20.1905  2519.8403      .0944    43.5197    48.9416     3.0498     2.0844  2733.7271
 2116.4276    20.3174  2518.2490      .1139    42.1293    48.4746     3.1814     2.0887  2734.5591
 2116.5800    20.6562  2517.5073      .1255    41.5843    48.5199     3.3190     2.0849  2752.5552
 2116.7324    20.9345  2516.2642      .1290    43.2962    48.5070     3.3327     2.0744  2764.5029
 2116.8848    21.0855  2516.1934      .1163    45.9277    46.9000     3.2572     2.0684  2743.1934
 2117.0372    20.3625  2517.8711      .0957    46.9569    48.3355     2.9199     2.0850  2732.9238
 2117.1896    20.8470  2518.4629      .0638    46.9655    51.2231     2.8760     2.0876  2747.8818
 2117.3420    21.2778  2519.1958      .0590    46.0126    53.3974     2.8777     2.0841  2761.9468
 2117.4944    21.9318  2517.8433      .0768    45.2809    51.5023     2.9335     2.0774  2756.4946
 2117.6468    21.3968  2516.0000      .0930    44.1389    49.3067     2.9296     2.0907  2756.0737
 2117.7992    21.3034  2516.0000      .0750    42.9505    48.6050     2.9631     2.0606  2717.5991
 2117.9516    18.9458  2516.0000      .0725    43.0020    49.3902     3.0423     2.0555  2731.5195
 2118.1040    19.2531  2516.0000      .0768    41.7425    49.1688     3.1029     2.0488  2767.6743
 2118.2564    20.9081  2516.2275      .0946    41.6695    50.9617     3.0454     2.0666  2776.8179
 2118.4088    20.7990  2518.1563      .0856    39.7588    54.4593     3.0743     2.0595  2748.8999
 2118.5612    21.0039  2520.1543      .0799    39.9907    52.0084     3.2589     2.0435  2713.6025
 2118.7136    20.8639  2521.6685      .0984    40.0663    47.7099     3.3269     2.0502  2733.1714
 2118.8660    20.3340  2522.3618      .1236    39.7324    46.2846     3.1941     2.0678  2788.0342
 2119.0184    20.5035  2523.8462      .1365    40.1227    52.1634     2.9540     2.0968  2778.6240
 2119.1708    20.7265  2521.8486      .0874    39.6216    52.9836     3.0400     2.0618  2727.7070
 2119.3232    20.3065  2519.8491      .0597    40.6596    52.2858     3.0881     2.0385  2753.6763
 2119.4756    20.4893  2517.8501      .0542    42.3421    50.4461     3.0552     2.0346  2780.4331
 2119.6280    20.9008  2515.8525      .0665    44.4213    53.7651     3.0145     2.0580  2773.0757
 2119.7804    20.5612  2514.0688      .0595    47.6937    53.6961     3.0990     2.0680  2757.1895
 2119.9328    19.6727  2514.4312      .0575    48.5411    52.7060     3.0278     2.0625  2734.2192
 2120.0852    18.0298  2515.6626      .0551    46.4661    48.9142     2.9246     2.0494  2730.9692
 2120.2376    18.5089  2516.3804      .0623    42.9032    48.7736     2.8231     2.0585  2737.3335
 2120.3900    19.6584  2518.0000      .0650    42.1656    51.4475     2.8901     2.0772  2754.4419
 2120.5424    20.0107  2518.0000      .0590    44.9180    53.6993     2.9126     2.0857  2753.4907
 2120.6948    20.1101  2518.0000      .0554    45.4800    51.2939     2.9439     2.0737  2727.5122
 2120.8472    20.3801  2517.5420      .0586    44.4434    47.0776     2.9551     2.0664  2730.6748
 2120.9996    20.2316  2516.1392      .0618    43.6369    45.2684     2.9373     2.0633  2778.2710
 2121.1520    20.7945  2516.0000      .0654    43.1162    45.5855     2.9356     2.0665  2799.1143
 2121.3044    20.1240  2516.4121      .0736    43.9871    48.2644     2.9579     2.0717  2781.6045
 2121.4568    20.0242  2517.6592      .0849    45.3707    47.7998     2.9882     2.0829  2740.9019
 2121.6092    19.8446  2518.4019      .0766    47.3470    45.9479     3.0367     2.0816  2730.0000
 2121.7616    19.4359  2520.1475      .0450    49.1183    45.1224     3.1421     2.0649  2730.8091
 2121.9140    19.5751  2522.1465      .0202    46.7812    43.2160     3.6046     2.0742  2740.7324
 2122.0664    20.6160  2523.6802      .0158    45.3574    45.0807     4.0610     2.1367  2748.4004
 2122.2188    21.2396  2523.5337      .0399    44.0681    44.4978     3.7999     2.2443  2748.6011
 2122.3712    21.4855  2522.1699      .0610    44.0577    45.3082     3.3076     2.2937  2741.3687
 2122.5236    21.8317  2521.8584      .0747    44.7692    44.1096     2.8104     2.2327  2723.7173
 2122.6760    20.4990  2519.8555      .0552    45.5049    43.4113     2.6512     2.1115  2724.4106
 2122.8284    20.6023  2517.8564      .0433    44.6661    42.4791     2.6775     2.0511  2742.4028
 2122.9808    21.0157  2516.2749      .0433    42.9950    42.8572     2.8581     2.0357  2758.6030
 2123.1332    20.9650  2516.1943      .0602    40.6443    43.4805     3.0269     2.0447  2753.2944
 2123.2856    20.1774  2517.8716      .0637    41.6024    45.4878     3.0249     2.0507  2744.6426
 2123.4380    20.3578  2518.0000      .0598    43.8275    46.1308     2.9118     2.0725  2740.8467
 2123.5904    20.0113  2518.0000      .0444    43.8341    47.1106     2.9622     2.0882  2744.1709
 2123.7428    19.6031  2518.0000      .0454    43.3687    47.3914     3.0382     2.1142  2771.6626
 2123.8952    19.9817  2518.0000      .0476    40.4311    46.9911     3.1088     2.1205  2758.5898
 2124.0476    19.4252  2517.2637      .0437    41.5038    51.6703     2.9710     2.1084  2743.0059
 2124.2000    19.3086  2515.1577      .0451    39.1897    50.3700     2.8787     2.0967  2738.5273
 2124.3524    19.3566  2515.7070      .0629    37.7684    48.9817     2.8513     2.1175  2726.9272
 2124.5048    20.2182  2516.0000      .0710    37.2927    45.5638     2.9118     2.1304  2725.1543
 2124.6572    19.9853  2516.2358      .0651    40.2957    49.0267     2.9647     2.1260  2733.0537
 2124.8096    20.0248  2518.1396      .0481    41.4204    50.6553     3.0550     2.0891  2727.1104
 2124.9620    20.7966  2519.6611      .0473    41.6630    52.4680     3.2316     2.0644  2727.6963
 2125.1144    21.2242  2520.3618      .0618    39.9247    52.5688     3.7683     2.0734  2762.8076
 2125.2668    20.6466  2521.8623      .0703    37.4250    54.9948     5.0181     2.1420  2800.2847
 2125.4192    19.4390  2520.2061      .0550    35.3440    50.1750     4.6011     2.2836  2757.2793
 2125.5716    16.6665  2519.5283      .0595    37.0629    46.5926     3.7852     2.3886  2760.6729
 2125.7240    16.1478  2517.8628      .0618    39.7580    41.4536     3.2134     2.3136  2762.6636
 2125.8764    16.4035  2515.8652      .0821    41.6175    40.8289     3.0336     2.1987  2743.0244
 2126.0288    17.2537  2514.0645      .0699    42.0233    44.3943     3.0969     2.1055  2722.2559
 2126.1812    18.1330  2514.0000      .0693    41.9732    46.8020     3.1556     2.1054  2712.5869
 2126.3336    18.6492  2514.0000      .0704    41.5233    47.2443     3.1577     2.1016  2743.6528
 2126.4860    18.7756  2514.3818      .0740    40.6961    46.3469     3.0995     2.0970  2777.9253
 2126.6384    18.8579  2515.8687      .0776    39.8677    45.9202     2.8887     2.0905  2812.6855
 2126.7908    19.4432  2514.4951      .0705    42.3082    47.0556     2.7754     2.0664  2795.1924
