~VERSION INFORMATION
VERS.                                                 2.0:   CWLS Log ASCII Standard-VERSION 2.0
WRAP.                                                  NO:   One line per depth step
~Well Information Block
STRT.M                                           485.1380:   Top Depth
STOP.M                                          3208.5260:   Bottom Depth
STEP.M                                             .15240:   Depth Increment
NULL.                                            -999.250:   Null Value
FLD .                                            SLEIPNER:   Field Name
WELL.                                             15/9-15:   NAME
WBN .                                             15/9-15:   WELLBORE
NATI.                                                 NOR:   COUNTRY
BHT1.DEGF                                           100.0:   BH TEMP 1
BHT2.DEGF                                           100.0:   BH TEMP 2
BHT3.DEGF                                            99.0:   BH TEMP 3
BS1 .IN                                            12.250:   BIT SIZE 1
CTRY.                                                 NOR:   COUNTRY
CBD1.M                                             171.50:   CSG 1 DRILL DEP
CBL1.M                                             171.50:   CSG 1 LOG DEP
CS1 .IN                                              30.0:   CSG 1 SIZE
COMP.                                             STATOIL:   OPERATOR
PDAT.                                                 MSL:   PERM DATUM
PROV.                                                   ?:   PROVINCE
COUN.                                            ROSS RIG:   RIG NAME
SPUD.                                          1982/05/28:   SPUD DATE
LATI.                                        58 18 7.35 N:   SURF. LATITUDE
LONG.                                        1 55 19.28 E:   SURF. LONGITUDE
BTD1.                                            514.50 M:   TOTAL DEPTH 1
BTD2.                                           1192.50 M:   TOTAL DEPTH 2
BTD3.                                           1192.50 M:   TOTAL DEPTH 3
PBWE.                                             15/9-15:   PB WELL ID
APIN.                                             15/9-15:   PB WELLBORE ID
PBWS.                                                 all:   PB WELL NAME SET
~PARAMETER INFORMATION (log)
LNAM.                              LDT/CNL/GR  COMPOSITED:   NAME
LTYP.                                         DEPTH MATCH:   LOG TYPE
LSRV.                                           LATEROLOG:   LOG SERVICE
LSOU.                                             SPT/NPD:   LOG SOURCE
LVSN.                                                   1:   LOG VERSION
BHIS.                                                   R:   BRIEF HISTORY
FHIS.                                             RAW-LIS:   FULL HISTORY
LCNM.                                                 SCH:   LOGGING CONTRACTOR
TOOL.                             LDT/CNL/GR (COMPOSITED):   TOOL STRING
~Curve Information Block
#MNEM.UNIT                                        API CODE    No Description
#=========                                        ========    == ===========
DEPT.M                                       00 001 00 00:     1  DEPTH
CALI.IN                                                  :     2  Caliper
CS.                                                      :     3  Cable Speed
DRHO.G/CC                                                :     4  Bulk density correction
GR.GAPI                                                  :     5  Gamma Ray
NPHI.%                                                   :     6  Neutron porosity
PEF.B/E                                                  :     7  Photo-electric factor
RHOB.G/CC                                                :     8  Bulk density
TENS.LB                                                  :     9  Cable Tension
~ASCII
  485.1380    18.5781  3134.0000  -999.2500    45.4063  -999.2500  -999.2500     2.0547  1225.0000
  485.2904    18.6354  3134.0000  -999.2500    43.2747  -999.2500  -999.2500     1.9925  1250.1724
  485.4428    18.8621  3134.0000  -999.2500    42.2170  -999.2500  -999.2500     1.9501  1241.1553
  485.5952    18.9048  3134.0000  -999.2500    43.1642  -999.2500  -999.2500     1.9066  1256.1504
  485.7476    18.5989  3134.1772  -999.2500    45.9080  -999.2500  -999.2500     1.9052  1244.4331
  485.9000    18.3962  3135.7153  -999.2500    45.4752  -999.2500  -999.2500     1.9293  1257.1543
  486.0524    18.2868  3134.3540  -999.2500    44.6334  -999.2500  -999.2500     1.9926  1245.3108
  486.2048    18.1872  3133.5918  -999.2500    42.1326  -999.2500  -999.2500     2.0404  1248.9795
  486.3572    18.0707  3132.3042  -999.2500    42.5489  -999.2500    87.6260     2.0711  1255.7612
  486.5096    18.0459  3132.0000  -999.2500    43.9591  -999.2500   177.3539     2.0769  1264.0266
  486.6620    18.0258  3132.0000  -999.2500    46.0115  -999.2500   272.4601     2.1037  1237.6321
  486.8144    18.1935  3131.6025  -999.2500    45.9677  -999.2500   306.3756     2.0949  1245.0715
  486.9668    18.5478  3130.7642  -999.2500    44.1868  -999.2500   385.7953     2.0670  1241.4663
  487.1192    19.0463  3131.5806  -999.2500    44.1551  -999.2500   357.5018     2.0221  1259.7600
  487.2716    19.2294  3130.1050  -999.2500    46.6628  -999.2500    75.9007     1.9912  1252.1033
  487.4240    19.2760  3130.0000  -999.2500    47.8539  -999.2500    54.6792     1.9678  1266.5884
  487.5764    19.2905  3130.0000  -999.2500    43.8339  -999.2500    44.9810     1.9653  1257.1760
  487.7288    19.2838  3130.0000  -999.2500    38.0849  -999.2500    61.3076     1.9766  1257.5544
  487.8812    19.2806  3130.0845  -999.2500    37.3036  -999.2500    46.9938     2.0079  1255.6333
  488.0336    19.2674  3131.5483  -999.2500    40.2763  -999.2500    86.9933     2.0057  1264.4355
  488.1860    19.2596  3130.3877  -999.2500    42.6636  -999.2500    49.2058     2.0125  1265.1484
  488.3384    19.2344  3130.0000  -999.2500    44.2616  -999.2500    33.2608     2.0195  1255.8884
  488.4908    19.2069  3130.2393  -999.2500    44.3158  -999.2500    27.2647     2.0310  1256.4048
  488.6432    19.2016  3131.8691  -999.2500    45.9544  -999.2500    32.1000     2.0414  1240.3262
  488.7956    19.1637  3130.6323  -999.2500    42.6815  -999.2500    39.5628     2.0102  1237.1143
  488.9480    19.1530  3131.5903  -999.2500    41.3373  -999.2500    54.1175     1.9867  1249.6462
  489.1004    19.1406  3132.0000  -999.2500    40.7706  -999.2500    50.5134     1.9470  1235.3503
  489.2528    19.1260  3132.0000  -999.2500    41.1764  -999.2500    66.7783     1.9237  1242.5393
  489.4052    19.1265  3132.0000  -999.2500    39.6366  -999.2500    73.6860     1.9233  1230.3538
  489.5576    19.1406  3132.0000  -999.2500    38.8037  -999.2500    80.3623     1.9638  1248.7080
  489.7100    19.1563  3132.0000  -999.2500    38.5208  -999.2500    57.4286     2.0142  1244.0142
  489.8624    19.1719  3132.0000  -999.2500    41.5850  -999.2500    43.6368     2.0461  1247.6526
  490.0148    19.1873  3132.0000  -999.2500    44.7819  -999.2500    46.1477     2.0659  1220.7568
  490.1672    19.1875  3132.0000  -999.2500    42.7862  -999.2500    54.0462     2.0399  1243.3945
  490.3196    19.1843  3132.0000  -999.2500    40.9381  -999.2500    45.9028     2.0168  1243.1296
  490.4720    19.1747  3131.6382  -999.2500    38.7241  -999.2500    37.7861     1.9970  1256.3872
  490.6244    19.1706  3130.1592  -999.2500    40.9303  -999.2500    32.8355     1.9914  1262.2146
  490.7768    19.1575  3130.0000  -999.2500    41.8515  -999.2500    34.3218     1.9719  1241.0391
  490.9292    19.1506  3129.6372  -999.2500    44.6060  -999.2500    33.4649     1.9554  1264.5942
  491.0816    19.1282  3128.8125  -999.2500    46.5598  -999.2500    37.3901     1.9479  1252.1855
  491.2340    19.1139  3129.7075  -999.2500    47.5041  -999.2500    37.8418     1.9416  1253.4221
  491.3864    19.1248  3130.0000  -999.2500    47.2046  -999.2500    41.0988     1.9227  1235.3093
  491.5388    19.1187  3130.2686  -999.2500    45.6226  -999.2500    30.1255     1.8856  1238.6570
  491.6912    19.0750  3132.0000  -999.2500    45.5630  -999.2500    28.1796     1.8643  1235.0000
  491.8436    19.0274  3133.6240  -999.2500    45.7196  -999.2500    27.4186     1.8641  1233.7571
  491.9960    19.0096  3134.0000  -999.2500    44.1329  -999.2500    30.3404     1.8770  1243.5544
  492.1484    18.9561  3133.8745  -999.2500    42.3595  -999.2500    33.4143     1.8996  1246.2520
  492.3008    18.9321  3132.3457  -999.2500    42.1189  -999.2500    36.9221     1.9081  1262.4043
  492.4532    18.9002  3132.0000  -999.2500    42.9378  -999.2500    34.3530     1.9018  1268.9761
  492.6056    18.9103  3132.3149  -999.2500    42.9203  -999.2500    27.7424     1.8970  1265.2778
  492.7580    19.0201  3133.8740  -999.2500    43.6523  -999.2500    25.5845     1.9003  1241.5764
  492.9104    19.2473  3132.2412  -999.2500    44.4494  -999.2500    25.4136     1.9019  1255.7776
  493.0628    19.2595  3132.0000  -999.2500    43.8125  -999.2500    27.2237     1.8956  1250.8975
  493.2152    19.2399  3132.0000  -999.2500    41.0253  -999.2500    27.4399     1.8808  1256.1262
  493.3676    19.2743  3131.7759  -999.2500    38.7514  -999.2500    28.0126     1.8834  1256.6792
  493.5200    19.2813  3130.0864  -999.2500    41.2006  -999.2500    26.4330     1.8958  1264.3486
  493.6724    19.2787  3130.0000  -999.2500    43.7943  -999.2500    28.5831     1.8944  1263.2717
  493.8248    19.2720  3130.0000  -999.2500    44.1923  -999.2500    33.4488     1.8857  1268.8494
  493.9772    19.2813  3129.6646  -999.2500    40.7131  -999.2500    41.4838     1.8758  1260.0000
  494.1296    19.2961  3128.1025  -999.2500    39.0891  -999.2500    46.5692     1.8853  1246.7979
  494.2820    19.3018  3128.0000  -999.2500    40.5418  -999.2500    45.5165     1.8793  1262.3555
  494.4344    19.3348  3128.0000  -999.2500    41.7430  -999.2500    41.7387     1.8922  1262.8716
  494.5868    19.3438  3128.0000  -999.2500    39.6107  -999.2500    40.4452     1.8986  1265.0408
  494.7392    19.3438  3128.0000  -999.2500    38.7579  -999.2500    52.0207     1.9090  1260.6899
  494.8916    19.3434  3128.0000  -999.2500    37.0920  -999.2500    91.0041     1.8993  1283.8525
  495.0440    19.3305  3128.3057  -999.2500    41.7607  -999.2500   113.4385     1.8803  1268.8247
  495.1964    19.3313  3130.0000  -999.2500    42.7883  -999.2500    99.4186     1.8650  1271.0220
  495.3488    19.3410  3131.2935  -999.2500    44.5233  -999.2500    77.3715     1.8678  1274.7024
  495.5012    19.3405  3130.1401  -999.2500    43.7938  -999.2500    57.1436     1.8752  1260.7017
  495.6536    19.2983  3130.0000  -999.2500    43.7365  -999.2500    47.3055     1.8688  1251.3433
  495.8060    19.2743  3130.0000  -999.2500    40.5263  -999.2500    39.1738     1.8376  1253.1492
  495.9584    19.2781  3130.0000  -999.2500    38.4857  -999.2500    37.0688     1.8292  1251.0088
  496.1108    19.2834  3130.0000  -999.2500    36.9553  -999.2500    35.8540     1.8478  1250.6980
  496.2632    19.2969  3130.0000  -999.2500    38.2210  -999.2500    29.8796     1.8789  1254.9800
  496.4156    19.2947  3130.0000  -999.2500    41.1462  -999.2500    36.4860     1.8880  1244.2947
  496.5680    19.2876  3130.4038  -999.2500    42.6616  -999.2500    38.6785     1.8676  1237.0730
  496.7204    19.2969  3131.6313  -999.2500    42.8155  -999.2500    49.9889     1.8930  1248.1572
  496.8728    19.3152  3132.0000  -999.2500    39.9179  -999.2500    52.4334     1.9500  1258.2480
  497.0252    19.3582  3132.0000  -999.2500    35.5372  -999.2500    52.1237     2.1162  1252.5298
  497.1776    19.3934  3131.6445  -999.2500    34.0010  -999.2500    15.7250     2.0215  1263.4592
  497.3300    19.3865  3130.4077  -999.2500    37.8041  -999.2500     4.4615     1.9985  1255.3989
