~VERSION INFORMATION
VERS.                                                 2.0:   CWLS Log ASCII Standard-VERSION 2.0
WRAP.                                                  NO:   One line per depth step
~Well Information Block
STRT.M                                           485.1380:   Top Depth
STOP.M                                          3208.5260:   Bottom Depth
STEP.M                                             .15240:   Depth Increment
NULL.                                            -999.250:   Null Value
FLD .                                            SLEIPNER:   Field Name
WELL.                                             15/9-15:   NAME
WBN .                                             15/9-15:   WELLBORE
NATI.                                                 NOR:   COUNTRY
BHT1.DEGF                                           100.0:   BH TEMP 1
BHT2.DEGF                                           100.0:   BH TEMP 2
BHT3.DEGF                                            99.0:   BH TEMP 3
BS1 .IN                                            12.250:   BIT SIZE 1
CTRY.                                                 NOR:   COUNTRY
CBD1.M                                             171.50:   CSG 1 DRILL DEP
CBL1.M                                             171.50:   CSG 1 LOG DEP
CS1 .IN                                              30.0:   CSG 1 SIZE
COMP.                                             STATOIL:   OPERATOR
PDAT.                                                 MSL:   PERM DATUM
PROV.                                                   ?:   PROVINCE
COUN.                                            ROSS RIG:   RIG NAME
SPUD.                                          1982/05/28:   SPUD DATE
LATI.                                        58 18 7.35 N:   SURF. LATITUDE
LONG.                                        1 55 19.28 E:   SURF. LONGITUDE
BTD1.                                            514.50 M:   TOTAL DEPTH 1
BTD2.                                           1192.50 M:   TOTAL DEPTH 2
BTD3.                                           1192.50 M:   TOTAL DEPTH 3
PBWE.                                             15/9-15:   PB WELL ID
APIN.                                             15/9-15:   PB WELLBORE ID
PBWS.                                                 all:   PB WELL NAME SET
~PARAMETER INFORMATION (log)
LNAM.                              LDT/CNL/GR  COMPOSITED:   NAME
LTYP.                                         DEPTH MATCH:   LOG TYPE
LSRV.                                           LATEROLOG:   LOG SERVICE
LSOU.                                             SPT/NPD:   LOG SOURCE
LVSN.                                                   1:   LOG VERSION
BHIS.                                                   R:   BRIEF HISTORY
FHIS.                                             RAW-LIS:   FULL HISTORY
LCNM.                                                 SCH:   LOGGING CONTRACTOR
TOOL.                             LDT/CNL/GR (COMPOSITED):   TOOL STRING
~Curve Information Block
#MNEM.UNIT                                        API CODE    No Description
#=========                                        ========    == ===========
DEPT.M                                       00 001 00 00:     1  DEPTH
CALI.IN                                                  :     2  Caliper
CS.                                                      :     3  Cable Speed
DRHO.G/CC                                                :     4  Bulk density correction
GR.GAPI                                                  :     5  Gamma Ray
NPHI.%                                                   :     6  Neutron porosity
PEF.B/E                                                  :     7  Photo-electric factor
RHOB.G/CC                                                :     8  Bulk density
TENS.LB                                                  :     9  Cable Tension
~ASCII
# ...
 2842.9184     7.4824  2445.6973     -.0401    22.4743    17.5342     3.7204     2.2817  2920.5620
 2843.0708     7.4821  2445.5933     -.0386    23.4790    18.0495     3.6865     2.3047  2925.8647
 2843.2232     7.4805  2444.3569     -.0381    25.3685    18.3162     3.7823     2.3069  2930.0000
 2843.3756     7.4805  2444.0000     -.0398    25.5386    18.9727     4.0021     2.2959  2939.0352
 2843.5280     7.4806  2443.8252     -.0398    27.3866    20.2852     4.2199     2.2889  2941.6040
 2843.6804     7.4825  2442.3672     -.0387    27.8647    21.3140     4.4038     2.2932  2940.2715
 2843.8328     7.4818  2442.4043     -.0359    26.0478    21.4670     4.5811     2.3189  2942.4326
 2843.9852     7.4805  2443.7183     -.0345    22.1754    19.7917     4.5063     2.3623  2937.2666
 2844.1376     7.4805  2444.0000     -.0367    19.1508    17.6573     4.3561     2.3957  2931.2622
 2844.2900     7.4805  2444.2788     -.0408    18.8998    16.0404     4.2353     2.3880  2930.2954
 2844.4424     7.4808  2446.0005     -.0439    20.2337    16.0729     4.1268     2.3546  2932.9521
 2844.5948     7.4833  2447.6309     -.0458    21.0201    16.9766     4.1932     2.3182  2938.2725
 2844.7472     7.4844  2447.8198     -.0418    20.7110    17.8218     4.2065     2.3044  2935.6650
 2844.8996     7.4819  2446.1387     -.0397    21.3745    18.4608     4.3130     2.3075  2931.2568
 2845.0520     7.4826  2445.6475     -.0400    22.7447    19.5265     4.3594     2.3197  2929.0327
 2845.2044     7.4817  2444.4087     -.0443    24.4371    20.7460     4.3994     2.3253  2923.9668
 2845.3568     7.4805  2444.0000     -.0469    24.6409    21.2911     4.3126     2.3287  2927.6050
 2845.5092     7.4835  2444.0000     -.0442    23.1078    20.7728     4.2396     2.3271  2937.7021
 2845.6616     7.4820  2444.2520     -.0428    24.0214    20.0429     4.2928     2.3314  2942.4346
 2845.8140     7.4831  2445.6035     -.0404    25.4557    19.3892     4.5007     2.3437  2942.4365
 2845.9664     7.4841  2446.0000     -.0374    26.0277    18.8485     4.7193     2.3626  2945.9990
 2846.1188     7.4812  2445.7876     -.0332    24.5877    18.3557     4.7766     2.3814  2933.8511
 2846.2712     7.4834  2444.1016     -.0313    23.8424    17.5426     4.8695     2.3870  2930.1567
 2846.4236     7.4821  2444.0000     -.0355    23.7111    17.4093     4.9945     2.3735  2934.0205
 2846.5760     7.4828  2444.0000     -.0389    26.0007    17.7964     5.1520     2.3596  2940.6270
 2846.7284     7.4815  2444.0000     -.0417    28.4952    18.8000     5.1003     2.3500  2941.3701
 2846.8808     7.4838  2444.0000     -.0408    31.9150    18.9666     4.7988     2.3527  2948.5474
 2847.0332     7.4817  2444.0000     -.0381    31.0168    19.3258     4.6494     2.3560  2944.4478
 2847.1856     7.4833  2444.3867     -.0379    31.6123    19.3135     4.6449     2.3532  2936.1416
 2847.3380     7.4839  2446.0024     -.0361    31.9668    19.7390     4.5981     2.3506  2930.2007
 2847.4904     7.4807  2447.7583     -.0366    31.9660    20.2680     4.4847     2.3450  2924.8462
 2847.6428     7.4739  2448.0000     -.0342    27.8721    20.7509     4.5737     2.3470  2924.4370
 2847.7952     7.4812  2448.0000     -.0367    26.4999    21.1906     4.6837     2.3420  2937.7915
 2847.9476     7.4821  2447.5894     -.0386    27.2497    21.6947     4.6265     2.3352  2949.9209
 2848.1000     7.4831  2446.3457     -.0383    29.7331    22.0509     4.2654     2.3298  2961.2705
 2848.2524     7.4808  2446.0000     -.0398    30.9974    22.7459     4.2067     2.3229  2964.0000
 2848.4048     7.4835  2446.1909     -.0374    32.2807    22.7983     4.2785     2.3303  2963.0991
 2848.5572     7.4820  2447.2480     -.0397    32.8610    22.4281     4.4672     2.3290  2952.6060
 2848.7096     7.4828  2446.8018     -.0411    31.7964    21.0844     4.5214     2.3281  2936.4175
 2848.8620     7.4810  2447.7310     -.0432    28.2224    20.1401     4.2916     2.3293  2923.7026
 2849.0144     7.4805  2448.0000     -.0449    24.6064    20.6445     4.3245     2.3379  2910.3057
 2849.1668     7.4805  2448.0000     -.0430    24.2341    20.9645     4.2153     2.3556  2915.7549
 2849.3192     7.4805  2447.5923     -.0386    25.5315    20.4966     4.2775     2.3546  2927.6411
 2849.4716     7.4812  2446.3618     -.0348    26.7484    19.7471     4.1867     2.3460  2936.4321
 2849.6240     7.4837  2446.0000     -.0336    28.9710    19.8356     4.1832     2.3341  2947.6748
 2849.7764     7.4806  2446.0000     -.0369    28.6352    20.5410     4.2323     2.3395  2942.4639
 2849.9288     7.4805  2446.0000     -.0462    31.4757    20.7738     4.3903     2.3410  2960.3994
 2850.0812     7.4805  2446.0000     -.0506    33.0276    20.7251     4.3264     2.3428  2959.2568
 2850.2336     7.4812  2446.2944     -.0535    33.9490    20.1725     4.1796     2.3389  2946.6548
 2850.3860     7.4843  2447.9746     -.0500    33.0117    19.0637     4.0921     2.3386  2943.1240
 2850.5384     7.4838  2448.0000     -.0454    29.2298    18.4339     4.0201     2.3476  2934.6558
 2850.6908     7.4810  2448.0000     -.0418    26.6216    17.4187     4.1858     2.3647  2931.5664
 2850.8432     7.4805  2448.0000     -.0413    25.0971    16.9394     4.3347     2.3822  2930.6875
 2850.9956     7.4812  2448.0000     -.0409    24.5246    16.6741     4.3593     2.3872  2943.5288
 2851.1480     7.4839  2448.0000     -.0397    26.4109    17.2117     4.2295     2.3818  2950.4980
 2851.3004     7.4808  2448.0000     -.0385    25.0491    17.6677     4.2992     2.3760  2947.2295
 2851.4528     7.4816  2448.4097     -.0426    24.3729    17.3791     4.5790     2.3772  2930.9287
 2851.6052     7.4839  2450.0000     -.0448    23.2972    16.2081     4.6201     2.3792  2930.0654
 2851.7576     7.4844  2451.9326     -.0434    23.8719    14.6743     4.6071     2.3808  2921.6035
 2851.9100     7.4844  2452.0000     -.0384    26.4149    14.4176     4.4024     2.3815  2912.4463
 2852.0624     7.4886  2451.6064     -.0352    27.6238    15.2569     4.5565     2.3887  2925.4946
 2852.2148     7.5018  2450.3877     -.0341    28.9107    16.1115     4.4018     2.4016  2940.9746
 2852.3672     7.5086  2450.0000     -.0339    31.7193    15.9985     4.1811     2.4138  2956.2017
 2852.5196     7.5080  2450.0000     -.0341    36.4148    15.1916     4.1027     2.4241  2956.1196
 2852.6720     7.5278  2450.0000     -.0363    41.0095    14.5742     3.8146     2.4149  2958.5664
 2852.8244     7.5437  2449.5898     -.0434    41.3986    16.1865     3.7339     2.4068  2938.9580
 2852.9768     7.5473  2448.3369     -.0428    41.3325    18.2769     3.7663     2.4118  2922.1553
 2853.1292     7.5455  2448.2144     -.0398    40.8772    19.1129     4.2295     2.4273  2904.9526
 2853.2816     7.5487  2451.5820     -.0346    44.4640    17.8038     4.9158     2.4468  2906.6050
 2853.4340     7.5283  2452.0000     -.0397    45.8234    16.2295     5.3501     2.4425  2919.6196
 2853.5864     7.4923  2451.6025     -.0444    44.4899    15.8422     5.0707     2.4278  2932.2822
 2853.7388     7.4827  2450.0000     -.0470    40.8370    16.1910     4.9262     2.4145  2936.1689
 2853.8912     7.4832  2448.0435     -.0457    37.7414    16.3330     5.1989     2.4141  2940.0400
 2854.0436     7.4817  2448.0000     -.0433    36.6374    16.4466     5.6990     2.4153  2944.3218
 2854.1960     7.4842  2448.0000     -.0403    34.6574    15.2542     5.4691     2.4151  2948.5405
 2854.3484     7.4844  2448.0000     -.0373    31.9490    13.4425     4.8568     2.4131  2942.6694
 2854.5008     7.4844  2448.0000     -.0352    34.4774    11.6373     4.4360     2.4217  2940.0674
 2854.6532     7.5006  2448.3540     -.0345    41.8976    10.7510     4.3216     2.4288  2935.9429
 2854.8056     7.5466  2450.8936     -.0350    51.6899    11.0271     4.6939     2.4169  2936.4385
 2854.9580     7.5947  2450.0000     -.0257    54.0957    12.2715     5.6205     2.4011  2923.8877
 2855.1104     7.6273  2448.2822     -.0178    53.2015    15.4329     6.6106     2.4002  2906.2534
