~VERSION INFORMATION
VERS.                                                 2.0:   CWLS Log ASCII Standard-VERSION 2.0
WRAP.                                                  NO:   One line per depth step
~Well Information Block
STRT.M                                           485.1380:   Top Depth
STOP.M                                          3208.5260:   Bottom Depth
STEP.M                                             .15240:   Depth Increment
NULL.                                            -999.250:   Null Value
FLD .                                            SLEIPNER:   Field Name
WELL.                                             15/9-15:   NAME
WBN .                                             15/9-15:   WELLBORE
NATI.                                                 NOR:   COUNTRY
BHT1.DEGF                                           100.0:   BH TEMP 1
BHT2.DEGF                                           100.0:   BH TEMP 2
BHT3.DEGF                                            99.0:   BH TEMP 3
BS1 .IN                                            12.250:   BIT SIZE 1
CTRY.                                                 NOR:   COUNTRY
CBD1.M                                             171.50:   CSG 1 DRILL DEP
CBL1.M                                             171.50:   CSG 1 LOG DEP
CS1 .IN                                              30.0:   CSG 1 SIZE
COMP.                                             STATOIL:   OPERATOR
PDAT.                                                 MSL:   PERM DATUM
PROV.                                                   ?:   PROVINCE
COUN.                                            ROSS RIG:   RIG NAME
SPUD.                                          1982/05/28:   SPUD DATE
LATI.                                        58 18 7.35 N:   SURF. LATITUDE
LONG.                                        1 55 19.28 E:   SURF. LONGITUDE
BTD1.                                            514.50 M:   TOTAL DEPTH 1
BTD2.                                           1192.50 M:   TOTAL DEPTH 2
BTD3.                                           1192.50 M:   TOTAL DEPTH 3
PBWE.                                             15/9-15:   PB WELL ID
APIN.                                             15/9-15:   PB WELLBORE ID
PBWS.                                                 all:   PB WELL NAME SET
~PARAMETER INFORMATION (log)
LNAM.                              LDT/CNL/GR  COMPOSITED:   NAME
LTYP.                                         DEPTH MATCH:   LOG TYPE
LSRV.                                           LATEROLOG:   LOG SERVICE
LSOU.                                             SPT/NPD:   LOG SOURCE
LVSN.                                                   1:   LOG VERSION
BHIS.                                                   R:   BRIEF HISTORY
FHIS.                                             RAW-LIS:   FULL HISTORY
LCNM.                                                 SCH:   LOGGING CONTRACTOR
TOOL.                             LDT/CNL/GR (COMPOSITED):   TOOL STRING
~Curve Information Block
#MNEM.UNIT                                        API CODE    No Description
#=========                                        ========    == ===========
DEPT.M                                       00 001 00 00:     1  DEPTH
CALI.IN                                                  :     2  Caliper
CS.                                                      :     3  Cable Speed
DRHO.G/CC                                                :     4  Bulk density correction
GR.GAPI                                                  :     5  Gamma Ray
NPHI.%                                                   :     6  Neutron porosity
PEF.B/E                                                  :     7  Photo-electric factor
RHOB.G/CC                                                :     8  Bulk density
TENS.LB                                                  :     9  Cable Tension
~ASCII
# ...
 1929.4328    16.9400  2536.8608      .0772    67.0833    58.3217     3.0875     1.9604  2638.2690
 1929.5852    17.0411  2532.8647      .0786    66.0629    61.6977     3.2771     1.8971  2614.6626
 1929.7376    16.5335  2528.8623      .0933    63.9167    60.8441     3.8849     1.8684  2605.0723
 1929.8900    15.5073  2524.8599      .1023    63.1003    52.7318     4.4040     1.9366  2579.8047
 1930.0424    14.5276  2520.2944      .0906    63.5227    45.8691     3.9121     2.0995  2551.1577
 1930.1948    13.9918  2512.3047      .0874    64.5497    41.7708     3.4232     2.2664  2563.0889
 1930.3472    14.9747  2501.3364      .0669    65.6479    39.4830     3.2520     2.2321  2602.5249
 1930.4996    15.9236  2490.5083      .0743    63.6112    41.0622     3.3155     2.2014  2600.4917
 1930.6520    16.4772  2478.5938      .0810    61.2282    43.8296     3.3738     2.1767  2555.5801
 1930.8044    17.0156  2465.4741      .0858    59.2285    46.2116     3.4109     2.1377  2544.1826
 1930.9568    17.6101  2448.7480      .1036    59.7282    48.8045     3.4109     2.0679  2593.8413
 1931.1092    18.4368  2430.9072      .1183    63.2503    52.0793     3.3197     1.9812  2645.3237
 1931.2616    18.5457  2412.3398      .1272    66.8087    51.7400     3.1938     1.8923  2651.1787
 1931.4140    18.9792  2400.2563      .1117    69.3333    49.3978     3.1778     1.8035  2612.6665
 1931.5664    18.1854  2421.7168      .0924    65.7344    44.6168     3.3577     1.7411  2587.3208
 1931.7188    16.7225  2472.2856      .0796    62.5766    46.9590     3.4983     1.7601  2580.9751
 1931.8712    16.4651  2527.7500      .0844    63.4172    49.4957     3.4854     1.8541  2601.4277
 1932.0236    15.9509  2568.0054      .0944    69.0344    52.8366     3.4943     1.9536  2623.8149
 1932.1760    16.4951  2568.5625      .1080    74.7637    53.3463     3.6097     1.9584  2624.4375
 1932.3284    16.3386  2569.1553      .1077    76.3386    52.3764     3.8052     1.9293  2603.7969
 1932.4808    16.4689  2568.9004      .1077    75.0794    49.7378     3.7875     1.9442  2620.4863
 1932.6332    17.6185  2569.9614      .1068    72.8979    47.3416     3.6831     1.9948  2637.0757
 1932.7856    18.3966  2570.5605      .0964    70.8012    45.7179     3.5255     2.0072  2599.9038
 1932.9380    17.9781  2572.5601      .0921    68.8481    48.2829     3.2850     2.0053  2578.1079
 1933.0904    18.3827  2573.0928      .0870    68.2968    54.3061     3.1706     1.9711  2585.3350
 1933.2428    18.8104  2572.1318      .0888    67.8369    60.3446     3.0316     1.9211  2590.9863
 1933.3952    18.8600  2571.4517      .0924    68.2117    59.6182     3.0125     1.8477  2612.3545
 1933.5476    19.1324  2570.5586      .0999    67.3520    57.6551     3.0672     1.7656  2665.5884
 1933.7000    18.8828  2571.8716      .0959    68.1218    52.1712     3.2900     1.7352  2651.2090
 1933.8524    17.7393  2571.2666      .0944    69.2751    51.1370     3.5270     1.7777  2601.1357
 1934.0048    16.5795  2570.0635      .0976    71.1417    49.3811     3.6508     1.8634  2592.5898
 1934.1572    15.8491  2570.0000      .1124    72.2242    48.8981     3.6483     1.9467  2615.5767
 1934.3096    16.0990  2570.5923      .1188    69.8413    53.1923     3.5116     1.9790  2621.9663
 1934.4620    17.1965  2571.8315      .1088    66.8377    51.2716     3.4405     1.9927  2597.4634
 1934.6144    17.5190  2571.2954      .1036    66.5368    49.0139     3.4769     1.9959  2564.1377
 1934.7668    17.5210  2569.9956      .0949    67.7435    46.6436     3.5295     1.9797  2536.7056
 1934.9192    17.7085  2569.4429      .0876    69.7049    48.0769     3.5081     1.9578  2562.3584
 1935.0716    17.8123  2568.7822      .0846    68.9927    54.5559     3.4944     1.9578  2592.3667
 1935.2240    17.5685  2569.8218      .1003    67.1260    60.8948     3.4743     1.9840  2606.1777
 1935.3764    16.8760  2570.0000      .1220    66.2465    64.4315     3.4753     2.0211  2597.3838
 1935.5288    16.5321  2570.0000      .1328    68.3579    60.5822     3.4884     2.0363  2606.7036
 1935.6812    17.5373  2570.0000      .1304    72.8592    54.3361     3.4846     2.0161  2661.0488
 1935.8336    17.2301  2571.4331      .1209    73.3644    54.1935     3.4052     1.9810  2666.7061
 1935.9860    16.4893  2573.6846      .1188    71.6848    53.9279     3.2259     1.9675  2615.5889
 1936.1384    16.3279  2574.5532      .1165    68.1598    52.8929     3.1454     1.9652  2561.6938
 1936.2908    16.9005  2575.4443      .1214    66.7082    50.6862     3.2272     1.9511  2542.7783
 1936.4432    16.0724  2574.0947      .1102    64.6936    48.7309     3.4845     1.8848  2568.9917
 1936.5956    16.8267  2573.2656      .0975    64.6576    47.4796     3.7302     1.8345  2598.7378
 1936.7480    18.0090  2571.4463      .0919    63.6075    48.0792     3.9136     1.8433  2603.4380
 1936.9004    18.8462  2570.0000      .0955    58.8809    51.2980     3.9096     1.9182  2636.3579
 1937.0528    18.1383  2570.0000      .1148    54.9448    54.4131     3.7803     1.9855  2663.4268
 1937.2052    17.3700  2570.7041      .1159    53.0362    54.9666     3.6655     1.9295  2622.4683
 1937.3576    18.1377  2571.8325      .1093    55.0177    55.0037     3.5698     1.8547  2625.3008
 1937.5100    18.9022  2572.0000      .1127    57.9622    53.4342     3.5164     1.8320  2643.6157
 1937.6624    19.4805  2572.0000      .1166    59.1071    53.9477     3.4846     1.8767  2629.0962
 1937.8148    19.0051  2572.0000      .1204    60.4940    59.0428     3.5052     1.9298  2593.3018
 1937.9672    19.1540  2571.2695      .1248    60.1314    59.1697     3.5418     1.9656  2603.1357
 1938.1196    19.1574  2570.1250      .1311    61.2264    54.3627     3.5231     1.9922  2614.9985
 1938.2720    18.8551  2570.0000      .1416    61.0674    46.0700     3.5025     2.0236  2609.9844
 1938.4244    19.1799  2570.0000      .1355    61.7846    48.6886     3.6008     2.0277  2608.3511
 1938.5768    19.8309  2570.0000      .1388    60.1730    56.1026     3.5757     2.0164  2606.4941
 1938.7292    20.0281  2570.0000      .1338    58.1837    59.6833     3.5159     1.9929  2605.8540
 1938.8816    20.6216  2570.6001      .1259    56.9904    58.3731     3.3020     1.9669  2597.2593
 1939.0340    20.8907  2572.0000      .1234    57.6001    51.8817     3.1571     1.9478  2595.4878
 1939.1864    20.2073  2572.6006      .1256    60.7484    54.8136     3.0565     1.9294  2607.6587
 1939.3388    20.1990  2573.8237      .1269    60.7863    56.5221     3.0865     1.9112  2610.3154
 1939.4912    20.5931  2574.6875      .1206    58.7196    59.0142     3.2005     1.8780  2615.4331
 1939.6436    20.2709  2575.4521      .1177    56.6806    56.4678     3.4064     1.8364  2609.8721
 1939.7960    18.8401  2573.4536      .1100    55.1607    55.9991     3.6300     1.8290  2596.3379
 1939.9484    16.7661  2571.4526      .0891    56.4962    52.9860     3.5778     1.8609  2563.1665
 1940.1008    15.5052  2570.1807      .0814    55.9065    51.2989     3.2912     1.9215  2578.1445
 1940.2532    16.8745  2569.3784      .0855    56.6674    49.0203     3.0866     1.9644  2611.2197
 1940.4056    18.1931  2568.0000      .1131    56.9401    49.3641     3.0997     1.9753  2611.8335
 1940.5580    18.5496  2568.5742      .1191    57.7591    52.5652     3.2410     1.9079  2584.6992
 1940.7104    18.7775  2569.8291      .1037    58.4003    56.4170     3.3686     1.8488  2560.9819
 1940.8628    18.3995  2570.0000      .0877    58.3531    57.3081     3.4686     1.8273  2549.3018
 1941.0152    18.5815  2569.4580      .0841    59.7626    55.3544     3.5510     1.8484  2587.1040
 1941.1676    18.4665  2568.0000      .0962    60.8036    48.3530     3.5582     1.8474  2663.8027
 1941.3200    18.9977  2568.0000      .0953    59.8830    46.2673     3.5194     1.8461  2662.0981
 1941.4724    18.8059  2568.7256      .0958    59.6543    48.0253     3.4770     1.8818  2630.0610
 1941.6248    18.6218  2569.9023      .1129    58.0947    50.9097     3.4852     1.9660  2601.2734
