~VERSION INFORMATION
VERS.                                                 2.0:   CWLS Log ASCII Standard-VERSION 2.0
WRAP.                                                  NO:   One line per depth step
~Well Information Block
STRT.M                                           485.1380:   Top Depth
STOP.M                                          3208.5260:   Bottom Depth
STEP.M                                             .15240:   Depth Increment
NULL.                                            -999.250:   Null Value
FLD .                                            SLEIPNER:   Field Name
WELL.                                             15/9-15:   NAME
WBN .                                             15/9-15:   WELLBORE
NATI.                                                 NOR:   COUNTRY
BHT1.DEGF                                           100.0:   BH TEMP 1
BHT2.DEGF                                           100.0:   BH TEMP 2
BHT3.DEGF                                            99.0:   BH TEMP 3
BS1 .IN                                            12.250:   BIT SIZE 1
CTRY.                                                 NOR:   COUNTRY
CBD1.M                                             171.50:   CSG 1 DRILL DEP
CBL1.M                                             171.50:   CSG 1 LOG DEP
CS1 .IN                                              30.0:   CSG 1 SIZE
COMP.                                             STATOIL:   OPERATOR
PDAT.                                                 MSL:   PERM DATUM
PROV.                                                   ?:   PROVINCE
COUN.                                            ROSS RIG:   RIG NAME
SPUD.                                          1982/05/28:   SPUD DATE
LATI.                                        58 18 7.35 N:   SURF. LATITUDE
LONG.                                        1 55 19.28 E:   SURF. LONGITUDE
BTD1.                                            514.50 M:   TOTAL DEPTH 1
BTD2.                                           1192.50 M:   TOTAL DEPTH 2
BTD3.                                           1192.50 M:   TOTAL DEPTH 3
PBWE.                                             15/9-15:   PB WELL ID
APIN.                                             15/9-15:   PB WELLBORE ID
PBWS.                                                 all:   PB WELL NAME SET
~PARAMETER INFORMATION (log)
LNAM.                              LDT/CNL/GR  COMPOSITED:   NAME
LTYP.                                         DEPTH MATCH:   LOG TYPE
LSRV.                                           LATEROLOG:   LOG SERVICE
LSOU.                                             SPT/NPD:   LOG SOURCE
LVSN.                                                   1:   LOG VERSION
BHIS.                                                   R:   BRIEF HISTORY
FHIS.                                             RAW-LIS:   FULL HISTORY
LCNM.                                                 SCH:   LOGGING CONTRACTOR
TOOL.                             LDT/CNL/GR (COMPOSITED):   TOOL STRING
~Curve Information Block
#MNEM.UNIT                                        API CODE    No Description
#=========                                        ========    == ===========
DEPT.M                                       00 001 00 00:     1  DEPTH
CALI.IN                                                  :     2  Caliper
CS.                                                      :     3  Cable Speed
DRHO.G/CC                                                :     4  Bulk density correction
GR.GAPI                                                  :     5  Gamma Ray
NPHI.%                                                   :     6  Neutron porosity
PEF.B/E                                                  :     7  Photo-electric factor
RHOB.G/CC                                                :     8  Bulk density
TENS.LB                                                  :     9  Cable Tension
~ASCII
# ...
 2299.7648    13.0771  2492.0000      .0792    76.2833    42.1308     2.5615     2.2798  2880.0503
 2299.9172    13.0138  2488.0000      .0684    67.5901    39.8168     2.8905     2.2890  2877.3618
 2300.0696    12.9934  2484.0000      .0886    60.8808    38.9490     3.1714     2.3407  2906.7466
 2300.2220    12.9401  2479.9946      .1037    60.7412    39.1467     3.0599     2.3982  2931.4956
 2300.3744    12.9315  2475.9995      .0905    66.0605    39.9163     2.6940     2.4006  2940.8540
 2300.5268    12.9559  2472.0000      .0592    70.7632    39.6645     2.4861     2.3483  2914.0000
 2300.6792    12.9382  2467.6367      .0620    71.9211    40.2138     2.5341     2.3073  2889.4429
 2300.8316    12.9469  2462.4072      .0825    73.4635    38.8269     2.5478     2.3016  2887.2456
 2300.9840    12.9676  2458.5811      .1100    78.9640    38.1534     2.5776     2.3172  2899.7124
 2301.1364    12.9837  2458.0000      .1214    80.9262    37.4418     2.6168     2.3320  2913.9619
 2301.2888    12.9360  2458.2690      .1106    79.6316    40.4699     2.6159     2.3371  2920.7671
 2301.4412    12.9203  2459.5986      .0816    74.3795    41.9030     2.6309     2.3199  2912.8086
 2301.5936    12.9121  2459.6250      .0743    73.3164    41.3968     2.6569     2.3123  2913.7505
 2301.7460    12.9211  2458.1914      .0889    76.6250    39.8951     2.6917     2.3199  2929.4258
 2301.8984    12.9312  2458.0000      .1017    80.4773    38.7458     2.7168     2.3262  2943.4941
 2302.0508    12.9528  2458.3452      .0848    80.8116    38.6297     2.7705     2.3064  2942.0469
 2302.2032    12.9485  2460.0000      .0758    84.6915    38.3078     2.8359     2.2946  2916.1401
 2302.3556    12.9478  2461.6860      .0711    88.1734    37.6897     2.8721     2.2943  2903.1377
 2302.5080    12.9595  2462.0000      .0718    89.1578    37.3910     2.7951     2.2947  2909.8086
 2302.6604    12.9382  2462.0000      .0632    84.5235    38.1534     2.8171     2.2841  2913.0283
 2302.8128    12.9595  2462.0000      .0761    80.1227    37.8756     2.8616     2.2654  2907.6538
 2302.9652    12.9519  2462.0000      .0994    80.3793    38.1711     2.9209     2.2721  2899.0303
 2303.1176    12.9141  2461.7773      .0987    79.8963    38.3141     2.8149     2.2721  2903.9980
 2303.2700    12.9205  2460.0029      .0817    79.6065    39.4272     2.7117     2.2946  2913.5469
 2303.4224    12.9114  2458.3296      .0441    80.1288    39.2573     2.5461     2.2837  2914.0000
 2303.5748    12.9155  2458.0000      .0380    79.8798    38.7883     2.5114     2.2955  2911.9487
 2303.7272    12.9154  2458.0000      .0407    79.6765    37.7866     2.4805     2.2927  2904.0024
 2303.8796    12.9414  2458.0986      .0595    78.7720    38.7561     2.4478     2.2946  2895.4961
 2304.0320    12.9104  2459.5737      .0721    79.7783    38.4416     2.4564     2.2962  2911.8535
 2304.1844    12.9062  2458.7676      .0710    77.7853    37.8487     2.4242     2.3078  2914.0000
 2304.3368    12.9032  2459.9990      .0593    76.7223    35.8739     2.3551     2.3169  2913.2085
 2304.4892    12.8945  2461.7476      .0371    76.7497    35.3633     2.2862     2.3064  2911.0029
 2304.6416    12.9071  2462.0000      .0393    76.3672    37.5595     2.3176     2.2984  2913.4346
 2304.7940    12.9442  2462.0000      .0423    77.5350    40.2406     2.4906     2.2779  2899.5273
 2304.9464    12.9206  2462.0000      .0631    76.6559    40.4921     2.6152     2.2789  2910.8174
 2305.0988    12.9164  2462.0000      .0807    75.3133    39.4273     2.6544     2.2894  2925.4165
 2305.2512    12.9090  2462.2783      .0835    71.3961    38.1822     2.5911     2.3019  2924.4180
 2305.4036    12.9157  2465.6357      .0629    65.9836    39.0774     2.4519     2.3033  2924.5371
 2305.5560    12.8157  2466.0000      .0307    65.3634    38.1675     2.3442     2.2939  2928.8862
 2305.7084    12.7751  2465.5962      .0145    65.0609    37.1077     2.3186     2.2922  2936.0513
 2305.8608    12.7791  2464.2783      .0071    64.6229    36.1795     2.3854     2.2905  2953.0342
 2306.0132    12.7812  2464.0000      .0024    66.2500    38.3301     2.4062     2.2852  2940.0000
 2306.1656    12.7835  2463.7158     -.0008    63.7107    38.0422     2.3215     2.2745  2904.8193
 2306.3180    12.7937  2462.4043      .0023    63.2959    38.5070     2.2150     2.2785  2896.4277
 2306.4704    12.7998  2461.6318      .0090    63.1466    37.8605     2.2582     2.2818  2901.4727
 2306.6228    12.8118  2460.1743      .0199    65.5813    38.7191     2.4002     2.2822  2913.3003
 2306.7752    12.8197  2460.1440      .0537    69.3844    36.0996     2.5347     2.3066  2920.5684
 2306.9276    12.8231  2462.0000      .0503    70.9563    36.3844     2.4470     2.3126  2935.0684
 2307.0800    12.8391  2463.1841      .0393    73.5805    35.1449     2.3924     2.3155  2951.9600
 2307.2324    12.8625  2462.3027      .0167    75.4640    35.5175     2.4008     2.2991  2957.3457
 2307.3848    12.8673  2462.0000      .0131    76.1471    35.5235     2.5007     2.2930  2929.8286
 2307.5372    12.8760  2462.0000      .0109    71.5826    34.4110     2.4730     2.2890  2888.6426
 2307.6896    12.8844  2462.3979      .0105    69.3177    35.6728     2.5105     2.2785  2875.1943
 2307.8420    12.8810  2463.6187      .0214    72.5333    37.9976     2.6140     2.2809  2877.2446
 2307.9944    12.8906  2464.0000      .0335    78.6860    40.1609     2.7933     2.2887  2903.1704
 2308.1468    12.9007  2464.0000      .0446    81.0040    39.0532     2.8825     2.3069  2929.3789
 2308.2992    12.8309  2464.3384      .0283    80.8663    36.5002     2.7547     2.2992  2944.3423
 2308.4516    12.7985  2465.5898      .0168    81.3316    36.4859     2.6223     2.2910  2951.3877
 2308.6040    12.7863  2466.0000      .0157    81.9572    37.1224     2.6020     2.2810  2934.9736
 2308.7564    12.7956  2466.0000      .0266    79.8279    37.0285     2.6987     2.2634  2915.4756
 2308.9088    12.7830  2465.7705      .0628    77.7178    36.2634     2.7824     2.2799  2925.8916
 2309.0612    12.7812  2464.7778      .0669    77.9861    36.7935     2.7133     2.2853  2908.0479
 2309.2136    12.7782  2465.2158      .0510    77.4252    36.9896     2.6065     2.2796  2886.6641
 2309.3660    12.7731  2464.2378      .0331    76.1106    37.1329     2.4802     2.2776  2885.9019
 2309.5184    12.8117  2463.9292      .0249    72.9150    36.0341     2.4409     2.2801  2904.2422
 2309.6708    12.8322  2462.3179      .0271    75.2247    35.8485     2.4077     2.2975  2929.6880
 2309.8232    12.8359  2462.4097      .0172    76.5686    34.9821     2.4031     2.2932  2946.2148
 2309.9756    12.8427  2463.6563      .0226    77.5926    34.1560     2.4202     2.3033  2945.8452
 2310.1280    12.8736  2464.0000      .0301    76.2048    33.6487     2.3744     2.3150  2959.0625
 2310.2804    12.8891  2463.8018      .0358    75.6904    35.1538     2.4537     2.3084  2963.6040
 2310.4328    12.8936  2462.7554      .0551    77.6277    35.5985     2.4429     2.3223  2957.5771
 2310.5852    12.8969  2463.9990      .0565    77.9999    37.3144     2.4477     2.3234  2932.8081
 2310.7376    12.8812  2465.4712      .0542    78.1633    36.7520     2.3810     2.3337  2912.6582
 2310.8900    12.8906  2464.0283      .0129    76.1431    35.8066     2.4034     2.2976  2910.1982
 2311.0424    12.9062  2464.0000      .0094    79.0389    33.2354     2.2828     2.3007  2920.4482
 2311.1948    12.9155  2464.0000      .0046    80.8029    33.4416     2.2964     2.2981  2914.0127
 2311.3472    12.9091  2464.3584      .0056    81.1846    34.8554     2.3613     2.3013  2907.6011
 2311.4996    12.9075  2465.8452      .0097    81.4247    35.5884     2.4948     2.3026  2915.5483
 2311.6520    12.9206  2466.0000      .0127    76.7452    36.2492     2.4892     2.3008  2943.6699
 2311.8044    12.9190  2466.0000      .0114    75.8922    34.6596     2.4792     2.2995  2961.6348
 2311.9568    12.9142  2465.5957      .0093    75.7428    33.0813     2.4813     2.3000  2945.9829
