~VERSION INFORMATION
VERS.                                                 2.0:   CWLS Log ASCII Standard-VERSION 2.0
WRAP.                                                  NO:   One line per depth step
~Well Information Block
STRT.M                                           485.1380:   Top Depth
STOP.M                                          3208.5260:   Bottom Depth
STEP.M                                             .15240:   Depth Increment
NULL.                                            -999.250:   Null Value
FLD .                                            SLEIPNER:   Field Name
WELL.                                             15/9-15:   NAME
WBN .                                             15/9-15:   WELLBORE
NATI.                                                 NOR:   COUNTRY
BHT1.DEGF                                           100.0:   BH TEMP 1
BHT2.DEGF                                           100.0:   BH TEMP 2
BHT3.DEGF                                            99.0:   BH TEMP 3
BS1 .IN                                            12.250:   BIT SIZE 1
CTRY.                                                 NOR:   COUNTRY
CBD1.M                                             171.50:   CSG 1 DRILL DEP
CBL1.M                                             171.50:   CSG 1 LOG DEP
CS1 .IN                                              30.0:   CSG 1 SIZE
COMP.                                             STATOIL:   OPERATOR
PDAT.                                                 MSL:   PERM DATUM
PROV.                                                   ?:   PROVINCE
COUN.                                            ROSS RIG:   RIG NAME
SPUD.                                          1982/05/28:   SPUD DATE
LATI.                                        58 18 7.35 N:   SURF. LATITUDE
LONG.                                        1 55 19.28 E:   SURF. LONGITUDE
BTD1.                                            514.50 M:   TOTAL DEPTH 1
BTD2.                                           1192.50 M:   TOTAL DEPTH 2
BTD3.                                           1192.50 M:   TOTAL DEPTH 3
PBWE.                                             15/9-15:   PB WELL ID
APIN.                                             15/9-15:   PB WELLBORE ID
PBWS.                                                 all:   PB WELL NAME SET
~PARAMETER INFORMATION (log)
LNAM.                              LDT/CNL/GR  COMPOSITED:   NAME
LTYP.                                         DEPTH MATCH:   LOG TYPE
LSRV.                                           LATEROLOG:   LOG SERVICE
LSOU.                                             SPT/NPD:   LOG SOURCE
LVSN.                                                   1:   LOG VERSION
BHIS.                                                   R:   BRIEF HISTORY
FHIS.                                             RAW-LIS:   FULL HISTORY
LCNM.                                                 SCH:   LOGGING CONTRACTOR
TOOL.                             LDT/CNL/GR (COMPOSITED):   TOOL STRING
~Curve Information Block
#MNEM.UNIT                                        API CODE    No Description
#=========                                        ========    == ===========
DEPT.M                                       00 001 00 00:     1  DEPTH
CALI.IN                                                  :     2  Caliper
CS.                                                      :     3  Cable Speed
DRHO.G/CC                                                :     4  Bulk density correction
GR.GAPI                                                  :     5  Gamma Ray
NPHI.%                                                   :     6  Neutron porosity
PEF.B/E                                                  :     7  Photo-electric factor
RHOB.G/CC                                                :     8  Bulk density
TENS.LB                                                  :     9  Cable Tension
~ASCII
# ...
 1386.2792    14.6167  2676.3872      .0230    95.6433    50.9547     2.0084     1.9573  2074.3862
 1386.4316    14.8211  2676.0000      .0177   101.0738    52.4930     1.9793     1.9523  2068.0776
 1386.5840    14.9996  2676.0000      .0153   100.8516    52.8446     1.9620     1.9460  2071.4785
 1386.7364    15.0476  2676.0000      .0125    97.0093    48.2438     1.9282     1.9367  2074.4536
 1386.8888    15.0609  2676.0000      .0181    90.5256    47.9709     1.8619     1.9362  2082.8882
 1387.0412    15.1222  2676.2334      .0134    87.4003    49.3889     1.7972     1.9299  2106.7197
 1387.1936    15.1701  2677.7637      .0115    89.1918    50.9840     1.7914     1.9282  2124.5688
 1387.3460    15.0895  2679.7642      .0119    93.0324    52.5456     1.8353     1.9272  2114.8911
 1387.4984    15.1552  2681.7627      .0113    99.0201    50.8296     1.9002     1.9268  2084.0288
 1387.6508    15.2215  2681.8730      .0100   100.7759    53.4584     1.9834     1.9327  2075.7207
 1387.8032    15.0888  2680.2368      .0101    98.6472    53.2362     2.0058     1.9489  2080.0010
 1387.9556    15.0659  2678.5156      .0152    94.7771    53.6002     2.0266     1.9707  2073.2295
 1388.1080    15.1218  2678.1191      .0224    91.4820    52.6598     2.0190     1.9928  2055.7085
 1388.2604    15.2214  2679.7627      .0273    92.8436    51.7412     2.0206     2.0064  2071.1558
 1388.4128    15.1976  2678.4507      .0247    95.1913    49.9541     1.9963     2.0091  2105.3579
 1388.5652    15.2576  2678.0000      .0258    96.0636    51.7451     1.9742     2.0045  2091.3618
 1388.7176    15.3032  2678.0000      .0203    92.6015    52.8887     1.9637     1.9868  2086.4775
 1388.8700    15.2584  2678.0000      .0197    91.4399    53.5995     1.9586     1.9704  2110.3970
 1389.0224    15.0828  2678.0000      .0139    90.8737    46.2821     1.9637     1.9601  2096.1963
 1389.1748    15.0960  2677.7300      .0132    94.0376    47.5126     1.9675     1.9644  2075.3096
 1389.3272    15.1741  2676.8125      .0136    93.3338    47.4134     1.9752     1.9715  2069.3003
 1389.4796    15.1168  2677.6138      .0128    91.2272    47.7601     1.9445     1.9714  2084.5483
 1389.6320    15.1134  2678.0000      .0190    90.0577    46.8187     1.9014     1.9698  2084.7212
 1389.7844    15.3481  2677.8086      .0239    91.2241    48.7107     1.8564     1.9574  2078.6479
 1389.9368    15.2866  2676.8330      .0280    94.7802    50.7295     1.8453     1.9450  2094.5146
 1390.0892    15.2557  2677.5156      .0225    96.2103    50.3894     1.8742     1.9286  2106.3623
 1390.2416    15.3299  2678.0332      .0212    96.3286    51.4921     1.9160     1.9280  2101.7661
 1390.3940    15.2863  2679.6948      .0216    95.5051    51.5098     1.9583     1.9406  2121.1621
 1390.5464    15.1757  2680.2559      .0223   100.0702    53.1011     1.9273     1.9475  2139.6792
 1390.6988    15.1612  2681.1738      .0184   103.1887    53.5943     1.8915     1.9370  2122.1665
 1390.8512    15.2509  2680.4126      .0189   101.4256    54.4047     1.8775     1.9211  2089.1025
 1391.0036    15.2675  2680.0000      .0217    94.6252    55.4912     1.8727     1.9078  2088.7900
 1391.1560    15.1663  2679.8330      .0257    91.1125    53.1334     1.8703     1.9058  2066.4844
 1391.3084    15.1531  2678.2422      .0299    95.0673    56.1634     1.8760     1.9176  2067.3008
 1391.4608    15.2321  2676.2441      .0367   100.7257    58.7212     1.8837     1.9397  2088.5386
 1391.6132    15.4031  2674.3091      .0393   105.7632    61.5538     1.8778     1.9592  2107.6577
 1391.7656    15.3917  2674.0278      .0362   102.4053    61.0855     1.8946     1.9620  2113.5938
 1391.9180    15.4739  2675.5151      .0379   102.5610    57.6348     1.9093     1.9657  2118.6870
 1392.0704    15.4905  2676.0000      .0382   100.4252    55.9531     1.9099     1.9701  2107.0659
 1392.2228    15.2100  2676.0000      .0426   100.6045    54.3869     1.9059     1.9825  2104.0840
 1392.3752    15.3365  2676.0000      .0415    99.3005    53.8206     1.8809     1.9939  2112.7671
 1392.5276    15.2934  2674.3867      .0368   102.8277    53.4981     1.8933     1.9945  2110.3540
 1392.6800    15.2313  2674.2832      .0342   102.8253    50.6592     1.9107     1.9975  2107.8540
 1392.8324    15.2817  2675.4849      .0374   102.1508    49.7328     1.9546     2.0057  2114.5376
 1392.9848    15.3945  2676.0000      .0395    99.4411    48.6181     2.0127     2.0197  2111.2393
 1393.1372    15.4483  2676.0000      .0408    95.2778    47.6129     1.9972     2.0386  2101.2417
 1393.2896    15.4472  2674.4697      .0307    90.5459    45.8917     1.9718     2.0383  2105.4282
 1393.4420    15.4358  2674.0000      .0352    90.9942    47.2158     1.9603     2.0439  2095.4375
 1393.5944    15.3011  2674.2114      .0340    95.2143    49.7640     1.9861     2.0368  2091.4810
 1393.7468    15.4229  2675.7500      .0309   101.4779    48.9437     2.0530     2.0298  2102.2529
 1393.8992    15.5635  2676.1118      .0200   102.7958    47.6517     2.0912     2.0127  2100.9438
 1394.0516    15.4771  2677.7500      .0189   105.5322    44.8885     2.1012     2.0024  2102.9546
 1394.2040    15.5594  2679.1963      .0252   106.1982    44.9378     2.0423     2.0008  2102.6138
 1394.3564    15.6874  2678.3730      .0375   106.1284    46.6558     2.0047     2.0080  2095.8657
 1394.5088    15.2924  2678.0000      .0443   106.5075    52.4603     1.9843     2.0132  2094.0000
 1394.6612    15.2129  2676.6538      .0417   110.7854    58.5388     2.0775     2.0151  2109.0718
 1394.8136    15.2042  2677.4546      .0247   114.6022    58.9986     2.1229     2.0076  2110.2104
 1394.9660    15.2128  2677.5444      .0121   115.6579    53.9818     2.1238     2.0112  2105.4375
 1395.1184    15.1793  2674.5181      .0119   110.3787    49.2277     2.1110     2.0254  2103.9795
 1395.2708    15.3449  2675.6665      .0221   106.6820    46.8013     2.0738     2.0398  2095.5054
 1395.4232    15.4406  2676.0000      .0333   106.1203    47.5417     2.0631     2.0300  2091.0273
 1395.5756    15.4459  2676.0000      .0323   106.6133    47.5836     2.0355     2.0108  2092.8340
 1395.7280    15.4276  2675.8516      .0241   110.2861    45.9202     2.0479     1.9926  2106.7227
 1395.8804    15.3216  2674.2544      .0191   107.7372    47.3395     2.0549     1.9934  2118.7280
 1396.0328    15.6401  2674.1777      .0210   109.4219    50.5116     2.0430     2.0018  2132.4639
 1396.1852    15.7664  2675.4561      .0276   105.0869    53.2838     2.0436     2.0156  2111.7632
 1396.3376    15.7888  2676.0000      .0293   101.6754    52.8065     2.0544     2.0237  2092.7559
 1396.4900    15.8326  2676.0000      .0236    98.7030    50.8500     2.1029     2.0237  2084.8066
 1396.6424    15.7543  2676.0000      .0222    97.7929    51.3704     2.0875     2.0204  2080.2324
 1396.7948    15.6637  2676.0000      .0290    97.1469    51.9597     2.1014     2.0273  2069.9819
 1396.9472    15.7474  2676.2876      .0349    98.2350    53.2269     2.0924     2.0310  2077.6646
 1397.0996    15.7513  2677.7432      .0344   101.6482    52.8858     2.1197     2.0262  2091.5161
 1397.2520    15.7742  2679.7422      .0270   105.5170    53.9177     2.0944     2.0169  2099.2271
 1397.4044    15.8837  2681.4365      .0231   106.5444    51.3831     2.0690     2.0077  2092.8179
 1397.5568    15.9957  2680.5405      .0235   104.7656    51.0985     2.0223     2.0064  2097.2964
 1397.7092    15.8314  2680.0000      .0311   103.1648    51.8648     2.0069     2.0153  2097.9575
 1397.8616    15.5557  2679.9302      .0375   103.6852    50.9367     2.0380     2.0264  2086.1318
 1398.0140    15.5561  2678.2700      .0520   101.0365    50.5949     2.0200     2.0425  2071.9653
 1398.1664    15.6783  2677.7715      .0549   100.9012    51.0071     2.0403     2.0451  2082.4023
 1398.3188    15.6026  2676.2598      .0499   101.4841    51.0621     2.0454     2.0438  2097.0527
 1398.4712    15.6246  2674.6445      .0364   100.4222    48.5145     2.0404     2.0320  2105.8184
