~VERSION INFORMATION
VERS.                                                 2.0:   CWLS Log ASCII Standard-VERSION 2.0
WRAP.                                                  NO:   One line per depth step
~Well Information Block
STRT.M                                           485.1380:   Top Depth
STOP.M                                          3208.5260:   Bottom Depth
STEP.M                                             .15240:   Depth Increment
NULL.                                            -999.250:   Null Value
FLD .                                            SLEIPNER:   Field Name
WELL.                                             15/9-15:   NAME
WBN .                                             15/9-15:   WELLBORE
NATI.                                                 NOR:   COUNTRY
BHT1.DEGF                                           100.0:   BH TEMP 1
BHT2.DEGF                                           100.0:   BH TEMP 2
BHT3.DEGF                                            99.0:   BH TEMP 3
BS1 .IN                                            12.250:   BIT SIZE 1
CTRY.                                                 NOR:   COUNTRY
CBD1.M                                             171.50:   CSG 1 DRILL DEP
CBL1.M                                             171.50:   CSG 1 LOG DEP
CS1 .IN                                              30.0:   CSG 1 SIZE
COMP.                                             STATOIL:   OPERATOR
PDAT.                                                 MSL:   PERM DATUM
PROV.                                                   ?:   PROVINCE
COUN.                                            ROSS RIG:   RIG NAME
SPUD.                                          1982/05/28:   SPUD DATE
LATI.                                        58 18 7.35 N:   SURF. LATITUDE
LONG.                                        1 55 19.28 E:   SURF. LONGITUDE
BTD1.                                            514.50 M:   TOTAL DEPTH 1
BTD2.                                           1192.50 M:   TOTAL DEPTH 2
BTD3.                                           1192.50 M:   TOTAL DEPTH 3
PBWE.                                             15/9-15:   PB WELL ID
APIN.                                             15/9-15:   PB WELLBORE ID
PBWS.                                                 all:   PB WELL NAME SET
~PARAMETER INFORMATION (log)
LNAM.                              LDT/CNL/GR  COMPOSITED:   NAME
LTYP.                                         DEPTH MATCH:   LOG TYPE
LSRV.                                           LATEROLOG:   LOG SERVICE
LSOU.                                             SPT/NPD:   LOG SOURCE
LVSN.                                                   1:   LOG VERSION
BHIS.                                                   R:   BRIEF HISTORY
FHIS.                                             RAW-LIS:   FULL HISTORY
LCNM.                                                 SCH:   LOGGING CONTRACTOR
TOOL.                             LDT/CNL/GR (COMPOSITED):   TOOL STRING
~Curve Information Block
#MNEM.UNIT                                        API CODE    No Description
#=========                                        ========    == ===========
DEPT.M                                       00 001 00 00:     1  DEPTH
CALI.IN                                                  :     2  Caliper
CS.                                                      :     3  Cable Speed
DRHO.G/CC                                                :     4  Bulk density correction
GR.GAPI                                                  :     5  Gamma Ray
NPHI.%                                                   :     6  Neutron porosity
PEF.B/E                                                  :     7  Photo-electric factor
RHOB.G/CC                                                :     8  Bulk density
TENS.LB                                                  :     9  Cable Tension
~ASCII
# ...
  670.3040    17.5657  3072.3613      .0111    76.6082  -999.2500     2.8061     2.1204  1411.3862
  670.4564    17.3096  3073.1870      .0129    79.3481  -999.2500     2.7929     2.0914  1407.0325
  670.6088    17.0450  3072.2939      .0269    80.0094  -999.2500     2.7511     2.0615  1403.5303
  670.7612    16.8599  3071.9761      .0433    78.3310  -999.2500     2.7130     2.0471  1395.0591
  670.9136    16.7782  3069.9995      .0421    78.0084  -999.2500     2.6990     2.0555  1392.0015
  671.0660    16.9031  3068.8013      .0267    78.6131  -999.2500     2.7664     2.0656  1397.9993
  671.2184    16.9688  3069.6235      .0166    79.4514  -999.2500     2.8424     2.0684  1398.1147
  671.3708    17.0214  3070.0000      .0187    79.6547  -999.2500     2.9162     2.0672  1391.4619
  671.5232    17.2347  3070.0000      .0302    84.0841  -999.2500     2.9268     2.0575  1395.6165
  671.6756    17.2176  3070.0000      .0513    84.9824  -999.2500     2.8944     2.0542  1410.0059
  671.8280    17.0241  3070.4097      .0577    80.8109  -999.2500     2.9021     2.0380  1422.9526
  671.9804    16.7221  3071.6836      .0551    71.5509  -999.2500     2.9685     2.0208  1426.8342
  672.1328    16.5318  3072.0000      .0424    63.3882  -999.2500     3.0215     1.9880  1415.1650
  672.2852    16.4037  3072.0000      .0627    60.3144  -999.2500     3.0482     1.9983  1406.7939
  672.4376    16.4667  3072.0000      .0692    61.3245  -999.2500     2.9678     2.0144  1408.0374
  672.5900    16.8416  3072.0000      .0657    63.4117  -999.2500     2.9173     2.0311  1404.0295
  672.7424    17.2612  3072.2261      .0482    64.5653  -999.2500     2.9357     2.0243  1395.5647
  672.8948    17.9200  3073.9160      .0634    68.6628  -999.2500     2.9379     2.0001  1391.2600
  673.0472    18.1504  3074.0000      .0828    66.7821  -999.2500     2.9625     1.9436  1409.3030
  673.1996    18.0508  3074.0000      .0978    66.8835  -999.2500     2.9259     1.9205  1409.0999
  673.3520    17.9687  3074.3364      .0910    65.6471  -999.2500     2.9431     1.9213  1414.1614
  673.5044    17.9144  3076.0000      .0752    67.8591  -999.2500     2.9021     1.9680  1419.7371
  673.6568    17.7359  3077.7905      .0622    69.1113  -999.2500     2.8295     2.0296  1418.9514
  673.8092    17.5804  3078.0000      .0669    72.5964  -999.2500     2.7473     2.0930  1412.8645
  673.9616    17.5464  3077.6030      .0770    77.0824  -999.2500     2.7387     2.1481  1413.0144
  674.1140    17.6750  3076.2549      .0769    78.4104  -999.2500     2.7639     2.1818  1408.7307
  674.2664    17.6114  3076.0000      .0579    77.2728  -999.2500     2.8649     2.1990  1395.3274
  674.4188    17.5914  3075.6953      .0301    74.6293  -999.2500     2.8068     2.2022  1398.8042
  674.5712    17.5210  3074.8159      .0172    74.4030  -999.2500     2.7474     2.2028  1409.7969
  674.7236    17.3530  3075.2915      .0151    74.2173  -999.2500     2.5937     2.2067  1401.1987
  674.8760    17.2411  3074.1426      .0173    71.1424  -999.2500     2.5444     2.2118  1405.7129
  675.0284    17.2371  3074.0000      .0218    70.3861  -999.2500     2.5446     2.2252  1422.3447
  675.1808    17.2425  3074.0000      .0249    70.3808  -999.2500     2.6413     2.2233  1413.1536
  675.3332    17.1466  3074.0000      .0244    72.7351  -999.2500     2.6732     2.2039  1400.0486
  675.4856    16.9926  3074.0000      .0182    77.7026  -999.2500     2.6861     2.1693  1402.8079
  675.6380    17.0156  3074.0000      .0132    79.3125  -999.2500     2.5547     2.1465  1425.0000
  675.7904    17.1452  3074.0000      .0242    77.9563  -999.2500     2.5723     2.1632  1404.2124
  675.9428    17.1904  3073.5962      .0363    74.8453  -999.2500     2.5331     2.1812  1407.0151
  676.0952    17.1464  3072.7388      .0436    73.2946  -999.2500     2.5518     2.1817  1413.5361
  676.2476    17.0882  3073.6445      .0369    72.1492  -999.2500     2.5414     2.1587  1402.6619
  676.4000    16.9810  3072.1416      .0329    70.9884  -999.2500     2.6374     2.1339  1410.3545
  676.5524    16.8226  3072.0000      .0306    74.4398  -999.2500     2.7345     2.0975  1424.1152
  676.7048    16.6311  3072.0000      .0285    76.4235  -999.2500     2.8108     2.0563  1431.9387
  676.8572    16.4443  3072.0000      .0282    76.7066  -999.2500     2.8144     2.0222  1427.7144
  677.0096    16.4273  3072.0435      .0151    72.5438  -999.2500     2.8104     1.9880  1410.4363
  677.1620    16.6756  3073.7456      .0594    72.2851  -999.2500     2.8872     2.0244  1408.7280
  677.3144    16.8159  3074.0000      .0907    72.9535  -999.2500     2.9279     2.0555  1403.9714
  677.4668    16.8244  3074.0000      .0928    72.3750  -999.2500     2.8550     2.0731  1409.0444
  677.6192    16.8396  3074.0000      .0524    71.2404  -999.2500     2.7030     2.0628  1413.9519
  677.7716    16.9572  3074.0000      .0146    69.7590  -999.2500     2.7280     2.0625  1410.2629
  677.9240    17.1562  3074.0000      .0211    71.0267  -999.2500     2.7198     2.0973  1410.8401
  678.0764    17.3177  3074.4102      .0348    70.1572  -999.2500     2.7132     2.1228  1415.0000
  678.2288    17.3568  3075.6738      .0362    68.5634  -999.2500     2.6108     2.1156  1417.5530
  678.3812    17.3358  3076.0000      .0328    68.6340  -999.2500     2.6206     2.0838  1410.4238
  678.5336    17.1811  3076.0000      .0330    70.7086  -999.2500     2.6191     2.0435  1410.5637
  678.6860    17.2332  3076.0000      .0455    72.5393  -999.2500     2.5986     2.0017  1417.9094
  678.8384    17.1679  3076.0000      .0576    73.4652  -999.2500     2.5354     1.9892  1429.1099
  678.9908    17.1869  3076.0000      .0620    75.3452  -999.2500     2.5088     2.0028  1425.5994
  679.1432    17.3652  3076.0000      .0635    76.4341  -999.2500     2.6297     2.0550  1419.6736
  679.2956    18.1249  3076.0000      .0663    77.9625  -999.2500     2.6183     2.0624  1407.3713
  679.4480    18.5016  3075.5903      .0645    75.2544  -999.2500     2.5465     2.0512  1406.0234
  679.6004    18.3093  3074.3447      .0557    72.5153  -999.2500     2.4481     2.0425  1407.4126
  679.7528    18.1359  3073.7529      .0419    71.7721  -999.2500     2.4592     2.0552  1401.8462
  679.9052    18.0472  3070.5825      .0334    72.9727  -999.2500     2.4769     2.0782  1419.5137
  680.0576    18.4022  3071.2471      .0329    75.2139  -999.2500     2.4419     2.0848  1431.2371
  680.2100    17.9472  3070.4004      .0291    73.5634  -999.2500     2.3598     2.0871  1432.0034
  680.3624    17.7249  3070.0000      .0255    72.2591  -999.2500     2.3452     2.0910  1431.6572
  680.5148    17.5654  3070.0000      .0128    72.8600  -999.2500     2.4181     2.0916  1415.2861
  680.6672    17.6112  3070.0000      .0095    72.7035  -999.2500     2.4894     2.0731  1419.2661
  680.8196    17.5334  3070.0000      .0113    73.5204  -999.2500     2.4780     2.0630  1422.0320
  680.9720    17.3024  3069.6382      .0162    74.7219  -999.2500     2.4984     2.0661  1423.6714
  681.1244    17.1506  3068.1592      .0164    78.8586  -999.2500     2.5696     2.0712  1408.9790
  681.2768    17.1003  3068.0000      .0190    81.3444  -999.2500     2.7084     2.0657  1425.1675
  681.4292    16.7170  3068.0000      .0372    79.2364  -999.2500     2.7047     2.0772  1406.7769
  681.5816    16.5911  3068.0000      .0580    77.4609  -999.2500     2.7444     2.1078  1417.8904
  681.7340    16.6341  3068.2925      .0666    74.3962  -999.2500     2.7684     2.1394  1418.5369
  681.8864    16.7487  3069.9785      .0455    74.7186  -999.2500     2.7217     2.1464  1405.2668
  682.0388    16.7500  3070.0000      .0298    74.0605  -999.2500     2.5775     2.1448  1413.6582
  682.1912    16.7657  3070.4009      .0211    77.9229  -999.2500     2.4747     2.1484  1415.0000
  682.3436    16.8604  3071.6240      .0248    79.6200  -999.2500     2.5079     2.1586  1415.0000
  682.4960    17.0857  3072.1929      .0290    78.5268  -999.2500     2.6653     2.1543  1415.4824
