~VERSION INFORMATION
VERS.                                                 2.0:   CWLS Log ASCII Standard-VERSION 2.0
WRAP.                                                  NO:   One line per depth step
~Well Information Block
STRT.M                                           485.1380:   Top Depth
STOP.M                                          3208.5260:   Bottom Depth
STEP.M                                             .15240:   Depth Increment
NULL.                                            -999.250:   Null Value
FLD .                                            SLEIPNER:   Field Name
WELL.                                             15/9-15:   NAME
WBN .                                             15/9-15:   WELLBORE
NATI.                                                 NOR:   COUNTRY
BHT1.DEGF                                           100.0:   BH TEMP 1
BHT2.DEGF                                           100.0:   BH TEMP 2
BHT3.DEGF                                            99.0:   BH TEMP 3
BS1 .IN                                            12.250:   BIT SIZE 1
CTRY.                                                 NOR:   COUNTRY
CBD1.M                                             171.50:   CSG 1 DRILL DEP
CBL1.M                                             171.50:   CSG 1 LOG DEP
CS1 .IN                                              30.0:   CSG 1 SIZE
COMP.                                             STATOIL:   OPERATOR
PDAT.                                                 MSL:   PERM DATUM
PROV.                                                   ?:   PROVINCE
COUN.                                            ROSS RIG:   RIG NAME
SPUD.                                          1982/05/28:   SPUD DATE
LATI.                                        58 18 7.35 N:   SURF. LATITUDE
LONG.                                        1 55 19.28 E:   SURF. LONGITUDE
BTD1.                                            514.50 M:   TOTAL DEPTH 1
BTD2.                                           1192.50 M:   TOTAL DEPTH 2
BTD3.                                           1192.50 M:   TOTAL DEPTH 3
PBWE.                                             15/9-15:   PB WELL ID
APIN.                                             15/9-15:   PB WELLBORE ID
PBWS.                                                 all:   PB WELL NAME SET
~PARAMETER INFORMATION (log)
LNAM.                              LDT/CNL/GR  COMPOSITED:   NAME
LTYP.                                         DEPTH MATCH:   LOG TYPE
LSRV.                                           LATEROLOG:   LOG SERVICE
LSOU.                                             SPT/NPD:   LOG SOURCE
LVSN.                                                   1:   LOG VERSION
BHIS.                                                   R:   BRIEF HISTORY
FHIS.                                             RAW-LIS:   FULL HISTORY
LCNM.                                                 SCH:   LOGGING CONTRACTOR
TOOL.                             LDT/CNL/GR (COMPOSITED):   TOOL STRING
~Curve Information Block
#MNEM.UNIT                                        API CODE    No Description
#=========                                        ========    == ===========
DEPT.M                                       00 001 00 00:     1  DEPTH
CALI.IN                                                  :     2  Caliper
CS.                                                      :     3  Cable Speed
DRHO.G/CC                                                :     4  Bulk density correction
GR.GAPI                                                  :     5  Gamma Ray
NPHI.%                                                   :     6  Neutron porosity
PEF.B/E                                                  :     7  Photo-electric factor
RHOB.G/CC                                                :     8  Bulk density
TENS.LB                                                  :     9  Cable Tension
~ASCII
# ...
 3200.9060     7.6142  3106.0000     -.0078    54.0000    28.2822    12.7426     2.3828  3328.3643
 3201.0584     7.6174  3106.0000     -.0107    54.0000    28.2715    11.2158     2.3870  3310.5601
 3201.2108     7.6123  3106.3984     -.0150    54.0000    28.2715    10.3829     2.3934  3305.1187
 3201.3632     7.6128  3108.2598     -.0165    54.0000    28.2715     9.6608     2.4027  3312.4111
 3201.5156     7.6133  3111.9653     -.0154    54.0000    28.2715     8.9706     2.4043  3313.6729
 3201.6680     7.6126  3114.2988     -.0176    54.0000    28.2715    10.1952     2.4040  3310.3506
 3201.8204     7.6053  3117.1870     -.0153    54.0000    28.2833    11.9741     2.4102  3308.5464
 3201.9728     7.5607  3118.0000     -.0096    54.0000    28.3358    14.2175     2.4325  3301.6230
 3202.1252     7.4448  3118.0000     -.0029    54.0000    28.4332    13.7032     2.4482  3294.4893
 3202.2776     7.3098  3118.0000      .0031    54.0000    28.5856    13.4786     2.4466  3312.3716
 3202.4300     7.0698  3118.0000      .0010    54.0000    28.7876    13.6304     2.4196  3304.7617
 3202.5824     6.9928  3118.4048     -.0016    54.0000    28.8615    13.3525     2.3937  3320.6274
 3202.7348     6.9616  3120.0000     -.0048    54.0000    28.9002    12.8431     2.3741  3352.5566
 3202.8872     6.9454  3121.9902     -.0041    54.0000    28.9063    11.4698     2.3653  3385.2300
 3203.0396     6.9447  3121.7251     -.0063    54.0000    28.9063    11.8838     2.3649  3398.8296
 3203.1920     6.9420  3120.8052     -.0088    54.0000    28.9063    11.4755     2.3668  3397.6235
 3203.3444     6.9395  3121.2554     -.0084    54.0000    28.9063    11.5468     2.3757  3380.5283
 3203.4968     6.9342  3120.0000     -.0079    54.0000    28.9063    11.7512     2.3805  3338.9277
 3203.6492     6.9336  3117.8662     -.0077    54.0000    28.9063    13.1802     2.3802  3285.4229
 3203.8016     6.9336  3113.9985     -.0066    54.0000    28.9063    13.3772     2.3708  3229.7363
 3203.9540     6.9336  3110.4087     -.0085    54.0000    28.9063    12.7602     2.3600  3175.0249
 3204.1064     6.9319  3108.3091     -.0101    54.0000    28.9063    12.3315     2.3587  3119.8428
 3204.2588     6.9247  3108.0000     -.0089    54.0000    28.9114    12.1327     2.3644  3065.3755
 3204.4112     6.9136  3107.7495     -.0052    54.0000    28.9523    13.1324     2.3738  3010.1768
 3204.5636     6.9092  3106.3950     -.0029    54.0000    28.9551    12.9453     2.3708  2958.9214
 3204.7160     6.9109  3105.6152     -.0027    54.0000    28.9551    13.2611     2.3664  2905.0688
 3204.8684     6.9084  3104.0000     -.0025    54.0000    28.9551    13.0224     2.3643  2848.0029
 3205.0208     6.9134  3102.0000      .0008    54.0000    28.9551    13.2424     2.3742  2783.7881
 3205.1732     6.9086  3099.3330     -.0010    54.0000    28.9551    12.5254     2.3685  2723.2593
 3205.3256     6.9128  3094.8203     -.0015    54.0000    28.9551    12.3635     2.3736  2717.5396
 3205.4780     6.9123  3091.6694     -.0041    54.0000    28.9551    11.8528     2.3737  2713.9575
 3205.6304     6.9075  3088.0000     -.0070    54.0000    28.9551    11.8875     2.3779  2710.1670
 3205.7828     6.9137  3083.7783     -.0091    54.0000    28.9551    11.7050     2.3721  2708.7627
 3205.9352     6.9141  3078.0000     -.0106    54.0000    28.9551    12.0242     2.3642  2702.3105
 3206.0876     6.9141  3071.6055     -.0070    54.0000    28.9551    11.9642     2.3645  2700.8818
 3206.2400     6.9141  3063.2646      .0008    54.0000    28.9551    11.6914     2.3744  2696.2178
 3206.3924     6.9134  3049.9990      .0070    54.0000    28.9551    11.3633     2.3864  2699.1665
 3206.5448     6.9084  3036.0000      .0035    54.0000    28.9551    12.4338     2.3825  2691.6519
 3206.6972     6.9109  3021.5908      .0002    54.0000    28.9551    13.0658     2.3772  2695.7896
 3206.8496     6.9074  3005.6509     -.0017    54.0000    28.9551    13.1659     2.3711  2706.2036
 3207.0020     6.9073  2987.6079     -.0020    54.0000    28.9551    12.3039     2.3704  2721.8687
 3207.1544     6.9139  2964.1851     -.0019    54.0000    28.9551    12.2266     2.3681  2743.1431
 3207.3068     6.9141  2941.2520     -.0003    54.0000    28.9551    12.2266     2.3748  2771.6279
 3207.4592     7.3069  2915.1958      .0023    54.0000    28.9551    12.2266     2.3783  2777.3867
 3207.6116  -999.2500  2885.1885  -999.2500    54.0000  -999.2500  -999.2500  -999.2500  -999.2500
 3207.7640  -999.2500  2849.9678  -999.2500    54.0000  -999.2500  -999.2500  -999.2500  -999.2500
 3207.9164  -999.2500  2809.7104  -999.2500    54.0000  -999.2500  -999.2500  -999.2500  -999.2500
 3208.0688  -999.2500  2768.0000  -999.2500    54.0000  -999.2500  -999.2500  -999.2500  -999.2500
 3208.2212  -999.2500  2725.6479  -999.2500    54.0000  -999.2500  -999.2500  -999.2500  -999.2500
 3208.3736  -999.2500  2681.8291  -999.2500  -999.2500  -999.2500  -999.2500  -999.2500  -999.2500
 3208.5260  -999.2500  2635.8452  -999.2500  -999.2500  -999.2500  -999.2500  -999.2500  -999.2500
