~VERSION INFORMATION
VERS.                                                 2.0:   CWLS Log ASCII Standard-VERSION 2.0
WRAP.                                                  NO:   One line per depth step
~Well Information Block
STRT.M                                           485.1380:   Top Depth
STOP.M                                          3208.5260:   Bottom Depth
STEP.M                                             .15240:   Depth Increment
NULL.                                            -999.250:   Null Value
FLD .                                            SLEIPNER:   Field Name
WELL.                                             15/9-15:   NAME
WBN .                                             15/9-15:   WELLBORE
NATI.                                                 NOR:   COUNTRY
BHT1.DEGF                                           100.0:   BH TEMP 1
BHT2.DEGF                                           100.0:   BH TEMP 2
BHT3.DEGF                                            99.0:   BH TEMP 3
BS1 .IN                                            12.250:   BIT SIZE 1
CTRY.                                                 NOR:   COUNTRY
CBD1.M                                             171.50:   CSG 1 DRILL DEP
CBL1.M                                             171.50:   CSG 1 LOG DEP
CS1 .IN                                              30.0:   CSG 1 SIZE
COMP.                                             STATOIL:   OPERATOR
PDAT.                                                 MSL:   PERM DATUM
PROV.                                                   ?:   PROVINCE
COUN.                                            ROSS RIG:   RIG NAME
SPUD.                                          1982/05/28:   SPUD DATE
LATI.                                        58 18 7.35 N:   SURF. LATITUDE
LONG.                                        1 55 19.28 E:   SURF. LONGITUDE
BTD1.                                            514.50 M:   TOTAL DEPTH 1
BTD2.                                           1192.50 M:   TOTAL DEPTH 2
BTD3.                                           1192.50 M:   TOTAL DEPTH 3
PBWE.                                             15/9-15:   PB WELL ID
APIN.                                             15/9-15:   PB WELLBORE ID
PBWS.                                                 all:   PB WELL NAME SET
~PARAMETER INFORMATION (log)
LNAM.                              LDT/CNL/GR  COMPOSITED:   NAME
LTYP.                                         DEPTH MATCH:   LOG TYPE
LSRV.                                           LATEROLOG:   LOG SERVICE
LSOU.                                             SPT/NPD:   LOG SOURCE
LVSN.                                                   1:   LOG VERSION
BHIS.                                                   R:   BRIEF HISTORY
FHIS.                                             RAW-LIS:   FULL HISTORY
LCNM.                                                 SCH:   LOGGING CONTRACTOR
TOOL.                             LDT/CNL/GR (COMPOSITED):   TOOL STRING
~Curve Information Block
#MNEM.UNIT                                        API CODE    No Description
#=========                                        ========    == ===========
DEPT.M                                       00 001 00 00:     1  DEPTH
CALI.IN                                                  :     2  Caliper
CS.                                                      :     3  Cable Speed
DRHO.G/CC                                                :     4  Bulk density correction
GR.GAPI                                                  :     5  Gamma Ray
NPHI.%                                                   :     6  Neutron porosity
PEF.B/E                                                  :     7  Photo-electric factor
RHOB.G/CC                                                :     8  Bulk density
TENS.LB                                                  :     9  Cable Tension
~ASCII
# ...
 1571.4452    14.1191  2620.8691      .0788    76.9098    55.1373     2.4641     1.9955  2268.1436
 1571.5976    14.1250  2621.3589      .0687    73.7692    55.0543     2.2599     2.0050  2267.2051
 1571.7500    14.1090  2621.9883      .0482    71.4659    48.8217     2.1583     1.9977  2264.0576
 1571.9024    14.1131  2623.2646      .0437    71.0952    44.6672     2.2332     2.0044  2272.9053
 1572.0548    14.1948  2624.0000      .0375    73.4684    45.8011     2.3240     2.0042  2261.3062
 1572.2072    14.2549  2624.0000      .0279    76.6623    49.2882     2.3529     1.9962  2228.4727
 1572.3596    14.2525  2624.0000      .0294    82.2049    50.5702     2.2733     1.9941  2231.6250
 1572.5120    14.3190  2624.0000      .0375    86.7423    46.1419     2.2153     1.9981  2253.5562
 1572.6644    14.3717  2625.2183      .0396    85.9488    44.5461     2.1516     1.9932  2261.4771
 1572.8168    14.3983  2625.8750      .0400    80.8441    45.4146     2.1609     1.9826  2258.7524
 1572.9692    14.4620  2624.6440      .0493    75.1974    46.9957     2.2551     1.9795  2286.6055
 1573.1216    14.4651  2624.0088      .0551    74.1353    45.1471     2.3486     1.9551  2301.0259
 1573.2740    14.3514  2624.0747      .0601    73.5157    44.6877     2.4322     1.9165  2282.9868
 1573.4264    14.2231  2625.2031      .0735    71.1060    48.4083     2.4917     1.8811  2269.4907
 1573.5788    14.3631  2626.0000      .0918    67.9465    54.3040     2.5608     1.8559  2276.3716
 1573.7312    14.7144  2626.0000      .1064    68.0204    55.4155     2.5812     1.8589  2274.5283
 1573.8836    14.8639  2628.7222      .1090    65.4252    51.6875     2.5956     1.8695  2263.2505
 1574.0360    14.9033  2629.8730      .1145    65.2235    45.7616     2.6280     1.9030  2249.5610
 1574.1884    14.8833  2628.6465      .1107    66.6432    43.5716     2.6615     1.9203  2239.2407
 1574.3408    14.8144  2626.6475      .0950    72.2556    45.1025     2.6884     1.9127  2247.5254
 1574.4932    14.8369  2624.6479      .0904    74.1281    50.4674     2.7257     1.9039  2271.5889
 1574.6456    14.9698  2622.7026      .0998    75.5485    56.1303     2.7493     1.8957  2287.1323
 1574.7980    15.0037  2621.8506      .1067    73.6790    55.8402     2.7857     1.8926  2306.6665
 1574.9504    14.9633  2620.7354      .0997    71.9032    51.9040     2.8133     1.8900  2330.8110
 1575.1028    15.0272  2620.0000      .0956    70.5809    47.3537     2.8065     1.9082  2310.2129
 1575.2552    15.1174  2621.3613      .0987    70.8287    46.5748     2.7477     1.9380  2264.3379
 1575.4076    15.2186  2623.2339      .1079    71.6118    47.3786     2.7180     1.9558  2261.4238
 1575.5600    15.2729  2624.0000      .1124    72.3527    50.0915     2.6703     1.9509  2260.7490
 1575.7124    15.2599  2624.0000      .1142    72.3639    52.3330     2.5275     1.9420  2258.0601
 1575.8648    15.1763  2624.0000      .0960    70.6503    50.2179     2.3892     1.9256  2266.7412
 1576.0172    15.2035  2624.0000      .0821    68.8739    47.2679     2.4103     1.9143  2279.0000
 1576.1696    15.5056  2624.0000      .0736    67.1982    48.3042     2.5580     1.8670  2276.5928
 1576.3220    15.9227  2624.0000      .0726    67.4923    55.9970     2.7329     1.7954  2279.5347
 1576.4744    16.0146  2624.0000      .0711    66.5401    59.9341     2.8317     1.7297  2294.7861
 1576.6268    15.6188  2624.0000      .0596    66.1350    58.5849     2.8407     1.7170  2279.4819
 1576.7792    15.4054  2625.2466      .0600    68.2333    53.6226     2.8674     1.7621  2251.7998
 1576.9316    15.3342  2626.1445      .0699    70.0701    52.7940     3.0282     1.8183  2247.4531
 1577.0840    15.2884  2627.3140      .0816    70.7794    54.1119     3.2395     1.8540  2263.0488
 1577.2364    15.2444  2628.0000      .0914    67.9291    54.3326     3.2711     1.8764  2265.9614
 1577.3888    15.1427  2628.0000      .0933    64.3874    52.1558     3.0861     1.9015  2268.0864
 1577.5412    15.0472  2628.0000      .1020    63.6899    54.7183     2.9012     1.9314  2282.8115
 1577.6936    14.9145  2627.8867      .1069    65.2132    56.7952     2.6968     1.9540  2277.7637
 1577.8460    14.7281  2626.6553      .0902    68.9433    56.8064     2.5122     1.9590  2252.5210
 1577.9984    14.5487  2624.6553      .0653    70.5982    51.8449     2.3563     1.9607  2255.0127
 1578.1508    14.5020  2624.0000      .0423    71.8289    48.5124     2.2628     1.9548  2267.5776
 1578.3032    14.5107  2624.0000      .0337    72.2985    47.5236     2.2269     1.9445  2256.4775
 1578.4556    14.5330  2624.0000      .0298    74.5289    47.4262     2.2887     1.9257  2248.4033
 1578.6080    14.5469  2624.0000      .0333    76.6288    48.1490     2.4698     1.9154  2263.4346
 1578.7604    14.5205  2624.0000      .0521    80.1608    51.2013     2.5148     1.9190  2252.4106
 1578.9128    14.5114  2622.7876      .0807    82.9223    51.8135     2.4957     1.9237  2232.5283
 1579.0652    14.5484  2622.0000      .1031    81.9785    52.5175     2.5150     1.9048  2232.5742
 1579.2176    14.6412  2622.0000      .1204    78.5445    52.7776     2.5890     1.8788  2260.8589
 1579.3700    14.7372  2622.0000      .1086    71.9685    54.1784     2.6497     1.8474  2273.8237
 1579.5224    14.8660  2621.9351      .0848    69.4928    54.2772     2.6815     1.8221  2290.1001
 1579.6748    14.9095  2620.9517      .0607    69.6488    53.7526     2.6782     1.8114  2288.9785
 1579.8272    14.7437  2621.3413      .0486    70.6966    53.2380     2.5654     1.8318  2272.0181
 1579.9796    14.5412  2623.3403      .0474    73.5330    50.8999     2.2892     1.8928  2277.4028
 1580.1320    14.3662  2625.3413      .0297    75.5562    46.6867     2.0890     1.9437  2283.8940
 1580.2844    14.2046  2626.1196      .0168    77.7339    44.9807     2.0326     1.9684  2280.3628
 1580.4368    14.0914  2627.2075      .0158    77.9690    46.4070     2.0941     1.9827  2267.2603
 1580.5892    13.9710  2628.0000      .0254    76.8730    48.3434     2.1883     2.0017  2253.3066
 1580.7416    13.8329  2628.0000      .0421    75.1571    48.5146     2.2390     2.0268  2256.7344
 1580.8940    13.7953  2626.6621      .0448    72.6723    49.3369     2.2380     2.0261  2256.3311
 1581.0464    13.8334  2624.6636      .0449    71.3207    50.0572     2.2245     2.0135  2259.2432
 1581.1988    13.8857  2622.7500      .0477    73.2650    51.6446     2.1930     2.0013  2258.0127
 1581.3512    13.9063  2622.0000      .0532    78.7395    53.0118     2.1484     1.9974  2258.0093
 1581.5036    13.9063  2622.0000      .0536    82.6464    53.6321     2.1456     1.9947  2259.9595
 1581.6560    13.8764  2622.0000      .0424    80.5725    52.4943     2.1596     1.9851  2265.6177
 1581.8084    13.8006  2622.1382      .0295    75.8077    49.0466     2.1904     1.9786  2264.9761
 1581.9608    13.7476  2623.3110      .0248    73.4715    45.7248     2.1628     1.9860  2269.3242
 1582.1132    13.7526  2622.6636      .0269    72.5186    44.2040     2.1615     1.9984  2280.6826
 1582.2656    13.7475  2623.2969      .0359    76.2160    46.3743     2.1717     2.0121  2284.0000
 1582.4180    13.7433  2622.8042      .0385    78.7696    48.9730     2.1535     2.0098  2283.3018
 1582.5704    13.7518  2622.0000      .0334    81.8430    50.3966     2.1045     1.9996  2276.3149
 1582.7228    13.7578  2622.0000      .0361    80.7872    51.9384     2.0325     1.9997  2253.9761
 1582.8752    13.7683  2622.0000      .0461    79.4402    52.4754     2.0426     2.0098  2241.5161
 1583.0276    13.7720  2622.0908      .0533    79.5806    51.6802     2.0616     2.0151  2253.7861
 1583.1800    13.7548  2623.3330      .0417    82.2325    48.8378     2.0442     2.0044  2277.8716
 1583.3324    13.7396  2625.3315      .0271    84.7684    47.7137     2.0456     1.9925  2289.8960
 1583.4848    13.6433  2627.3320      .0273    84.0842    48.2259     2.0540     1.9980  2286.0029
 1583.6372    13.6147  2627.9980      .0418    82.3554    48.8608     2.0736     2.0137  2270.6685
