~VERSION INFORMATION
VERS.                                                 2.0:   CWLS Log ASCII Standard-VERSION 2.0
WRAP.                                                  NO:   One line per depth step
~Well Information Block
STRT.M                                           485.1380:   Top Depth
STOP.M                                          3208.5260:   Bottom Depth
STEP.M                                             .15240:   Depth Increment
NULL.                                            -999.250:   Null Value
FLD .                                            SLEIPNER:   Field Name
WELL.                                             15/9-15:   NAME
WBN .                                             15/9-15:   WELLBORE
NATI.                                                 NOR:   COUNTRY
BHT1.DEGF                                           100.0:   BH TEMP 1
BHT2.DEGF                                           100.0:   BH TEMP 2
BHT3.DEGF                                            99.0:   BH TEMP 3
BS1 .IN                                            12.250:   BIT SIZE 1
CTRY.                                                 NOR:   COUNTRY
CBD1.M                                             171.50:   CSG 1 DRILL DEP
CBL1.M                                             171.50:   CSG 1 LOG DEP
CS1 .IN                                              30.0:   CSG 1 SIZE
COMP.                                             STATOIL:   OPERATOR
PDAT.                                                 MSL:   PERM DATUM
PROV.                                                   ?:   PROVINCE
COUN.                                            ROSS RIG:   RIG NAME
SPUD.                                          1982/05/28:   SPUD DATE
LATI.                                        58 18 7.35 N:   SURF. LATITUDE
LONG.                                        1 55 19.28 E:   SURF. LONGITUDE
BTD1.                                            514.50 M:   TOTAL DEPTH 1
BTD2.                                           1192.50 M:   TOTAL DEPTH 2
BTD3.                                           1192.50 M:   TOTAL DEPTH 3
PBWE.                                             15/9-15:   PB WELL ID
APIN.                                             15/9-15:   PB WELLBORE ID
PBWS.                                                 all:   PB WELL NAME SET
~PARAMETER INFORMATION (log)
LNAM.                              LDT/CNL/GR  COMPOSITED:   NAME
LTYP.                                         DEPTH MATCH:   LOG TYPE
LSRV.                                           LATEROLOG:   LOG SERVICE
LSOU.                                             SPT/NPD:   LOG SOURCE
LVSN.                                                   1:   LOG VERSION
BHIS.                                                   R:   BRIEF HISTORY
FHIS.                                             RAW-LIS:   FULL HISTORY
LCNM.                                                 SCH:   LOGGING CONTRACTOR
TOOL.                             LDT/CNL/GR (COMPOSITED):   TOOL STRING
~Curve Information Block
#MNEM.UNIT                                        API CODE    No Description
#=========                                        ========    == ===========
DEPT.M                                       00 001 00 00:     1  DEPTH
CALI.IN                                                  :     2  Caliper
CS.                                                      :     3  Cable Speed
DRHO.G/CC                                                :     4  Bulk density correction
GR.GAPI                                                  :     5  Gamma Ray
NPHI.%                                                   :     6  Neutron porosity
PEF.B/E                                                  :     7  Photo-electric factor
RHOB.G/CC                                                :     8  Bulk density
TENS.LB                                                  :     9  Cable Tension
~ASCII
# ...
  843.1256    18.7116  3069.8525      .0237    89.2990  -999.2500     2.4065     2.0703  1568.8965
  843.2780    18.6126  3070.1729      .0205    88.3513  -999.2500     2.3757     2.0776  1573.7041
  843.4304    18.6929  3072.3672      .0243    84.8720  -999.2500     2.4556     2.0765  1561.3250
  843.5828    18.5641  3075.1909      .0197    86.0356  -999.2500     2.5963     2.0562  1549.1594
  843.7352    18.1220  3075.7158      .0146    86.0933  -999.2500     2.6865     2.0153  1571.4509
  843.8876    18.1538  3074.0054      .0307    88.7935  -999.2500     2.6829     1.9765  1589.8044
  844.0400    17.4501  3074.0000      .0280    86.2201  -999.2500     2.4577     1.9341  1546.7988
  844.1924    17.0166  3073.5967      .0214    87.3372  -999.2500     2.3873     1.9205  1562.9841
  844.3448    16.9873  3072.3711      .0069    89.0509  -999.2500     2.4089     1.9162  1574.7964
  844.4972    17.1532  3071.8184      .0080    90.3816  -999.2500     2.4689     1.9243  1554.0776
  844.6496    17.7366  3070.1377      .0395    89.0663  -999.2500     2.4883     1.9727  1561.7305
  844.8020    16.9865  3070.0000      .0427    89.4259  -999.2500     2.3635     2.0156  1581.8000
  844.9544    16.7587  3070.4082      .0362    91.3138  -999.2500     2.3176     2.0557  1565.2134
  845.1068    17.0180  3071.6924      .0182    92.7792  -999.2500     2.2749     2.0765  1563.4622
  845.2592    17.3967  3071.9507      .0253    89.9528  -999.2500     2.3104     2.1073  1564.7554
  845.4116    17.3965  3070.2505      .0339    86.5932  -999.2500     2.3687     2.1343  1559.3906
  845.5640    17.3498  3070.3960      .0255    84.2560  -999.2500     2.4502     2.1313  1575.0483
  845.7164    17.3624  3071.2324      .0135    86.8003  -999.2500     2.4638     2.1095  1574.2451
  845.8688    17.3445  3070.2134      .0073    89.0113  -999.2500     2.4252     2.0714  1551.6013
  846.0212    16.9009  3070.0000      .0097    93.8665  -999.2500     2.4393     2.0242  1539.2644
  846.1736    16.9220  3070.0000      .0102    88.3350  -999.2500     2.4509     1.9923  1589.9817
  846.3260    17.4818  3070.4102      .0071    87.4056  -999.2500     2.5470     1.9790  1591.1489
  846.4784    18.5259  3072.0005      .0059    87.2398  -999.2500     2.6347     1.9829  1590.8916
  846.6308    18.4700  3074.0000      .0072    91.9510  -999.2500     2.7276     1.9865  1580.2185
  846.7832    18.1561  3076.0000      .0067    89.9715  -999.2500     2.7198     1.9895  1572.2200
  846.9356    18.0782  3077.6133      .0036    90.8750  -999.2500     2.6605     1.9721  1566.4683
  847.0880    17.7623  3077.6060      .0071    92.3238  -999.2500     2.5926     1.9680  1537.7217
  847.2404    17.5788  3076.0000      .0148    94.7224  -999.2500     2.5254     1.9760  1555.4749
  847.3928    18.5232  3074.0601      .0294   101.4509  -999.2500     2.5179     2.0229  1620.9436
  847.5452    18.0208  3074.0000      .0309   102.6756  -999.2500     2.5862     2.0581  1574.4045
  847.6976    17.9272  3073.5908      .0253   106.8049  -999.2500     2.6286     2.0796  1573.1838
  847.8500    18.3442  3072.3472      .0200   106.5295  -999.2500     2.6379     2.0860  1591.1118
  848.0024    19.2212  3072.0000      .0099   105.2060  -999.2500     2.6489     2.0682  1567.8694
  848.1548    18.0600  3072.0000      .0125   105.8840  -999.2500     2.5923     2.0384  1572.8638
  848.3072    17.9209  3072.3750      .0067   105.9844  -999.2500     2.5388     1.9772  1586.2551
  848.4596    17.9185  3073.5986      .0036   107.5592  -999.2500     2.4980     1.9436  1559.0627
  848.6120    17.8277  3073.7295      .0052   106.5983  -999.2500     2.4588     1.9438  1566.6260
  848.7644    17.9292  3072.0181      .0098   102.8313  -999.2500     2.4071     1.9793  1575.1841
  848.9168    17.4329  3072.0000      .0135   100.2930  -999.2500     2.2508     1.9995  1592.7375
  849.0692    18.1429  3071.5938      .0171    96.3245  -999.2500     2.1575     2.0066  1582.1025
  849.2216    18.7529  3070.3633      .0281    95.7673  -999.2500     2.1115     2.0078  1577.7290
  849.3740    18.6333  3070.0000      .0326    94.3007  -999.2500     2.1529     2.0054  1558.6794
  849.5264    18.1501  3070.0000      .0143    97.3012  -999.2500     2.1689     1.9820  1570.3923
  849.6788    18.1429  3070.0000      .0071    93.1091  -999.2500     2.1997     1.9945  1578.2810
  849.8312    18.0636  3070.0000      .0047    93.0181  -999.2500     2.2093     2.0149  1560.2500
  849.9836    18.5219  3070.2954      .0066    92.2842  -999.2500     2.2458     2.0420  1573.5330
  850.1360    18.8105  3072.0000      .0088    95.2614  -999.2500     2.2587     2.0584  1594.2041
  850.2884    18.8739  3074.2656      .0140    96.1100  -999.2500     2.1920     2.0598  1563.6187
  850.4408    18.8749  3076.7993      .0186    99.1250  -999.2500     2.1629     2.0562  1573.0005
  850.5932    18.5512  3075.9990      .0204    99.0552  -999.2500     2.1477     2.0508  1570.9402
  850.7456    18.3471  3074.0000      .0144    99.3647  -999.2500     2.1372     2.0451  1568.9417
  850.8980    18.1851  3072.2402      .0124    96.2419  -999.2500     2.1640     2.0410  1596.0945
  851.0504    18.8128  3073.3125      .0156    98.6974  -999.2500     2.2307     2.0374  1578.5925
  851.2028    18.9024  3072.4097      .0225    98.3673  -999.2500     2.3149     2.0344  1578.7371
  851.3552    18.2926  3071.6821      .0235    97.9633  -999.2500     2.3456     2.0287  1562.9429
  851.5076    18.4423  3070.0000      .0143    93.3295  -999.2500     2.2861     2.0199  1569.3179
  851.6600    18.7701  3068.2373      .0088    87.9981  -999.2500     2.2404     2.0219  1563.8091
  851.8124    18.1097  3068.3921      .0072    83.9604  -999.2500     2.2470     2.0273  1564.7063
  851.9648    18.0522  3069.6113      .0082    83.1215  -999.2500     2.3004     2.0324  1595.4302
  852.1172    18.0504  3069.7720      .0114    81.1793  -999.2500     2.3560     2.0340  1591.5691
  852.2696    17.9949  3068.0815      .0098    78.3698  -999.2500     2.3138     2.0270  1553.8762
  852.4220    17.8306  3068.0000      .0085    75.5335  -999.2500     2.3256     2.0133  1589.4570
  852.5744    17.7712  3068.0000      .0073    78.8925  -999.2500     2.3307     2.0083  1582.9441
  852.7268    18.1000  3067.6626      .0091    82.6479  -999.2500     2.3591     2.0134  1569.2815
  852.8792    18.8872  3066.0000      .0097    80.8217  -999.2500     2.4059     2.0267  1587.8445
  853.0316    19.1301  3064.2075      .0077    78.5068  -999.2500     2.3983     2.0298  1578.9670
  853.1840    18.8915  3064.3813      .0048    76.3769  -999.2500     2.4426     2.0204  1566.6755
  853.3364    18.9375  3066.0000      .0024    78.4777  -999.2500     2.3996     2.0053  1571.0229
  853.4888    19.0377  3068.0000     -.0007    80.1107  -999.2500     2.3368     1.9893  1572.5635
  853.6412    18.8214  3070.0000     -.0025    78.1100  -999.2500     2.2633     1.9844  1585.2029
  853.7936    18.9072  3072.0000     -.0042    82.7308  -999.2500     2.2851     1.9847  1603.1799
  853.9460    18.8080  3073.1841     -.0005    84.2214  -999.2500     2.3865     1.9914  1590.0000
  854.0984    18.7925  3072.7100      .0036    87.5824  -999.2500     2.4445     1.9983  1575.3264
  854.2508    18.4362  3073.8555      .0045    90.9171  -999.2500     2.5372     1.9985  1580.0000
  854.4032    17.9189  3073.8247      .0008    95.4972  -999.2500     2.5977     1.9919  1589.5620
  854.5556    18.4538  3072.0000      .0066    96.7566  -999.2500     2.5719     1.9905  1586.7080
  854.7080    18.0901  3070.4043      .0080    96.8902  -999.2500     2.4422     1.9875  1569.1497
  854.8604    17.9343  3070.0000      .0110    95.4225  -999.2500     2.3093     1.9848  1583.5781
  855.0128    17.5170  3070.0000      .0098    99.2397  -999.2500     2.3456     1.9844  1604.9380
  855.1652    17.8677  3069.7207      .0131    97.9433  -999.2500     2.3236     1.9856  1584.1860
  855.3176    17.7711  3068.4033      .0106    98.3169  -999.2500     2.3027     1.9902  1585.0000
