~VERSION INFORMATION
VERS.                                                 2.0:   CWLS Log ASCII Standard-VERSION 2.0
WRAP.                                                  NO:   One line per depth step
~Well Information Block
STRT.M                                           485.1380:   Top Depth
STOP.M                                          3208.5260:   Bottom Depth
STEP.M                                             .15240:   Depth Increment
NULL.                                            -999.250:   Null Value
FLD .                                            SLEIPNER:   Field Name
WELL.                                             15/9-15:   NAME
WBN .                                             15/9-15:   WELLBORE
NATI.                                                 NOR:   COUNTRY
BHT1.DEGF                                           100.0:   BH TEMP 1
BHT2.DEGF                                           100.0:   BH TEMP 2
BHT3.DEGF                                            99.0:   BH TEMP 3
BS1 .IN                                            12.250:   BIT SIZE 1
CTRY.                                                 NOR:   COUNTRY
CBD1.M                                             171.50:   CSG 1 DRILL DEP
CBL1.M                                             171.50:   CSG 1 LOG DEP
CS1 .IN                                              30.0:   CSG 1 SIZE
COMP.                                             STATOIL:   OPERATOR
PDAT.                                                 MSL:   PERM DATUM
PROV.                                                   ?:   PROVINCE
COUN.                                            ROSS RIG:   RIG NAME
SPUD.                                          1982/05/28:   SPUD DATE
LATI.                                        58 18 7.35 N:   SURF. LATITUDE
LONG.                                        1 55 19.28 E:   SURF. LONGITUDE
BTD1.                                            514.50 M:   TOTAL DEPTH 1
BTD2.                                           1192.50 M:   TOTAL DEPTH 2
BTD3.                                           1192.50 M:   TOTAL DEPTH 3
PBWE.                                             15/9-15:   PB WELL ID
APIN.                                             15/9-15:   PB WELLBORE ID
PBWS.                                                 all:   PB WELL NAME SET
~PARAMETER INFORMATION (log)
LNAM.                              LDT/CNL/GR  COMPOSITED:   NAME
LTYP.                                         DEPTH MATCH:   LOG TYPE
LSRV.                                           LATEROLOG:   LOG SERVICE
LSOU.                                             SPT/NPD:   LOG SOURCE
LVSN.                                                   1:   LOG VERSION
BHIS.                                                   R:   BRIEF HISTORY
FHIS.                                             RAW-LIS:   FULL HISTORY
LCNM.                                                 SCH:   LOGGING CONTRACTOR
TOOL.                             LDT/CNL/GR (COMPOSITED):   TOOL STRING
~Curve Information Block
#MNEM.UNIT                                        API CODE    No Description
#=========                                        ========    == ===========
DEPT.M                                       00 001 00 00:     1  DEPTH
CALI.IN                                                  :     2  Caliper
CS.                                                      :     3  Cable Speed
DRHO.G/CC                                                :     4  Bulk density correction
GR.GAPI                                                  :     5  Gamma Ray
NPHI.%                                                   :     6  Neutron porosity
PEF.B/E                                                  :     7  Photo-electric factor
RHOB.G/CC                                                :     8  Bulk density
TENS.LB                                                  :     9  Cable Tension
~ASCII
# ...
 1213.4576    13.8266  2675.5947      .0760    97.9188    48.0471     1.9747     1.8766  1915.0583
 1213.6100    13.8962  2674.5713      .0819    97.6070    46.4703     2.0113     1.8585  1910.7139
 1213.7624    13.9924  2675.9917      .0912    99.2826    48.7624     1.9901     1.8702  1915.1594
 1213.9148    14.1104  2676.2759      .0809    95.3989    47.6276     1.9297     1.8945  1954.4819
 1214.0672    14.0876  2677.1943      .0577    99.2869    47.1132     1.9135     1.8966  1962.9863
 1214.2196    14.0874  2675.9995      .0409   103.5136    48.2935     1.9704     1.8750  1954.4167
 1214.3720    14.1202  2673.9985      .0628   107.4407    50.2399     2.0558     1.8810  1929.1218
 1214.5244    14.2447  2672.1353      .0789   103.8992    51.2878     2.2084     1.8688  1934.3230
 1214.6768    14.3331  2671.6484      .0976   100.0295    51.1004     2.2280     1.8751  1928.8474
 1214.8292    14.3884  2670.8174      .0833   100.6531    51.6182     2.1677     1.8565  1913.2817
 1214.9816    14.2231  2672.0010      .0732   103.4303    54.6105     2.0408     1.8577  1927.6995
 1215.1340    14.2118  2673.8975      .0625   102.5803    54.5697     2.0419     1.8541  1943.4648
 1215.2864    14.0204  2672.4985      .0696    96.4723    54.1564     2.1654     1.8302  1908.7219
 1215.4388    14.0133  2674.0005      .0763    89.6835    51.2069     2.1425     1.8037  1925.0039
 1215.5912    14.1368  2675.6152      .0732    87.4901    49.5302     1.9715     1.7897  1941.3491
 1215.7436    14.0484  2676.2153      .0605    88.5338    50.3339     1.8577     1.7868  1931.0745
 1215.8960    14.0974  2677.8047      .0328    90.2622    50.2273     2.0188     1.7432  1922.1936
 1216.0484    14.0990  2675.9995      .0264    89.1150    52.9872     2.2908     1.7008  1944.1780
 1216.2008    14.0939  2674.4102      .0333    85.1911    54.9653     2.3110     1.6993  1928.0793
 1216.3532    14.0991  2674.0000      .0444    82.0540    55.8950     2.1522     1.7376  1917.4143
 1216.5056    14.0721  2674.0000      .0522    79.0171    55.5462     1.9843     1.7893  1939.9988
 1216.6580    14.0720  2674.0000      .0317    80.4074    54.7080     1.9303     1.7920  1967.2434
 1216.8104    14.0905  2674.0000      .0242    79.0547    54.4542     1.8386     1.8095  1968.2417
 1216.9628    14.1219  2674.3950      .0163    81.0675    51.8818     1.7708     1.8257  1948.9299
 1217.1152    14.1494  2676.0000      .0210    82.3369    47.3140     1.6866     1.8518  1938.0608
 1217.2676    14.1783  2677.9429      .0194    88.9866    45.8412     1.6490     1.8606  1948.2522
 1217.4200    14.1665  2678.0000      .0258    89.9064    49.5823     1.6232     1.8711  1911.2432
 1217.5724    14.1864  2677.5908      .0295    89.3753    52.3917     1.6459     1.8671  1904.0896
 1217.7248    14.2381  2676.3477      .0298    86.9968    50.5711     1.6350     1.8541  1909.7778
 1217.8772    14.1883  2676.1299      .0263    83.7557    48.4971     1.6020     1.8375  1901.6272
 1218.0296    14.2254  2677.8110      .0101    80.2306    47.6620     1.5775     1.8182  1912.8357
 1218.1820    14.3325  2677.6260      .0086    80.6114    55.2505     1.5882     1.8217  1942.5181
 1218.3344    14.4453  2676.4014      .0101    80.8953    56.2777     1.5955     1.8264  1947.9905
 1218.4868    14.5146  2676.0000      .0151    84.1508    58.2624     1.5938     1.8284  1944.0808
 1218.6392    14.5624  2676.0000      .0142    81.5779    53.5830     1.5853     1.8165  1959.7224
 1218.7916    14.5959  2676.5781      .0189    79.4822    55.3533     1.6193     1.8146  1940.6655
 1218.9440    14.5984  2678.7827      .0249    78.0731    55.1785     1.6473     1.8221  1909.1245
 1219.0964    14.5916  2678.0000      .0333    78.4992    53.9743     1.6446     1.8379  1904.5525
 1219.2488    14.6048  2676.1660      .0326    78.4165    54.4740     1.6413     1.8429  1924.1584
 1219.4012    14.6508  2676.0000      .0323    78.3798    53.3409     1.6526     1.8349  1939.2256
 1219.5536    14.6561  2675.6406      .0342    78.5160    55.9568     1.7101     1.8268  1943.2017
 1219.7060    14.6791  2674.8140      .0380    78.3650    60.6385     1.7308     1.8268  1943.0530
 1219.8584    14.6436  2675.4063      .0397    77.1725    64.0082     1.7301     1.8341  1945.5471
 1220.0108    14.6642  2674.0566      .0306    77.9566    62.7463     1.7377     1.8352  1930.1414
 1220.1632    14.6986  2675.7363      .0406    76.6091    54.1566     1.7749     1.8504  1920.0010
 1220.3156    14.6734  2676.3999      .0504    76.2001    48.1627     1.7918     1.8580  1913.9983
 1220.4680    14.6803  2677.9995      .0556    75.4921    48.3556     1.7660     1.8596  1919.0535
 1220.6204    14.7492  2679.6035      .0524    77.9824    49.9060     1.7198     1.8566  1924.0088
 1220.7728    14.8267  2678.1182      .0409    75.0364    52.1387     1.6811     1.8471  1921.4763
 1220.9252    14.8882  2678.0000      .0394    69.3423    51.3522     1.6696     1.8416  1937.4287
 1221.0776    14.9591  2678.0000      .0336    65.6705    51.9354     1.6862     1.8309  1943.9753
 1221.2300    15.0078  2678.0000      .0340    65.1207    51.0865     1.7332     1.8270  1944.2043
 1221.3824    15.0480  2677.9297      .0391    66.6906    50.0457     1.7856     1.8293  1940.3518
 1221.5348    15.1052  2676.2368      .0549    67.5809    52.3228     1.8307     1.8362  1941.4656
 1221.6872    15.0982  2675.6084      .0470    71.6119    57.7103     1.7643     1.8318  1923.9172
 1221.8396    15.1126  2674.3896      .0328    73.8775    57.8597     1.6718     1.8260  1915.9746
 1221.9920    15.1241  2674.2290      .0161    73.2397    53.3330     1.5842     1.8220  1917.8645
 1222.1444    15.1250  2675.9194      .0141    68.3252    47.2747     1.5901     1.8169  1939.3882
 1222.2968    15.1250  2676.0000      .0177    66.9894    48.6062     1.6569     1.8060  1948.3809
 1222.4492    15.1282  2676.0000      .0311    69.4813    51.8009     1.6864     1.8171  1948.9768
 1222.6016    15.1340  2675.6611      .0346    71.5290    52.8659     1.6522     1.8272  1946.6929
 1222.7540    15.1189  2674.1099      .0356    74.5869    53.2741     1.6111     1.8395  1948.0759
 1222.9064    15.1234  2674.0000      .0225    73.4153    53.9094     1.6320     1.8189  1923.0920
 1223.0588    15.1202  2674.3804      .0235    76.7601    54.9318     1.6552     1.8126  1920.0000
 1223.2112    15.1297  2675.6011      .0350    73.8041    54.3682     1.6588     1.8223  1917.0188
 1223.3636    15.1482  2676.0000      .0428    67.8479    52.0229     1.6376     1.8297  1908.8672
 1223.5160    15.1262  2676.0000      .0442    59.6027    48.5957     1.6555     1.8270  1919.9880
 1223.6684    15.1574  2676.3018      .0383    59.9867    48.1528     1.6441     1.8178  1931.9805
 1223.8208    15.1985  2677.5913      .0461    63.7910    49.6788     1.6409     1.8309  1931.0210
 1223.9732    15.2458  2678.0000      .0577    66.1628    53.7037     1.6422     1.8518  1933.5583
 1224.1256    15.2818  2677.8540      .0568    69.4704    54.7948     1.6388     1.8576  1947.7991
 1224.2780    15.3169  2676.0000      .0483    71.1295    54.4281     1.6913     1.8510  1939.1343
 1224.4304    15.3275  2674.3682      .0456    73.2650    55.0935     1.7677     1.8591  1920.9309
 1224.5828    15.3546  2674.0000      .0491    70.3829    55.2734     1.8447     1.8781  1910.0576
 1224.7352    15.3739  2674.0000      .0540    67.7681    54.3858     1.8193     1.8955  1911.4497
 1224.8876    15.3828  2674.0000      .0532    65.6420    49.0448     1.7509     1.8887  1900.1477
 1225.0400    15.3850  2674.0000      .0569    68.4884    50.8832     1.6794     1.8772  1933.6152
 1225.1924    15.4063  2674.0000      .0588    67.7302    51.8051     1.6640     1.8739  1951.9377
 1225.3448    15.4502  2674.3711      .0648    68.2643    50.9870     1.6573     1.8885  1948.7095
 1225.4972    15.4879  2675.8179      .0670    69.9432    46.9373     1.6656     1.9010  1949.5452
 1225.6496    15.4849  2676.0000      .0639    71.4210    45.6116     1.6593     1.8980  1949.6545
