~VERSION INFORMATION
VERS.                                                 2.0:   CWLS Log ASCII Standard-VERSION 2.0
WRAP.                                                  NO:   One line per depth step
~Well Information Block
STRT.M                                           485.1380:   Top Depth
STOP.M                                          3208.5260:   Bottom Depth
STEP.M                                             .15240:   Depth Increment
NULL.                                            -999.250:   Null Value
FLD .                                            SLEIPNER:   Field Name
WELL.                                             15/9-15:   NAME
WBN .                                             15/9-15:   WELLBORE
NATI.                                                 NOR:   COUNTRY
BHT1.DEGF                                           100.0:   BH TEMP 1
BHT2.DEGF                                           100.0:   BH TEMP 2
BHT3.DEGF                                            99.0:   BH TEMP 3
BS1 .IN                                            12.250:   BIT SIZE 1
CTRY.                                                 NOR:   COUNTRY
CBD1.M                                             171.50:   CSG 1 DRILL DEP
CBL1.M                                             171.50:   CSG 1 LOG DEP
CS1 .IN                                              30.0:   CSG 1 SIZE
COMP.                                             STATOIL:   OPERATOR
PDAT.                                                 MSL:   PERM DATUM
PROV.                                                   ?:   PROVINCE
COUN.                                            ROSS RIG:   RIG NAME
SPUD.                                          1982/05/28:   SPUD DATE
LATI.                                        58 18 7.35 N:   SURF. LATITUDE
LONG.                                        1 55 19.28 E:   SURF. LONGITUDE
BTD1.                                            514.50 M:   TOTAL DEPTH 1
BTD2.                                           1192.50 M:   TOTAL DEPTH 2
BTD3.                                           1192.50 M:   TOTAL DEPTH 3
PBWE.                                             15/9-15:   PB WELL ID
APIN.                                             15/9-15:   PB WELLBORE ID
PBWS.                                                 all:   PB WELL NAME SET
~PARAMETER INFORMATION (log)
LNAM.                              LDT/CNL/GR  COMPOSITED:   NAME
LTYP.                                         DEPTH MATCH:   LOG TYPE
LSRV.                                           LATEROLOG:   LOG SERVICE
LSOU.                                             SPT/NPD:   LOG SOURCE
LVSN.                                                   1:   LOG VERSION
BHIS.                                                   R:   BRIEF HISTORY
FHIS.                                             RAW-LIS:   FULL HISTORY
LCNM.                                                 SCH:   LOGGING CONTRACTOR
TOOL.                             LDT/CNL/GR (COMPOSITED):   TOOL STRING
~Curve Information Block
#MNEM.UNIT                                        API CODE    No Description
#=========                                        ========    == ===========
DEPT.M                                       00 001 00 00:     1  DEPTH
CALI.IN                                                  :     2  Caliper
CS.                                                      :     3  Cable Speed
DRHO.G/CC                                                :     4  Bulk density correction
GR.GAPI                                                  :     5  Gamma Ray
NPHI.%                                                   :     6  Neutron porosity
PEF.B/E                                                  :     7  Photo-electric factor
RHOB.G/CC                                                :     8  Bulk density
TENS.LB                                                  :     9  Cable Tension
~ASCII
# ...
 1028.2916    16.8304  3003.7104      .0129    37.0091  -999.2500     2.4995     1.9994  1747.8318
 1028.4440    16.8406  3002.4053      .0110    37.3099  -999.2500     2.5077     1.9947  1750.0000
 1028.5964    16.8438  3002.0000      .0077    37.8835  -999.2500     2.5213     1.9917  1752.7336
 1028.7488    16.8438  3002.0000      .0065    38.1469  -999.2500     2.5609     1.9908  1762.9246
 1028.9012    16.8438  3002.0000      .0026    35.8250  -999.2500     2.5265     1.9866  1753.8381
 1029.0536    16.8438  3002.3589      .0002    33.9405  -999.2500     2.5537     1.9862  1738.0869
 1029.2060    16.8565  3003.5933      .0011    31.9242  -999.2500     2.5731     1.9922  1744.9146
 1029.3584    16.8970  3004.2969      .0099    32.7955  -999.2500     2.5919     2.0080  1745.0000
 1029.5108    16.9063  3006.0000      .0219    31.3635  -999.2500     2.5952     2.0272  1740.2949
 1029.6632    16.9063  3007.4727      .0300    32.1114  -999.2500     2.5729     2.0391  1753.0237
 1029.8156    16.9063  3006.3994      .0376    31.1023  -999.2500     2.5742     2.0508  1752.9983
 1029.9680    16.9122  3005.6216      .0467    31.1993  -999.2500     2.5318     2.0603  1747.8352
 1030.1204    16.9406  3004.1978      .0486    30.4729  -999.2500     2.5127     2.0619  1750.0034
 1030.2728    16.9972  3004.0000      .0464    32.2964  -999.2500     2.4193     2.0569  1755.0002
 1030.4252    17.0156  3003.6567      .0440    35.2883  -999.2500     2.4382     2.0557  1757.4277
 1030.5776    17.0248  3002.4092      .0438    36.2270  -999.2500     2.4518     2.0586  1753.0718
 1030.7300    17.0181  3002.0000      .0424    34.7503  -999.2500     2.5230     2.0603  1751.0105
 1030.8824    17.0156  3002.0000      .0344    32.6988  -999.2500     2.5724     2.0528  1736.0554
 1031.0348    17.0175  3002.0000      .0320    34.4081  -999.2500     2.6415     2.0456  1746.7651
 1031.1872    17.0343  3002.0000      .0317    36.6820  -999.2500     2.5932     2.0430  1760.2124
 1031.3396    17.0564  3002.0000      .0305    37.5359  -999.2500     2.6062     2.0399  1749.8694
 1031.4920    17.0625  3001.7705      .0231    38.8740  -999.2500     2.6514     2.0345  1745.5732
 1031.6444    17.0631  3000.0791      .0235    41.5980  -999.2500     2.7109     2.0368  1749.8022
 1031.7968    17.0756  3000.0000      .0214    41.3633  -999.2500     2.6484     2.0386  1750.0000
 1031.9492    17.0749  3000.0000      .0331    41.4019  -999.2500     2.6489     2.0545  1751.0242
 1032.1016    17.0651  2999.6611      .0304    39.4176  -999.2500     2.7079     2.0560  1754.1541
 1032.2540    17.0625  2998.2197      .0307    40.2220  -999.2500     2.7424     2.0614  1755.0000
 1032.4064    17.0625  3000.0000      .0194    37.5599  -999.2500     2.7445     2.0556  1755.0000
 1032.5588    17.0655  3001.9995      .0234    37.0216  -999.2500     2.8071     2.0644  1756.9028
 1032.7112    17.0781  3003.9990      .0178    34.5487  -999.2500     2.9016     2.0601  1762.0125
 1032.8636    17.0897  3005.4839      .0177    32.9537  -999.2500     2.9167     2.0600  1758.0657
 1033.0160    17.0784  3004.0376      .0194    31.8017  -999.2500     2.7252     2.0610  1740.6570
 1033.1684    17.0781  3004.3018      .0333    35.3288  -999.2500     2.5372     2.0803  1753.4917
 1033.3208    17.0781  3005.1846      .0235    37.3353  -999.2500     2.4305     2.0742  1756.9426
 1033.4732    17.0781  3003.9995      .0102    39.0250  -999.2500     2.4809     2.0639  1752.6694
 1033.6256    17.0827  3002.1470      .0028    41.5003  -999.2500     2.6597     2.0590  1754.9998
 1033.7780    17.1379  3002.0000      .0068    41.7473  -999.2500     2.9023     2.0605  1758.6995
 1033.9304    17.1690  3002.0000      .0116    41.4286  -999.2500     2.9080     2.0629  1751.8381
 1034.0828    17.1843  3002.0000      .0160    40.2589  -999.2500     2.8071     2.0668  1751.0115
 1034.2352    17.1875  3002.0000      .0161    40.0324  -999.2500     2.8068     2.0717  1754.2898
 1034.3876    17.1876  3002.0049      .0147    42.5779  -999.2500     2.9005     2.0742  1754.9519
 1034.5400    17.2144  3003.4443      .0140    39.4652  -999.2500     3.0278     2.0704  1739.8584
 1034.6924    17.2188  3002.4033      .0133    37.7198  -999.2500     2.9806     2.0598  1749.9902
 1034.8448    17.2188  3002.0000      .0182    34.8797  -999.2500     2.9437     2.0548  1759.4321
 1034.9972    17.2188  3002.0000      .0175    34.5795  -999.2500     2.9316     2.0481  1751.3640
 1035.1496    17.2144  3002.0000      .0212    33.7095  -999.2500     2.9954     2.0502  1750.0000
 1035.3020    17.1617  3002.0000      .0184    35.3261  -999.2500     3.1243     2.0482  1752.6396
 1035.4544    17.1250  3002.0000      .0236    38.1636  -999.2500     3.1889     2.0508  1759.8948
 1035.6068    17.0841  3002.3076      .0302    39.4544  -999.2500     3.0999     2.0541  1755.7681
 1035.7592    17.0019  3003.9517      .0298    39.1314  -999.2500     2.8976     2.0548  1750.3687
 1035.9116    16.9863  3004.0000      .0303    35.7711  -999.2500     2.7510     2.0613  1758.7458
 1036.0640    16.9844  3004.3965      .0309    34.9896  -999.2500     2.7608     2.0707  1756.0322
 1036.2164    16.9844  3005.6162      .0298    34.0740  -999.2500     2.8394     2.0750  1742.8755
 1036.3688    16.9844  3006.0000      .0262    33.3969  -999.2500     2.8905     2.0736  1737.1399
 1036.5212    16.9844  3005.8994      .0180    32.7468  -999.2500     2.9463     2.0668  1748.2549
 1036.6736    16.9844  3003.9995      .0175    34.5155  -999.2500     2.8952     2.0664  1736.6736
 1036.8260    16.9844  3002.4092      .0206    34.7176  -999.2500     2.8430     2.0684  1750.0127
 1036.9784    16.9844  3002.3286      .0271    33.2990  -999.2500     2.7114     2.0742  1763.4246
 1037.1308    16.9844  3003.8218      .0283    32.1684  -999.2500     2.6734     2.0742  1750.8901
 1037.2832    16.9844  3002.0000      .0267    31.3566  -999.2500     2.6710     2.0723  1753.8818
 1037.4356    16.9844  3000.3862      .0229    33.8235  -999.2500     2.7253     2.0680  1776.3091
 1037.5880    16.9905  3000.3940      .0184    36.1618  -999.2500     2.7432     2.0613  1772.0435
 1037.7404    17.0176  3001.7573      .0236    37.3184  -999.2500     2.7880     2.0650  1752.4226
 1037.8928    17.0625  3002.0000      .0224    37.7042  -999.2500     2.8839     2.0649  1745.3005
 1038.0452    17.1094  3001.6855      .0287    35.9622  -999.2500     2.8831     2.0704  1750.0032
 1038.1976    17.1499  3000.4092      .0156    35.0110  -999.2500     2.8097     2.0564  1753.9773
 1038.3500    17.1746  3000.0000      .0099    33.1448  -999.2500     2.7373     2.0544  1754.1304
 1038.5024    17.2051  3000.0000      .0097    32.5183  -999.2500     2.7515     2.0650  1751.2754
 1038.6548    17.2641  3000.0000      .0156    31.1952  -999.2500     2.7595     2.0825  1763.0986
 1038.8072    17.3125  3000.0000      .0194    31.2569  -999.2500     2.7705     2.0883  1760.9368
 1038.9596    17.3311  3000.0000      .0268    30.0015  -999.2500     2.7735     2.0934  1758.9966
 1039.1120    17.2783  3000.2700      .0319    29.5600  -999.2500     2.8312     2.0961  1753.6477
 1039.2644    17.2655  3002.0000      .0268    31.3902  -999.2500     2.9337     2.0898  1740.2615
 1039.4168    17.2523  3004.0000      .0149    33.4064  -999.2500     2.8451     2.0751  1755.7292
 1039.5692    17.2405  3005.1885      .0138    34.0960  -999.2500     2.7974     2.0684  1766.8826
 1039.7216    17.2088  3004.3628      .0197    33.0562  -999.2500     2.7505     2.0700  1757.7227
 1039.8740    17.1875  3004.0000      .0201    33.0670  -999.2500     2.8551     2.0620  1750.8179
 1040.0264    17.1731  3004.1572      .0196    34.2136  -999.2500     2.9986     2.0643  1755.0037
 1040.1788    17.1719  3005.2788      .0239    36.9919  -999.2500     3.0442     2.0661  1757.2957
 1040.3312    17.1687  3003.9990      .0256    35.3371  -999.2500     2.9973     2.0656  1752.0303
 1040.4836    17.1562  3001.9995      .0255    32.2820  -999.2500     2.8889     2.0619  1750.7383
