~VERSION INFORMATION
VERS.                                                 2.0:   CWLS Log ASCII Standard-VERSION 2.0
WRAP.                                                  NO:   One line per depth step
~Well Information Block
STRT.M                                           485.1380:   Top Depth
STOP.M                                          3208.5260:   Bottom Depth
STEP.M                                             .15240:   Depth Increment
NULL.                                            -999.250:   Null Value
FLD .                                            SLEIPNER:   Field Name
WELL.                                             15/9-15:   NAME
WBN .                                             15/9-15:   WELLBORE
NATI.                                                 NOR:   COUNTRY
BHT1.DEGF                                           100.0:   BH TEMP 1
BHT2.DEGF                                           100.0:   BH TEMP 2
BHT3.DEGF                                            99.0:   BH TEMP 3
BS1 .IN                                            12.250:   BIT SIZE 1
CTRY.                                                 NOR:   COUNTRY
CBD1.M                                             171.50:   CSG 1 DRILL DEP
CBL1.M                                             171.50:   CSG 1 LOG DEP
CS1 .IN                                              30.0:   CSG 1 SIZE
COMP.                                             STATOIL:   OPERATOR
PDAT.                                                 MSL:   PERM DATUM
PROV.                                                   ?:   PROVINCE
COUN.                                            ROSS RIG:   RIG NAME
SPUD.                                          1982/05/28:   SPUD DATE
LATI.                                        58 18 7.35 N:   SURF. LATITUDE
LONG.                                        1 55 19.28 E:   SURF. LONGITUDE
BTD1.                                            514.50 M:   TOTAL DEPTH 1
BTD2.                                           1192.50 M:   TOTAL DEPTH 2
BTD3.                                           1192.50 M:   TOTAL DEPTH 3
PBWE.                                             15/9-15:   PB WELL ID
APIN.                                             15/9-15:   PB WELLBORE ID
PBWS.                                                 all:   PB WELL NAME SET
~PARAMETER INFORMATION (log)
LNAM.                              LDT/CNL/GR  COMPOSITED:   NAME
LTYP.                                         DEPTH MATCH:   LOG TYPE
LSRV.                                           LATEROLOG:   LOG SERVICE
LSOU.                                             SPT/NPD:   LOG SOURCE
LVSN.                                                   1:   LOG VERSION
BHIS.                                                   R:   BRIEF HISTORY
FHIS.                                             RAW-LIS:   FULL HISTORY
LCNM.                                                 SCH:   LOGGING CONTRACTOR
TOOL.                             LDT/CNL/GR (COMPOSITED):   TOOL STRING
~Curve Information Block
#MNEM.UNIT                                        API CODE    No Description
#=========                                        ========    == ===========
DEPT.M                                       00 001 00 00:     1  DEPTH
CALI.IN                                                  :     2  Caliper
CS.                                                      :     3  Cable Speed
DRHO.G/CC                                                :     4  Bulk density correction
GR.GAPI                                                  :     5  Gamma Ray
NPHI.%                                                   :     6  Neutron porosity
PEF.B/E                                                  :     7  Photo-electric factor
RHOB.G/CC                                                :     8  Bulk density
TENS.LB                                                  :     9  Cable Tension
~ASCII
# ...
 2657.7524     9.8951  2504.0000     -.0321    11.6477     9.9786     6.6074     2.5787  2885.2285
 2657.9048     9.9027  2504.0000     -.0366    11.9056    10.0048     6.5104     2.5740  2885.6733
 2658.0572     9.9102  2504.0000     -.0400    12.4888     9.9843     6.4081     2.5699  2886.1152
 2658.2096     9.9177  2504.0000     -.0422    13.0960     9.9601     6.3089     2.5662  2886.5566
 2658.3620     9.9250  2504.0000     -.0439    13.6364     9.9358     6.2221     2.5626  2886.9985
 2658.5144     9.9314  2504.0000     -.0449    14.1025     9.9207     6.1862     2.5591  2887.4395
 2658.6668     9.9371  2504.0000     -.0434    14.2129     9.9215     6.2753     2.5557  2886.8975
 2658.8192     9.9428  2504.0000     -.0413    13.6015     9.9831     6.4139     2.5524  2880.4053
 2658.9716     9.9485  2504.0000     -.0389    12.8606    10.1733     6.5570     2.5489  2870.3379
 2659.1240     9.9542  2504.0000     -.0363    12.4469    10.4113     6.6586     2.5452  2859.6631
 2659.2764     9.9599  2504.0000     -.0351    12.6338    10.6279     6.6751     2.5416  2848.9648
 2659.4288     9.9650  2504.0000     -.0369    13.6251    10.8198     6.6000     2.5382  2838.2573
 2659.5812     9.9691  2504.0000     -.0413    15.4368    10.9283     6.4690     2.5354  2827.5610
 2659.7336     9.9729  2504.0000     -.0468    16.2084    10.8367     6.3238     2.5330  2818.8838
 2659.8860     9.9767  2504.0000     -.0526    15.8056    10.5966     6.2115     2.5311  2824.2471
 2660.0384     9.9805  2504.0000     -.0551    16.2591    10.4006     6.2138     2.5311  2844.8037
 2660.1908     9.9852  2504.0000     -.0535    16.8000    10.2640     6.3131     2.5388  2864.9004
 2660.3432     9.9927  2504.0000     -.0477    15.9129    10.0642     6.4517     2.5554  2873.2671
 2660.4956     9.9990  2504.0000     -.0410    15.3709     9.7701     6.1026     2.5665  2874.3628
 2660.6480     9.9944  2504.0000     -.0441    14.8679     9.5058     5.6269     2.5659  2875.2720
 2660.8004     9.9875  2504.0000     -.0449    13.7618     9.8936     5.4903     2.5673  2873.4736
 2660.9528     9.9807  2504.0000     -.0375    13.8060    10.5514     5.3752     2.5743  2866.9077
 2661.1052     9.9739  2504.0000     -.0339    16.3518    11.1487     5.2954     2.5755  2860.1953
 2661.2576     9.9672  2504.0000     -.0362    20.7580    11.7961     5.5095     2.5639  2849.5840
 2661.4100     9.9605  2504.0000     -.0393    24.8737    12.6979     5.8107     2.5510  2834.3457
 2661.5624     9.9442  2503.6064     -.0398    26.2822    13.0905     6.0899     2.5417  2821.9419
 2661.7148     9.9036  2502.3877     -.0364    25.6875    12.0857     6.2517     2.5364  2822.1797
 2661.8672     9.8586  2502.0000     -.0351    24.1961    10.5758     5.9582     2.5397  2823.3687
 2662.0196     9.8134  2502.0000     -.0352    22.7736    10.1610     5.3546     2.5499  2839.7183
 2662.1720     9.7672  2502.3262     -.0338    21.7023    10.9828     5.0287     2.5666  2890.0220
 2662.3244     9.7209  2504.0005     -.0341    21.5939    12.0964     5.2516     2.5824  2899.9097
 2662.4768     9.6746  2505.6626     -.0356    21.8276    12.6973     5.6441     2.5916  2865.4204
 2662.6292     9.6296  2505.8926     -.0383    22.4160    12.3828     5.6805     2.5884  2848.2783
 2662.7816     9.5944  2504.2090     -.0391    23.4612    11.7075     5.4377     2.5853  2848.4756
 2662.9340     9.5611  2503.6172     -.0367    24.4089    11.1313     5.3446     2.5892  2849.3867
 2663.0864     9.5278  2501.9990     -.0358    23.7520    11.0027     5.5498     2.5975  2850.2964
 2663.2388     9.4842  2500.2559     -.0393    21.4301    11.5132     5.6537     2.5964  2851.2065
 2663.3912     9.4220  2500.0000     -.0434    19.6882    11.8861     5.3905     2.5852  2852.0679
 2663.5436     9.3570  2500.3047     -.0459    18.5825    11.2718     5.0128     2.5739  2850.5420
 2663.6960     9.2977  2501.5923     -.0459    18.2780    10.5279     4.8136     2.5697  2848.2798
 2663.8484     9.2671  2502.3550     -.0449    18.9199    10.2373     4.9046     2.5763  2846.1460
 2664.0008     9.2541  2504.0005     -.0430    19.9540    10.2581     5.1587     2.5849  2844.2729
 2664.1532     9.2411  2505.8232     -.0413    20.4472    10.1824     5.4516     2.5899  2842.4590
 2664.3056     9.2169  2506.0000     -.0414    20.0422     9.9122     5.5033     2.5899  2840.6445
 2664.4580     9.1794  2506.0000     -.0437    19.9556     9.5698     5.4368     2.5892  2838.9351
 2664.6104     9.1423  2506.0000     -.0452    19.8878     8.9987     5.3935     2.5894  2838.6035
 2664.7628     9.1135  2506.0000     -.0424    19.4554     8.3378     5.3830     2.5897  2839.2695
 2664.9152     9.0894  2506.0000     -.0378    19.5040     8.2697     5.2381     2.5920  2839.9233
 2665.0676     9.0652  2506.4038     -.0340    20.9466     8.6316     5.0475     2.5967  2838.2798
 2665.2200     9.0411  2507.6299     -.0333    22.7474     9.2053     4.9008     2.6003  2831.3545
 2665.3724     9.0172  2508.0000     -.0368    24.9939     9.5340     4.8948     2.5963  2824.6162
 2665.5248     8.9985  2508.0000     -.0415    27.3859     9.7090     4.9157     2.5879  2828.3003
 2665.6772     8.9836  2507.6460     -.0458    29.5823    10.0722     4.8606     2.5807  2834.7207
 2665.8296     8.9686  2506.0000     -.0473    30.8451    11.1666     4.8487     2.5786  2841.1411
 2665.9820     8.9537  2504.3037     -.0461    30.5176    12.2347     5.0429     2.5806  2844.8208
 2666.1344     8.9387  2503.9561     -.0411    28.9817    12.2613     5.3414     2.5877  2845.8271
 2666.2868     8.9211  2501.9995     -.0390    26.2422    11.2726     5.5640     2.5975  2846.5562
 2666.4392     8.8879  2500.7939     -.0385    22.6748    10.2377     5.6041     2.6054  2847.2847
 2666.5916     8.8516  2501.6167     -.0390    19.6416     9.3918     5.5131     2.6066  2848.0132
 2666.7440     8.8245  2502.2100     -.0411    17.9128     8.9944     5.5915     2.6047  2848.7427
 2666.8964     8.8199  2503.8955     -.0436    17.1180     8.8480     5.8200     2.6020  2849.4712
 2667.0488     8.8191  2504.0000     -.0461    16.8242     8.7483     6.0141     2.5965  2850.0039
 2667.2012     8.8184  2504.0000     -.0474    16.2605     8.6559     6.0926     2.5917  2847.4658
 2667.3536     8.8177  2504.0000     -.0443    15.4921     8.5537     5.9318     2.5920  2840.0088
 2667.5060     8.8170  2504.0000     -.0397    14.9271     8.3163     5.6386     2.5954  2834.5244
 2667.6584     8.8157  2504.0000     -.0373    16.0711     8.1091     5.4672     2.5959  2840.9224
 2667.8108     8.8100  2504.0000     -.0388    17.5550     8.3813     5.3821     2.5898  2848.4375
 2667.9632     8.8037  2504.3936     -.0416    18.1436     8.6454     5.2775     2.5884  2850.3271
 2668.1156     8.7974  2506.0005     -.0408    16.7141     8.5068     5.1317     2.5938  2843.6333
 2668.2680     8.7910  2508.0000     -.0383    14.2653     8.1374     4.9908     2.5999  2836.6846
 2668.4204     8.7847  2509.6846     -.0367    12.8604     7.7223     5.0287     2.6024  2839.2852
 2668.5728     8.7784  2510.0000     -.0369    11.6099     7.3628     5.2073     2.6023  2846.4658
 2668.7252     8.7745  2510.0000     -.0404    10.7044     7.3132     5.3275     2.5995  2854.2373
 2668.8776     8.7815  2509.8765     -.0444    10.5882     7.3634     5.2570     2.5943  2865.2827
 2669.0300     8.7936  2508.1934     -.0458    11.6343     7.2769     5.2285     2.5885  2879.8389
 2669.1824     8.8059  2507.6240     -.0452    12.4725     7.1601     5.3765     2.5829  2891.8091
 2669.3348     8.8181  2506.3994     -.0423    12.4328     7.2679     5.5648     2.5790  2882.0400
 2669.4872     8.8296  2506.2671     -.0400    11.6776     7.3299     5.4204     2.5766  2853.8696
 2669.6396     8.8396  2507.9775     -.0401    10.7482     7.3039     5.1977     2.5811  2826.5898
 2669.7920     8.8493  2508.0000     -.0405    10.2826     6.7331     5.1321     2.5921  2824.2349
 2669.9444     8.8590  2508.0000     -.0410    10.6248     6.0488     5.2520     2.6049  2831.2607
