~VERSION INFORMATION
VERS.                                                 2.0:   CWLS Log ASCII Standard-VERSION 2.0
WRAP.                                                  NO:   One line per depth step
~Well Information Block
STRT.M                                           485.1380:   Top Depth
STOP.M                                          3208.5260:   Bottom Depth
STEP.M                                             .15240:   Depth Increment
NULL.                                            -999.250:   Null Value
FLD .                                            SLEIPNER:   Field Name
WELL.                                             15/9-15:   NAME
WBN .                                             15/9-15:   WELLBORE
NATI.                                                 NOR:   COUNTRY
BHT1.DEGF                                           100.0:   BH TEMP 1
BHT2.DEGF                                           100.0:   BH TEMP 2
BHT3.DEGF                                            99.0:   BH TEMP 3
BS1 .IN                                            12.250:   BIT SIZE 1
CTRY.                                                 NOR:   COUNTRY
CBD1.M                                             171.50:   CSG 1 DRILL DEP
CBL1.M                                             171.50:   CSG 1 LOG DEP
CS1 .IN                                              30.0:   CSG 1 SIZE
COMP.                                             STATOIL:   OPERATOR
PDAT.                                                 MSL:   PERM DATUM
PROV.                                                   ?:   PROVINCE
COUN.                                            ROSS RIG:   RIG NAME
SPUD.                                          1982/05/28:   SPUD DATE
LATI.                                        58 18 7.35 N:   SURF. LATITUDE
LONG.                                        1 55 19.28 E:   SURF. LONGITUDE
BTD1.                                            514.50 M:   TOTAL DEPTH 1
BTD2.                                           1192.50 M:   TOTAL DEPTH 2
BTD3.                                           1192.50 M:   TOTAL DEPTH 3
PBWE.                                             15/9-15:   PB WELL ID
APIN.                                             15/9-15:   PB WELLBORE ID
PBWS.                                                 all:   PB WELL NAME SET
~PARAMETER INFORMATION (log)
LNAM.                              LDT/CNL/GR  COMPOSITED:   NAME
LTYP.                                         DEPTH MATCH:   LOG TYPE
LSRV.                                           LATEROLOG:   LOG SERVICE
LSOU.                                             SPT/NPD:   LOG SOURCE
LVSN.                                                   1:   LOG VERSION
BHIS.                                                   R:   BRIEF HISTORY
FHIS.                                             RAW-LIS:   FULL HISTORY
LCNM.                                                 SCH:   LOGGING CONTRACTOR
TOOL.                             LDT/CNL/GR (COMPOSITED):   TOOL STRING
~Curve Information Block
#MNEM.UNIT                                        API CODE    No Description
#=========                                        ========    == ===========
DEPT.M                                       00 001 00 00:     1  DEPTH
CALI.IN                                                  :     2  Caliper
CS.                                                      :     3  Cable Speed
DRHO.G/CC                                                :     4  Bulk density correction
GR.GAPI                                                  :     5  Gamma Ray
NPHI.%                                                   :     6  Neutron porosity
PEF.B/E                                                  :     7  Photo-electric factor
RHOB.G/CC                                                :     8  Bulk density
TENS.LB                                                  :     9  Cable Tension
~ASCII
# ...
 3015.7400     7.6238  3081.5078     -.0370    38.4537    25.0322     6.5090     2.3009  3107.0352
 3015.8924     7.6130  3078.0581     -.0385    37.8672    23.6613     5.2106     2.3133  3120.0000
 3016.0448     7.6104  3076.3120     -.0412    42.3768    22.2974     5.4805     2.3262  3121.7739
 3016.1972     7.5936  3075.5908     -.0363    54.2408    21.4330     7.0696     2.3495  3123.5215
 3016.3496     7.5486  3074.6978     -.0312    73.8348    22.2749     8.4433     2.3659  3115.2988
 3016.5020     7.5633  3075.8682     -.0232    88.4193    25.8275     7.6662     2.3664  3118.5718
 3016.6544     7.6889  3076.0000     -.0278    88.8872    29.0492     6.4283     2.3283  3112.6553
 3016.8068     7.7049  3076.3740     -.0200    70.7185    28.5222     7.8973     2.3268  3104.8862
 3016.9592     7.7369  3077.1958     -.0096    62.2950    25.9275    12.3166     2.3531  3111.6802
 3017.1116     7.7694  3076.0005      .0093    65.8575    25.1298    16.7906     2.3960  3114.0000
 3017.2640     7.7738  3074.0000      .0328    75.6615    28.2511    16.4036     2.4399  3114.0000
 3017.4164     7.8593  3072.2891      .0301    80.3117    32.2624    10.0463     2.4705  3116.6147
 3017.5688     7.9270  3072.0000      .0089    83.9206    33.3087     8.4294     2.5018  3132.2690
 3017.7212     8.0529  3072.0000     -.0080    88.3001    31.9210     8.3769     2.5125  3158.7432
 3017.8736     8.0289  3072.0000     -.0151    90.9665    30.4336     9.1981     2.4944  3199.4771
 3018.0260     7.5791  3072.0000     -.0171    81.5244    28.9922     6.5329     2.4507  3219.0806
 3018.1784     7.6004  3072.3594     -.0198    66.3591    27.4326     5.5358     2.3968  3207.9360
 3018.3308     7.5778  3073.5928     -.0271    51.6590    25.0047     5.6145     2.3482  3194.1802
 3018.4832     7.5558  3074.2974     -.0281    42.9625    22.6419     6.7429     2.3217  3181.0708
 3018.6356     7.5239  3075.9150     -.0313    37.5697    21.5323     7.3681     2.3100  3164.2539
 3018.7880     7.5281  3072.5273     -.0255    34.0727    21.1915     5.6316     2.3397  3160.4409
 3018.9404     7.5490  3072.0000     -.0314    32.9012    21.4085     5.3562     2.3555  3139.9121
 3019.0928     7.5401  3072.0000     -.0328    34.5830    19.5171     6.5585     2.3593  3128.0063
 3019.2452     7.5100  3072.0000     -.0342    41.0322    18.4221     8.3013     2.3319  3129.4751
 3019.3976     7.5179  3072.0000     -.0314    45.6615    19.5636     9.0910     2.3006  3132.4985
 3019.5500     7.5567  3072.3423     -.0329    43.1597    22.7483     6.0040     2.2772  3156.6143
 3019.7024     7.6128  3073.9990     -.0353    38.7600    24.6152     4.5249     2.2629  3158.5176
 3019.8548     7.6239  3075.6816     -.0383    36.9747    24.4840     3.7645     2.2562  3156.1479
 3020.0072     7.6255  3075.9297     -.0396    40.3210    24.0230     3.5806     2.2564  3159.1235
 3020.1596     7.5988  3074.0000     -.0401    42.2989    23.5615     3.9462     2.2764  3155.0864
 3020.3120     7.5775  3072.3911     -.0368    42.6411    23.7909     4.4513     2.2901  3150.0142
 3020.4644     7.5801  3072.0000     -.0332    42.9554    24.4630     4.9623     2.2940  3121.6289
 3020.6168     7.5892  3072.0000     -.0329    42.1130    24.4977     5.2238     2.2913  3103.8506
 3020.7692     7.6211  3072.0791     -.0344    40.9953    23.8366     5.6741     2.2985  3110.8311
 3020.9216     7.6225  3074.0000     -.0365    37.9215    22.5015     6.1268     2.3162  3120.8169
 3021.0740     7.6276  3075.9990     -.0343    34.1837    22.3366     6.4372     2.3227  3133.2505
 3021.2264     7.6253  3078.0005     -.0315    31.8847    22.2258     6.1466     2.3159  3150.2817
 3021.3788     7.6135  3080.0000     -.0317    29.5478    22.2737     5.9796     2.3032  3163.3135
 3021.5312     7.6095  3081.3843     -.0265    29.9631    22.4944     4.9012     2.3002  3162.3960
 3021.6836     7.6137  3078.3809     -.0298    29.4017    23.6847     4.8027     2.2940  3145.3345
 3021.8360     7.6238  3075.9995     -.0326    31.1103    24.5608     4.6864     2.2850  3119.9790
 3021.9884     7.6220  3074.0000     -.0344    34.0570    24.5122     5.3399     2.2742  3104.2104
 3022.1408     7.6217  3072.0752     -.0324    36.3999    24.9025     6.0637     2.2689  3110.8306
 3022.2932     7.6282  3073.6987     -.0255    30.7378    24.5919     7.4578     2.2601  3119.1133
 3022.4456     7.6270  3074.4063     -.0297    27.5724    25.1324     7.2462     2.2502  3125.7969
 3022.5980     7.6223  3075.6440     -.0341    28.1007    25.1279     6.7706     2.2494  3140.3633
 3022.7504     7.6113  3076.1470     -.0408    33.2816    25.2015     6.6113     2.2541  3144.8887
 3022.9028     7.5556  3077.6553     -.0410    36.4143    24.7975     7.3966     2.2578  3148.9565
 3023.0552     7.5539  3076.3672     -.0400    37.0146    24.6875     6.7425     2.2619  3141.2944
 3023.2076     7.5815  3076.0000     -.0352    36.1281    24.6383     6.2011     2.2848  3136.0244
 3023.3600     7.6770  3075.7158     -.0288    37.0300    24.3220     5.4648     2.3239  3125.1533
 3023.5124     7.7756  3074.0000     -.0230    42.1322    23.5723     5.4177     2.3655  3117.7773
 3023.6648     7.8401  3072.8296     -.0239    51.7330    23.0005     4.6162     2.3907  3095.9302
 3023.8172     7.8518  3075.1943     -.0280    59.6510    23.7400     4.1352     2.3989  3098.7539
 3023.9696     7.8489  3076.0000     -.0331    63.1457    25.6665     3.9169     2.3904  3113.2524
 3024.1220     7.8489  3076.1816     -.0352    63.6727    27.0725     4.0481     2.3810  3126.4580
 3024.2744     7.8529  3077.8633     -.0341    66.7861    26.8853     4.6934     2.3773  3146.4517
 3024.4268     7.8201  3077.6494     -.0329    70.4620    26.0159     5.2005     2.3796  3169.6157
 3024.5792     7.7945  3075.5913     -.0327    72.7833    25.5943     5.9655     2.3742  3169.1719
 3024.7316     7.7928  3072.3076     -.0345    70.0608    26.2615     6.3434     2.3630  3168.2495
 3024.8840     7.7846  3069.9507     -.0334    64.0393    26.4556     6.7846     2.3533  3177.9795
 3025.0364     7.7751  3066.2515     -.0336    54.8311    25.8230     6.8129     2.3512  3166.3408
 3025.1888     7.7607  3064.3965     -.0287    49.9781    24.6733     7.7441     2.3575  3171.5830
 3025.3412     7.7597  3064.3838     -.0289    49.2431    23.9553     8.7572     2.3601  3171.6177
 3025.4936     7.7670  3065.7856     -.0319    51.7620    23.6309     9.4347     2.3663  3169.3750
 3025.6460     7.7773  3066.0986     -.0364    53.2910    23.3110     9.1016     2.3686  3149.1826
 3025.7984     7.7788  3067.3315     -.0339    55.2656    23.5741     9.0419     2.3825  3142.9854
 3025.9508     7.7819  3066.4102     -.0317    57.9632    24.1095     8.6200     2.3831  3140.9702
 3026.1032     7.7785  3066.3286     -.0310    61.0890    24.7187     7.9741     2.3828  3122.9097
 3026.2556     7.7783  3067.9092     -.0303    59.4047    24.3818     7.6745     2.3823  3116.6865
 3026.4080     7.7660  3068.0000     -.0304    54.2338    24.4284     7.5355     2.3771  3131.4380
 3026.5604     7.6518  3068.3867     -.0326    48.3642    23.5791     7.3965     2.3585  3122.8882
 3026.7128     7.6230  3070.0000     -.0365    43.3525    23.8329     6.6859     2.3324  3122.3589
 3026.8652     7.6226  3071.9995     -.0368    40.6611    24.3531     5.3248     2.3102  3122.3164
 3027.0176     7.6289  3073.9995     -.0387    40.3547    25.3646     5.1072     2.2879  3129.1826
 3027.1700     7.6275  3075.6860     -.0407    41.1697    23.8487     5.6213     2.2774  3120.9512
 3027.3224     7.6243  3076.0000     -.0404    39.6733    22.4315     6.4849     2.2863  3120.0000
 3027.4748     7.6503  3075.6528     -.0317    38.8471    21.6518     6.5394     2.3221  3120.9238
 3027.6272     7.7280  3074.0005     -.0155    43.8583    21.9023     6.1210     2.3855  3123.2139
 3027.7796     7.7856  3072.0010     -.0066    55.7444    21.9451     6.8666     2.4458  3120.0942
 3027.9320     7.8526  3070.0000     -.0023    65.5039    23.9700     8.3318     2.4755  3120.8662
