~VERSION INFORMATION
VERS.                                                 2.0:   CWLS Log ASCII Standard-VERSION 2.0
WRAP.                                                  NO:   One line per depth step
~Well Information Block
STRT.M                                           485.1380:   Top Depth
STOP.M                                          3208.5260:   Bottom Depth
STEP.M                                             .15240:   Depth Increment
NULL.                                            -999.250:   Null Value
FLD .                                            SLEIPNER:   Field Name
WELL.                                             15/9-15:   NAME
WBN .                                             15/9-15:   WELLBORE
NATI.                                                 NOR:   COUNTRY
BHT1.DEGF                                           100.0:   BH TEMP 1
BHT2.DEGF                                           100.0:   BH TEMP 2
BHT3.DEGF                                            99.0:   BH TEMP 3
BS1 .IN                                            12.250:   BIT SIZE 1
CTRY.                                                 NOR:   COUNTRY
CBD1.M                                             171.50:   CSG 1 DRILL DEP
CBL1.M                                             171.50:   CSG 1 LOG DEP
CS1 .IN                                              30.0:   CSG 1 SIZE
COMP.                                             STATOIL:   OPERATOR
PDAT.                                                 MSL:   PERM DATUM
PROV.                                                   ?:   PROVINCE
COUN.                                            ROSS RIG:   RIG NAME
SPUD.                                          1982/05/28:   SPUD DATE
LATI.                                        58 18 7.35 N:   SURF. LATITUDE
LONG.                                        1 55 19.28 E:   SURF. LONGITUDE
BTD1.                                            514.50 M:   TOTAL DEPTH 1
BTD2.                                           1192.50 M:   TOTAL DEPTH 2
BTD3.                                           1192.50 M:   TOTAL DEPTH 3
PBWE.                                             15/9-15:   PB WELL ID
APIN.                                             15/9-15:   PB WELLBORE ID
PBWS.                                                 all:   PB WELL NAME SET
~PARAMETER INFORMATION (log)
LNAM.                              LDT/CNL/GR  COMPOSITED:   NAME
LTYP.                                         DEPTH MATCH:   LOG TYPE
LSRV.                                           LATEROLOG:   LOG SERVICE
LSOU.                                             SPT/NPD:   LOG SOURCE
LVSN.                                                   1:   LOG VERSION
BHIS.                                                   R:   BRIEF HISTORY
FHIS.                                             RAW-LIS:   FULL HISTORY
LCNM.                                                 SCH:   LOGGING CONTRACTOR
TOOL.                             LDT/CNL/GR (COMPOSITED):   TOOL STRING
~Curve Information Block
#MNEM.UNIT                                        API CODE    No Description
#=========                                        ========    == ===========
DEPT.M                                       00 001 00 00:     1  DEPTH
CALI.IN                                                  :     2  Caliper
CS.                                                      :     3  Cable Speed
DRHO.G/CC                                                :     4  Bulk density correction
GR.GAPI                                                  :     5  Gamma Ray
NPHI.%                                                   :     6  Neutron porosity
PEF.B/E                                                  :     7  Photo-electric factor
RHOB.G/CC                                                :     8  Bulk density
TENS.LB                                                  :     9  Cable Tension
~ASCII
# ...
 2472.5864    12.9676  2560.3975     -.0252    12.8213    15.1517   118.9149     2.5671  2646.4731
 2472.7388    13.0103  2561.7441     -.0238    11.4785    15.3927    70.5509     2.5677  2650.1055
 2472.8912    13.1094  2562.0000     -.0169    10.7793    16.2557    92.1797     2.5418  2654.8330
 2473.0436    13.5160  2561.6953     -.0092    11.9387    17.1257    56.4202     2.5285  2657.2329
 2473.1960    13.6310  2560.4072     -.0061    11.6543    16.6303    60.9382     2.5218  2637.8516
 2473.3484    13.6484  2560.0000     -.0070    11.1439    15.4530    63.0816     2.5222  2644.0981
 2473.5008    13.6381  2560.0000     -.0059    10.9911    14.8634    97.6317     2.5116  2662.4883
 2473.6532    13.5630  2560.0000     -.0087    10.9962    16.3924   139.5226     2.5033  2664.9878
 2473.8056    13.4037  2560.0000     -.0200    10.7262    17.8370    84.4548     2.5029  2674.8320
 2473.9580    13.2359  2560.0000     -.0367     9.1980    19.4938   -84.4479     2.5247  2676.3833
 2474.1104    13.0786  2560.2822     -.0477     8.6367    19.8469  -205.2094     2.5456  2662.9502
 2474.2628    13.0684  2562.0000     -.0469     8.2676    20.3695  -129.1614     2.5553  2660.0000
 2474.4152    13.0425  2563.7202     -.0417    10.2987    19.1872  -153.4082     2.5653  2658.4170
 2474.5676    13.0027  2564.0000     -.0398    10.6751    17.8189  -149.1734     2.5858  2646.7944
 2474.7200    12.9739  2563.6294     -.0430    11.9839    17.3154   -68.6689     2.6021  2633.1348
 2474.8724    12.9825  2562.1768     -.0446    11.5533    17.3530   288.3968     2.6048  2631.6162
 2475.0248    12.9844  2562.0000     -.0478    11.9531    18.1437   154.0781     2.6011  2639.1665
 2475.1772    12.9923  2562.0000     -.0478    11.0582    18.0086   325.2197     2.5940  2631.1973
 2475.3296    13.0189  2561.5913     -.0490    11.2018    18.3219    -9.7475     2.5845  2635.9565
 2475.4820    13.0302  2560.3062     -.0455    11.8969    18.6797  -135.3237     2.5789  2652.1050
 2475.6344    13.0312  2560.0435     -.0387    12.1243    18.2738  -206.1413     2.5797  2660.9111
 2475.7868    13.0335  2562.0005     -.0308    12.5051    16.5448   243.2831     2.5923  2668.5474
 2475.9392    13.0318  2563.6030     -.0304    12.6447    15.5939   941.0314     2.5932  2663.9697
 2476.0916    12.9839  2563.6172     -.0314    12.0667    15.4243  1578.9424     2.6006  2656.7573
 2476.2440    12.9284  2562.2090     -.0347    11.2524    15.4452   113.6579     2.6058  2648.2871
 2476.3964    12.9342  2562.0000     -.0409    10.2780    15.1448  -122.3048     2.6086  2658.3345
 2476.5488    13.0676  2562.0000     -.0410    10.7557    15.2798  -251.6112     2.5943  2642.9526
 2476.7012    13.1387  2562.0000     -.0430    11.6600    15.6837  -466.8438     2.5685  2639.8916
 2476.8536    13.1794  2562.0000     -.0418    12.1149    15.8808   110.1151     2.5529  2629.7275
 2477.0060    13.2022  2562.0850     -.0380    11.4870    14.8544    81.6091     2.5483  2621.5903
 2477.1584    13.2149  2563.7754     -.0165    10.0016    15.0708    83.2504     2.5675  2630.0752
 2477.3108    13.2483  2564.3877     -.0127    10.0391    15.0989    64.0728     2.5551  2637.9302
 2477.4632    13.1624  2566.3931     -.0108    10.0797    15.9561    78.3154     2.5397  2649.7349
 2477.6156    13.1311  2569.5215     -.0157    10.7923    16.4025    66.4489     2.5274  2650.4204
 2477.7680    13.1484  2569.9355     -.0130     9.6815    16.2028    73.0918     2.5282  2650.8325
 2477.9204    13.1260  2568.0000     -.0279    11.4655    16.0965    68.3827     2.5365  2659.7466
 2478.0728    13.0113  2566.0000     -.0393    12.0190    16.1572    92.1293     2.5435  2663.3525
 2478.2252    12.9012  2564.3442     -.0434    12.6437    16.6735    87.3791     2.5535  2664.0000
 2478.3776    12.8559  2564.0000     -.0438    12.0271    17.0297    69.1819     2.5491  2665.3828
 2478.5300    12.8752  2564.0000     -.0375    11.6395    16.3368   143.8117     2.5444  2672.2251
 2478.6824    12.9382  2564.0000     -.0329    11.4803    16.6715   306.3759     2.5258  2659.7207
 2478.8348    12.9545  2564.0000     -.0277    11.9637    17.0832  -152.2022     2.5187  2649.1665
 2478.9872    12.9237  2564.2681     -.0307    12.5187    17.9484   453.3080     2.5167  2643.1665
 2479.1396    12.8268  2565.9775     -.0378    11.6583    17.7125  3423.1377     2.5251  2651.1646
 2479.2920    12.8190  2566.0000     -.0439    10.3722    16.9891   564.7092     2.5225  2662.8306
 2479.4444    12.8351  2565.5938     -.0385     8.9469    16.6415    96.5020     2.5229  2663.0396
 2479.5968    12.8213  2564.3608     -.0338     9.6299    17.0468    60.5864     2.5229  2656.8237
 2479.7492    12.7618  2564.0000     -.0303    11.7163    17.3470    14.7160     2.5360  2646.0562
 2479.9016    12.6021  2564.1597     -.0362    13.0522    17.2468  -343.9542     2.5494  2649.0684
 2480.0540    12.6783  2565.6382     -.0424    11.9847    16.7185  -173.6747     2.5544  2640.0132
 2480.2064    12.7623  2566.0000     -.0442    10.2203    15.7720  -144.9815     2.5488  2636.4868
 2480.3588    12.8304  2566.0000     -.0429     9.9549    14.5370    92.3316     2.5410  2640.0791
 2480.5112    12.8308  2566.0220     -.0367    11.3433    13.5819    58.1891     2.5406  2645.7969
 2480.6636    13.0297  2567.4653     -.0300    11.6052    14.6373    43.8095     2.5380  2664.1313
 2480.8160    13.2396  2565.9980     -.0182    11.4462    15.7179    24.4644     2.5400  2673.8887
 2480.9684    13.3926  2564.3755     -.0103    12.1293    15.9566    14.2307     2.5389  2676.6328
 2481.1208    13.4951  2564.0000     -.0076    13.6555    15.5022    10.5297     2.5330  2669.8433
 2481.2732    13.4603  2563.8765     -.0118    13.7759    14.5806    10.6279     2.5125  2663.6729
 2481.4256    13.4556  2562.0000     -.0089    12.9692    13.9912    12.1336     2.5188  2659.2788
 2481.5780    13.3957  2560.4082     -.0101    12.2825    14.0476    14.7229     2.5198  2649.0322
 2481.7304    13.1988  2560.3154     -.0131    12.2020    13.9999    20.0344     2.5263  2636.3345
 2481.8828    12.9984  2562.0000     -.0233    11.6295    14.4954    26.3982     2.5136  2644.7021
 2482.0352    12.7623  2563.7598     -.0300    10.7747    15.5657    25.4021     2.5068  2654.2793
 2482.1876    12.7367  2563.6060     -.0359    10.8821    17.2515    22.5728     2.5013  2668.3154
 2482.3400    12.7286  2562.3872     -.0362    10.6023    18.3097    27.6578     2.5070  2692.0522
 2482.4924    12.6991  2562.0000     -.0343    10.3529    18.0371    38.4917     2.5157  2690.2534
 2482.6448    12.6277  2562.0000     -.0324    10.5181    17.5849    41.6534     2.5205  2667.8750
 2482.7972    12.5666  2562.0000     -.0397     9.7418    16.2014    34.1911     2.5121  2646.6870
 2482.9496    12.5380  2562.0000     -.0436    10.0108    16.0686    35.5744     2.5147  2644.0000
 2483.1020    12.5731  2562.0000     -.0419    10.2584    16.3723    37.1451     2.5156  2644.0000
 2483.2544    12.6140  2562.1045     -.0379    11.2838    17.2556    32.2044     2.5126  2644.7700
 2483.4068    12.6097  2564.2090     -.0415    11.3133    17.5422    26.8779     2.4916  2649.7876
 2483.5592    12.6059  2567.6182     -.0455    10.7781    17.9415    24.7194     2.4834  2648.6655
 2483.7116    12.5770  2569.6030     -.0445    10.0501    17.8066    28.2007     2.4936  2647.4585
 2483.8640    12.4987  2569.7456     -.0418    10.0883    17.3825    28.0619     2.5185  2650.1851
 2484.0164    12.3969  2568.0435     -.0469    11.2506    16.7002    33.3935     2.5335  2640.0000
 2484.1688    12.5419  2568.0000     -.0572    13.7537    16.1218    27.8910     2.5344  2635.4834
 2484.3212    12.5602  2567.1831     -.0577    13.2106    15.4738    26.2245     2.5247  2618.1543
 2484.4736    12.5438  2564.3535     -.0536    12.6362    14.6252    21.7654     2.5192  2615.3975
 2484.6260    12.5391  2562.0000     -.0472    12.2986    13.9411    15.4181     2.5179  2622.5190
 2484.7784    12.5696  2560.3584     -.0373    13.4613    13.7916    12.2088     2.5300  2641.0659
