~VERSION INFORMATION
VERS.                                                 2.0:   CWLS Log ASCII Standard-VERSION 2.0
WRAP.                                                  NO:   One line per depth step
~Well Information Block
STRT.M                                           485.1380:   Top Depth
STOP.M                                          3208.5260:   Bottom Depth
STEP.M                                             .15240:   Depth Increment
NULL.                                            -999.250:   Null Value
FLD .                                            SLEIPNER:   Field Name
WELL.                                             15/9-15:   NAME
WBN .                                             15/9-15:   WELLBORE
NATI.                                                 NOR:   COUNTRY
BHT1.DEGF                                           100.0:   BH TEMP 1
BHT2.DEGF                                           100.0:   BH TEMP 2
BHT3.DEGF                                            99.0:   BH TEMP 3
BS1 .IN                                            12.250:   BIT SIZE 1
CTRY.                                                 NOR:   COUNTRY
CBD1.M                                             171.50:   CSG 1 DRILL DEP
CBL1.M                                             171.50:   CSG 1 LOG DEP
CS1 .IN                                              30.0:   CSG 1 SIZE
COMP.                                             STATOIL:   OPERATOR
PDAT.                                                 MSL:   PERM DATUM
PROV.                                                   ?:   PROVINCE
COUN.                                            ROSS RIG:   RIG NAME
SPUD.                                          1982/05/28:   SPUD DATE
LATI.                                        58 18 7.35 N:   SURF. LATITUDE
LONG.                                        1 55 19.28 E:   SURF. LONGITUDE
BTD1.                                            514.50 M:   TOTAL DEPTH 1
BTD2.                                           1192.50 M:   TOTAL DEPTH 2
BTD3.                                           1192.50 M:   TOTAL DEPTH 3
PBWE.                                             15/9-15:   PB WELL ID
APIN.                                             15/9-15:   PB WELLBORE ID
PBWS.                                                 all:   PB WELL NAME SET
~PARAMETER INFORMATION (log)
LNAM.                              LDT/CNL/GR  COMPOSITED:   NAME
LTYP.                                         DEPTH MATCH:   LOG TYPE
LSRV.                                           LATEROLOG:   LOG SERVICE
LSOU.                                             SPT/NPD:   LOG SOURCE
LVSN.                                                   1:   LOG VERSION
BHIS.                                                   R:   BRIEF HISTORY
FHIS.                                             RAW-LIS:   FULL HISTORY
LCNM.                                                 SCH:   LOGGING CONTRACTOR
TOOL.                             LDT/CNL/GR (COMPOSITED):   TOOL STRING
~Curve Information Block
#MNEM.UNIT                                        API CODE    No Description
#=========                                        ========    == ===========
DEPT.M                                       00 001 00 00:     1  DEPTH
CALI.IN                                                  :     2  Caliper
CS.                                                      :     3  Cable Speed
DRHO.G/CC                                                :     4  Bulk density correction
GR.GAPI                                                  :     5  Gamma Ray
NPHI.%                                                   :     6  Neutron porosity
PEF.B/E                                                  :     7  Photo-electric factor
RHOB.G/CC                                                :     8  Bulk density
TENS.LB                                                  :     9  Cable Tension
~ASCII
# ...
 1756.6112    14.0601  2558.1733      .0947    60.7852    46.1343     2.5592     2.0332  2338.7222
 1756.7636    15.1341  2553.1626      .0952    58.3363    48.5713     2.5128     2.0290  2445.7129
 1756.9160    16.0167  2550.8984      .0877    58.1176    50.7589     2.4630     2.0394  2567.0322
 1757.0684    16.4253  2552.0000      .0804    61.0601    50.7393     2.4863     2.0421  2513.0767
 1757.2208    15.9988  2552.9941      .0868    63.9850    48.5188     2.5916     2.0305  2434.8931
 1757.3732    15.8375  2553.9409      .1024    65.9136    48.6226     2.6484     2.0190  2423.1201
 1757.5256    16.1474  2554.0425      .1124    66.0280    51.3319     2.5573     2.0179  2447.1089
 1757.6780    16.4520  2554.9492      .1032    64.6526    51.5601     2.3896     2.0305  2500.7104
 1757.8304    15.8188  2556.9478      .0811    62.4841    52.0068     2.2902     2.0457  2523.1450
 1757.9828    15.8612  2558.9473      .0571    60.1018    52.0285     2.2980     2.0446  2457.7646
 1758.1352    16.4299  2560.9468      .0489    60.2557    52.2960     2.3764     2.0383  2405.0137
 1758.2876    16.4237  2563.8389      .0622    61.3632    51.3099     2.4238     2.0520  2401.6675
 1758.4400    17.0263  2566.9468      .0797    61.7105    47.6134     2.4497     2.0778  2419.4712
 1758.5924    16.5700  2567.9653      .0829    60.0918    46.5301     2.4907     2.0905  2424.7505
 1758.7448    16.6547  2568.0000      .0751    59.8424    47.4839     2.5233     2.0843  2417.2910
 1758.8972    17.0655  2567.0879      .0727    60.1533    47.1929     2.5051     2.0769  2430.8296
 1759.0496    17.1384  2566.0000      .0850    59.1395    47.9646     2.4207     2.0871  2461.0776
 1759.2020    17.2703  2566.0000      .0898    58.2140    48.7023     2.4358     2.0845  2476.8340
 1759.3544    17.6408  2564.9858      .0941    58.8361    49.1716     2.5860     2.0650  2441.2651
 1759.5068    17.6823  2564.0303      .0947    61.3439    47.8648     2.8016     2.0193  2410.0381
 1759.6592    16.9497  2564.0000      .0939    62.0878    47.5849     3.1443     1.9710  2435.4360
 1759.8116    16.9133  2564.0000      .0924    61.3958    51.0891     3.3822     1.9717  2447.9663
 1759.9640    15.8385  2564.9634      .0773    60.1904    53.8109     3.2579     2.0261  2425.5449
 1760.1164    14.5999  2564.9141      .0788    57.9219    53.2638     2.9641     2.0914  2430.5029
 1760.2688    15.1798  2563.1040      .0886    57.2155    50.9856     2.6734     2.0962  2436.7305
 1760.4212    15.7335  2562.9033      .1038    58.1910    49.5704     2.5588     2.0425  2415.0864
 1760.5736    14.7509  2564.0000      .1165    60.3479    49.9776     2.5697     1.9861  2413.5176
 1760.7260    14.2413  2564.0000      .1128    62.2393    48.3695     2.6812     1.9334  2453.4917
 1760.8784    14.2038  2564.9849      .1066    62.3103    49.9362     2.7682     1.9189  2436.8325
 1761.0308    13.9645  2566.0000      .0880    62.6901    49.7645     2.7007     1.9487  2413.4155
 1761.1832    14.1921  2566.0000      .0666    62.2922    47.2280     2.5788     1.9978  2433.3994
 1761.3356    14.5456  2567.8921      .0593    63.0694    46.2356     2.5942     2.0217  2443.9463
 1761.4880    14.5717  2570.8652      .0681    64.5340    48.5353     2.6238     1.9878  2436.8999
 1761.6404    14.1181  2571.9893      .0917    63.3927    54.8545     2.6025     1.9482  2439.1387
 1761.7928    14.6738  2571.0605      .1114    59.7637    58.1471     2.5066     1.9349  2436.5811
 1761.9452    14.9751  2569.0625      .1212    56.1074    58.0994     2.4436     1.9337  2420.0000
 1762.0976    14.9111  2568.0552      .1203    56.0623    56.4267     2.5022     1.8983  2431.9248
 1762.2500    15.3815  2568.0000      .1171    58.5459    51.8767     2.6100     1.8477  2428.4370
 1762.4024    15.6851  2567.9551      .1182    59.0327    51.1310     2.7239     1.8325  2408.0596
 1762.5548    15.5672  2567.0625      .1239    59.5909    52.0446     2.8228     1.8652  2406.5928
 1762.7072    15.2674  2565.0625      .1236    60.6064    49.5865     2.8608     1.8866  2423.3760
 1762.8596    16.2973  2565.0864      .1193    61.6167    47.6364     2.8686     1.8642  2438.3032
 1763.0120    16.4648  2565.9946      .1116    62.4101    45.9232     2.8961     1.8343  2460.9316
 1763.1644    15.4563  2566.8384      .1124    63.7878    47.0288     2.9330     1.8234  2454.9268
 1763.3168    14.5177  2567.0640      .1142    67.3718    46.7892     2.8821     1.8275  2419.3203
 1763.4692    15.0305  2566.0454      .1050    68.3364    44.2584     2.6555     1.8126  2414.2275
 1763.6216    15.4836  2566.0000      .0925    66.2585    45.6555     2.5357     1.7794  2446.9756
 1763.7740    15.5944  2566.0000      .0770    61.5548    49.4565     2.5617     1.7266  2448.1338
 1763.9264    16.3328  2566.0210      .0768    56.7556    53.0171     2.6719     1.7013  2398.3169
 1764.0788    17.3631  2566.9326      .0868    54.3971    54.6488     2.6966     1.7303  2391.4614
 1764.2312    17.4805  2566.9194      .1053    53.6051    54.3361     2.6182     1.7761  2441.6865
 1764.3836    18.1780  2566.9790      .1185    53.6861    55.3516     2.5431     1.7856  2473.4780
 1764.5360    20.5644  2568.0498      .1181    52.3971    55.7808     2.5063     1.7423  2447.0962
 1764.6884    21.7478  2568.9336      .1023    52.2709    54.4041     2.5287     1.6850  2438.0029
 1764.8408    21.7864  2569.0015      .0874    52.3427    53.8024     2.6869     1.6525  2453.5005
 1764.9932    19.6140  2568.0708      .0794    53.7167    54.8136     2.8941     1.6532  2451.9941
 1765.1456    16.3955  2567.9712      .0917    57.0187    55.8130     2.9598     1.7124  2428.4395
 1765.2980    15.7415  2567.0679      .1171    60.0802    54.9319     2.8539     1.8043  2431.8955
 1765.4504    16.6105  2565.0698      .1317    61.5560    52.9410     2.8086     1.8611  2481.1641
 1765.6028    17.3136  2564.0698      .1265    59.8838    53.1365     2.8633     1.8489  2473.1592
 1765.7552    16.7922  2564.0000      .1206    58.3736    51.6793     2.9331     1.8237  2452.8252
 1765.9076    16.6696  2564.0000      .1231    60.0484    49.2087     2.9351     1.8153  2436.6538
 1766.0600    17.3365  2564.0000      .1317    60.7787    47.8661     2.7864     1.8333  2417.2114
 1766.2124    16.0375  2564.9468      .1342    56.7586    48.3828     2.6080     1.8466  2442.4604
 1766.3648    14.8890  2565.9243      .1301    51.8571    48.5783     2.5545     1.8171  2474.7397
 1766.5172    15.2014  2566.0000      .1217    50.7208    46.4749     2.6238     1.7566  2445.5854
 1766.6696    15.3916  2566.0000      .1025    54.5767    46.0372     2.7181     1.7065  2413.4727
 1766.8220    15.5216  2566.0000      .0885    57.7082    47.3982     2.7294     1.7191  2437.9072
 1766.9744    16.4564  2566.0000      .0788    58.5202    50.4454     2.7718     1.7520  2446.1021
 1767.1268    17.4590  2566.9780      .0837    58.2894    55.1633     2.8616     1.7753  2435.4658
 1767.2792    17.9784  2567.0728      .1017    56.7705    57.7627     2.8324     1.8064  2435.9380
 1767.4316    17.0053  2565.0737      .1204    54.2997    59.9305     2.7018     1.8299  2439.3687
 1767.5840    16.4865  2564.9307      .1261    52.4411    60.5977     2.6251     1.8172  2427.5107
 1767.7364    17.4068  2565.9219      .1154    53.2679    59.6796     2.6772     1.7733  2440.6021
 1767.8888    17.5543  2567.8379      .1071    55.1019    57.0616     2.7055     1.7672  2501.3501
 1768.0412    18.4443  2569.1191      .1039    56.6803    51.6452     2.6736     1.7842  2526.4434
 1768.1936    18.3246  2568.0000      .0999    58.7324    52.9536     2.6774     1.7734  2467.6621
 1768.3460    16.9400  2568.0000      .0897    62.5757    56.6561     2.5143     1.7556  2427.0386
 1768.4984    17.2242  2568.0000      .0711    65.0589    55.6571     2.3850     1.7561  2454.7646
 1768.6508    17.2377  2567.1172      .0502    65.0602    51.4682     2.4071     1.7367  2489.0669
 1768.8032    16.8903  2566.0000      .0366    63.3015    53.1675     2.6434     1.6929  2468.8540
